     3.02           OBSERVATION DATA    M (MIXED)           RINEX VERSION / TYPE
SAVERINEX           SC600               20200501 135930 LCL PGM / RUN BY / DATE
       G = GPS       R = GLONASS       C = COMPASS          COMMENT
       S = SBAS      J = QZSS          E = GALILEO          COMMENT
BEAN                                                        MARKER NAME
1                                                           MARKER NUMBER
GEODETIC                                                    MARKER TYPE
Unige DICCA         GTER                                    OBSERVER / AGENCY
SC60291900056       SC600               2.12(191226)        REC # / TYPE / VERS
                    HEMA45          NONE                    ANT # / TYPE
  4509407.8091   693652.4678  4442337.6214                  APPROX POSITION XYZ
        0.0000        0.0000        0.0000                  ANTENNA: DELTA H/E/N
G    8 C1C L1C D1C S1C C2Y L2Y D2Y S2Y                      SYS / # / OBS TYPES
R    8 C1C L1C D1C S1C C2P L2P D2P S2P                      SYS / # / OBS TYPES
C    4 C1I L1I D1I S1I                                      SYS / # / OBS TYPES
E    8 C1C L1C D1C S1C C7Q L7Q D7Q S7Q                      SYS / # / OBS TYPES
DBHZ                                                        COMMENT
     30.000                                                 INTERVAL
  2020    05    01    11    00    0.0000000     GPS         TIME OF FIRST OBS
  2020    05    01    11    59   30.0000000     GPS         TIME OF LAST OBS
     0                                                      RCV CLOCK OFFS APPL
G L1C  0.00000                                              SYS / PHASE SHIFT
G L2Y  0.00000                                              SYS / PHASE SHIFT
R L1C  0.00000                                              SYS / PHASE SHIFT
R L2P  0.25000                                              SYS / PHASE SHIFT
C L1I  0.00000                                              SYS / PHASE SHIFT
E L1C  0.50000                                              SYS / PHASE SHIFT
E L7Q -0.25000                                              SYS / PHASE SHIFT
 14 R02 -4 R03  5 R04  6 R05  1 R10 -5 R12 -1 R13 -2 R14 -7 GLONASS SLOT / FRQ #
    R15  0 R16 -1 R17  4 R18 -3 R19  3 R23  3               GLONASS SLOT / FRQ #
 C1C   71.950 C2C   71.950 C2P   71.950                     GLONASS COD/PHS/BIS
    18                                                      LEAP SECONDS
*** Above antenna height is from mark to ANTENNA BOTTOM.    COMMENT
    17     4        0.0000        ANT MEASURE TYPE/HEIGT    COMMENT
    0.0000    0.0000    0.0458    0.0405    0.0000          COMMENT
                    BASE STATION                            COMMENT
                                                            END OF HEADER
> 2020 05 01 11 00  0.0000000  0 16        .000000000000
G06  24129440.672 6 126801085.273 6     -2066.277          36.000    24129447.078 6  98806036.322 6     -1610.086          36.000
G12  21146633.578 6 111126299.033 6     -1935.660          36.000    21146633.586 5  86591914.442 5     -1508.304          35.000
G24  23608751.484 8 124064787.047 8     -3526.457          49.000    23608750.664 8  96673860.461 8     -2747.895          49.000
G25  20155406.875 8 105917378.966 8      -137.324          51.000    20155408.742 8  82533024.325 8      -107.006          51.000
G29  20945355.297 8 110068596.472 8      2031.109          50.000    20945354.078 8  85767730.807 8      1582.683          50.000
G32  22680859.531 6 119188713.132 6     -1817.438          41.000    22680862.273 6  92874327.971 6     -1416.185          41.000
R15  19744639.836 8 105509336.405 8     -1168.727          51.000    19744643.109 8  82062835.588 8      -909.010          50.000
R17  19656379.000 8 105185265.399 8     -1207.781          48.000    19656381.859 7  81810765.998 7      -939.385          44.000
R18  20130303.578 7 107457044.096 7      2907.434          47.000    20130309.477 8  83577691.752 8      2261.337          48.000
R24  23259088.727 5 124376767.849 5     -4055.555          30.000
C27  22962941.094 6 119574045.805 6     -1891.246          39.000
C29  25096262.883 6 130682807.789 6      3340.766          38.000
C30  21813035.883 8 113586185.012 8      1263.160          51.000
E01  23732132.648 8 124713178.470 8      -435.875          51.000    23732133.695 8  95559460.238 8      -333.943          51.000
E26  23254783.344 8 122204802.838 8       711.277          51.000    23254786.805 8  93637441.102 8       545.005          51.000
E33  25889370.047 8 136049595.913 8      2955.531          50.000    25889373.062 8 104245790.469 8      2264.640          50.000
> 2020 05 01 11 00 30.0000000  0 15        .000000000000
G06  24141348.156 5 126863665.956 5     -2103.012          34.000    24141356.023 5  98854800.364 5     -1638.710          32.000
G12  21157774.289 6 111184855.090 6     -1964.074          38.000    21157774.008 6  86637534.607 6     -1530.447          36.000
G24  23628965.844 8 124171013.230 8     -3552.195          48.000    23628963.883 8  96756634.001 8     -2767.947          48.000
G25  20156290.836 8 105922024.338 8      -169.133          51.000    20156292.883 8  82536644.097 8      -131.792          51.000
G29  20933870.680 8 110008244.209 8      1995.535          50.000    20933869.570 8  85720703.085 8      1554.962          50.000
G32  22691345.203 7 119243814.650 7     -1852.820          43.000    22691348.406 7  92917264.215 7     -1443.753          42.000
R15  19751312.359 8 105544992.378 8     -1205.133          51.000    19751315.789 8  82090568.010 8      -937.326          49.000
R17  19663289.070 8 105222241.650 8     -1254.031          48.000    19663291.562 7  81839525.297 7      -975.355          44.000
R18  20114089.336 8 107370495.032 8      2865.621          49.000    20114095.961 8  83510375.809 8      2228.813          48.000
C27  22973939.578 6 119631318.662 6     -1923.906          36.000
C29  25077095.867 6 130582997.421 6      3316.207          37.000
C30  21805869.516 8 113548867.532 8      1227.828          51.000
E01  23734706.500 8 124726704.230 8      -462.688          51.000    23734707.719 8  95569824.131 8      -354.542          51.000
E26  23250831.578 8 122184035.928 8       676.336          51.000    23250835.273 8  93621528.807 8       518.231          51.000
E33  25872582.430 8 135961376.161 8      2928.977          49.000    25872585.109 8 104178193.575 8      2244.284          49.000
> 2020 05 01 11 01  0.0000000  0 15        .000000000000
G06  24153335.539 5 126926662.528 5     -2103.641          34.000    24153343.219 5  98903888.519 5     -1639.194          33.000
G12  21168950.664 6 111243585.813 6     -1957.762          39.000    21168949.797 6  86683298.826 6     -1525.529          39.000
G24  23649197.859 7 124277333.210 7     -3542.812          47.000    23649197.336 8  96839480.643 8     -2760.636          48.000
G25  20157228.688 8 105926952.976 8      -166.270          51.000    20157230.836 8  82540484.600 8      -129.561          51.000
G29  20922460.977 8 109948285.419 8      1994.750          50.000    20922459.984 8  85673981.986 8      1554.354          50.000
G32  22701904.688 7 119299305.390 7     -1853.570          43.000    22701906.438 7  92960503.726 7     -1444.341          43.000
R15  19758061.219 8 105581056.917 8     -1206.238          51.000    19758064.812 8  82118618.217 8      -938.185          50.000
R17  19670330.562 8 105259922.704 8     -1264.902          49.000    19670332.930 7  81868832.793 7      -983.813          44.000
R18  20097983.398 8 107284518.826 8      2859.035          50.000    20097989.789 8  83443505.434 8      2223.694          49.000
C27  22984995.938 5 119688901.683 5     -1921.281          33.000
C29  25057943.000 6 130483262.149 6      3325.641          39.000
C30  21798778.664 8 113511943.353 8      1226.973          51.000
E01  23737306.125 8 124740365.670 8      -454.984          51.000    23737307.531 8  95580291.972 8      -348.633          51.000
E26  23246951.570 8 122163646.796 8       675.984          51.000    23246955.555 8  93605905.981 8       517.920          51.000
E33  25855818.164 8 135873281.614 8      2937.074          48.000    25855821.047 8 104110692.593 8      2250.435          50.000
> 2020 05 01 11 01 30.0000000  0 15        .000000000000
G06  24165399.781 5 126990062.615 5     -2120.652          34.000    24165407.883 5  98953291.149 5     -1652.456          33.000
G12  21180160.156 6 111302490.493 6     -1967.469          40.000    21180159.531 6  86729198.517 6     -1533.093          40.000
G24  23669445.695 8 124383735.128 8     -3549.387          48.000    23669446.773 8  96922391.159 8     -2765.756          48.000
G25  20158218.469 8 105932154.432 8      -179.316          51.000    20158220.602 8  82544537.679 8      -139.727          51.000
G29  20911124.336 8 109888710.678 8      1978.031          51.000    20911123.602 8  85627560.136 8      1541.323          51.000
G32  22712536.070 7 119355172.390 7     -1869.863          45.000    22712535.922 6  93004036.404 6     -1457.039          41.000
R15  19764884.859 8 105617519.792 8     -1223.414          51.000    19764888.602 8  82146978.224 8      -951.541          48.000
R17  19677501.875 8 105298295.705 8     -1291.980          48.000    19677503.812 7  81898678.437 7     -1004.874          45.000
R18  20081983.922 8 107199107.860 8      2836.230          51.000    20081989.477 8  83377074.703 8      2205.957          48.000
C27  22996111.555 6 119746783.199 6     -1935.500          38.000
C29  25038802.477 6 130383593.344 6      3319.820          39.000
C30  21791761.547 8 113475402.703 8      1210.250          51.000
E01  23739929.609 8 124754152.738 8      -463.027          51.000    23739931.148 8  95590856.075 8      -354.796          51.000
E26  23243141.750 8 122143625.432 8       659.848          51.000    23243145.750 8  93590564.922 8       505.601          51.000
E33  25839075.969 8 135785303.657 8      2929.203          48.000    25839079.539 8 104043280.948 8      2244.427          51.000
> 2020 05 01 11 02  0.0000000  0 15        .000000000000
G06  24177557.094 5 127053949.874 5     -2137.137          33.000    24177565.000 5  99003073.399 5     -1665.310          31.000
G12  21191419.031 7 111361654.312 7     -1975.961          42.000    21191418.773 7  86775300.127 7     -1539.710          42.000
G24  23689725.039 7 124490302.198 7     -3554.434          47.000    23689727.062 7  97005430.386 7     -2769.692          47.000
G25  20159276.445 8 105937714.499 8      -190.797          51.000    20159278.602 8  82548870.190 8      -148.673          51.000
G29  20899877.289 8 109829606.725 8      1962.711          51.000    20899876.984 8  85581505.135 8      1529.385          51.000
G32  22723255.148 7 119411498.988 7     -1884.648          44.000    22723253.914 7  93047927.206 7     -1468.560          44.000
R15  19771799.516 8 105654468.627 8     -1239.301          51.000    19771802.977 8  82175716.209 8      -963.901          48.000
R17  19684817.805 8 105337445.253 8     -1317.340          48.000    19684819.961 7  81929128.110 7     -1024.598          46.000
R18  20066107.070 8 107114352.358 8      2814.777          51.000    20066111.844 8  83311153.776 8      2189.271          49.000
C27  23007299.938 5 119805046.196 5     -1948.285          35.000
C29  25019691.008 6 130284077.672 6      3315.082          39.000
C30  21784834.625 8 113439331.124 8      1195.035          51.000
E01  23742593.422 8 124768151.637 8      -469.762          51.000    23742595.156 8  95601582.498 8      -359.953          51.000
E26  23239418.008 8 122124058.004 8       645.137          51.000    23239422.344 8  93575571.708 8       494.269          51.000
E33  25822372.812 8 135697529.844 8      2922.812          48.000    25822377.031 8 103976025.718 8      2239.492          51.000
> 2020 05 01 11 02 30.0000000  0 14        .000000000000
G12  21202723.453 6 111421057.546 6     -1984.625          41.000    21202722.500 6  86821588.337 6     -1546.464          41.000
G24  23710031.898 7 124597014.325 7     -3559.969          46.000    23710034.758 7  97088582.641 7     -2774.005          46.000
G25  20160399.156 8 105943614.672 8      -202.672          51.000    20160401.328 8  82553467.727 8      -157.926          51.000
G29  20888716.172 8 109770956.159 8      1947.156          50.000    20888716.359 8  85535803.400 8      1517.265          50.000
G32  22734057.438 6 119468264.251 6     -1899.883          41.000    22734057.977 6  93092159.786 6     -1480.431          41.000
R15  19778801.680 8 105691885.014 8     -1255.445          51.000    19778804.984 7  82204817.818 7      -976.457          47.000
R17  19692275.055 8 105377350.471 8     -1343.102          48.000    19692277.000 7  81960165.481 7     -1044.635          46.000
R18  20050349.719 8 107030236.270 8      2792.805          51.000    20050354.172 8  83245730.178 8      2172.181          48.000
C27  23018557.977 6 119863670.296 6     -1960.742          36.000
C29  25000605.500 6 130184698.485 6      3310.512          38.000
C30  21777994.320 8 113403710.810 8      1179.402          51.000
E01  23745294.141 8 124782344.264 8      -476.648          51.000    23745296.227 8  95612457.356 8      -365.212          51.000
E26  23235777.023 8 122104926.386 8       630.090          51.000    23235781.906 8  93560912.434 8       482.877          51.000
E33  25805705.547 8 135609943.486 8      2916.035          48.000    25805710.047 8 103908914.106 8      2234.424          51.000
> 2020 05 01 11 03  0.0000000  0 14        .000000000000
G12  21214075.195 7 111480709.432 7     -1992.070          43.000    21214073.945 7  86868070.324 7     -1552.260          43.000
G24  23730367.734 7 124703879.566 7     -3564.406          45.000    23730371.133 7  97171854.196 7     -2777.462          45.000
G25  20161588.438 8 105949864.590 8      -213.859          51.000    20161590.609 8  82558337.793 8      -166.644          51.000
G29  20877643.141 8 109712769.386 8      1932.148          50.000    20877643.570 8  85490463.053 8      1505.570          49.000
G32  22744943.648 6 119525475.191 6     -1914.227          39.000    22744946.984 6  93136739.729 6     -1491.605          38.000
R15  19785893.211 8 105729779.081 8     -1270.852          51.000    19785896.516 7  82234290.916 7      -988.443          46.000
R17  19699874.766 7 105418018.563 7     -1367.914          47.000    19699877.023 7  81991796.227 7     -1063.933          47.000
R18  20034714.281 8 106946772.456 8      2771.578          51.000    20034718.328 7  83180813.923 7      2155.672          47.000
C27  23029887.945 6 119922663.463 6     -1972.219          41.000
C29  24981548.406 6 130085467.003 6      3305.438          37.000
C30  21771242.547 8 113368551.743 8      1164.523          51.000
E01  23748033.711 8 124796740.664 8      -483.121          51.000    23748035.945 8  95623488.351 8      -370.169          51.000
E26  23232221.016 8 122086240.596 8       615.648          51.000    23232225.969 8  93546594.760 8       471.716          51.000
E33  25789076.328 8 135522555.995 8      2909.746          48.000    25789080.852 8 103841954.901 8      2229.537          51.000
> 2020 05 01 11 03 30.0000000  0 14        .000000000000
G12  21225472.430 6 111540604.117 6     -2000.391          38.000    21225471.820 6  86914741.527 6     -1558.746          40.000
G24  23750731.062 7 124810890.676 7     -3569.352          43.000    23750734.555 7  97255239.428 7     -2781.313          43.000
G25  20162843.312 8 105956458.930 8      -225.324          51.000    20162845.477 8  82563476.235 8      -175.577          51.000
G29  20866658.219 8 109655041.918 8      1916.895          51.000    20866658.141 8  85445480.617 8      1493.687          51.000
G32  22755913.844 6 119583124.138 6     -1928.469          41.000    22755919.719 6  93181660.975 6     -1502.703          41.000
R15  19793073.258 8 105768145.778 8     -1286.520          51.000    19793075.766 7  82264131.635 7     -1000.626          46.000
R17  19707615.617 8 105459441.829 8     -1393.055          48.000    19707617.914 7  82024014.304 7     -1083.487          47.000
R18  20019200.219 8 106863958.243 8      2749.871          49.000    20019203.320 7  83116402.897 7      2138.792          47.000
C27  23041286.719 6 119982018.538 6     -1984.453          39.000
C29  24962519.578 6 129986379.599 6      3300.879          36.000
C30  21764578.484 8 113333849.181 8      1149.398          51.000
E01  23750811.156 8 124811335.956 8      -489.613          51.000    23750813.164 8  95634671.752 8      -375.173          51.000
E26  23228748.875 8 122067995.667 8       601.031          50.000    23228753.602 8  93532614.864 8       460.530          51.000
E33  25772484.297 8 135435363.910 8      2903.316          48.000    25772488.625 8 103775145.405 8      2224.637          50.000
> 2020 05 01 11 04  0.0000000  0 14        .000000000000
G12  21236915.344 6 111600742.864 6     -2008.820          38.000    21236915.898 6  86961602.830 6     -1565.318          38.000
G24  23771121.711 6 124918048.090 6     -3574.695          41.000    23771125.562 6  97338738.648 6     -2785.480          41.000
G25  20164164.086 8 105963399.547 8      -237.355          51.000    20164166.320 8  82568884.509 8      -184.952          51.000
G29  20855761.562 8 109597776.478 8      1900.824          51.000    20855760.852 8  85400858.214 8      1481.162          51.000
G32  22766967.695 6 119641210.503 6     -1943.727          40.000    22766974.461 6  93226923.050 6     -1514.592          40.000
R15  19800342.180 8 105806987.466 8     -1302.969          51.000    19800344.375 7  82294341.794 7     -1013.423          47.000
R17  19715497.266 8 105501619.480 8     -1418.754          49.000    19715499.766 7  82056819.149 7     -1103.478          47.000
R18  20003809.258 8 106781798.807 8      2727.395          50.000    20003811.344 7  83052501.146 7      2121.307          47.000
C27  23052753.508 5 120041735.352 5     -1996.418          33.000
C29  24943519.172 5 129887439.868 5      3294.840          35.000
C30  21758002.414 8 113299605.496 8      1133.488          51.000
E01  23753626.969 8 124826132.452 8      -496.871          51.000    23753628.492 8  95646009.331 8      -380.749          51.000
E26  23225360.930 8 122050193.788 8       585.676          50.000    23225365.414 8  93518974.463 8       448.800          51.000
E33  25755929.797 8 135348370.906 8      2896.066          48.000    25755933.852 8 103708488.452 8      2219.094          49.000
> 2020 05 01 11 04 30.0000000  0 14        .000000000000
G12  21248404.805 6 111661121.040 6     -2016.641          41.000    21248405.656 6  87008650.718 6     -1571.405          40.000
G24  23791538.492 6 125025345.220 6     -3578.918          39.000    23791543.664 6  97422346.719 6     -2788.770          38.000
G25  20165550.000 8 105970682.605 8      -248.523          51.000    20165552.297 8  82574559.616 8      -193.655          51.000
G29  20844952.070 8 109540970.299 8      1885.805          51.000    20844951.023 8  85356593.661 8      1469.458          51.000
G32  22778103.312 6 119699727.751 6     -1957.543          36.000    22778110.055 6  93272520.897 6     -1525.358          36.000
R15  19807699.117 8 105846300.266 8     -1318.371          51.000    19807701.422 8  82324918.376 8     -1025.403          48.000
R17  19723519.312 8 105544545.283 8     -1443.344          48.000    19723521.344 7  82090205.864 7     -1122.601          47.000
R18  19988540.977 8 106700292.821 8      2705.855          51.000    19988542.859 8  82989107.587 8      2104.554          49.000
C27  23064289.930 6 120101808.162 6     -2008.383          37.000
C29  24924547.273 5 129788645.469 5      3290.691          35.000
C30  21751513.539 8 113265817.197 8      1118.598          51.000
E01  23756480.383 8 124841126.618 8      -503.219          51.000    23756481.727 8  95657498.369 8      -385.514          51.000
E26  23222056.883 8 122032831.335 8       571.375          50.000    23222061.102 8  93505670.785 8       437.807          51.000
E33  25739412.797 8 135261574.871 8      2889.840          48.000    25739415.891 7 103641982.407 7      2214.293          47.000
> 2020 05 01 11 05  0.0000000  0 15        .000000000000
G12  21259938.820 7 111721731.855 7     -2023.703          42.000    21259939.641 7  87055879.936 7     -1576.912          42.000
G24  23811981.156 6 125132774.467 6     -3582.457          39.000    23811987.641 6  97506057.772 6     -2791.528          39.000
G25  20166999.781 8 105978301.724 8      -258.844          51.000    20167002.078 8  82580496.583 8      -201.696          51.000
G29  20834228.398 8 109484617.831 8      1871.488          51.000    20834227.680 8  85312682.635 8      1458.303          51.000
G32  22789318.688 6 119758666.910 6     -1971.121          36.000    22789325.453 6  93318447.666 6     -1535.935          36.000
R14  23510173.258 5 125322438.945 5     -3462.871          32.000
R15  19815143.000 8 105886078.205 8     -1332.992          51.000    19815145.398 8  82355856.761 8     -1036.772          48.000
R17  19731678.828 8 105588210.039 8     -1467.051          50.000    19731681.078 7  82124167.357 7     -1141.039          47.000
R18  19973394.203 8 106619436.663 8      2685.113          51.000    19973396.828 8  82926219.458 8      2088.421          49.000
C27  23075893.555 6 120162229.124 6     -2019.211          39.000
C29  24905603.625 5 129689991.868 5      3286.887          35.000
C30  21745110.695 8 113232478.503 8      1104.484          51.000
E01  23759370.070 8 124856312.593 8      -508.781          51.000    23759371.703 8  95669134.370 8      -389.774          51.000
E26  23218835.336 8 122015902.380 8       557.770          51.000    23218839.469 8  93492699.254 8       427.343          51.000
E33  25722933.047 8 135174971.237 8      2884.250          49.000    25722934.492 7 103575623.816 7      2209.974          46.000
> 2020 05 01 11 05 30.0000000  0 14        .000000000000
G12  21271519.289 7 111782586.769 7     -2031.805          43.000    21271519.703 7  87103299.358 7     -1583.224          43.000
G24  23832451.906 7 125240346.385 7     -3587.652          42.000    23832459.055 7  97589879.978 7     -2795.576          43.000
G25  20168515.938 8 105986269.538 8      -270.965          51.000    20168518.281 8  82586705.258 8      -211.144          51.000
G29  20823593.312 8 109428732.956 8      1855.516          51.000    20823593.406 8  85269135.975 8      1445.856          51.000
G32  22800617.062 6 119818038.349 6     -1985.855          38.000    22800623.078 6  93364711.097 6     -1547.426          39.000
R15  19822676.273 8 105926334.496 8     -1349.371          51.000    19822678.961 8  82387167.195 8     -1049.511          49.000
R17  19739978.523 8 105632624.218 8     -1492.461          50.000    19739981.000 7  82158711.719 7     -1160.803          47.000
R18  19958371.461 8 106539245.791 8      2662.410          50.000    19958374.930 8  82863848.787 8      2070.766          48.000
C27  23087564.852 5 120223008.604 5     -2031.070          35.000
C29  24886689.773 5 129591493.281 5      3281.520          34.000
C30  21738796.867 8 113199602.353 8      1088.605          51.000
E01  23762298.648 8 124871703.391 8      -515.945          51.000    23762300.500 8  95680927.321 8      -395.362          51.000
E26  23215698.977 8 121999419.776 8       542.496          51.000    23215703.039 8  93480069.742 8       415.625          51.000
E33  25706493.047 8 135088574.364 8      2876.930          49.000    25706493.133 7 103509423.671 7      2204.416          46.000
> 2020 05 01 11 06  0.0000000  0 14        .000000000000
G12  21283143.320 6 111843671.599 6     -2040.473          40.000    21283143.328 6  87150897.913 6     -1589.982          41.000
G24  23852947.141 7 125348045.027 7     -3592.492          43.000    23852954.672 7  97673800.942 7     -2799.348          43.000
G25  20170095.883 8 105994572.050 8      -282.789          51.000    20170098.188 8  82593174.738 8      -220.355          51.000
G29  20813044.859 8 109373301.857 8      1839.672          51.000    20813045.602 8  85225942.921 8      1433.514          51.000
G32  22811994.695 6 119877825.529 6     -2000.445          41.000    22811999.453 6  93411298.426 6     -1558.792          41.000
R15  19830296.453 8 105967055.211 8     -1365.602          51.000    19830299.391 8  82418838.852 8     -1062.135          50.000
R17  19748415.320 8 105677770.781 8     -1517.590          51.000    19748417.695 7  82193825.718 7     -1180.348          47.000
R18  19943470.805 8 106459709.082 8      2639.723          50.000    19943474.758 7  82801986.951 7      2053.121          47.000
C27  23099302.836 5 120284130.977 5     -2043.578          35.000
C29  24867803.422 5 129493137.560 5      3275.453          32.000
C30  21732569.312 8 113167175.283 8      1072.871          51.000
E01  23765263.820 8 124887285.485 8      -522.980          51.000    23765265.586 8  95692866.847 8      -400.752          51.000
E26  23212645.039 8 121983369.879 8       527.371          51.000    23212648.875 8  93467771.767 8       404.116          51.000
E33  25690089.938 8 135002372.137 8      2869.742          49.000    25690089.805 7 103443372.675 7      2198.866          47.000
> 2020 05 01 11 06 30.0000000  0 14        .000000000000
G12  21294813.562 6 111905000.306 6     -2048.215          39.000    21294813.531 6  87198686.457 6     -1596.015          39.000
G24  23873469.125 7 125455883.679 7     -3596.789          43.000    23873476.703 7  97757830.958 7     -2802.696          43.000
G25  20171742.422 8 106003224.289 8      -294.086          51.000    20171744.594 8  82599916.738 8      -229.158          51.000
G29  20802586.031 8 109318340.164 8      1824.215          51.000    20802587.023 8  85183115.676 8      1421.469          51.000
G32  22823453.461 6 119938040.679 6     -2014.156          41.000    22823458.062 6  93458219.254 6     -1569.472          41.000
R15  19838006.594 8 106008255.789 8     -1381.250          51.000    19838009.914 8  82450883.726 8     -1074.306          50.000
R17  19756991.305 8 105723662.483 8     -1542.004          51.000    19756993.938 7  82229519.276 7     -1199.333          47.000
R18  19928696.539 8 106380844.659 8      2617.684          51.000    19928700.297 7  82740648.015 7      2035.976          46.000
C27  23111109.812 6 120345609.285 6     -2054.801          38.000
C29  24848946.711 5 129394941.143 5      3270.504          30.000
C30  21726430.992 8 113135212.572 8      1057.758          51.000
E01  23768268.477 8 124903074.336 8      -529.672          51.000    23768270.180 8  95704964.793 8      -405.861          51.000
E26  23209676.188 8 121967767.938 8       512.684          51.000    23209680.016 8  93455817.041 8       392.797          51.000
E33  25673726.523 8 134916381.357 8      2862.895          48.000    25673727.188 8 103377483.671 8      2193.655          48.000
> 2020 05 01 11 07  0.0000000  0 14        .000000000000
G12  21306533.242 7 111966587.117 7     -2054.969          43.000    21306532.742 7  87246676.199 7     -1601.271          43.000
G24  23894020.211 7 125563875.445 7     -3600.062          43.000    23894027.016 7  97841980.309 7     -2805.247          43.000
G25  20173458.289 8 106012240.852 8      -304.422          51.000    20173460.352 8  82606942.623 8      -237.212          51.000
G29  20792219.961 8 109263864.168 8      1810.012          51.000    20792220.414 8  85140666.887 8      1410.402          51.000
G32  22834995.312 6 119998695.807 6     -2026.719          39.000    22835000.289 6  93505482.979 6     -1579.258          39.000
R15  19845809.070 8 106049951.463 8     -1395.836          51.000    19845812.672 8  82483313.687 8     -1085.650          49.000
R17  19765709.047 8 105770311.686 8     -1565.270          51.000    19765711.180 7  82265801.971 7     -1217.432          47.000
R18  19914051.945 8 106302669.820 8      2596.551          51.000    19914054.609 7  82679845.386 7      2019.539          45.000
C27  23122987.445 6 120407456.065 6     -2065.559          38.000
C30  21720385.047 8 113103729.092 8      1043.617          51.000
E01  23771315.312 8 124919084.916 8      -535.098          51.000    23771316.984 8  95717232.637 8      -410.025          51.000
E21  26854343.812 5 141120531.321 5     -2204.500          33.000
E26  23206795.266 8 121952628.786 8       499.199          51.000    23206799.055 8  93444216.918 8       382.530          51.000
E33  25657405.562 7 134830618.398 7      2857.172          47.000    25657407.836 8 103311769.224 8      2189.262          48.000
> 2020 05 01 11 07 30.0000000  0 13        .000000000000
G12  21318297.336 7 112028407.534 7     -2064.219          42.000    21318296.969 7  87294847.960 7     -1608.482          42.000
G24  23914595.031 7 125671994.364 7     -3605.797          42.000    23914600.578 7  97926228.723 7     -2809.715          42.000
G25  20175238.938 8 106021597.892 8      -317.277          51.000    20175240.969 8  82614233.817 8      -247.229          51.000
G29  20781941.984 8 109209850.776 8      1793.066          51.000    20781941.883 8  85098578.566 8      1397.195          51.000
G32  22846615.766 6 120059764.613 6     -2041.988          39.000    22846621.727 6  93553069.007 6     -1591.160          38.000
R15  19853699.938 8 106092118.311 8     -1413.035          51.000    19853703.523 8  82516110.142 8     -1099.024          49.000
R17  19774562.938 8 105817691.202 8     -1591.188          51.000    19774565.062 8  82302652.712 8     -1237.590          48.000
R18  19899532.562 8 106225163.151 8      2572.762          50.000    19899533.883 7  82619562.426 7      2001.037          45.000
C27  23134930.945 6 120469645.773 6     -2078.387          40.000
C30  21714426.727 8 113072701.579 8      1026.926          51.000
E01  23774399.875 8 124935293.793 8      -543.367          51.000    23774401.367 8  95729652.422 8      -416.313          51.000
E26  23203998.195 8 121937928.877 8       482.941          51.000    23204001.789 8  93432953.343 8       370.034          51.000
E33  25641123.562 7 134745061.188 7      2848.801          47.000    25641127.109 8 103246212.417 8      2182.758          48.000
> 2020 05 01 11 08  0.0000000  0 14        .000000000000
G12  21330102.305 6 112090442.758 6     -2069.160          39.000    21330102.453 6  87343187.078 6     -1612.333          39.000
G24  23935189.555 6 125780219.677 6     -3606.906          41.000    23935194.148 6  98010560.050 6     -2810.576          41.000
G25  20177080.789 8 106031276.636 8      -325.570          51.000    20177082.766 8  82621775.687 8      -253.691          51.000
G29  20771748.258 8 109156281.611 8      1780.578          51.000    20771748.008 8  85056836.378 8      1387.463          51.000
G32  22858311.375 6 120121225.627 6     -2052.988          41.000    22858317.547 6  93600960.680 6     -1599.728          41.000
R15  19861675.242 8 106134737.304 8     -1425.789          50.000    19861679.148 8  82549258.248 8     -1108.947          48.000
R17  19783549.477 8 105865779.248 8     -1612.340          51.000    19783551.523 7  82340054.518 7     -1254.045          47.000
R18  19885135.328 8 106148308.271 8      2553.344          51.000    19885136.336 7  82559786.414 7      1985.934          46.000
C27  23146935.984 6 120532158.037 6     -2086.965          41.000
C30  21708552.328 8 113042111.821 8      1014.727          51.000
E01  23777518.570 8 124951682.696 8      -546.949          51.000    23777519.867 8  95742210.147 8      -419.085          51.000
E21  26879580.906 5 141253160.496 5     -2210.145          34.000
E26  23201280.984 8 121923649.652 8       471.266          51.000    23201284.930 8  93422012.119 8       361.154          51.000
E33  25624878.180 8 134659692.742 8      2844.758          48.000    25624881.867 8 103180800.223 8      2179.815          49.000
> 2020 05 01 11 08 30.0000000  0 14        .000000000000
G12  21341951.188 7 112152708.360 7     -2080.738          42.000    21341950.984 6  87391705.630 6     -1621.351          41.000
G24  23955807.211 7 125888566.310 7     -3615.145          42.000    23955811.359 7  98094985.917 7     -2816.999          42.000
G25  20178987.086 8 106041293.929 8      -341.293          51.000    20178988.891 8  82629581.370 8      -265.943          51.000
G29  20761642.203 8 109103174.685 8      1760.770          51.000    20761641.805 8  85015454.351 8      1372.028          51.000
G32  22870084.539 7 120183093.172 7     -2070.566          43.000    22870089.578 7  93649169.107 7     -1613.428          43.000
R15  19869738.781 8 106177825.820 8     -1445.840          51.000    19869742.242 7  82582771.530 7     -1124.542          47.000
R17  19792670.969 8 105914590.170 8     -1640.836          51.000    19792673.117 7  82378018.570 7     -1276.206          47.000
R18  19870863.656 8 106072125.253 8      2526.379          51.000    19870865.633 7  82500533.011 7      1964.964          47.000
C27  23159005.484 6 120595007.590 6     -2102.266          40.000
C29  24773822.383 5 129003787.123 5      3248.477          31.000
C30  21702765.227 8 113011976.851 8       995.254          51.000
E01  23780674.797 8 124968268.879 8      -557.867          51.000    23780676.070 8  95754919.035 8      -427.478          51.000
E26  23198647.039 8 121909808.191 8       452.418          51.000    23198651.242 8  93411406.340 8       346.682          51.000
E33  25608672.805 8 134574531.664 8      2833.504          49.000    25608675.969 8 103115546.951 8      2171.126          49.000
> 2020 05 01 11 09  0.0000000  0 14        .000000000000
G12  21353848.086 7 112215225.000 7     -2087.691          44.000    21353847.164 7  87440419.947 7     -1626.773          43.000
G24  23976452.047 7 125997053.941 7     -3618.180          42.000    23976456.102 7  98179521.670 7     -2819.364          42.000
G25  20180961.875 8 106051671.500 8      -351.465          51.000    20180963.641 8  82637667.790 8      -273.869          51.000
G29  20751628.195 8 109050552.089 8      1746.484          51.000    20751627.742 8  84974449.733 8      1360.897          51.000
G32  22881938.867 7 120245386.288 7     -2083.211          45.000    22881942.445 7  93697709.164 7     -1623.281          45.000
R15  19877894.570 8 106221406.310 8     -1460.430          51.000    19877897.656 7  82616667.422 7     -1135.890          47.000
R17  19801931.109 8 105964143.397 8     -1663.633          51.000    19801933.281 7  82416559.951 7     -1293.937          47.000
R18  19856721.945 8 105996638.228 8      2505.137          51.000    19856725.109 8  82441820.969 8      1948.440          48.000
C27  23171143.461 6 120658214.017 6     -2112.211          39.000
C29  24755118.797 5 128906389.157 5      3243.859          33.000
C30  21697069.648 8 112982318.517 8       981.012          51.000
E01  23783872.688 8 124985074.464 8      -563.461          51.000    23783873.906 8  95767796.024 8      -431.680          51.000
E26  23196100.742 8 121896426.436 8       438.773          51.000    23196104.766 8  93401152.777 8       336.224          51.000
E33  25592511.680 8 134489601.410 8      2827.566          50.000    25592513.961 8 103050470.564 8      2166.547          49.000
> 2020 05 01 11 09 30.0000000  0 15        .000000000000
G12  21365786.953 6 112277962.841 6     -2095.863          39.000    21365785.422 6  87489306.533 6     -1633.143          40.000
G24  23997117.906 6 126105651.412 6     -3622.621          41.000    23997122.234 6  98264142.976 6     -2822.825          41.000
G25  20182999.438 8 106062379.333 8      -363.332          51.000    20183001.250 8  82646011.555 8      -283.116          51.000
G29  20741700.805 8 108998384.872 8      1730.434          51.000    20741700.492 8  84933799.965 8      1348.390          51.000
G32  22893867.922 7 120308072.377 7     -2096.938          46.000    22893870.625 7  93746555.421 7     -1633.980          46.000
R15  19886136.781 8 106265448.326 8     -1476.711          51.000    19886138.953 7  82650922.285 7     -1148.553          46.000
R17  19811323.727 8 106014405.586 8     -1688.070          51.000    19811326.281 7  82455652.781 7     -1312.944          47.000
R18  19842705.805 8 105921819.477 8      2481.875          51.000    19842709.398 8  82383628.654 8      1930.347          49.000
C27  23183343.773 6 120721745.777 6     -2123.973          39.000
C29  24736444.031 5 128809141.152 5      3238.172          34.000
C30  21691459.680 8 112953107.420 8       965.418          51.000
E01  23787106.664 8 125002069.901 8      -570.551          51.000    23787107.750 8  95780818.501 8      -437.160          51.000
E21  26917561.289 5 141452739.137 5     -2223.770          34.000
E26  23193636.148 8 121883474.534 8       423.590          50.000    23193640.047 8  93391228.606 8       324.650          51.000
E33  25576389.070 8 134404873.822 8      2819.949          50.000    25576390.539 8 102985549.452 8      2160.779          49.000
> 2020 05 01 11 10  0.0000000  0 15        .000000000000
G12  21377773.570 6 112340951.813 6     -2102.461          38.000    21377771.586 6  87538388.815 6     -1638.281          37.000
G24  24017809.898 6 126214387.056 6     -3625.633          40.000    24017814.648 6  98348871.935 6     -2825.175          41.000
G25  20185105.656 8 106073448.059 8      -373.723          51.000    20185107.531 8  82654636.537 8      -291.212          51.000
G29  20731866.039 8 108946704.461 8      1715.719          51.000    20731865.766 8  84893529.542 8      1336.924          50.000
G32  22905876.906 7 120371179.411 7     -2109.348          46.000    22905879.852 7  93795729.674 7     -1643.651          46.000
R15  19894471.133 8 106309983.389 8     -1491.570          51.000    19894473.133 7  82685560.633 7     -1160.110          46.000
R17  19820854.320 8 106065405.144 8     -1711.047          51.000    19820856.664 7  82495319.075 7     -1330.814          46.000
R18  19828821.750 8 105847702.979 8      2460.031          51.000    19828824.508 8  82325982.481 8      1913.358          48.000
C27  23195612.297 6 120785631.297 6     -2134.105          39.000
C29  24717804.094 5 128712075.161 5      3233.203          32.000
C30  21685941.289 8 112924374.183 8       950.953          51.000
E01  23790382.719 8 125019286.267 8      -576.465          51.000    23790383.906 8  95794010.256 8      -441.704          51.000
E21  26930268.633 5 141519512.045 5     -2227.359          32.000
E26  23191259.383 8 121870983.356 8       409.820          50.000    23191262.680 8  93381657.457 8       314.027          50.000
E33  25560310.867 8 134320381.309 8      2813.598          50.000    25560312.352 8 102920808.461 8      2155.930          50.000
> 2020 05 01 11 10 30.0000000  0 14        .000000000000
G12  21389803.312 6 112404168.437 6     -2112.070          40.000    21389801.469 6  87587648.458 6     -1645.769          40.000
G24  24038523.547 6 126323236.877 6     -3631.016          41.000    24038528.539 6  98433689.897 6     -2829.366          41.000
G25  20187276.258 8 106084855.109 8      -386.875          51.000    20187278.398 8  82663525.137 8      -301.461          51.000
G29  20722119.680 8 108895488.745 8      1698.438          51.000    20722119.406 8  84853621.219 8      1323.458          51.000
G32  22917961.281 7 120434682.144 7     -2124.293          46.000    22917964.922 7  93845212.258 7     -1655.296          46.000
R15  19902892.898 8 106354988.523 8     -1508.996          51.000    19902895.195 7  82720564.565 7     -1173.667          46.000
R17  19830517.750 8 106117116.215 8     -1736.508          51.000    19830519.875 7  82535538.803 7     -1350.620          46.000
R18  19815065.391 8 105774267.989 8      2435.441          51.000    19815067.328 8  82268866.363 8      1894.229          49.000
C27  23207944.852 6 120849846.359 6     -2146.980          41.000
C29  24699195.703 5 128615170.372 5      3226.406          30.000
C30  21680510.711 8 112896096.727 8       933.938          51.000
E01  23793696.625 8 125036701.385 8      -584.754          51.000    23793698.141 8  95807354.290 8      -448.034          51.000
E26  23188965.844 8 121858930.439 8       393.477          50.000    23188968.461 8  93372422.133 8       301.525          49.000
E33  25544273.031 8 134236103.013 8      2804.695          49.000    25544275.141 8 102856231.597 8      2149.103          50.000
> 2020 05 01 11 11  0.0000000  0 13        .000000000000
G12  21401882.305 6 112467643.077 6     -2119.090          41.000    21401881.625 6  87637109.280 6     -1651.236          41.000
G24  24059264.242 6 126432229.689 6     -3634.332          40.000    24059269.133 6  98518619.273 6     -2831.950          40.000
G25  20189517.188 8 106096631.433 8      -397.719          51.000    20189519.625 8  82672701.486 8      -309.911          51.000
G29  20712468.188 8 108844769.470 8      1683.312          51.000    20712467.805 8  84814099.700 8      1311.672          51.000
G32  22930126.273 7 120498608.871 7     -2136.875          46.000    22930130.492 7  93895025.248 7     -1665.097          46.000
R15  19911408.875 8 106400495.453 8     -1524.344          51.000    19911411.641 7  82755958.838 7     -1185.601          47.000
R17  19840319.461 8 106169567.433 8     -1759.727          51.000    19840321.766 7  82576334.192 7     -1368.676          46.000
R18  19801442.758 8 105701548.754 8      2413.039          51.000    19801444.914 8  82212306.962 8      1876.808          49.000
C27  23220345.812 6 120914419.747 6     -2157.230          41.000
C30  21675174.016 8 112868306.081 8       919.168          51.000
E01  23797054.391 8 125054346.724 8      -591.145          51.000    23797056.320 8  95820874.735 8      -452.976          51.000
E26  23186761.602 8 121847346.945 8       379.176          51.000    23186763.859 8  93363546.502 8       290.447          49.000
E33  25528282.156 8 134152071.709 8      2797.734          51.000    25528284.945 8 102791843.972 8      2143.748          51.000
> 2020 05 01 11 11 30.0000000  0 15        .000000000000
G02  23120359.359 5 121498284.519 5     -1079.348          31.000
G12  21413998.562 6 112531313.808 6     -2127.062          37.000    21413999.000 6  87686722.820 6     -1657.454          36.000
G24  24080020.219 6 126541301.928 6     -3638.652          40.000    24080024.227 6  98603610.546 6     -2835.317          41.000
G25  20191816.773 8 106108715.659 8      -409.305          51.000    20191819.273 8  82682117.768 8      -318.939          51.000
G29  20702899.875 8 108794486.111 8      1667.398          51.000    20702899.609 8  84774917.860 8      1299.275          51.000
G32  22942359.695 7 120562895.542 7     -2150.238          45.000    22942363.797 7  93945118.723 7     -1675.513          45.000
R15  19920006.883 8 106446442.110 8     -1540.254          51.000    19920009.945 8  82791695.127 8     -1197.975          48.000
R17  19850247.156 8 106222693.359 8     -1783.508          51.000    19850249.406 7  82617654.345 7     -1387.176          47.000
R18  19787942.500 8 105629485.317 8      2389.750          51.000    19787945.531 8  82156257.661 8      1858.694          49.000
C27  23232802.891 6 120979288.692 6     -2168.676          40.000
C30  21669918.844 8 112840941.630 8       903.625          51.000
E01  23800444.344 8 125072161.312 8      -598.016          51.000    23800446.578 8  95834524.858 8      -458.232          51.000
E21  26968512.961 5 141720486.884 5     -2238.750          33.000
E26  23184635.156 8 121836171.640 8       364.359          51.000    23184636.977 8  93354983.646 8       279.211          49.000
E33  25512327.516 8 134068227.703 8      2790.312          51.000    25512330.352 8 102727599.871 8      2138.020          51.000
> 2020 05 01 11 12  0.0000000  0 15        .000000000000
G02  23126575.977 6 121530909.450 6     -1096.277          37.000
G12  21426160.578 6 112595224.040 6     -2135.039          39.000    21426159.977 6  87736523.005 6     -1663.664          38.000
G24  24100799.320 7 126650495.986 7     -3642.262          42.000    24100801.938 7  98688696.738 7     -2838.129          42.000
G25  20194183.305 8 106121151.760 8      -420.957          51.000    20194185.836 8  82691808.232 8      -328.018          51.000
G29  20693422.969 8 108744683.208 8      1651.621          51.000    20693422.922 8  84736110.434 8      1286.977          51.000
G32  22954669.484 7 120627583.455 7     -2163.422          46.000    22954673.102 7  93995524.836 7     -1685.783          46.000
R15  19928695.922 8 106492873.137 8     -1556.289          51.000    19928699.312 8  82827808.154 8     -1210.447          50.000
R17  19860309.000 8 106276535.988 8     -1807.270          51.000    19860311.406 7  82659531.937 7     -1405.654          47.000
R18  19774573.562 8 105558124.790 8      2366.367          50.000    19774577.406 8  82100755.069 8      1840.511          49.000
C27  23245324.828 6 121044494.876 6     -2179.637          41.000
C29  24643553.398 5 128325445.731 5      3209.723          31.000
C30  21664754.109 8 112814047.215 8       888.191          51.000
E01  23803874.969 8 125090189.520 8      -605.078          51.000    23803877.180 8  95848338.664 8      -463.574          51.000
E26  23182594.547 8 121825448.599 8       349.363          51.000    23182596.422 8  93346767.333 8       267.742          49.000
E33  25496417.547 8 133984616.706 8      2782.609          51.000    25496419.961 8 102663534.338 8      2132.129          51.000
> 2020 05 01 11 12 30.0000000  0 15        .000000000000
G02  23132882.055 6 121564038.663 6     -1111.945          40.000
G12  21438368.711 5 112659380.148 5     -2142.098          33.000    21438366.797 5  87786514.856 5     -1669.170          31.000
G24  24121602.680 7 126759816.992 7     -3645.641          42.000    24121604.094 7  98773881.823 7     -2840.765          42.000
G25  20196618.203 8 106133946.614 8      -431.773          51.000    20196620.641 8  82701778.248 8      -336.447          51.000
G29  20684038.914 8 108695368.337 8      1636.336          51.000    20684038.828 8  84697683.251 8      1275.067          51.000
G32  22967056.188 7 120692676.771 7     -2175.941          45.000    22967059.914 7  94046246.864 7     -1695.539          45.000
R15  19937476.930 8 106539795.740 8     -1571.582          51.000    19937480.531 8  82864303.487 8     -1222.345          50.000
R17  19870505.500 8 106331099.093 8     -1830.066          51.000    19870508.008 7  82701969.906 7     -1423.385          47.000
R18  19761338.531 8 105487476.842 8      2343.707          51.000    19761342.336 8  82045806.682 8      1822.886          49.000
C27  23257912.617 6 121110043.242 6     -2189.871          40.000
C29  24625076.773 5 128229236.587 5      3204.090          32.000
C30  21659681.297 8 112787629.929 8       873.242          51.000
E01  23807347.766 8 125108438.700 8      -611.359          51.000    23807349.922 8  95862321.793 8      -468.453          51.000
E26  23180641.234 8 121815184.876 8       335.086          51.000    23180643.758 8  93338902.959 8       256.694          49.000
E33  25480553.500 8 133901247.362 8      2775.578          51.000    25480555.328 8 102599653.969 8      2126.712          51.000
> 2020 05 01 11 13  0.0000000  0 15        .000000000000
G02  23139278.055 6 121597647.466 6     -1128.734          39.000
G12  21450618.945 5 112723757.702 5     -2149.742          32.000    21450618.234 5  87836679.162 5     -1675.124          33.000
G24  24142425.195 7 126869238.762 7     -3649.594          42.000    24142425.539 7  98859145.412 7     -2843.842          42.000
G25  20199116.781 8 106147076.346 8      -443.773          51.000    20199119.188 8  82712009.206 8      -345.797          51.000
G29  20674743.000 8 108646518.053 8      1619.984          50.000    20674742.867 8  84659618.101 8      1262.325          50.000
G32  22979514.758 7 120758148.917 7     -2189.254          44.000    22979518.414 7  94097264.081 7     -1705.912          44.000
R15  19946345.531 8 106587185.874 8     -1588.008          51.000    19946348.859 8  82901162.462 8     -1235.117          50.000
R17  19880831.539 8 106386355.652 8     -1853.914          51.000    19880833.688 7  82744947.219 7     -1441.933          47.000
R18  19748233.133 8 105417519.187 8      2319.980          51.000    19748236.734 8  81991395.184 8      1804.429          49.000
C27  23270560.766 6 121175908.277 6     -2201.406          38.000
C29  24606633.648 6 128133193.450 6      3198.402          36.000
C30  21654695.406 8 112761666.305 8       857.348          51.000
E01  23810858.234 8 125126885.437 8      -618.625          51.000    23810860.109 8  95876456.300 8      -474.050          51.000
E26  23178770.867 8 121805356.674 8       319.863          51.000    23178773.859 8  93331372.272 8       245.126          50.000
E33  25464730.844 8 133818097.588 8      2767.512          51.000    25464732.656 8 102535941.842 8      2120.576          51.000
> 2020 05 01 11 13 30.0000000  0 15        .000000000000
G02  23145766.055 6 121631742.916 6     -1144.879          39.000    23145752.359 5  94777992.586 5      -892.123          34.000
G12  21462913.305 6 112788363.821 6     -2157.547          36.000    21462913.102 6  87887021.580 6     -1681.199          36.000
G24  24163268.219 6 126978767.927 6     -3652.887          41.000    24163267.977 6  98944492.655 6     -2846.411          41.000
G25  20201680.539 8 106160548.974 8      -454.910          51.000    20201683.047 8  82722507.347 8      -354.475          51.000
G29  20665536.891 8 108598141.366 8      1604.535          50.000    20665537.047 8  84621921.995 8      1250.287          50.000
G32  22992046.781 7 120824005.193 7     -2201.801          46.000    22992049.953 7  94148580.636 7     -1715.689          46.000
R15  19955303.109 8 106635051.540 8     -1603.590          51.000    19955306.383 8  82938391.288 8     -1247.237          49.000
R17  19891287.961 8 106442310.924 8     -1876.938          51.000    19891290.500 8  82788467.991 8     -1459.840          48.000
R18  19735259.125 8 105348262.421 8      2296.664          51.000    19735262.484 8  81937528.817 8      1786.294          49.000
C27  23283271.273 6 121242095.883 6     -2211.648          39.000
C29  24588224.164 6 128037325.961 6      3192.547          36.000
C30  21649797.992 8 112736164.490 8       842.207          51.000
E01  23814407.766 8 125145538.178 8      -625.336          51.000    23814409.383 8  95890748.651 8      -479.159          51.000
E26  23176984.711 8 121795972.099 8       305.301          50.000    23176988.273 8  93324181.514 8       233.938          51.000
E33  25448951.281 8 133735177.133 8      2760.004          50.000    25448953.742 8 102472405.435 8      2114.871          51.000
> 2020 05 01 11 14  0.0000000  0 15        .000000000000
G02  23152345.047 6 121666318.478 6     -1160.637          38.000    23152334.242 5  94804934.471 5      -904.398          30.000
G12  21475250.008 5 112853192.851 5     -2164.621          34.000    21475249.242 5  87937537.751 5     -1686.721          34.000
G24  24184130.297 6 127088397.202 6     -3656.133          41.000    24184129.867 6  99029917.958 6     -2848.938          41.000
G25  20204308.500 8 106174359.322 8      -466.105          51.000    20204311.203 8  82733268.656 8      -363.199          51.000
G29  20656420.281 8 108550233.512 8      1589.004          51.000    20656420.633 8  84584591.222 8      1238.185          51.000
G32  23004650.758 7 120890237.695 7     -2214.121          47.000    23004653.047 7  94200190.359 7     -1725.292          47.000
R15  19964348.727 8 106683387.779 8     -1619.117          51.000    19964351.617 8  82975986.127 8     -1259.313          48.000
R17  19901873.734 8 106498956.324 8     -1899.742          51.000    19901876.219 8  82832525.499 8     -1477.577          48.000
R18  19722415.711 8 105279703.736 8      2273.492          51.000    19722419.367 8  81884205.403 8      1768.272          50.000
C27  23296042.953 6 121308599.189 6     -2222.133          39.000
C29  24569847.641 6 127941630.612 6      3186.285          36.000
C30  21644988.344 8 112711119.548 8       827.098          51.000
E01  23817995.547 8 125164392.183 8      -631.980          51.000    23817997.227 8  95905195.231 8      -484.236          51.000
E26  23175281.883 8 121787026.079 8       290.742          49.000    23175286.383 8  93317326.801 8       222.696          51.000
E33  25433214.078 8 133652482.571 8      2752.566          49.000    25433217.625 8 102409042.103 8      2109.070          51.000
> 2020 05 01 11 14 30.0000000  0 15        .000000000000
G02  23159014.445 5 121701375.659 5     -1176.953          33.000
G12  21487629.711 5 112918246.562 5     -2172.578          35.000    21487627.828 6  87988228.867 6     -1692.918          36.000
G24  24205011.477 6 127198127.402 6     -3659.551          40.000    24205011.477 6  99115421.946 6     -2851.598          39.000
G25  20207001.148 8 106188509.663 8      -477.566          51.000    20207003.945 8  82744294.883 8      -372.130          51.000
G29  20647393.055 8 108502797.349 8      1573.086          49.000    20647393.562 8  84547628.022 8      1225.781          49.000
G32  23017326.250 7 120956846.026 7     -2226.770          47.000    23017328.055 7  94252092.909 7     -1735.148          46.000
R15  19973482.453 8 106732196.683 8     -1635.047          50.000    19973485.219 7  83013948.586 7     -1271.706          47.000
R17  19912587.938 8 106556291.252 8     -1922.906          51.000    19912590.375 8  82877119.329 8     -1495.594          48.000
R18  19709703.664 8 105211847.822 8      2249.867          50.000    19709707.969 8  81831428.591 8      1749.897          50.000
C27  23308874.875 6 121375418.412 6     -2233.168          37.000
C29  24551505.156 5 127846111.121 5      3180.844          34.000
C30  21640267.070 8 112686533.944 8       811.629          51.000
E01  23821622.070 8 125183450.149 8      -638.922          51.000    23821624.133 8  95919798.074 8      -489.480          51.000
E26  23173663.203 8 121778520.960 8       275.977          49.000    23173668.078 8  93310809.890 8       211.454          50.000
E33  25417519.984 7 133570017.953 7      2744.805          47.000    25417525.070 8 102345854.945 8      2103.150          51.000
> 2020 05 01 11 15  0.0000000  0 15        .000000000000
G02  23165778.039 6 121736927.198 6     -1193.559          37.000
G12  21500053.805 5 112983538.079 5     -2180.828          30.000    21500052.531 5  88039105.465 5     -1699.347          30.000
G24  24225913.578 6 127307970.358 6     -3663.629          37.000    24225915.617 6  99201013.800 6     -2854.776          37.000
G25  20209761.148 8 106203013.940 8      -489.293          51.000    20209764.000 8  82755596.908 8      -381.267          51.000
G29  20638458.422 8 108455847.874 8      1556.969          49.000    20638458.555 8  84511044.029 8      1213.222          50.000
G32  23030075.117 7 121023841.411 7     -2239.496          46.000    23030077.055 7  94304297.053 7     -1745.062          47.000
R15  19982707.305 8 106781492.837 8     -1651.344          50.000    19982710.320 7  83052290.023 7     -1284.375          47.000
R17  19923433.422 8 106614326.883 8     -1946.145          51.000    19923435.594 8  82922258.136 8     -1513.668          48.000
R18  19697126.266 8 105144711.104 8      2225.895          48.000    19697131.258 8  81779211.168 8      1731.251          50.000
C27  23321769.031 6 121442565.506 6     -2243.332          37.000
C29  24533200.594 5 127750783.140 5      3174.770          31.000
C30  21635636.641 8 112662421.660 8       795.863          51.000
E01  23825290.133 8 125202726.517 8      -646.246          51.000    23825292.672 8  95934568.280 8      -495.140          51.000
E26  23172131.148 8 121770470.754 8       260.754          49.000    23172135.812 8  93304641.540 8       199.792          50.000
E33  25401873.211 8 133487798.951 8      2736.520          48.000    25401878.711 8 102282856.003 8      2096.814          51.000
> 2020 05 01 11 15 30.0000000  0 14        .000000000000
G02  23172635.445 5 121772970.632 5     -1208.711          30.000
G12  21512523.562 6 113049070.860 6     -2187.715          36.000    21512522.727 6  88090165.935 6     -1704.713          36.000
G24  24246836.359 5 127417922.322 5     -3665.777          35.000    24246840.641 6  99286690.587 6     -2856.453          36.000
G25  20212588.234 8 106217870.531 8      -500.566          51.000    20212591.141 8  82767173.456 8      -390.052          51.000
G29  20629616.469 8 108409383.566 8      1541.289          51.000    20629616.219 8  84474838.059 8      1201.001          50.000
G32  23042896.750 7 121091219.375 7     -2251.730          47.000    23042899.023 7  94356799.322 7     -1754.595          47.000
R15  19992022.805 8 106831274.534 8     -1666.848          50.000    19992026.359 7  83091009.092 7     -1296.437          47.000
R17  19934408.633 8 106673058.485 8     -1968.742          51.000    19934411.383 8  82967938.267 8     -1531.244          48.000
R18  19684683.727 8 105078294.102 8      2202.441          48.000    19684689.305 8  81727553.518 8      1713.010          50.000
C27  23334726.156 5 121510037.114 5     -2254.355          34.000
C30  21631096.914 8 112638781.238 8       780.711          51.000
E01  23828999.688 8 125222220.092 8      -652.832          51.000    23829002.695 8  95949504.909 8      -500.198          51.000
E26  23170685.523 8 121762873.848 8       246.234          49.000    23170690.172 8  93298820.554 8       188.757          51.000
E33  25386274.281 8 133405825.606 8      2728.953          50.000    25386278.891 8 102220045.323 8      2090.959          51.000
> 2020 05 01 11 16  0.0000000  0 14        .000000000000
G12  21525033.203 5 113114815.605 5     -2193.098          31.000    21525034.211 4  88141416.693 4     -1708.907          28.000
G24  24267774.961 6 127527954.967 6     -3667.500          36.000    24267780.367 5  99372430.244 5     -2857.795          35.000
G25  20215477.281 8 106233052.619 8      -510.133          51.000    20215480.055 8  82779003.644 8      -397.506          51.000
G29  20620862.000 8 108363378.566 8      1527.121          50.000    20620862.062 8  84438990.031 8      1189.964          50.000
G32  23055785.609 8 121158950.444 8     -2262.258          48.000    23055788.008 8  94409576.751 8     -1762.798          48.000
R15  20001424.359 8 106881514.528 8     -1680.945          51.000    20001427.922 8  83130084.637 8     -1307.402          48.000
R17  19945508.711 8 106732455.644 8     -1989.598          50.000    19945511.031 8  83014136.033 8     -1547.465          48.000
R18  19672371.688 8 105012572.018 8      2180.457          49.000    19672377.156 8  81676436.316 8      1695.911          49.000
C27  23347740.594 4 121577811.399 4     -2262.168          28.000
C30  21626642.953 8 112615586.296 8       767.039          51.000
E01  23832745.594 8 125241904.526 8      -657.910          51.000    23832748.789 8  95964587.783 8      -504.116          51.000
E13  26770082.984 6 140677736.801 6     -2347.328          40.000
E26  23169321.375 8 121755703.537 8       233.320          48.000    23169325.773 8  93293326.426 8       178.766          51.000
E33  25370717.773 8 133324072.881 8      2722.789          51.000    25370720.953 8 102157403.688 8      2086.311          51.000
> 2020 05 01 11 16 30.0000000  0 14        .000000000000
G24  24288705.039 5 127637940.288 5     -3690.477          35.000    24288710.438 5  99458132.970 5     -2875.702          35.000
G25  20218404.328 8 106248433.843 8      -540.887          51.000    20218406.852 8  82790989.006 8      -421.470          51.000
G29  20612171.281 8 108317706.701 8      1492.070          51.000    20612171.312 8  84403401.581 8      1162.649          51.000
G32  23068717.266 8 121226905.394 8     -2293.949          49.000    23068719.336 8  94462528.636 8     -1787.493          49.000
R15  20010888.102 8 106932084.475 8     -1716.453          51.000    20010891.977 8  83169416.783 8     -1335.019          49.000
R17  19956707.750 8 106792386.551 8     -2031.957          50.000    19956710.477 8  83060748.979 8     -1580.411          48.000
R18  19660166.398 8 104947418.538 8      2137.059          50.000    19660171.938 8  81625761.368 8      1662.157          49.000
C27  23360785.930 5 121645740.552 5     -2291.887          33.000
C29  24478468.422 4 127465804.337 4      3139.109          27.000
C30  21622250.344 8 112592711.697 8       732.547          51.000
E01  23836503.875 8 125261653.906 8      -684.211          51.000    23836506.969 8  95979720.410 8      -524.292          51.000
E13  26783490.289 6 140748189.968 6     -2375.156          39.000
E26  23168014.109 7 121748833.397 7       199.199          47.000    23168018.266 8  93288062.310 8       152.600          51.000
E33  25355179.641 8 133242416.091 8      2695.426          51.000    25355181.711 8 102094835.557 8      2065.389          51.000
> 2020 05 01 11 17  0.0000000  0 15        .000000000000
G02  23193725.594 5 121883850.600 5     -1255.062          30.000
G12  21550204.797 5 113247089.993 5     -2207.445          34.000
G24  24309716.023 6 127748349.081 6     -3673.152          36.000    24309720.641 5  99544165.672 5     -2862.197          35.000
G25  20221459.336 8 106264487.356 8      -532.613          51.000    20221461.680 8  82803498.228 8      -415.023          51.000
G29  20603634.328 8 108272842.029 8      1495.734          51.000    20603634.000 8  84368442.090 8      1165.507          51.000
G32  23081781.000 8 121295554.724 8     -2286.238          49.000    23081782.875 8  94516021.571 8     -1781.487          49.000
R15  20020503.789 8 106983465.383 8     -1712.258          51.000    20020507.383 8  83209379.705 8     -1331.756          50.000
R17  19968096.586 8 106853329.852 8     -2034.359          50.000    19968099.117 8  83108149.289 8     -1582.280          48.000
R18  19648157.984 8 104883316.503 8      2133.137          50.000    19648163.727 8  81575904.267 8      1659.106          48.000
C27  23373953.641 4 121714312.410 4     -2282.887          29.000
C30  21618009.070 8 112570626.454 8       736.641          51.000
E01  23840364.672 8 125281941.841 8      -671.516          51.000    23840367.398 8  95995265.696 8      -514.523          51.000
E13  26797008.797 6 140819232.197 6     -2364.117          39.000
E26  23166854.000 8 121742736.671 8       204.035          48.000    23166858.258 8  93283390.786 8       156.416          51.000
E33  25339750.188 8 133161330.185 8      2707.117          51.000    25339751.758 8 102032704.855 8      2074.261          51.000
> 2020 05 01 11 17 30.0000000  0 16        .000000000000
G02  23200951.297 5 121921821.141 5     -1270.316          34.000
G12  21562825.562 5 113313412.959 5     -2215.770          33.000
G24  24330699.594 5 127858615.757 5     -3676.898          35.000    24330703.828 5  99630087.693 5     -2865.116          34.000
G25  20224534.930 8 106280649.163 8      -544.020          51.000    20224536.938 8  82816091.837 8      -423.911          51.000
G29  20595143.344 8 108228220.742 8      1479.789          51.000    20595143.266 8  84333672.266 8      1153.082          51.000
G32  23094868.898 8 121364331.571 8     -2298.262          49.000    23094870.938 8  94569613.865 8     -1790.853          49.000
R15  20030163.727 8 107035083.824 8     -1728.215          51.000    20030167.125 8  83249527.357 8     -1344.167          49.000
R17  19979566.586 8 106914708.057 8     -2056.805          49.000    19979568.930 8  83155887.886 8     -1599.740          48.000
R18  19636239.742 8 104819694.892 8      2109.090          51.000    19636244.766 7  81526420.826 7      1640.403          47.000
C27  23387137.797 5 121782959.305 5     -2292.621          31.000
C29  24442197.258 5 127276940.259 5      3145.707          35.000
C30  21613812.172 8 112548771.777 8       721.203          51.000
E01  23844220.656 8 125302204.736 8      -678.531          51.000    23844223.148 8  96010791.798 8      -519.857          51.000
E13  26810532.086 6 140890297.774 6     -2372.969          38.000
E26  23165733.891 8 121736849.299 8       189.199          49.000    23165738.195 8  93278879.677 8       145.058          51.000
E33  25324322.383 8 133080252.796 8      2698.855          51.000    25324323.586 8 101970580.663 8      2067.981          51.000
> 2020 05 01 11 18  0.0000000  0 15        .000000000000
G12  21575510.938 5 113380087.174 5     -2225.656          34.000
G24  24351714.711 5 127969051.182 5     -3682.273          35.000    24351718.664 5  99716141.177 5     -2869.307          34.000
G25  20227690.492 8 106297231.543 8      -557.805          51.000    20227692.172 8  82829013.166 8      -434.653          51.000
G29  20586758.078 8 108184156.033 8      1461.457          51.000    20586758.461 8  84299336.119 8      1138.795          51.000
G32  23108039.680 8 121433545.466 8     -2312.496          48.000    23108042.219 8  94623546.728 8     -1801.948          48.000
R15  20039927.586 8 107087257.425 8     -1746.383          51.000    20039931.117 8  83290106.797 8     -1358.301          49.000
R17  19991176.945 8 106976836.033 8     -2081.406          49.000    19991179.531 8  83204209.654 8     -1618.868          49.000
R18  19624471.352 8 104756873.318 8      2082.695          51.000    19624475.703 7  81477559.628 7      1619.874          47.000
C27  23400394.562 5 121851988.828 5     -2305.355          33.000
C29  24424106.523 6 127182749.575 6      3137.219          37.000
C30  21609718.766 8 112527457.259 8       703.355          51.000
E01  23848131.305 8 125322755.410 8      -687.816          51.000    23848133.852 8  96026538.400 8      -527.058          51.000
E13  26824118.898 6 140961697.235 6     -2383.578          38.000    26824118.961 5 108009610.148 5     -1826.082          32.000
E26  23164712.805 8 121731483.589 8       172.160          50.000    23164717.031 8  93274768.293 8       131.945          51.000
E33  25308955.891 8 132999498.009 8      2688.383          51.000    25308956.836 8 101908703.654 8      2059.930          51.000
> 2020 05 01 11 18 30.0000000  0 15        .000000000000
G02  23215677.227 6 121999184.013 6     -1285.805          36.000
G24  24372738.344 6 128079531.698 6     -3666.777          37.000    24372741.367 6  99802229.821 6     -2857.232          37.000
G25  20230902.945 8 106314113.452 8      -550.754          51.000    20230904.594 8  82842167.888 8      -429.159          51.000
G29  20578455.852 8 108140527.220 8      1463.918          51.000    20578456.414 8  84265339.613 8      1140.715          51.000
G32  23121269.703 7 121503072.490 7     -2305.898          47.000    23121273.055 7  94677723.626 7     -1796.807          47.000
R15  20049772.000 8 107139862.705 8     -1743.477          51.000    20049775.156 7  83331021.982 7     -1356.037          47.000
R17  20002903.422 8 107039587.344 8     -2084.766          49.000    20002906.227 8  83253016.228 8     -1621.484          48.000
R18  19612829.938 8 104694730.712 8      2077.312          51.000    19612834.312 7  81429226.532 7      1615.691          47.000
C27  23413701.297 5 121921278.873 5     -2297.613          30.000
C29  24406044.203 6 127088707.629 6      3148.902          38.000
C30  21605706.016 8 112506562.905 8       706.316          51.000
E01  23852073.656 8 125343473.207 8      -676.387          51.000    23852076.484 8  96042413.046 8      -518.345          51.000
E13  26837745.648 6 141033307.873 6     -2373.281          36.000    26837746.570 5 108064480.674 5     -1818.820          33.000
E26  23163768.125 8 121726518.438 8       175.742          51.000    23163772.062 8  93270963.821 8       134.672          51.000
E33  25293627.609 8 132918946.460 8      2698.617          49.000    25293628.453 8 101846982.366 8      2067.727          51.000
> 2020 05 01 11 19  0.0000000  0 16        .000000000000
G12  21600987.844 5 113513952.921 5     -2252.273          35.000
G24  24393779.695 6 128190101.008 6     -3699.582          38.000    24393780.492 6  99888387.595 6     -2882.794          38.000
G25  20234180.992 8 106331340.449 8      -592.621          51.000    20234182.781 8  82855591.512 8      -461.783          51.000
G29  20570245.219 8 108097380.179 8      1417.699          51.000    20570245.719 8  84231718.565 8      1104.704          51.000
G32  23134567.523 7 121572955.512 7     -2347.949          47.000    23134571.250 7  94732177.913 7     -1829.571          47.000
R15  20059705.820 8 107192946.329 8     -1790.234          51.000    20059708.398 7  83372309.208 7     -1392.408          47.000
R17  20014754.406 8 107103004.941 8     -2137.953          49.000    20014757.148 8  83302341.019 8     -1662.852          48.000
R18  19601325.289 8 104633315.474 8      2022.230          51.000    19601328.969 7  81381459.143 7      1572.846          47.000
C27  23427067.219 5 121990872.613 5     -2337.113          33.000
C29  24388019.305 6 126994861.174 6      3112.469          38.000
C30  21601783.078 8 112486134.050 8       660.770          51.000
E01  23856056.578 8 125364404.155 8      -713.883          51.000    23856059.555 8  96058451.027 8      -547.031          51.000
E13  26851421.039 5 141105173.644 5     -2412.289          35.000    26851422.602 5 108119550.644 5     -1848.392          33.000
E21  27162439.062 6 142739581.731 6     -2303.129          36.000
E26  23162908.242 8 121721999.369 8       130.613          51.000    23162912.070 8  93267501.162 8        99.985          51.000
E33  25278346.180 8 132838645.423 8      2659.824          49.000    25278347.656 8 101785453.012 8      2038.062          51.000
> 2020 05 01 11 19 30.0000000  0 16        .000000000000
G12  21613798.453 5 113581256.972 5     -2245.398          30.000    21613796.336 4  88504881.859 4     -1749.664          29.000
G24  24414846.773 6 128300804.152 6     -3688.320          37.000    24414846.039 6  99974649.627 6     -2874.019          38.000
G25  20237533.555 8 106348959.097 8      -589.805          51.000    20237535.516 8  82869320.319 8      -459.588          51.000
G29  20562135.422 8 108054762.177 8      1415.676          51.000    20562135.383 8  84198509.772 8      1103.127          51.000
G32  23147941.758 8 121643238.257 8     -2345.500          48.000    23147945.414 8  94786943.631 8     -1827.662          48.000
R15  20069738.141 8 107246555.503 8     -1791.781          51.000    20069740.633 8  83414005.180 8     -1393.611          48.000
R17  20026738.453 8 107167133.173 8     -2145.402          48.000    20026740.844 8  83352218.525 8     -1668.646          48.000
R18  19589965.969 8 104572676.680 8      2012.238          51.000    19589969.180 8  81334295.680 8      1565.077          48.000
C27  23440500.477 5 122060814.665 5     -2333.320          35.000
C29  24370041.148 6 126901257.992 6      3120.047          40.000
C30  21597958.289 8 112466216.866 8       659.203          51.000
E01  23860089.023 8 125385595.265 8      -706.773          51.000    23860091.734 8  96074688.344 8      -541.548          51.000
E13  26865153.000 5 141177339.445 5     -2406.641          35.000    26865155.258 5 108174846.508 5     -1843.918          32.000
E21  27175531.234 5 142808397.516 5     -2292.789          34.000
E26  23162142.070 8 121717972.909 8       129.945          51.000    23162145.828 8  93264415.969 8        99.580          51.000
E33  25263121.422 8 132758643.143 8      2665.676          50.000    25263123.883 8 101724152.569 8      2042.591          50.000
> 2020 05 01 11 20  0.0000000  0 17        .000000000000
G02  23238389.453 5 122118495.636 5     -1340.281          32.000
G12  21626607.664 6 113648558.843 6     -2242.379          36.000    21626604.445 6  88557324.851 6     -1747.308          36.000
G24  24435880.641 6 128411334.124 6     -3681.109          38.000    24435879.625 6 100060776.740 6     -2868.400          38.000
G25  20240902.664 8 106366663.745 8      -591.484          51.000    20240904.641 8  82883116.136 8      -460.900          51.000
G29  20554068.125 8 108012367.938 8      1409.527          51.000    20554067.570 8  84165475.344 8      1098.333          51.000
G32  23161333.570 8 121713612.279 8     -2347.266          48.000    23161337.312 7  94841780.466 7     -1829.041          47.000
R15  20079810.180 8 107300379.297 8     -1797.547          51.000    20079812.797 8  83455868.106 8     -1398.092          48.000
R17  20038796.461 7 107231657.583 7     -2157.184          47.000    20038798.711 8  83402404.179 8     -1677.809          48.000
R18  19578693.883 8 104512506.315 8      1998.086          51.000    19578697.203 8  81287496.541 8      1554.067          49.000
C27  23453941.102 6 122130800.122 6     -2333.367          37.000
C29  24352052.406 6 126807596.814 6      3123.035          40.000
C30  21594173.414 8 112446508.468 8       653.613          51.000
E01  23864112.734 8 125406741.351 8      -703.957          51.000    23864115.359 8  96090891.169 8      -539.435          51.000
E13  26878883.727 5 141249497.846 5     -2404.648          35.000    26878886.547 5 108230137.727 5     -1842.367          31.000
E21  27188594.211 5 142877029.798 5     -2286.238          34.000
E26  23161411.578 8 121714133.343 8       125.023          51.000    23161415.250 8  93261473.969 8        95.746          50.000
E33  25247896.117 8 132678635.666 8      2667.117          50.000    25247899.055 8 101662848.153 8      2043.614          50.000
> 2020 05 01 11 20 30.0000000  0 15        .000000000000
G24  24457019.430 6 128522416.416 6     -3697.945          39.000    24457018.766 6 100147334.226 6     -2881.522          40.000
G25  20244426.727 8 106385182.226 8      -617.348          51.000    20244428.516 8  82897546.109 8      -481.050          51.000
G29  20546181.781 8 107970925.587 8      1379.016          51.000    20546181.305 8  84133182.641 8      1074.558          51.000
G32  23174880.625 7 121784802.532 7     -2373.125          47.000    23174884.938 7  94897253.345 7     -1849.188          47.000
R15  20090061.117 8 107355157.864 8     -1828.141          51.000    20090064.023 8  83498473.667 8     -1421.887          49.000
R17  20051066.102 7 107297315.880 7     -2193.648          47.000    20051068.719 7  83453471.740 7     -1706.171          47.000
R18  19567648.266 8 104453545.040 8      1958.879          51.000    19567651.828 8  81241637.778 8      1523.572          50.000
C27  23467527.070 5 122201548.207 5     -2357.641          35.000
C29  24334192.062 6 126714600.411 6      3102.215          39.000
C30  21590567.422 8 112427730.149 8       623.824          51.000
E01  23868266.531 8 125428570.711 8      -725.473          51.000    23868269.250 8  96107617.539 8      -555.933          51.000
E13  26892751.516 5 141322362.200 5     -2428.152          35.000    26892754.867 5 108285979.750 5     -1860.434          31.000
E21                                                                  27201776.883 5 109530268.488 5     -1765.531          34.000
E26  23160854.969 8 121711208.441 8        95.711          50.000    23160858.680 8  93259232.814 8        73.388          50.000
E33  25232808.961 8 132599352.530 8      2644.234          50.000    25232812.031 8 101602098.763 8      2026.117          50.000
> 2020 05 01 11 21  0.0000000  0 17        .000000000000
G02  23254043.906 5 122200820.186 5     -1381.406          33.000
G12  21652480.539 5 113784534.910 5     -2267.785          35.000    21652467.734 5  88663244.504 5     -1767.108          34.000
G24  24478119.000 6 128633294.742 6     -3696.488          40.000    24478118.891 6 100233732.775 6     -2880.384          39.000
G25  20247962.070 8 106403759.687 8      -624.270          51.000    20247963.672 8  82912022.051 8      -486.444          51.000
G29  20538333.234 8 107929681.000 8      1367.434          51.000    20538332.773 8  84101043.995 8      1065.533          51.000
G32  23188438.797 7 121856051.372 7     -2379.926          47.000    23188443.984 7  94952771.880 7     -1854.488          46.000
R15  20100346.867 8 107410123.354 8     -1839.461          51.000    20100350.547 8  83541224.587 8     -1430.692          49.000
R17  20063403.805 7 107363336.319 7     -2210.797          45.000    20063406.492 7  83504820.970 7     -1719.509          47.000
R18  19556685.742 8 104395028.499 8      1938.977          50.000    19556689.836 8  81196124.931 8      1508.093          50.000
C27  23481115.625 5 122272308.920 5     -2363.195          33.000
C29  24316316.992 6 126621522.398 6      3099.934          39.000
C30  21586996.391 8 112409133.925 8       612.859          51.000
E01  23872407.008 8 125450328.932 8      -728.027          51.000    23872409.688 8  96124289.408 8      -557.893          51.000
E13  26906612.562 5 141395201.744 5     -2431.020          34.000
E21                                                                  27214920.180 5 109583186.028 5     -1764.882          31.000
E26  23160328.648 8 121708443.253 8        85.512          50.000    23160332.617 8  93257114.045 8        65.636          48.000
E33  25217716.234 8 132520040.589 8      2640.184          50.000    25217719.492 8 101541327.313 8      2023.037          50.000
> 2020 05 01 11 21 30.0000000  0 15        .000000000000
G12  21665449.844 5 113852730.480 5     -2278.496          33.000    21665445.094 5  88716384.002 5     -1775.448          31.000
G24  24499242.008 6 128744296.569 6     -3703.188          40.000    24499241.961 6 100320227.561 6     -2885.607          40.000
G25  20251571.391 8 106422726.116 8      -639.750          51.000    20251572.984 8  82926801.093 8      -498.506          51.000
G29  20530585.102 8 107888964.469 8      1347.426          51.000    20530584.711 8  84069316.821 8      1049.942          51.000
G32  23202070.469 7 121927686.017 7     -2395.285          46.000    23202076.266 7  95008591.029 7     -1866.459          46.000
R15  20110730.578 8 107465611.563 8     -1859.398          51.000    20110734.727 8  83584382.059 8     -1446.202          49.000
R17  20075870.969 7 107430051.497 7     -2236.457          44.000    20075873.703 7  83556710.559 7     -1739.467          47.000
R18  19545869.992 8 104337293.549 8      1910.363          51.000    19545873.891 8  81151219.976 8      1485.838          49.000
C27  23494769.578 5 122343407.554 5     -2376.953          35.000
C29  24298489.828 6 126528691.420 6      3089.113          36.000
C30  21583522.805 8 112391046.796 8       593.406          51.000
E01  23876596.938 8 125472346.509 8      -739.305          51.000    23876599.594 8  96141159.998 8      -566.432          51.000
E13  26920528.773 5 141468332.996 5     -2443.559          32.000
E26  23159895.734 8 121706167.767 8        66.680          49.000    23159899.508 7  93255370.485 7        51.119          47.000
E33  25202680.961 8 132441031.506 8      2627.613          49.000    25202684.141 8 101480787.933 8      2013.351          51.000
> 2020 05 01 11 22  0.0000000  0 14        .000000000000
G02  23270019.219 6 122284720.758 6     -1415.461          36.000
G24  24520375.672 6 128855355.624 6     -3704.895          39.000    24520375.758 6 100406766.993 6     -2886.931          38.000
G25  20255242.414 8 106442016.882 8      -650.141          51.000    20255244.016 8  82941832.858 8      -506.603          51.000
G29  20522925.352 8 107848711.747 8      1332.422          51.000    20522924.969 8  84037951.067 8      1038.251          51.000
G32  23215762.766 7 121999638.943 7     -2405.309          47.000    23215768.547 7  95064658.168 7     -1874.269          47.000
R15  20121199.930 8 107521556.262 8     -1874.152          51.000    20121204.234 8  83627894.578 8     -1457.674          49.000
R17  20088455.164 7 107497392.265 7     -2256.746          45.000    20088457.961 7  83609086.703 7     -1755.247          46.000
R18  19535189.141 8 104280276.501 8      1886.914          51.000    19535192.508 8  81106873.399 8      1467.600          48.000
C27  23508475.180 5 122414778.122 5     -2384.992          35.000
C29  24280698.727 5 126436044.880 5      3084.117          30.000
C30  21580134.406 8 112373404.652 8       579.016          51.000
E01  23880823.891 8 125494559.205 8      -745.344          51.000    23880826.602 8  96158180.110 8      -571.078          51.000
E26  23159543.391 8 121704317.096 8        52.957          49.000    23159546.844 7  93253952.462 7        40.580          45.000
E33  25187691.453 8 132362262.363 8      2620.031          50.000    25187694.070 8 101420432.403 8      2007.535          50.000
> 2020 05 01 11 22 30.0000000  0 14        .000000000000
G02  23278137.555 5 122327393.214 5     -1428.770          35.000
G12  21691531.891 5 113989768.555 5     -2291.152          31.000
G24  24541526.461 6 128966507.224 6     -3704.898          37.000    24541525.828 6 100493378.474 6     -2886.937          36.000
G25  20258982.125 8 106461668.811 8      -659.840          51.000    20258983.727 8  82957146.057 8      -514.161          51.000
G29  20515361.000 8 107808960.062 8      1317.898          51.000    20515360.352 8  84006975.732 8      1026.934          51.000
G32  23229522.195 8 122071944.146 8     -2414.758          48.000    23229527.398 8  95120999.821 8     -1881.633          48.000
R15  20131761.578 8 107577994.840 8     -1888.258          51.000    20131765.805 8  83671791.219 8     -1468.648          49.000
R17  20101162.555 7 107565392.768 7     -2276.465          43.000    20101165.211 7  83661975.986 7     -1770.584          45.000
R18  19524650.008 8 104224016.331 8      1863.871          51.000    19524652.844 7  81063115.529 7      1449.678          47.000
C27  23522238.500 5 122486455.157 5     -2393.242          34.000
C30  21576838.555 8 112356244.058 8       565.160          51.000
E01  23885095.039 8 125517004.373 8      -750.824          51.000    23885097.727 8  96175378.339 8      -575.307          51.000
E26  23159278.992 8 121702928.045 8        39.863          49.000    23159282.609 7  93252888.167 7        30.437          44.000
E33  25172755.445 8 132283771.652 8      2612.867          51.000    25172757.062 8 101360290.215 8      2002.112          51.000
> 2020 05 01 11 23  0.0000000  0 15        .000000000000
G02  23286343.492 5 122370559.281 5     -1444.293          33.000
G12  21704626.516 5 114058574.518 5     -2296.914          32.000
G24  24562687.461 5 129077793.569 5     -3706.984          33.000    24562685.547 4 100580091.121 4     -2888.602          28.000
G25  20262784.000 8 106481647.699 8      -671.012          51.000    20262785.695 8  82972714.026 8      -522.866          51.000
G29  20507885.250 8 107769675.664 8      1301.949          51.000    20507884.586 8  83976364.525 8      1014.506          51.000
G32  23243341.523 8 122144564.489 8     -2425.508          49.000    23243346.094 8  95177587.054 8     -1890.009          48.000
R15  20142409.156 8 107634892.387 8     -1903.934          51.000    20142413.242 8  83716044.861 8     -1480.837          49.000
R17  20113986.023 7 107634014.751 7     -2297.402          43.000    20113988.656 7  83715348.664 7     -1786.868          45.000
R18  19514246.406 8 104168480.412 8      1839.453          51.000    19514248.883 7  81019920.972 7      1430.689          47.000
C27  23536054.055 5 122558402.846 5     -2402.703          33.000
C29  24245232.805 5 126251286.867 5      3071.551          32.000
C30  21573628.227 8 112339530.985 8       549.980          49.000
E01  23889403.938 8 125539648.221 8      -757.699          51.000    23889406.742 8  96192728.806 8      -580.560          51.000
E26  23159095.969 7 121701966.258 7        25.281          47.000    23159099.445 7  93252151.259 7        19.455          44.000
E33  25157866.430 8 132205526.807 8      2604.449          51.000    25157867.188 8 101300336.420 8      1995.671          51.000
> 2020 05 01 11 23 30.0000000  0 14        .000000000000
G02  23294640.281 5 122414154.047 5     -1461.234          35.000
G24  24583863.672 5 129189073.477 5     -3710.543          34.000
G25  20266653.039 8 106501979.626 8      -683.531          51.000    20266654.961 8  82988557.072 8      -532.622          51.000
G29  20500503.328 8 107730885.104 8      1284.879          51.000    20500502.773 8  83946138.141 8      1001.204          51.000
G32  23257225.180 8 122217523.241 8     -2437.516          49.000    23257229.469 8  95234437.985 8     -1899.363          49.000
R15  20153147.875 8 107692275.422 8     -1920.754          51.000    20153151.922 8  83760676.082 8     -1493.923          49.000
R17  20126930.406 7 107703281.551 7     -2319.613          43.000    20126933.367 7  83769222.846 7     -1804.144          44.000
R18  19503983.273 8 104113696.439 8      1813.734          51.000    19503985.953 8  80977311.244 8      1410.685          48.000
C27  23549926.406 5 122630645.245 5     -2412.773          32.000
C29  24227564.375 6 126159270.922 6      3063.691          38.000
C30  21570508.828 8 112323291.270 8       533.453          49.000
E01  23893755.945 8 125562517.293 8      -766.023          51.000    23893758.688 8  96210251.852 8      -586.917          51.000
E26  23158998.680 7 121701457.625 7         9.480          46.000    23159002.414 7  93251761.579 7         7.207          45.000
E33  25143029.211 8 132127555.615 8      2594.531          50.000    25143029.828 8 101240592.301 8      1988.041          51.000
> 2020 05 01 11 24  0.0000000  0 14        .000000000000
G02  23303021.664 5 122458197.874 5     -1475.875          33.000
G24  24605053.250 5 129300427.466 5     -3712.051          34.000
G25  20270584.805 8 106522640.881 8      -694.602          51.000    20270586.906 8  83004656.741 8      -541.248          51.000
G29  20493211.023 8 107692564.942 8      1269.125          51.000    20493210.664 8  83916278.306 8       988.932          51.000
G32  23271168.164 8 122290793.875 8     -2447.875          48.000    23271172.555 8  95291531.934 8     -1907.435          48.000
R15  20163972.789 8 107750119.512 8     -1936.258          51.000    20163976.781 8  83805665.877 8     -1505.981          49.000
R17  20139989.820 7 107773165.511 7     -2340.043          43.000    20139992.703 7  83823577.067 7     -1820.033          42.000
R18  19493856.836 8 104059642.655 8      1789.270          51.000    19493860.172 8  80935269.436 8      1391.654          49.000
C27  23563850.312 4 122703156.974 4     -2422.176          29.000
C29  24209931.742 6 126067450.775 6      3056.988          39.000
C30  21567476.281 8 112307501.351 8       518.504          49.000
E01  23898146.492 8 125585588.382 8      -772.805          51.000    23898149.094 8  96227929.684 8      -592.104          51.000
E26  23158983.312 7 121701378.343 7        -4.742          46.000    23158987.352 7  93251700.853 7        -3.810          47.000
E33  25128239.445 8 132049836.089 8      2586.105          49.000    25128240.570 8 101181040.992 8      1981.540          51.000
> 2020 05 01 11 24 30.0000000  0 13        .000000000000
G24  24626254.219 5 129411836.945 5     -3714.684          35.000    24626258.141 5 100840408.882 5     -2894.559          34.000
G25  20274581.672 8 106543644.352 8      -706.219          51.000    20274583.812 8  83021023.068 8      -550.300          51.000
G29  20486010.797 8 107654728.345 8      1252.754          51.000    20486010.789 8  83886795.276 8       976.175          51.000
G32  23285172.281 8 122364386.400 8     -2458.715          48.000    23285176.906 7  95348876.696 7     -1915.885          47.000
R15  20174886.453 8 107808437.572 8     -1952.207          51.000    20174889.859 8  83851024.342 8     -1518.383          48.000
R17  20153166.836 7 107843676.578 7     -2361.066          43.000    20153169.539 6  83878418.963 6     -1836.385          41.000
R18  19483870.023 8 104006333.414 8      1764.281          50.000    19483874.000 8  80893806.700 8      1372.219          49.000
C27  23577828.695 4 122775941.131 4     -2430.773          29.000
C29  24192339.172 6 125975840.707 6      3050.004          40.000
C30  21564532.812 8 112292173.952 8       502.844          50.000
E01  23902577.805 8 125608874.807 8      -780.270          51.000    23902580.531 8  96245772.527 8      -597.857          51.000
E26  23159052.086 7 121701741.125 7       -19.934          44.000    23159056.469 8  93251978.810 8       -15.217          48.000
E33  25113500.242 8 131972382.686 8      2576.930          50.000    25113501.961 8 101121693.571 8      1974.528          51.000
> 2020 05 01 11 25  0.0000000  0 13        .000000000000
G24  24647468.812 5 129523319.100 5     -3715.785          34.000    24647476.484 5 100927288.374 5     -2895.429          35.000
G25  20278644.875 8 106564997.003 8      -716.863          51.000    20278647.055 8  83037661.484 8      -558.595          51.000
G29  20478904.258 8 107617382.584 8      1237.469          51.000    20478904.539 8  83857694.684 8       964.264          51.000
G32  23299238.406 7 122438304.861 7     -2468.316          45.000    23299242.875 7  95406475.441 7     -1923.363          45.000
R15  20185890.109 8 107867236.710 8     -1967.273          51.000    20185893.227 8  83896756.950 8     -1530.102          48.000
R17  20166461.211 7 107914818.094 7     -2381.066          43.000    20166464.984 6  83933751.330 6     -1851.937          40.000
R18  19474024.344 8 103953777.440 8      1740.090          51.000    19474028.633 8  80852929.825 8      1353.403          50.000
C27  23591862.836 5 122849017.551 5     -2440.309          31.000
C29  24174788.805 6 125884449.229 6      3043.555          40.000
C30  21561679.477 8 112277315.829 8       488.207          51.000
E01  23907051.344 8 125632384.016 8      -786.590          51.000    23907054.195 8  96263786.055 8      -602.727          51.000
E26  23159205.945 7 121702552.733 7       -33.887          44.000    23159210.984 8  93252600.681 8       -25.947          50.000
E33  25098813.750 8 131895204.030 8      2568.816          51.000    25098815.633 8 101062556.689 8      1968.299          51.000
> 2020 05 01 11 25 30.0000000  0 13        .000000000000
G24  24668693.625 5 129634858.731 5     -3719.027          35.000    24668702.250 5 101014199.222 5     -2897.940          34.000
G25  20282771.820 8 106586684.542 8      -728.344          51.000    20282774.094 8  83054560.839 8      -567.544          51.000
G29  20471888.469 8 107580513.914 8      1221.113          51.000    20471889.180 8  83828965.851 8       951.517          51.000
G32  23313363.117 7 122512532.126 7     -2479.219          44.000    23313367.219 7  95464314.823 7     -1931.859          44.000
R15  20196980.961 8 107926501.921 8     -1983.160          51.000    20196983.945 8  83942852.067 8     -1542.461          48.000
R17  20179870.195 7 107986572.267 7     -2401.867          47.000    20179873.891 6  83989560.085 6     -1868.122          36.000
R18  19464317.578 8 103901962.139 8      1714.938          51.000    19464322.133 8  80812629.060 8      1333.843          50.000
C27  23605949.148 5 122922363.512 5     -2449.000          31.000
C29  24157278.734 6 125793263.672 6      3036.188          40.000
C30  21558913.852 8 112262912.719 8       472.602          51.000
E01  23911564.695 8 125656102.149 8      -794.020          51.000    23911567.523 8  96281959.678 8      -608.411          51.000
E26  23159442.961 7 121703798.723 7       -48.629          45.000    23159448.422 8  93253555.348 8       -37.294          51.000
E33  25084177.445 8 131818287.525 8      2559.621          51.000    25084179.000 8 101003620.683 8      1961.229          51.000
> 2020 05 01 11 26  0.0000000  0 13        .000000000000
G24  24689927.336 5 129746444.757 5     -3720.434          32.000
G25  20286964.453 8 106608716.819 8      -739.543          51.000    20286966.742 8  83071728.843 8      -576.267          51.000
G29  20464965.250 8 107544132.216 8      1205.078          50.000    20464966.172 8  83800616.473 8       939.022          50.000
G32  23327548.203 7 122587075.179 7     -2489.531          47.000    23327551.836 7  95522400.294 7     -1939.898          47.000
R15  20208160.742 8 107986243.121 8     -1998.723          51.000    20208163.297 8  83989317.404 8     -1554.562          48.000
R17  20193395.453 7 108058945.424 7     -2422.191          44.000    20193397.148 5  84045850.304 5     -1883.924          34.000
R18  19454751.742 8 103850898.883 8      1690.102          50.000    19454756.125 8  80772913.228 8      1314.523          49.000
C27  23620088.297 5 122995986.491 5     -2457.656          30.000
C29  24139811.352 6 125702295.355 6      3029.281          37.000
C30  21556237.453 8 112248974.327 8       457.422          51.000
E01  23916119.898 8 125680039.552 8      -801.047          51.000    23916122.625 8  96300301.318 8      -613.744          51.000
E26  23159764.344 7 121705488.674 7       -63.191          44.000    23159770.031 8  93254850.221 8       -48.354          51.000
E33  25069593.195 8 131741644.663 8      2550.750          51.000    25069594.070 8 100944894.365 8      1954.552          50.000
> 2020 05 01 11 26 30.0000000  0 14        .000000000000
G12  21797465.133 6 114546456.480 6     -2347.746          37.000    21797478.477 6  89257048.496 6     -1829.419          37.000
G24  24711175.070 5 129858099.520 5     -3722.184          31.000    24711181.148 4 101188147.141 4     -2900.403          29.000
G25  20291219.945 8 106631079.520 8      -751.285          51.000    20291222.156 8  83089154.302 8      -585.417          51.000
G29  20458132.227 8 107508223.555 8      1188.809          51.000    20458132.594 8  83772635.689 8       926.344          51.000
G32  23341790.406 8 122661916.837 8     -2499.984          48.000    23341793.953 8  95580718.406 8     -1948.043          48.000
R15  20219426.750 8 108046445.376 8     -2014.789          51.000    20219429.398 8  84036141.336 8     -1567.061          49.000
R17  20207032.812 7 108131919.889 7     -2442.625          44.000    20207033.719 4  84102608.191 4     -1899.819          28.000
R18  19445324.484 8 103800574.701 8      1664.914          50.000    19445328.547 8  80733772.179 8      1294.933          49.000
C27  23634277.633 5 123069870.308 5     -2466.914          31.000
C29  24122386.859 5 125611531.541 5      3022.285          32.000
C30  21553647.406 8 112235486.284 8       441.902          51.000
E01  23920714.281 8 125704182.355 8      -808.418          51.000    23920716.945 8  96318800.345 8      -619.410          51.000
E26  23160167.820 7 121707608.100 7       -78.027          46.000    23160173.344 8  93256474.174 8       -59.772          51.000
E33  25055058.422 8 131665262.766 8      2541.496          51.000    25055058.016 8 100886368.046 8      1947.368          48.000
> 2020 05 01 11 27  0.0000000  0 15        .000000000000
G02  23355133.562 5 122732059.599 5     -1567.102          33.000
G12  21810890.789 6 114617003.153 6     -2355.129          40.000    21810901.984 6  89312019.799 6     -1835.165          36.000
G24  24732431.875 5 129969804.582 5     -3724.992          34.000    24732434.656 5 101275189.039 5     -2902.594          34.000
G25  20295540.977 8 106653786.290 8      -762.941          51.000    20295543.000 8  83106847.879 8      -594.500          51.000
G29  20451392.180 8 107472801.852 8      1172.320          51.000    20451391.703 8  83745034.356 8       913.496          51.000
G32  23356091.523 8 122737067.855 8     -2510.477          48.000    23356095.336 8  95639277.568 8     -1956.219          48.000
R15  20230781.414 8 108107122.565 8     -2030.871          51.000    20230784.344 8  84083334.687 8     -1579.566          48.000
R17  20220784.320 7 108205505.979 7     -2463.402          44.000    20220784.664 4  84159831.631 4     -1915.986          28.000
R18  19436038.555 8 103751004.782 8      1639.352          50.000    19436042.477 8  80695217.810 8      1275.054          49.000
C27  23648519.008 5 123144026.739 5     -2476.984          31.000
C29  24105002.383 6 125520987.514 6      3013.785          38.000
C30  21551146.656 8 112222462.024 8       426.078          51.000
E01  23925350.281 8 125728544.697 8      -816.117          51.000    23925353.125 8  96337467.582 8      -625.360          51.000
E26  23160656.148 7 121710170.402 7       -93.078          46.000    23160661.266 8  93258437.494 8       -71.379          51.000
E33  25040575.812 8 131589157.151 8      2531.852          51.000    25040573.289 7 100828053.421 7      1940.041          46.000
> 2020 05 01 11 27 30.0000000  0 14        .000000000000
G12  21824357.461 6 114687770.391 6     -2362.363          36.000    21824360.539 6  89367163.261 6     -1840.796          36.000
G24  24753699.227 5 130081571.968 5     -3725.781          35.000    24753701.938 5 101362280.455 5     -2903.209          34.000
G25  20299928.578 8 106676842.861 8      -773.797          51.000    20299930.492 8  83124814.028 8      -602.959          51.000
G29  20444745.797 8 107437873.189 8      1156.770          51.000    20444745.164 8  83717817.238 8       901.382          51.000
G32  23370451.906 8 122812531.032 8     -2519.957          48.000    23370456.141 8  95698079.982 8     -1963.606          48.000
R15  20242226.055 8 108168280.098 8     -2045.898          51.000    20242229.125 8  84130901.653 8     -1591.257          49.000
R17  20234650.680 6 108279705.944 6     -2483.020          40.000    20234657.305 4  84217542.808 4     -1931.231          27.000
R18  19426895.570 8 103702196.648 8      1614.809          51.000    19426898.641 7  80657255.953 7      1255.962          47.000
C27  23662813.906 5 123218459.585 5     -2485.242          30.000
C29  24087657.438 6 125430670.477 6      3007.109          41.000
C30  21548735.945 8 112209907.047 8       411.246          51.000
E01  23930029.281 8 125753132.764 8      -822.832          51.000    23930032.156 8  96356307.775 8      -630.485          51.000
E26  23161229.477 8 121713181.104 8      -107.223          48.000    23161234.336 8  93260744.386 8       -82.223          51.000
E33  25026146.719 8 131513335.192 8      2523.203          48.000    25026143.094 7 100769956.154 7      1933.381          46.000
> 2020 05 01 11 28  0.0000000  0 14        .000000000000
G02  23373200.062 5 122826994.968 5     -1594.930          32.000
G12  21837860.805 6 114758735.432 6     -2366.590          37.000    21837865.781 6  89422460.522 6     -1844.099          36.000
G24  24774973.305 5 130193377.451 5     -3725.637          35.000    24774977.234 5 101449401.500 5     -2903.097          35.000
G25  20304378.406 8 106700226.855 8      -782.820          51.000    20304380.266 8  83143035.317 8      -609.990          51.000
G29  20438188.797 8 107403415.416 8      1142.711          51.000    20438188.078 8  83690967.019 8       890.424          51.000
G32  23384866.922 8 122888281.147 8     -2527.824          49.000    23384871.500 8  95757105.989 8     -1969.736          49.000
R15  20253756.391 8 108229894.988 8     -2059.426          51.000    20253760.141 8  84178824.293 8     -1601.779          49.000
R17  20248625.328 6 108354493.507 6     -2500.691          40.000
R18  19417891.273 8 103654128.848 8      1591.992          51.000    19417893.258 7  80619869.896 7      1238.219          47.000
C29  24070349.836 7 125340559.802 7      3002.172          45.000
C30  21546410.820 8 112197799.051 8       398.168          51.000
E01  23934747.180 8 125777924.659 8      -827.695          51.000    23934749.820 8  96375304.151 8      -634.235          51.000
E26  23161883.891 8 121716617.592 8      -119.582          49.000    23161888.273 8  93263377.523 8       -91.634          51.000
E33  25011767.273 7 131437776.152 7      2516.293          47.000    25011764.883 7 100712060.314 7      1928.096          47.000
> 2020 05 01 11 28 30.0000000  0 14        .000000000000
G02  23382355.938 5 122875118.684 5     -1612.070          33.000
G12  21851405.289 6 114829913.537 6     -2377.180          38.000    21851410.531 6  89477923.879 6     -1852.354          39.000
G24  24796257.680 5 130305235.664 5     -3729.738          33.000    24796263.906 5 101536563.646 5     -2906.293          32.000
G25  20308893.547 8 106723954.366 8      -797.441          51.000    20308895.336 8  83161524.279 8      -621.383          51.000
G29  20431724.414 8 107369444.753 8      1123.246          50.000    20431723.547 8  83664496.336 8       875.257          50.000
G32  23399338.938 8 122964331.307 8     -2540.984          48.000    23399343.570 8  95816365.790 8     -1979.988          48.000
R15  20265375.430 8 108291983.169 8     -2078.387          51.000    20265379.438 8  84227115.051 8     -1616.523          49.000
R17  20262713.109 6 108429881.489 6     -2523.992          38.000    20262723.742 4  84334374.793 4     -1963.102          26.000
R18  19409028.547 8 103606819.129 8      1563.492          51.000    19409030.078 7  80583073.468 7      1216.049          47.000
C29  24053084.742 7 125250672.949 7      2991.617          47.000
C30  21544174.344 8 112186153.763 8       379.512          51.000
E01  23939507.008 8 125802936.908 8      -838.316          51.000    23939509.328 8  96394469.363 8      -642.340          51.000
E26  23162622.305 8 121720495.680 8      -137.617          49.000    23162626.000 8  93266349.027 8      -105.429          51.000
E33  24997441.531 8 131362497.741 8      2503.645          48.000    24997441.617 8 100654379.473 8      1918.350          50.000
> 2020 05 01 11 29  0.0000000  0 16        .000000000000
G02  23391558.227 5 122923480.316 5     -1625.059          32.000
G12  21864950.219 6 114901092.208 6     -2381.676          37.000    21864950.742 6  89533387.698 6     -1855.854          36.000
G24  24817512.602 5 130416933.257 5     -3728.758          33.000    24817519.156 5 101623600.556 5     -2905.529          32.000
G25  20313433.766 8 106747813.272 8      -806.246          51.000    20313435.500 8  83180115.641 8      -628.244          51.000
G29  20425311.852 8 107335749.424 8      1109.754          49.000    20425311.602 8  83638240.224 8       864.743          50.000
G32  23413826.922 8 123040466.627 8     -2548.027          48.000    23413831.398 8  95875691.940 8     -1985.479          48.000
R15  20277042.672 8 108354328.949 8     -2091.406          51.000    20277046.633 8  84275606.201 8     -1626.649          50.000
R17  20276871.508 6 108505650.548 6     -2541.012          41.000
R18  19400267.430 8 103560053.640 8      1540.805          51.000    19400269.188 7  80546700.342 7      1198.404          47.000
C27  23705982.656 5 123443299.128 5     -2510.234          33.000
C29  24035822.672 8 125160801.302 8      2986.734          48.000
C30  21541986.383 8 112174760.861 8       366.855          51.000
E01  23944268.375 8 125827957.913 8      -842.965          51.000    23944270.414 8  96413641.280 8      -645.872          51.000
E13  27134537.516 5 142592954.143 5     -2553.973          35.000    27134541.289 5 109259552.915 5     -1956.880          34.000
E26  23163404.000 8 121724602.988 8      -149.469          49.000    23163407.328 8  93269496.176 8      -114.651          50.000
E33  24983129.633 8 131287289.467 8      2496.969          49.000    24983131.914 8 100596752.368 8      1913.226          51.000
> 2020 05 01 11 29 30.0000000  0 17        .000000000000
G02  23400899.320 5 122972567.128 5     -1641.688          31.000
G12  21878588.633 6 114972760.469 6     -2390.465          39.000    21878585.711 6  89589233.148 6     -1862.694          39.000
G14  23000676.875 5 120869373.469 5     -1142.504          34.000
G24  24838830.352 5 130528933.038 5     -3733.188          31.000    24838837.938 5 101710891.625 5     -2908.983          31.000
G25  20318092.148 8 106772293.116 8      -819.863          51.000    20318093.891 8  83199190.834 8      -638.855          51.000
G29  20419044.875 8 107302819.222 8      1091.289          50.000    20419044.945 8  83612580.334 8       850.355          51.000
G32  23428423.570 7 123117173.680 7     -2559.988          46.000    23428427.836 7  95935463.605 7     -1994.799          46.000
R15  20288851.031 8 108417429.531 8     -2109.520          51.000    20288855.422 8  84324684.399 8     -1640.737          50.000
R17  20291195.297 6 108582295.715 6     -2562.730          41.000    20291204.219 5  84452876.032 5     -1993.235          31.000
R18  19391701.570 8 103514330.735 8      1513.176          50.000    19391703.703 7  80511138.089 7      1176.914          47.000
C27  23720491.906 5 123518842.353 5     -2520.504          33.000
C29  24018657.453 8 125071431.437 8      2977.023          48.000
C30  21539939.797 8 112164105.210 8       349.312          51.000
E01  23949124.680 8 125853477.620 8      -852.410          51.000    23949126.500 8  96433195.324 8      -653.107          51.000
E13  27149159.625 5 142669797.482 5     -2562.961          34.000    27149164.203 5 109318432.860 5     -1964.046          33.000
E26  23164322.305 8 121729428.786 8      -166.320          49.000    23164325.891 8  93273193.849 8      -127.362          49.000
E33  24968924.906 8 131212642.460 8      2485.305          49.000    24968928.414 8 100539555.313 8      1904.417          51.000
> 2020 05 01 11 30  0.0000000  0 15        .000000000000
G12  21892261.930 4 115044612.504 4     -2399.219          28.000    21892259.258 4  89645221.701 4     -1869.533          29.000
G24  24860158.992 5 130641014.759 5     -3736.570          33.000    24860165.750 5 101798207.321 5     -2911.613          33.000
G25  20322810.609 8 106797088.636 8      -833.328          51.000    20322812.289 8  83218512.023 8      -649.344          51.000
G29  20412865.906 8 107270348.917 8      1073.168          51.000    20412865.781 8  83587278.790 8       836.235          51.000
G32  23443070.492 7 123194144.207 7     -2571.516          46.000    23443074.406 7  95995440.580 7     -2003.778          46.000
R15  20300742.625 8 108480974.067 8     -2127.051          51.000    20300746.883 8  84374107.907 8     -1654.376          50.000
R17  20305623.812 6 108659502.233 6     -2584.281          36.000    20305632.547 4  84512925.633 4     -2009.993          29.000
R18  19383273.141 8 103469341.756 8      1485.852          50.000    19383276.047 8  80476146.682 8      1155.662          48.000
C27  23735043.758 5 123594618.698 5     -2531.473          33.000
C29  24001531.391 7 124982262.380 7      2967.488          47.000
C30  21537976.867 8 112153884.076 8       331.973          51.000
E01  23954017.797 8 125879191.252 8      -861.797          51.000    23954019.469 8  96452897.962 8      -660.332          51.000
E13  27163817.555 5 142746824.925 5     -2572.203          32.000    27163823.742 5 109377457.672 5     -1970.771          32.000
E26  23165319.469 8 121734667.502 8      -182.988          48.000    23165323.031 7  93277207.940 7      -140.167          47.000
E33  24954769.281 8 131138253.071 8      2473.852          49.000    24954773.391 8 100482555.669 8      1895.510          51.000
> 2020 05 01 11 30 30.0000000  0 13        .000000000000
G25  20327584.172 8 106822173.876 8      -837.117          51.000    20327585.883 8  83238058.966 8      -652.299          51.000
G29  20406769.656 8 107238312.768 8      1064.527          51.000    20406769.500 8  83562315.599 8       829.505          51.000
G32  23457762.250 7 123271349.467 7     -2573.488          46.000    23457765.711 7  96055600.454 7     -2005.319          46.000
R15  20312712.508 8 108544936.284 8     -2135.035          51.000    20312716.414 8  84423856.259 8     -1660.583          50.000
R17  20320150.641 6 108737240.352 6     -2596.254          38.000    20320149.961 5  84573409.508 5     -2019.309          30.000
R18  19374977.688 8 103425061.459 8      1468.184          50.000    19374981.055 8  80441706.452 8      1141.921          49.000
C27  23749635.742 5 123670600.569 5     -2532.488          30.000
C29  23984439.164 7 124893269.937 7      2967.293          45.000
C30  21536092.594 8 112144071.539 8       324.234          51.000
E01  23958942.883 8 125905073.341 8      -861.613          51.000    23958944.266 8  96472729.672 8      -660.200          51.000
E13                                                                  27178513.680 5 109436611.213 5     -1970.780          30.000
E26  23166389.969 7 121740292.907 7      -189.996          47.000    23166393.383 7  93281518.292 7      -145.483          44.000
E33  24940657.906 8 131064097.000 8      2471.973          48.000    24940662.039 8 100425734.777 8      1894.025          51.000
> 2020 05 01 11 31  0.0000000  0 11        .000000000000
G25  20332445.930 8 106847722.273 8      -863.387          51.000    20332447.648 8  83257966.809 8      -672.769          51.000
G29  20400789.055 8 107206884.685 8      1033.438          51.000    20400789.227 8  83537826.246 8       805.276          51.000
G32  23472531.188 7 123348959.951 7     -2597.539          46.000    23472534.203 7  96116076.068 7     -2024.059          46.000
R15  20324793.281 8 108609491.771 8     -2165.754          51.000    20324796.977 8  84474066.044 8     -1684.475          50.000
R17  20334809.594 6 108815683.159 6     -2630.543          37.000    20334812.266 5  84634420.532 5     -2045.981          33.000
R18  19366848.148 8 103381667.283 8      1427.711          50.000    19366852.414 8  80407955.428 8      1110.442          50.000
C29  23967414.258 7 124804627.538 7      2944.980          44.000
C30  21534319.586 8 112134839.259 8       294.195          51.000
E01  23963933.148 8 125931297.821 8      -883.750          51.000    23963934.383 8  96492823.725 8      -677.153          51.000
E26  23167566.781 7 121746478.112 7      -219.355          46.000    23167570.070 6  93286257.625 6      -168.069          41.000
E33  24926624.617 8 130990349.274 8      2447.449          50.000    24926627.602 8 100369226.767 8      1875.294          50.000
> 2020 05 01 11 31 30.0000000  0 11        .000000000000
G25  20337356.180 8 106873525.482 8      -863.840          51.000    20337357.828 8  83278073.214 8      -673.122          51.000
G29  20394884.648 8 107175856.266 8      1028.059          51.000    20394884.961 8  83513648.275 8       801.085          51.000
G32  23487336.898 7 123426764.400 7     -2596.262          44.000    23487339.875 7  96176702.824 7     -2023.064          45.000
R15  20336944.875 8 108674428.463 8     -2170.406          51.000    20336948.578 8  84524572.338 8     -1688.094          49.000
R17  20349560.516 5 108894614.747 5     -2638.500          35.000    20349564.578 5  84695811.834 5     -2052.167          33.000
R18  19358845.273 8 103338948.756 8      1413.184          50.000    19358850.312 8  80374729.932 8      1099.146          50.000
C29  23950417.977 7 124716130.233 7      2948.070          45.000
C30  21532618.391 8 112125980.513 8       289.570          51.000
E01  23968949.133 8 125957656.789 8      -880.344          51.000    23968950.141 8  96513020.828 8      -674.564          51.000
E26  23168810.461 7 121753014.517 7      -223.191          45.000    23168812.164 5  93291266.048 5      -170.897          34.000
E33  24912629.977 8 130916803.103 8      2448.680          51.000    24912631.305 8 100312873.233 8      1876.330          48.000
> 2020 05 01 11 32  0.0000000  0 13        .000000000000
G12  21947339.047 5 115334035.687 5     -2425.547          33.000    21947337.938 5  89870682.567 5     -1890.021          34.000
G24  24945512.102 5 131089544.081 5     -3740.355          32.000    24945520.414 5 102147719.352 5     -2914.560          32.000
G25  20342322.203 8 106899622.017 8      -876.809          51.000    20342323.898 8  83298408.178 8      -683.227          51.000
G29  20389063.562 8 107145265.745 8      1010.434          51.000    20389063.844 8  83489811.517 8       787.351          51.000
G32  23502186.047 7 123504798.328 7     -2607.078          44.000    23502189.445 7  96237508.410 7     -2031.489          44.000
R15  20349175.297 8 108739785.006 8     -2187.473          51.000    20349179.195 8  84575405.176 8     -1701.371          49.000
R17  20364409.266 5 108974070.910 5     -2659.648          30.000    20364412.852 5  84757611.106 5     -2068.606          32.000
R18  19350976.773 8 103296946.192 8      1386.094          51.000    19350982.125 8  80342061.293 8      1078.076          51.000
C29  23933458.344 7 124627817.681 7      2938.574          45.000
C30  21530996.227 8 112117533.230 8       272.699          51.000
E01  23973998.094 8 125984189.209 8      -889.250          51.000    23973998.922 8  96533350.843 8      -681.385          51.000
E26  23170127.672 7 121759940.168 7      -239.207          44.000
E33  24898681.469 8 130843498.576 8      2437.504          51.000    24898681.352 8 100256704.904 8      1867.659          48.000
> 2020 05 01 11 32 30.0000000  0 13        .000000000000
G12  21961204.273 6 115406895.029 6     -2431.422          38.000    21961191.922 5  89927455.953 5     -1894.624          35.000
G14  23041516.367 6 121083981.584 6     -1239.645          36.000
G25  20347359.000 8 106926090.643 8      -887.355          51.000    20347360.844 8  83319033.079 8      -691.446          51.000
G29  20383341.172 8 107115192.627 8       994.902          51.000    20383341.352 8  83466377.935 8       775.249          51.000
G32  23517093.539 7 123583137.590 7     -2615.043          45.000    23517097.242 7  96298551.969 7     -2037.696          45.000
R15  20361499.820 8 108805641.109 8     -2202.395          51.000    20361503.398 8  84626626.545 8     -1712.977          48.000
R17  20379367.820 5 109054128.150 5     -2677.598          30.000    20379372.188 5  84819877.855 5     -2082.579          31.000
R18  19343257.633 8 103255740.822 8      1361.348          51.000    19343263.242 8  80310012.713 8      1058.826          50.000
C29  23916549.688 7 124539769.415 7      2931.656          42.000
C30  21529468.031 8 112109575.106 8       258.297          51.000
E01  23979095.258 8 126010974.299 8      -896.098          51.000    23979096.000 8  96553874.472 8      -686.644          51.000
E26  23171534.227 7 121767333.603 7      -253.191          43.000    23171538.383 5  93302181.151 5      -194.330          33.000
E33  24884794.039 8 130770516.073 8      2428.340          51.000    24884793.508 8 100200783.327 8      1860.625          49.000
> 2020 05 01 11 33  0.0000000  0 13        .000000000000
G12  21975095.203 6 115479894.752 6     -2435.633          37.000    21975080.969 6  89984338.789 6     -1897.890          36.000
G14  23048633.641 6 121121368.837 6     -1252.949          36.000
G25  20352448.102 8 106952834.424 8      -895.820          51.000    20352450.039 8  83339872.385 8      -698.042          51.000
G29  20377698.773 8 107085540.099 8       981.586          51.000    20377698.617 8  83443272.083 8       764.872          51.000
G32  23532040.281 7 123661682.460 7     -2621.219          46.000    23532044.500 7  96359755.713 7     -2042.511          45.000
R15  20373899.445 8 108871897.927 8     -2215.039          51.000    20373902.242 8  84678159.587 8     -1722.808          48.000
R17  20394420.930 5 109134684.296 5     -2693.184          30.000    20394424.430 5  84882532.659 5     -2094.698          30.000
R18  19335669.656 8 103215234.982 8      1338.648          51.000    19335674.953 8  80278508.203 8      1041.171          50.000
C29  23899673.539 7 124451891.022 7      2926.484          43.000
C30  21528015.398 8 112102009.907 8       245.809          51.000
E01  23984222.172 8 126037915.647 8      -900.359          51.000    23984223.023 8  96574517.826 8      -689.877          51.000
E26  23173011.328 6 121775097.423 6      -264.809          40.000    23173014.906 6  93308130.020 6      -202.827          38.000
E33  24870949.383 8 130697760.267 8      2421.664          51.000    24870949.461 8 100145035.436 8      1855.603          51.000
> 2020 05 01 11 33 30.0000000  0 13        .000000000000
G12  21989034.961 6 115553148.843 6     -2445.453          38.000    21989023.594 6  90041419.729 6     -1905.557          36.000
G14  23055848.531 5 121159285.686 5     -1272.078          32.000
G25  20357611.352 8 106979967.712 8      -910.203          51.000    20357613.414 8  83361015.201 8      -709.249          51.000
G29  20372157.953 8 107056422.458 8       962.457          51.000    20372157.367 8  83420583.018 8       749.967          51.000
G32  23547047.438 7 123740544.308 7     -2633.281          46.000    23547052.117 7  96421206.438 7     -2051.911          46.000
R15  20386395.297 8 108938671.170 8     -2233.586          51.000    20386397.891 8  84730094.285 8     -1737.237          49.000
R17  20409590.047 5 109215852.180 5     -2714.621          33.000    20409589.812 4  84945663.172 4     -2111.375          29.000
R18  19328235.000 8 103175546.032 8      1310.059          51.000    19328239.414 8  80247639.018 8      1018.934          49.000
C29  23882852.727 7 124364297.161 7      2915.758          46.000
C30  21526659.820 8 112094950.601 8       227.602          51.000
E01  23989400.445 8 126065128.081 8      -910.855          51.000    23989401.602 8  96595368.906 8      -697.913          51.000
E26  23174580.609 7 121783345.727 7      -282.406          42.000    23174584.945 6  93314450.122 6      -216.335          41.000
E33  24857169.742 8 130625347.104 8      2408.797          51.000    24857170.609 8 100089550.073 8      1845.737          51.000
> 2020 05 01 11 34  0.0000000  0 12        .000000000000
G12  22003013.422 6 115626606.823 6     -2452.934          36.000    22003006.594 5  90098659.650 5     -1911.383          34.000
G25  20362839.117 8 107007440.349 8      -922.352          51.000    20362841.289 8  83382422.447 8      -718.716          51.000
G29  20366709.273 8 107027789.625 8       945.461          51.000    20366708.484 8  83398271.735 8       736.726          51.000
G32  23562104.867 7 123819669.967 7     -2642.773          47.000    23562109.352 7  96482862.746 7     -2059.304          47.000
R15  20398977.953 8 109005909.519 8     -2249.977          51.000    20398980.742 8  84782390.746 8     -1749.985          48.000
R17  20424862.273 5 109297576.873 5     -2733.844          31.000    20424864.242 5  85009226.841 5     -2126.317          32.000
R18  19320943.484 8 103136624.214 8      1283.668          50.000    19320947.641 8  80217366.496 8       998.408          49.000
C29  23866077.945 8 124276939.623 8      2907.105          48.000
C30  21525391.539 8 112088347.182 8       211.664          51.000
E01  23994620.867 8 126092561.884 8      -919.020          51.000    23994622.305 8  96616389.614 8      -704.202          51.000
E26  23176232.977 7 121792027.920 7      -297.543          45.000    23176238.141 7  93321102.661 7      -227.907          43.000
E33  24843445.844 8 130553227.983 8      2398.262          51.000    24843447.141 8 100034289.985 8      1837.647          51.000
> 2020 05 01 11 34 30.0000000  0 13        .000000000000
G12  22017037.000 6 115700302.311 6     -2454.340          37.000    22017035.742 6  90156084.524 6     -1912.476          37.000
G14  23070556.906 5 121236555.792 5     -1298.586          34.000
G25  20368137.914 8 107035286.269 8      -928.078          51.000    20368140.195 8  83404120.542 8      -723.178          51.000
G29  20361359.188 8 106999675.483 8       934.805          51.000    20361358.312 8  83376364.622 8       728.419          51.000
G32  23577218.242 7 123899090.516 7     -2646.070          47.000    23577222.016 7  96544748.834 7     -2061.873          46.000
R15  20411653.883 8 109073646.969 8     -2259.777          51.000    20411656.906 8  84835075.403 8     -1757.605          48.000
R17  20440243.523 6 109379889.428 6     -2746.984          36.000    20440248.391 5  85073247.774 5     -2136.546          30.000
R18  19313802.484 8 103098504.891 8      1263.688          51.000    19313806.305 8  80187718.128 8       982.868          48.000
C29  23849355.039 8 124189853.606 8      2904.633          50.000
C30  21524217.367 8 112082232.961 8       201.891          51.000
E01  23999889.836 8 126120251.453 8      -920.996          51.000    23999891.625 8  96637606.291 8      -705.644          51.000
E26  23177974.414 7 121801177.512 7      -306.449          46.000    23177979.539 7  93328113.375 7      -234.809          44.000
E33  24829784.453 8 130481438.397 8      2393.797          51.000    24829786.188 8  99979282.376 8      1834.175          51.000
> 2020 05 01 11 35  0.0000000  0 14        .000000000000
G12  22031086.203 5 115774129.843 5     -2470.070          34.000    22031087.555 5  90213612.372 5     -1924.736          33.000
G14  23078041.125 5 121275918.096 5     -1323.637          34.000
G25  20373487.891 8 107063400.953 8      -948.730          51.000    20373490.250 8  83426028.076 8      -739.270          51.000
G29  20356087.695 8 106971975.672 8       909.203          51.000    20356086.938 8  83354780.350 8       708.470          51.000
G32  23592367.180 7 123978698.499 7     -2663.926          46.000    23592370.188 7  96606780.935 7     -2075.789          46.000
R15  20424403.320 8 109141776.624 8     -2284.887          51.000    20424406.461 8  84888065.100 8     -1777.134          48.000
R17  20455716.945 5 109462680.064 5     -2774.422          30.000    20455716.570 5  85137638.269 5     -2157.890          30.000
R18  19306792.180 8 103061082.559 8      1228.430          51.000    19306794.906 7  80158611.851 7       955.445          47.000
C27  23883139.555 5 124365786.698 5     -2615.496          31.000
C29  23832663.773 8 124102937.005 8      2887.328          50.000
C30  21523117.148 8 112076504.034 8       177.461          51.000
E01  24005187.633 8 126148092.718 8      -937.707          51.000    24005189.945 8  96658939.225 8      -718.494          51.000
E26  23179784.719 7 121810689.616 7      -330.262          46.000    23179789.078 7  93335401.860 7      -252.992          46.000
E33  24816165.984 8 130409875.439 8      2374.469          51.000    24816168.266 8  99924448.409 8      1819.443          51.000
> 2020 05 01 11 35 30.0000000  0 13        .000000000000
G12  22045190.258 5 115848247.235 5     -2472.352          35.000    22045192.758 5  90271366.187 5     -1926.511          34.000
G25  20378919.039 8 107091942.408 8      -955.512          51.000    20378921.531 8  83448268.169 8      -744.555          51.000
G29  20350925.266 8 106944848.376 8       897.688          51.000    20350924.531 8  83333642.219 8       699.500          51.000
G32  23607581.031 7 124058649.076 7     -2667.879          44.000    23607583.578 7  96669079.975 7     -2078.870          44.000
R15  20437256.203 8 109210458.948 8     -2295.637          51.000    20437259.297 8  84941484.647 8     -1785.495          48.000
R17  20471299.312 6 109546092.419 6     -2788.660          37.000    20471317.297 5  85202555.920 5     -2168.958          32.000
R18  19299942.719 8 103024518.954 8      1207.441          51.000    19299945.250 8  80130173.537 8       939.121          48.000
C27  23898213.984 5 124444276.082 5     -2618.723          35.000
C29  23816034.906 8 124016347.917 8      2883.781          50.000
C30  21522120.977 8 112071316.668 8       166.863          51.000
E01  24010544.570 8 126176244.238 8      -940.512          51.000    24010547.188 8  96680509.880 8      -720.655          51.000
E26  23181694.164 7 121820721.851 7      -340.043          47.000    23181697.898 7  93343088.917 7      -260.570          47.000
E33  24802621.125 8 130338698.668 8      2369.125          51.000    24802623.766 8  99869910.356 8      1815.342          51.000
> 2020 05 01 11 36  0.0000000  0 12        .000000000000
G25  20384402.672 8 107120759.367 8      -966.383          51.000    20384405.344 8  83470722.924 8      -753.026          51.000
G29  20345843.258 8 106918142.281 8       881.844          51.000    20345842.258 8  83312832.295 8       687.154          51.000
G32  23622830.492 6 124138787.933 6     -2675.594          41.000    23622833.180 6  96731525.774 6     -2084.878          40.000
R15  20450183.508 8 109279539.450 8     -2310.582          51.000    20450186.977 8  84995213.885 8     -1797.122          48.000
R17  20486990.555 6 109629995.579 6     -2805.906          41.000    20486988.703 5  85267813.773 5     -2182.381          30.000
R18  19293225.523 8 102988661.041 8      1182.195          51.000    19293227.953 7  80102284.093 7       919.485          47.000
C27  23913318.633 6 124522936.637 6     -2625.914          36.000
C29  23799440.766 8 123929937.898 8      2876.020          51.000
C30  21521200.125 8 112066520.599 8       152.062          51.000
E01  24015931.805 8 126204555.165 8      -947.590          51.000    24015934.766 8  96702202.665 8      -726.045          51.000
E26  23183673.578 8 121831122.546 8      -354.004          48.000    23183677.070 7  93351058.271 7      -271.274          47.000
E33  24789121.164 8 130267758.286 8      2359.441          50.000    24789124.031 8  99815553.463 8      1807.887          51.000
> 2020 05 01 11 36 30.0000000  0 11        .000000000000
G25  20389950.211 8 107149911.758 8      -978.539          51.000    20389952.727 8  83493439.073 8      -762.498          51.000
G29  20340852.711 8 106891917.252 8       864.914          51.000    20340851.859 8  83292397.235 8       673.959          51.000
G32  23638126.992 7 124219172.056 7     -2684.770          44.000    23638130.062 7  96794162.709 7     -2092.031          44.000
R15  20463196.336 8 109349078.657 8     -2326.824          51.000    20463200.484 8  85049299.901 8     -1809.752          49.000
R18  19286651.984 8 102953570.741 8      1155.668          51.000    19286654.344 8  80074991.658 8       898.856          48.000
C27  23928467.070 5 124601825.943 5     -2634.691          35.000
C29  23782893.211 8 123843767.832 8      2867.168          51.000
C30  21520365.727 8 112062174.861 8       136.156          51.000
E01  24021361.016 8 126233085.925 8      -955.766          51.000    24021364.211 8  96724063.889 8      -732.328          51.000
E26  23185734.461 7 121841951.173 7      -369.117          47.000    23185737.531 8  93359355.533 8      -282.848          48.000
E33  24775677.336 8 130197115.821 8      2348.695          49.000    24775680.523 8  99761424.867 8      1799.650          50.000
> 2020 05 01 11 37  0.0000000  0 12        .000000000000
G25  20395567.984 8 107179433.347 8      -988.430          51.000    20395570.172 8  83516442.903 8      -770.205          51.000
G29  20335960.273 8 106866207.325 8       850.148          51.000    20335959.812 8  83272363.526 8       662.453          51.000
G32  23653476.398 8 124299832.349 8     -2691.496          48.000    23653479.680 8  96857014.794 8     -2097.273          48.000
R15  20476301.586 8 109419110.355 8     -2340.773          51.000    20476306.281 8  85103768.983 8     -1820.602          49.000
R17  20518649.367 5 109799425.653 5     -2840.715          33.000    20518653.719 5  85399571.340 5     -2209.445          32.000
R18  19280228.945 8 102919282.988 8      1131.336          51.000    19280231.789 8  80048323.440 8       879.931          49.000
C27  23943666.445 5 124680975.635 5     -2641.262          34.000
C29  23766398.352 8 123757872.657 8      2860.410          50.000
C30  21519624.133 8 112058312.506 8       122.539          51.000
E01  24026838.727 8 126261870.761 8      -961.973          51.000    24026841.734 8  96746119.793 8      -737.087          51.000
E26  23187883.016 7 121853241.101 7      -382.203          47.000    23187886.086 8  93368006.243 8      -292.842          48.000
E33  24762296.805 8 130126806.575 8      2339.875          48.000    24762300.000 8  99707551.605 8      1792.882          49.000
> 2020 05 01 11 37 30.0000000  0 12        .000000000000
G25  20401223.305 8 107209152.133 8      -994.707          51.000    20401225.445 8  83539600.388 8      -775.096          51.000
G29  20331132.945 8 106840840.363 8       839.055          50.000    20331132.727 8  83252597.062 8       653.809          50.000
G32  23668845.156 8 124380593.913 8     -2694.492          49.000    23668848.352 8  96919945.760 8     -2099.607          48.000
R15  20489466.469 8 109489459.004 8     -2350.992          51.000    20489471.180 8  85158484.583 8     -1828.549          49.000
R17  20534613.023 5 109884815.925 5     -2853.297          34.000    20534607.016 5  85465985.850 5     -2219.234          30.000
R18  19273923.352 8 102885623.798 8      1110.801          51.000    19273926.000 8  80022144.091 8       863.956          48.000
C27  23958883.930 4 124760213.436 4     -2644.410          29.000
C29  23749923.070 7 123672083.429 7      2857.086          47.000
C30  21518942.445 8 112054762.760 8       112.383          51.000
E01  24032332.203 8 126290738.100 8      -964.355          51.000    24032334.789 8  96768238.911 8      -738.892          51.000
E26  23190086.164 7 121864819.866 7      -391.469          46.000    23190089.273 8  93376878.282 8      -300.061          48.000
E33  24748947.711 8 130056660.103 8      2334.754          49.000    24748950.227 8  99653803.067 8      1788.988          49.000
> 2020 05 01 11 38  0.0000000  0 12        .000000000000
G12  22116248.055 5 116221667.169 5     -2507.027          30.000
G14  23124826.414 5 121521782.851 5     -1414.160          32.000
G25  20406992.141 8 107239467.439 8     -1013.270          51.000    20406994.242 8  83563222.681 8      -789.561          51.000
G29  20326446.938 8 106816215.485 8       815.684          51.000    20326446.625 8  83233408.865 8       635.598          51.000
G32  23684308.531 8 124461853.045 8     -2709.594          48.000    23684311.469 8  96983264.448 8     -2111.375          48.000
R15  20502766.812 8 109560530.360 8     -2373.766          51.000    20502771.227 8  85213762.255 8     -1846.265          49.000
R18  19267811.883 8 102852999.779 8      1077.504          51.000    19267814.406 8  79996769.864 8       838.062          49.000
C29  23733543.641 7 123586797.303 7      2841.543          46.000
C30  21518396.789 8 112051920.876 8        90.012          51.000
E01  24037917.391 8 126320087.740 8      -979.102          51.000    24037919.781 8  96790727.587 8      -750.251          51.000
E26  23192420.398 7 121877086.291 7      -413.188          44.000    23192423.180 8  93386277.231 8      -316.499          48.000
E33  24735706.695 8 129987077.250 8      2317.285          51.000    24735708.531 8  99600486.383 8      1775.570          50.000
> 2020 05 01 11 38 30.0000000  0 10        .000000000000
G25  20412794.375 8 107269958.222 8     -1022.160          51.000    20412796.484 8  83586981.711 8      -796.488          51.000
G29  20321822.344 8 106791911.790 8       801.988          51.000    20321822.055 8  83214470.935 8       624.926          51.000
G32  23699785.828 7 124543185.778 7     -2715.051          45.000    23699788.789 7  97046640.502 7     -2115.627          45.000
R15  20516122.422 8 109631895.517 8     -2386.609          51.000    20516126.117 8  85269268.432 8     -1856.252          48.000
R18  19261814.195 8 102820983.515 8      1054.191          51.000    19261816.969 8  79971868.338 8       819.927          49.000
C29  23717180.844 7 123501598.527 7      2835.598          46.000
C30  21517906.812 8 112049369.249 8        77.465          51.000
E01  24043514.250 8 126349499.176 8      -984.258          51.000    24043516.680 8  96813263.586 8      -754.151          51.000
E26  23194805.562 7 121889618.892 7      -425.000          42.000    23194808.211 8  93395880.128 8      -325.598          48.000
E33  24722493.617 8 129917638.497 8      2309.395          51.000    24722495.398 8  99547280.093 8      1769.506          51.000
> 2020 05 01 11 39  0.0000000  0 11        .000000000000
G25  20418665.875 8 107300813.225 8     -1033.977          51.000    20418667.867 8  83611024.558 8      -805.696          51.000
G29  20317294.758 8 106768118.216 8       785.164          51.000    20317294.602 8  83195930.502 8       611.816          51.000
G32  23715312.055 7 124624777.917 7     -2723.297          43.000    23715315.859 7  97110218.718 7     -2122.053          42.000
R15  20529568.875 8 109703745.851 8     -2402.418          51.000    20529571.477 8  85325151.995 8     -1868.547          48.000
R17  20583173.125 5 110144662.709 5     -2910.609          30.000    20583157.180 4  85668046.152 4     -2263.807          28.000
R18  19255966.258 8 102789767.777 8      1027.781          51.000    19255968.984 8  79947589.432 8       799.385          48.000
C29  23700871.414 7 123416675.590 7      2826.637          47.000
C30  21517508.578 8 112047294.516 8        61.812          51.000
E01  24049158.953 8 126379161.560 8      -992.316          51.000    24049161.617 8  96835991.869 8      -760.304          51.000
E26  23197276.148 6 121902605.950 6      -439.512          37.000    23197279.898 8  93405831.263 8      -337.062          48.000
E33  24709344.367 8 129848534.085 8      2298.457          51.000    24709346.453 8  99494329.991 8      1761.170          51.000
> 2020 05 01 11 39 30.0000000  0 11        .000000000000
G25  20424602.109 8 107332008.996 8     -1045.789          51.000    20424604.102 8  83635332.941 8      -814.901          51.000
G29  20312859.727 8 106744811.122 8       768.512          51.000    20312859.562 8  83177769.140 8       598.840          51.000
G32  23730882.586 7 124706603.065 7     -2731.730          45.000    23730887.367 7  97173978.524 7     -2128.624          45.000
R15  20543101.180 8 109776056.838 8     -2418.273          51.000    20543103.586 8  85381393.844 8     -1880.879          49.000
R17  20599536.938 5 110232282.329 5     -2928.934          31.000
R18  19250263.938 8 102759329.243 8      1001.488          51.000    19250266.688 8  79923915.023 8       778.935          48.000
C29  23684611.695 8 123332006.657 8      2817.730          48.000
C30  21517197.391 8 112045673.026 8        46.250          51.000
E01  24054847.141 8 126409051.942 8     -1000.293          51.000    24054849.570 8  96858894.874 8      -766.449          51.000
E26  23199829.086 6 121916023.592 6      -454.719          38.000    23199833.320 7  93416112.268 7      -348.238          47.000
E33  24696254.492 8 129779742.094 8      2287.727          51.000    24696256.695 8  99441619.274 8      1752.939          51.000
> 2020 05 01 11 40  0.0000000  0 11        .000000000000
G12  22173744.422 4 116523812.936 4     -2530.086          28.000
G25  20430600.148 8 107363530.251 8     -1055.324          50.000    20430602.375 8  83659894.942 8      -822.331          50.000
G29  20308514.422 8 106721975.122 8       754.094          51.000    20308514.102 8  83159974.880 8       587.606          51.000
G32  23746494.398 7 124788643.181 7     -2737.566          47.000    23746499.180 7  97237905.805 7     -2133.172          47.000
R15  20556716.250 8 109848812.509 8     -2431.852          51.000    20556719.016 8  85437981.558 8     -1891.440          49.000
R18  19244704.461 8 102729652.893 8       977.277          51.000    19244706.992 7  79900833.439 7       760.105          47.000
C29  23668399.047 8 123247578.045 8      2811.027          50.000
C30  21516969.930 8 112044489.193 8        32.914          51.000
E01  24060575.820 8 126439155.500 8     -1006.215          51.000    24060577.820 8  96881961.232 8      -770.999          51.000
E26  23202460.773 6 121929856.023 6      -467.207          37.000    23202465.273 7  93426711.069 7      -357.984          47.000
E33  24683221.203 8 129711248.767 8      2278.965          51.000    24683223.414 8  99389137.390 8      1746.259          51.000
> 2020 05 01 11 40 30.0000000  0 12        .000000000000
G02  23626938.742 5 124160405.995 5     -1949.672          30.000
G12  22188211.484 5 116599831.630 5     -2535.582          30.000    22188215.312 5  90857036.293 5     -1975.778          31.000
G25  20436660.859 8 107395380.405 8     -1065.320          50.000    20436663.344 8  83684713.238 8      -830.120          50.000
G29  20304259.086 8 106699613.473 8       739.340          51.000    20304258.922 8  83142550.229 8       576.109          51.000
G32  23762147.344 8 124870898.619 8     -2743.691          49.000    23762150.703 8  97302000.879 8     -2137.944          49.000
R15  20570415.312 8 109922015.590 8     -2445.766          51.000    20570418.156 8  85494917.284 8     -1902.262          49.000
R18  19239288.430 8 102700742.827 8       952.820          51.000    19239290.719 7  79878347.859 7       741.082          47.000
C29  23652233.688 8 123163394.638 8      2803.727          50.000
C30  21516826.945 8 112043745.909 8        19.223          51.000
E01  24066345.680 8 126469476.182 8     -1012.535          51.000    24066347.516 8  96905193.919 8      -775.797          51.000
E26  23205171.750 6 121944106.066 6      -480.074          37.000    23205176.969 7  93437629.884 7      -367.936          47.000
E33  24670245.109 8 129643059.027 8      2269.730          51.000    24670247.625 8  99336888.132 8      1739.135          51.000
> 2020 05 01 11 41  0.0000000  0 12        .000000000000
G02  23638087.359 5 124218986.654 5     -1966.148          30.000
G25  20442749.656 8 107427377.239 8     -1079.367          51.000    20442752.250 8  83709645.841 8      -841.065          51.000
G29  20300059.102 8 106677543.874 8       720.547          51.000    20300059.234 8  83125353.139 8       561.465          51.000
G32  23777805.969 8 124953184.220 8     -2753.609          50.000    23777807.438 8  97366119.457 8     -2145.673          49.000
R15  20584163.336 8 109995480.316 8     -2463.613          51.000    20584166.234 8  85552056.469 8     -1916.147          49.000
R18  19233981.242 8 102672414.237 8       924.094          50.000    19233983.844 7  79856314.554 7       718.740          47.000
C27  24066743.742 5 125321842.483 5     -2700.969          31.000
C29  23636080.570 8 123079277.292 8      2792.621          50.000
C30  21516733.938 8 112043262.178 8         1.688          51.000
E01  24072122.422 8 126499832.167 8     -1022.691          51.000    24072124.070 8  96928453.692 8      -783.618          51.000
E26  23207928.562 7 121958591.004 7      -497.156          42.000    23207934.031 7  93448728.713 7      -380.767          47.000
E33  24657292.000 8 129574992.146 8      2256.602          51.000    24657295.023 8  99284733.013 8      1729.096          51.000
> 2020 05 01 11 41 30.0000000  0 11        .000000000000
G02  23649370.656 5 124278275.599 5     -1996.105          33.000    23649375.664 5  96840238.677 5     -1555.407          31.000
G25  20448958.523 8 107460004.461 8     -1106.109          51.000    20448961.141 8  83735069.660 8      -861.903          51.000
G29  20296006.977 8 106656250.111 8       688.691          51.000    20296006.898 8  83108760.604 8       536.643          51.000
G32  23793561.680 8 125035980.773 8     -2776.418          50.000    23793562.148 8  97430636.180 8     -2163.446          49.000
R15  20598052.203 8 110069697.762 8     -2494.645          51.000    20598055.258 8  85609781.092 8     -1940.282          48.000
R18  19228875.133 8 102645159.035 8       882.316          49.000    19228877.914 7  79835116.069 7       686.246          47.000
C29  23620031.633 8 122995706.804 8      2768.504          49.000
C30  21516782.633 8 112043516.871 8       -28.910          51.000
E01  24077998.062 8 126530707.686 8     -1045.934          51.000    24077999.633 8  96952111.552 8      -801.466          51.000
E26  23210822.516 7 121973794.034 7      -526.867          42.000    23210827.219 7  93460377.784 7      -403.638          47.000
E33  24644454.742 8 129507533.325 8      2230.371          51.000    24644457.984 8  99233043.808 8      1709.001          51.000
> 2020 05 01 11 42  0.0000000  0 13        .000000000000
G02  23660724.227 5 124337936.699 5     -1969.246          35.000
G14  23192100.578 5 121875279.232 5     -1507.988          31.000
G25  20455226.102 8 107492939.944 8     -1077.523          51.000    20455228.758 8  83760733.673 8      -839.629          51.000
G29  20292040.984 8 106635409.759 8       712.461          51.000    20292040.758 8  83092521.385 8       555.164          51.000
G32  23809352.727 8 125118963.212 8     -2743.648          49.000    23809353.328 8  97495297.757 8     -2137.911          49.000
R15  20612020.562 8 110144339.733 8     -2469.301          51.000    20612023.344 8  85667835.926 8     -1920.567          48.000
R17  20682812.648 5 110677882.438 5     -2987.152          33.000    20682781.977 4  86082707.797 4     -2323.344          29.000
R18  19223908.953 8 102618650.526 8       896.895          49.000    19223912.391 7  79814498.366 7       697.588          47.000
C29  23604025.945 8 122912365.403 8      2799.320          48.000
C30  21516911.641 8 112044190.261 8        -4.258          51.000
E01  24083911.242 8 126561781.034 8     -1013.719          51.000    24083912.844 8  96975920.982 8      -776.707          51.000
E26  23213790.609 7 121989392.406 7      -501.215          43.000    23213795.266 7  93472329.813 7      -383.910          46.000
E33  24631672.523 8 129440361.896 8      2259.672          51.000    24631675.344 8  99181574.803 8      1731.422          51.000
> 2020 05 01 11 42 30.0000000  0 12        .000000000000
G02  23672109.469 5 124397768.793 5     -2009.703          31.000
G25  20461514.094 8 107525982.562 8     -1115.574          51.000    20461516.727 8  83786481.156 8      -869.279          51.000
G29  20288122.945 8 106614821.800 8       669.691          51.000    20288122.562 8  83076478.829 8       521.841          51.000
G32  23825140.320 8 125201954.974 8     -2777.445          48.000
R15  20626029.547 8 110219201.246 8     -2511.633          51.000    20626032.641 8  85726061.482 8     -1953.492          48.000
R17  20699711.914 6 110768315.092 6     -3031.379          36.000    20699685.453 5  86153044.102 5     -2357.745          30.000
R18  19219044.844 8 102592684.730 8       843.914          50.000    19219048.305 7  79794302.772 7       656.378          47.000
C29  23588026.406 7 122829055.162 7      2764.332          47.000
C30  21517082.695 8 112045082.589 8       -45.688          51.000
E01  24089823.773 8 126592851.565 8     -1048.059          51.000    24089825.352 8  96999728.264 8      -803.064          51.000
E26  23216795.586 7 122005184.583 7      -542.031          46.000    23216800.773 7  93484430.324 7      -415.388          47.000
E33  24618907.086 8 129373278.228 8      2222.297          51.000    24618909.414 8  99130173.041 8      1702.769          51.000
> 2020 05 01 11 43  0.0000000  0 10        .000000000000
G25  20467949.734 8 107559801.407 8     -1123.398          51.000    20467952.312 8  83812833.493 8      -875.375          51.000
G29  20284380.438 8 106595155.025 8       657.102          51.000    20284379.484 8  83061154.073 8       512.027          51.000
G32  23841051.375 8 125285569.824 8     -2781.031          48.000    23841056.297 8  97625134.583 8     -2167.040          48.000
R15  20640206.656 8 110294961.737 8     -2523.242          51.000    20640209.867 7  85784986.307 7     -1962.522          47.000
R18  19214410.148 8 102567941.852 8       821.500          51.000    19214413.547 8  79775058.313 8       638.944          48.000
C29  23572161.547 7 122746440.532 7      2758.910          47.000
C30  21517423.000 8 112046856.374 8       -57.148          51.000
E01  24095863.133 8 126624588.867 8     -1052.102          51.000    24095864.539 8  97024046.454 8      -806.150          51.000
E26  23219965.195 7 122021839.069 7      -552.641          45.000    23219970.516 7  93497191.573 7      -423.356          45.000
E33  24606285.734 8 129306952.926 8      2215.047          51.000    24606288.125 8  99079352.361 8      1697.313          51.000
> 2020 05 01 11 43 30.0000000  0 10        .000000000000
G25  20474386.961 8 107593628.599 8     -1134.559          51.000    20474389.289 8  83839192.336 8      -884.072          51.000
G29  20280667.227 8 106575641.541 8       640.996          51.000    20280666.086 8  83045948.768 8       499.481          51.000
G32  23856939.039 7 125369059.318 7     -2787.762          47.000    23856945.062 7  97690191.266 7     -2172.285          47.000
R15  20654405.453 8 110370839.721 8     -2538.219          51.000    20654409.234 7  85844002.486 7     -1974.173          47.000
R18  19209858.320 8 102543641.919 8       795.680          51.000    19209861.805 8  79756158.394 8       618.862          48.000
C29  23556284.664 7 122663762.058 7      2750.227          46.000
C30  21517786.492 8 112048750.208 8       -71.949          51.000
E01  24101883.133 8 126656225.527 8     -1059.855          51.000    24101884.602 8  97048287.534 8      -812.079          51.000
E26  23223152.492 7 122038587.387 7      -566.754          46.000    23223157.297 7  93510024.722 7      -434.281          43.000
E33  24593662.414 8 129240619.530 8      2204.320          50.000    24593665.312 8  99028525.504 8      1688.995          51.000
> 2020 05 01 11 44  0.0000000  0 11        .000000000000
G14  23227768.211 5 122062739.962 5     -1590.914          34.000
G25  20480899.227 8 107627850.301 8     -1145.527          51.000    20480901.406 8  83865858.583 8      -892.619          51.000
G29  20277056.523 8 106556667.312 8       625.148          51.000    20277055.609 8  83031163.666 8       487.129          51.000
G32  23872876.062 7 125452809.257 7     -2794.223          47.000    23872882.766 7  97755450.891 7     -2177.316          47.000
R15  20668699.977 8 110447227.322 8     -2553.000          51.000    20668704.031 7  85903415.054 7     -1985.670          46.000
R18  19205463.125 8 102520177.678 8       769.984          51.000    19205466.445 8  79737908.444 8       598.877          49.000
C29  23540467.945 7 122581403.894 7      2741.441          44.000
C30  21518246.453 8 112051146.207 8       -86.570          51.000
E01  24107957.469 8 126688148.161 8     -1067.203          51.000    24107959.406 8  97072747.730 8      -817.751          51.000
E26  23226430.977 7 122055815.203 7      -580.609          47.000    23226434.734 7  93523225.240 7      -444.939          42.000
E33  24581111.141 8 129174665.689 8      2193.664          51.000    24581114.789 8  98977989.462 8      1680.979          51.000
> 2020 05 01 11 44 30.0000000  0 12        .000000000000
G14  23236893.953 5 122110690.138 5     -1605.340          34.000
G25  20487473.328 8 107662397.025 8     -1156.875          51.000    20487475.375 8  83892778.098 8      -901.461          51.000
G29  20273535.406 8 106538162.834 8       609.039          51.000    20273534.477 8  83016744.582 8       474.576          51.000
G32  23888848.984 7 125536747.225 7     -2800.953          46.000    23888855.484 7  97820857.024 7     -2182.561          46.000
R15  20683077.062 8 110524053.087 8     -2568.066          51.000    20683080.938 7  85963168.383 7     -1997.385          47.000
R16  19380151.555 6 103525288.738 6      1155.453          38.000    19380152.484 5  80519672.108 5       898.686          33.000
R18  19201211.219 8 102497478.626 8       743.918          51.000    19201214.523 8  79720253.648 8       578.603          49.000
C29  23524699.430 7 122499298.523 7      2732.699          45.000
C30  21518789.477 8 112053975.007 8      -101.434          51.000
E01  24114073.047 8 126720287.804 8     -1074.945          51.000    24114075.438 8  97097374.194 8      -823.632          51.000
E26  23229787.078 7 122073452.392 7      -594.562          46.000    23229791.578 6  93536739.462 6      -455.741          41.000
E33  24568619.609 8 129109023.360 8      2182.879          51.000    24568623.320 8  98927692.119 8      1672.625          51.000
> 2020 05 01 11 45  0.0000000  0 12        .000000000000
G14  23246102.141 5 122159072.460 5     -1619.902          34.000
G25  20494111.016 8 107697278.714 8     -1167.926          51.000    20494113.148 8  83919958.629 8      -910.072          51.000
G29  20270105.484 8 106520137.780 8       593.336          51.000    20270104.656 8  83002699.093 8       462.340          51.000
G32  23904859.102 7 125620880.279 7     -2807.227          45.000    23904864.664 7  97886415.171 7     -2187.452          45.000
R15  20697538.227 8 110601326.447 8     -2582.785          51.000    20697541.680 7  86023269.842 7     -2008.833          47.000
R16  19373708.977 6 103490880.541 6      1138.758          38.000    19373710.516 5  80492910.209 5       885.701          34.000
R18  19197104.195 8 102475555.228 8       718.320          51.000    19197107.469 8  79703202.151 8       558.694          49.000
C29  23508982.508 8 122417457.198 8      2724.059          48.000
C30  21519417.852 8 112057245.974 8      -115.902          51.000
E01  24120232.156 8 126752654.843 8     -1082.215          51.000    24120234.570 8  97122174.908 8      -829.239          51.000
E26  23233222.969 7 122091508.361 7      -608.438          47.000    23233228.891 6  93550574.552 6      -465.969          38.000
E33  24556189.953 8 129043703.967 8      2172.453          51.000    24556193.023 8  98877642.238 8      1664.547          51.000
> 2020 05 01 11 45 30.0000000  0 12        .000000000000
G14  23255390.812 5 122207882.807 5     -1634.320          30.000
G25  20500812.094 8 107732493.735 8     -1179.738          51.000    20500814.375 8  83947398.889 8      -919.277          51.000
G29  20266766.477 8 106502590.349 8       576.523          51.000    20266765.570 8  82989025.796 8       449.239          51.000
G32  23920905.594 7 125705203.815 7     -2814.195          45.000    23920909.992 7  97952121.735 7     -2192.883          45.000
R15  20712082.539 8 110679044.845 8     -2598.352          51.000    20712085.922 8  86083717.452 8     -2020.940          48.000
R16  19367365.453 6 103456997.039 6      1120.234          37.000    19367369.445 5  80466556.375 5       871.293          35.000
R18  19193142.141 8 102454405.956 8       691.691          51.000    19193145.508 8  79686752.732 8       537.982          49.000
C29  23493316.656 8 122335879.663 8      2714.520          49.000
C30  21520130.719 8 112060956.837 8      -131.375          51.000
E01  24126434.328 8 126785248.090 8     -1090.535          51.000    24126436.672 8  97147148.941 8      -835.677          51.000
E26  23236738.484 8 122109980.819 8      -623.012          49.000    23236743.758 5  93564728.785 5      -477.636          34.000
E33  24543821.898 8 128978707.269 8      2160.793          51.000    24543824.117 8  98827839.600 8      1655.625          51.000
> 2020 05 01 11 46  0.0000000  0 11        .000000000000
G25  20507580.203 8 107768060.608 8     -1190.316          51.000    20507582.562 8  83975113.334 8      -927.519          51.000
G29  20263521.797 8 106485538.724 8       561.242          51.000    20263520.727 8  82975738.832 8       437.332          51.000
G32  23936991.516 7 125789733.514 7     -2819.875          47.000    23936994.664 7  98017988.932 7     -2197.308          47.000
R15  20726713.320 8 110757226.255 8     -2612.598          51.000    20726716.773 8  86144525.194 8     -2032.020          48.000
R16  19361124.078 6 103423659.700 6      1103.258          37.000    19361128.523 5  80440627.307 5       858.089          35.000
R18  19189328.422 8 102434049.615 8       666.551          51.000    19189331.977 8  79670920.038 8       518.428          49.000
C29  23477705.594 8 122254585.723 8      2706.145          51.000
C30  21520931.328 8 112065125.474 8      -145.336          51.000
E01  24132683.266 8 126818086.593 8     -1097.457          51.000    24132685.578 8  97172310.883 8      -840.912          51.000
E26  23240336.562 8 122128887.736 8      -636.180          48.000    23240340.680 5  93579220.833 5      -487.325          31.000
E33  24531519.062 8 128914053.272 8      2150.641          51.000    24531520.219 8  98778299.542 8      1647.908          51.000
> 2020 05 01 11 46 30.0000000  0 12        .000000000000
G25  20514405.773 8 107803929.274 8     -1198.035          51.000    20514408.242 8  84003062.941 8      -933.534          51.000
G29  20260361.688 8 106468932.771 8       548.723          51.000    20260360.930 8  82962799.120 8       427.576          51.000
G32  23953106.523 8 125874416.388 8     -2822.766          48.000    23953108.781 8  98083975.490 8     -2199.561          48.000
R15  20741420.938 8 110835819.292 8     -2623.980          51.000    20741424.602 8  86205653.080 8     -2040.877          49.000
R16  19354976.742 6 103390819.805 6      1088.988          39.000    19354979.844 5  80415085.197 5       846.994          34.000
R17  20838414.922 5 111510457.295 5     -3150.734          32.000
R18  19185653.773 8 102414435.922 8       644.113          51.000    19185657.586 8  79655664.964 8       500.977          49.000
C29  23462139.945 8 122173527.193 8      2700.605          51.000
C30  21521810.328 8 112069701.735 8      -156.785          51.000
E01  24138969.508 8 126851120.760 8     -1101.738          51.000    24138971.898 8  97197622.744 8      -844.180          51.000
E26  23244007.539 8 122148178.409 8      -646.719          48.000
E33  24519271.844 8 128849693.349 8      2143.035          51.000    24519272.406 8  98728984.831 8      1642.135          51.000
> 2020 05 01 11 47  0.0000000  0 12        .000000000000
G25  20521295.000 8 107840132.409 8     -1217.238          51.000    20521297.461 8  84031273.158 8      -948.497          51.000
G29  20257292.594 8 106452805.057 8       524.773          51.000    20257292.375 8  82950232.080 8       408.914          51.000
G32  23969256.141 7 125959282.163 7     -2836.895          47.000    23969258.125 7  98150104.567 7     -2210.570          47.000
R15  20756211.969 8 110914856.442 8     -2646.863          51.000    20756215.352 8  86267126.353 8     -2058.674          49.000
R16  19348929.094 6 103358513.460 6      1062.793          38.000    19348932.070 6  80389958.034 6       826.617          36.000
R17  20856129.172 5 111605358.733 5     -3173.691          31.000
R18  19182124.422 8 102395597.885 8       610.008          50.000    19182128.297 8  79641013.156 8       474.451          48.000
C29  23446625.789 8 122092737.818 8      2683.633          51.000
C30  21522773.836 8 112074717.320 8      -179.289          51.000
E01  24145299.406 8 126884383.672 8     -1117.406          51.000    24145301.766 8  97223109.884 8      -856.224          51.000
E26  23247757.633 8 122167884.897 8      -668.602          48.000    23247757.609 4  93609086.451 4      -512.230          29.000
E33  24507086.602 8 128785661.519 8      2124.066          51.000    24507087.141 8  98679921.540 8      1627.516          51.000
> 2020 05 01 11 47 30.0000000  0 12        .000000000000
G02  23790429.484 5 125019519.135 5     -2127.438          34.000
G25  20528256.242 8 107876713.447 8     -1215.582          51.000    20528258.562 8  84059777.854 8      -947.207          51.000
G29  20254322.812 8 106437198.507 8       521.539          51.000    20254322.844 8  82938071.142 8       406.394          51.000
G32  23985447.992 7 126044371.369 7     -2829.938          46.000    23985450.406 7  98216407.750 7     -2205.149          46.000
R15  20771094.375 8 110994380.850 8     -2648.797          51.000    20771096.969 8  86328978.631 8     -2060.178          49.000
R16  19342989.805 6 103326787.280 6      1058.094          38.000    19342993.383 6  80365282.122 6       822.965          36.000
R18  19178748.867 8 102377579.485 8       597.137          51.000    19178752.453 8  79626998.854 8       464.440          48.000
C29  23431171.344 8 122012262.087 8      2687.254          51.000
C30  21523829.648 8 112080214.791 8      -181.328          51.000
E01  24151681.273 8 126917919.322 8     -1112.379          51.000    24151683.594 8  97248805.999 8      -852.327          51.000
E26  23251594.875 7 122188050.034 7      -669.777          46.000    23251600.445 5  93624535.691 5      -513.038          35.000
E33  24494972.469 8 128722002.743 8      2125.773          51.000    24494972.961 8  98631144.082 8      1628.845          51.000
> 2020 05 01 11 48  0.0000000  0 12        .000000000000
G02  23802637.352 5 125083674.133 5     -2151.504          32.000
G25  20535253.781 8 107913485.239 8     -1237.688          51.000    20535255.906 8  84088431.198 8      -964.432          51.000
G29  20251416.406 8 106421925.842 8       494.742          51.000    20251416.711 8  82926170.374 8       385.513          51.000
G32  24001645.891 7 126129493.950 7     -2846.758          45.000    24001649.195 7  98282736.950 7     -2218.256          45.000
R15  20786032.094 8 111074201.442 8     -2674.605          51.000    20786034.320 8  86391061.271 8     -2080.252          48.000
R16  19337123.648 6 103295453.324 6      1029.000          39.000    19337127.734 6  80340911.239 6       800.333          36.000
R18  19175491.336 8 102360190.739 8       560.148          51.000    19175494.289 7  79613474.280 7       435.671          47.000
C29  23415741.438 8 121931915.887 8      2667.266          51.000
C30  21524942.312 8 112086008.051 8      -206.781          51.000
E01  24158079.445 8 126951540.972 8     -1130.922          51.000    24158081.812 8  97274568.023 8      -866.595          51.000
E26  23255483.750 7 122208485.951 7      -694.449          46.000    23255493.617 6  93640194.459 6      -532.089          36.000
E33  24482894.070 8 128658531.272 8      2103.801          51.000    24482895.023 8  98582510.133 8      1611.991          51.000
> 2020 05 01 11 48 30.0000000  0 14        .000000000000
G02  23814939.930 5 125148320.989 5     -2152.031          34.000
G12  22424704.203 5 117842641.314 5     -2630.629          35.000    22424707.312 5  91825415.597 5     -2049.844          34.000
G25  20542336.531 8 107950705.006 8     -1237.219          51.000    20542338.578 8  84117433.608 8      -964.067          51.000
G29  20248622.531 8 106407244.240 8       490.379          51.000    20248623.070 8  82914730.185 8       382.116          51.000
G32  24017898.570 7 126214904.231 7     -2840.785          45.000    24017902.438 7  98349290.334 7     -2213.599          45.000
R15  20801073.352 8 111154579.025 8     -2677.367          51.000    20801075.898 8  86453577.113 8     -2082.400          48.000
R16  19331380.727 6 103264775.301 6      1022.703          41.000    19331383.883 5  80317050.585 5       795.439          35.000
R17  20909802.016 5 111892523.805 5     -3204.824          31.000
R18  19172400.727 8 102343692.851 8       546.133          51.000    19172403.406 7  79600642.620 7       424.770          47.000
C29  23400385.617 8 121851955.484 8      2669.672          51.000
C30  21526160.672 8 112092351.381 8      -209.793          51.000
E01  24164542.969 8 126985506.340 8     -1127.059          51.000    24164545.367 8  97300593.403 8      -863.614          51.000
E26  23259473.000 7 122229449.326 7      -696.777          46.000    23259476.930 6  93656257.205 6      -533.760          36.000
E33  24470900.594 8 128595505.718 8      2104.285          50.000    24470902.383 8  98534217.847 8      1612.377          51.000
> 2020 05 01 11 49  0.0000000  0 15        .000000000000
G02  23827303.969 5 125213289.767 5     -2171.434          34.000
G25  20549472.492 8 107988204.757 8     -1255.566          51.000    20549474.570 8  84146654.189 8      -978.363          51.000
G29  20245909.047 8 106392985.210 8       467.371          51.000    20245909.742 8  82903619.284 8       364.185          51.000
G32  24034173.820 7 126300431.362 7     -2853.703          45.000    24034177.367 7  98415934.764 7     -2223.668          46.000
R15  20816185.680 8 111235341.939 8     -2699.289          48.000    20816189.508 7  86516392.700 7     -2099.447          47.000
R16  19325728.734 6 103234585.016 6       997.336          39.000    19325731.133 6  80293569.262 6       775.706          36.000
R17  20927848.531 5 111989123.722 5     -3226.863          33.000
R18  19169445.195 8 102327915.180 8       513.031          51.000    19169447.680 7  79588371.112 7       399.024          47.000
R19  21522524.039 6 115130985.693 6      3846.793          37.000    21522519.359 5  89546315.916 5      2991.953          33.000
C27  24320567.164 5 126643572.226 5     -2801.934          31.000
C29  23385072.625 8 121772215.787 8      2653.422          51.000
C30  21527452.266 8 112099077.758 8      -231.410          51.000
E01  24171040.055 8 127019647.887 8     -1141.844          51.000    24171042.250 8  97326753.789 8      -874.922          51.000
E26  23263530.172 7 122250771.466 7      -717.551          44.000    23263532.039 6  93672594.953 6      -549.845          39.000
E33  24458960.172 8 128532759.491 8      2086.055          50.000    24458963.016 8  98486139.587 8      1598.367          51.000
> 2020 05 01 11 49 30.0000000  0 15        .000000000000
G02  23839749.414 5 125278687.526 5     -2186.480          34.000
G25  20556682.383 8 108026093.480 8     -1268.801          51.000    20556684.617 8  84176177.854 8      -988.676          51.000
G29  20243296.695 8 106379257.433 8       449.457          51.000    20243297.367 8  82892922.351 8       350.226          51.000
G32  24050491.742 7 126386181.379 7     -2861.301          47.000    24050494.211 7  98482752.847 7     -2229.588          47.000
R15  20831390.555 8 111316600.003 8     -2716.137          49.000    20831396.102 8  86579593.407 8     -2112.551          48.000
R16  19320189.547 6 103204995.856 6       976.988          40.000    19320192.070 6  80270555.493 6       759.880          37.000
R17  20945990.430 5 112086219.331 5     -3243.562          32.000
R18  19166645.094 8 102312968.358 8       485.039          50.000    19166647.570 7  79576745.822 7       377.253          47.000
R19  21500995.297 6 115015831.665 6      3831.836          37.000    21500993.508 5  89456751.828 5      2980.320          35.000
C27  24336742.242 5 126727799.731 5     -2810.438          34.000
C29  23369823.125 8 121692806.106 8      2642.203          51.000
C30  21528838.273 8 112106294.505 8      -248.062          51.000
E01  24177591.250 8 127054075.061 8     -1151.617          51.000    24177593.523 8  97353133.023 8      -882.414          51.000
E26  23267676.633 7 122272560.629 7      -733.383          42.000    23267678.789 6  93689290.561 6      -562.009          41.000
E33  24447093.766 8 128470402.942 8      2072.746          49.000    24447097.781 8  98438359.892 8      1588.241          51.000
> 2020 05 01 11 50  0.0000000  0 16        .000000000000
G02  23852265.875 5 125344457.700 5     -2198.562          30.000
G12  22470083.695 5 118081086.572 5     -2657.734          30.000
G25  20563955.914 8 108064316.022 8     -1279.566          51.000    20563958.008 8  84205961.638 8      -997.065          51.000
G29  20240775.047 8 106366005.978 8       433.887          51.000    20240775.648 8  82882596.558 8       338.097          51.000
G32  24066841.125 8 126472096.315 8     -2866.316          48.000    24066842.641 8  98549699.433 8     -2233.496          48.000
R15  20846679.039 8 111398296.528 8     -2730.457          51.000    20846685.000 8  86643135.097 8     -2123.689          48.000
R16  19314752.641 6 103175954.410 6       959.082          41.000    19314755.383 6  80247967.692 6       745.956          37.000
R17  20964210.820 5 112183730.287 5     -3257.188          31.000
R18  19163990.109 8 102298796.257 8       459.535          51.000    19163992.742 8  79565723.083 8       357.419          48.000
R19  21479542.695 6 114901082.138 6      3818.125          36.000    21479544.023 6  89367502.253 6      2969.656          38.000
C27  24352953.375 5 126812207.161 5     -2816.500          35.000
C29  23354626.336 8 121613673.271 8      2633.145          50.000
C30  21530307.586 8 112113946.389 8      -262.230          51.000
E01  24184186.297 8 127088733.195 8     -1158.977          51.000    24184188.641 8  97379689.242 8      -888.065          51.000
E26  23271900.938 6 122294761.060 6      -746.809          38.000    23271902.898 6  93706301.296 6      -572.278          41.000
E33  24435291.406 8 128408382.334 8      2061.871          50.000    24435296.109 8  98390837.629 8      1579.878          51.000
> 2020 05 01 11 50 30.0000000  0 15        .000000000000
G12  22485246.500 5 118160818.031 5     -2677.145          34.000
G25  20571296.453 8 108102890.581 8     -1303.688          51.000    20571298.242 8  84236019.721 8     -1015.860          51.000
G29  20238347.102 8 106353248.451 8       405.059          51.000    20238348.055 8  82872655.652 8       315.633          51.000
G32  24083224.680 8 126558191.414 8     -2884.797          48.000    24083226.141 8  98616786.400 8     -2247.897          48.000
R15  20862053.617 8 111480449.040 8     -2758.184          51.000    20862058.422 7  86707031.469 7     -2145.254          47.000
R16  19309422.453 6 103147481.067 6       927.254          41.000    19309425.406 6  80225821.789 6       721.197          38.000
R17  20982510.438 5 112281687.718 5     -3284.613          32.000
R18  19161483.578 8 102285416.979 8       420.570          50.000    19161486.391 8  79555316.998 8       327.110          48.000
R19  21458170.672 6 114786758.590 6      3791.551          37.000    21458174.125 6  89278583.971 6      2948.987          41.000
C27  24369202.273 5 126896810.800 5     -2835.488          35.000
C29  23339486.156 8 121534836.645 8      2611.172          50.000
C30  21531863.734 8 112122050.766 8      -289.496          51.000
E01  24190828.883 8 127123640.967 8     -1179.766          51.000    24190831.141 8  97406436.751 8      -903.967          51.000
E26  23276207.039 6 122317390.308 6      -773.488          38.000    23276209.758 7  93723640.584 7      -592.586          42.000
E33  24423556.930 8 128346717.241 8      2037.562          51.000    24423561.445 8  98343587.780 8      1561.255          51.000
> 2020 05 01 11 51  0.0000000  0 16        .000000000000
G12  22500481.164 5 118240861.238 5     -2662.949          32.000
G18  23669099.188 6 124381953.071 6      3681.434          37.000
G25  20578701.750 8 108141805.338 8     -1294.750          51.000    20578703.344 8  84266342.889 8     -1008.899          51.000
G29  20236010.883 8 106340972.406 8       409.207          51.000    20236011.930 8  82863089.911 8       318.863          51.000
G32  24099639.625 7 126644452.003 7     -2869.977          47.000    24099641.609 7  98684002.316 7     -2236.348          47.000
R15  20877511.125 8 111563044.754 8     -2752.465          51.000    20877515.008 8  86771272.531 8     -2140.809          48.000
R16  19304196.359 6 103119566.181 6       929.148          40.000    19304199.719 6  80204110.199 6       722.671          38.000
R17  21000895.797 5 112380071.759 5     -3278.598          32.000
R18  19159123.328 8 102272818.372 8       415.160          51.000    19159126.016 7  79545518.104 7       322.905          47.000
R19  21436877.250 6 114672852.397 6      3798.039          39.000    21436881.852 7  89189990.310 7      2954.033          43.000
C27  24385485.266 5 126981597.198 5     -2820.820          35.000
C29  23324400.820 8 121456285.852 8      2621.613          50.000
C30  21533504.586 8 112130595.327 8      -284.145          51.000
E01  24197516.766 8 127158787.016 8     -1167.445          51.000    24197519.094 8  97433366.835 8      -894.509          51.000
E26  23280592.500 5 122340338.688 5      -766.879          30.000    23280595.992 7  93741298.861 7      -587.638          42.000
E33  24411888.352 8 128285397.204 8      2046.301          51.000    24411891.406 8  98296602.325 8      1567.963          51.000
> 2020 05 01 11 51 30.0000000  0 16        .000000000000
G12  22515767.008 5 118321145.640 5     -2687.172          33.000    22515774.516 5  92198345.220 5     -2093.909          33.000
G18  23648162.859 6 124271930.100 6      3660.555          39.000
G21  23479613.320 6 123386198.754 6      3392.070          39.000
G25  20586194.398 8 108181179.240 8     -1323.109          51.000    20586196.062 8  84297023.842 8     -1030.994          51.000
G29  20233789.141 8 106329296.664 8       376.105          51.000    20233789.781 8  82853991.930 8       293.069          51.000
G32  24116108.055 7 126730994.157 7     -2892.426          45.000    24116110.844 7  98751437.652 7     -2253.841          46.000
R15  20893073.516 8 111646203.488 8     -2784.359          51.000    20893076.742 7  86835951.470 7     -2165.613          47.000
R16  19299098.227 7 103092333.601 7       893.215          42.000    19299101.688 6  80182929.307 6       694.723          39.000
R18  19156931.734 8 102261121.112 8       371.746          50.000    19156934.812 7  79536420.268 7       289.139          47.000
R19  21415685.039 6 114559488.006 6      3766.715          40.000    21415690.469 7  89101818.058 7      2929.667          44.000
C27  24401825.039 5 127066682.846 5     -2844.207          35.000
C29  23309393.391 8 121378140.121 8      2595.051          49.000
C30  21535252.234 8 112139697.286 8      -315.742          51.000
E01  24204272.891 8 127194290.813 8     -1192.422          51.000    24204275.625 8  97460571.032 8      -913.671          51.000
E26  23285087.180 6 122363958.805 6      -797.953          36.000    23285082.625 7  93759366.768 7      -611.227          42.000
E33  24400308.383 8 128224542.603 8      2017.695          51.000    24400309.797 8  98249973.490 8      1546.002          51.000
> 2020 05 01 11 52  0.0000000  0 16        .000000000000
G12  22531067.773 5 118401560.035 5     -2681.398          34.000    22531065.602 5  92260997.202 5     -2089.395          33.000
G18  23627222.203 6 124161887.799 6      3667.781          39.000    23627222.609 5  96749526.287 5      2858.011          31.000
G21  23460213.102 6 123284241.293 6      3397.938          38.000    23460206.852 5  96065623.329 5      2647.744          34.000
G25  20593725.039 8 108220753.278 8     -1322.996          51.000    20593726.789 8  84327860.741 8     -1030.906          51.000
G29  20231632.227 8 106317961.955 8       371.633          51.000    20231632.523 8  82845159.705 8       289.584          51.000
G32  24132580.094 6 126817555.950 6     -2886.008          41.000    24132583.625 6  98818888.283 6     -2248.843          41.000
R15  20908691.250 8 111729661.042 8     -2787.363          50.000    20908694.312 7  86900862.866 7     -2167.949          47.000
R16  19294078.992 6 103065521.924 6       886.039          41.000    19294082.414 6  80162075.777 6       689.138          40.000
R18  19154859.844 8 102250061.657 8       357.445          51.000    19154863.008 8  79527818.494 8       278.013          48.000
R19  21394545.445 6 114446405.003 6      3764.387          40.000    21394551.672 7  89013864.654 7      2927.856          45.000
C27  24418173.211 5 127151809.189 5     -2838.859          35.000
C29  23294414.398 8 121300144.095 8      2596.895          48.000
C30  21537057.641 8 112149099.248 8      -318.895          51.000
E01  24211048.055 8 127229893.719 8     -1188.945          51.000    24211051.094 8  97487851.167 8      -911.007          51.000
E26                                                                  23289621.797 7  93777645.211 7      -613.152          42.000
E33  24388767.930 8 128163895.714 8      2017.570          51.000    24388768.531 8  98203503.820 8      1545.901          51.000
> 2020 05 01 11 52 30.0000000  0 16        .000000000000
G12  22546396.766 5 118482109.709 5     -2689.645          32.000
G18  23606296.742 6 124051925.356 6      3662.305          39.000    23606299.227 4  96663848.622 4      2853.756          28.000
G21  23440836.594 6 123182414.268 6      3389.727          37.000
G25  20601312.016 8 108260623.483 8     -1336.023          51.000    20601313.891 8  84358928.437 8     -1041.054          51.000
G29  20229558.602 8 106307064.235 8       353.922          51.000    20229558.344 8  82836667.976 8       275.786          51.000
G32  24149073.711 6 126904230.545 6     -2893.246          38.000    24149077.805 6  98886426.892 6     -2254.477          39.000
R15  20924382.945 8 111813514.221 8     -2803.719          50.000    20924386.562 8  86966081.991 8     -2180.670          48.000
R16  19289157.211 7 103039231.344 7       865.457          43.000    19289160.789 6  80141627.535 6       673.133          40.000
R18  19152925.836 8 102239737.557 8       329.797          51.000    19152929.266 8  79519788.667 8       256.509          49.000
R19  21373477.391 6 114333704.513 6      3748.227          40.000    21373483.914 7  88926208.764 7      2915.290          45.000
C27  24434547.914 5 127237069.853 5     -2846.625          34.000
C29  23279482.500 8 121222394.376 8      2585.449          48.000
C30  21538939.164 8 112158895.779 8      -335.152          51.000
E01  24217860.445 8 127265692.332 8     -1198.590          51.000    24217863.484 8  97515281.255 8      -918.394          51.000
E26  23294228.141 6 122411984.677 6      -815.781          40.000    23294231.531 7  93796207.311 7      -624.992          42.000
E33  24377285.625 8 128103554.022 8      2004.234          51.000    24377286.062 8  98157268.002 8      1535.751          51.000
> 2020 05 01 11 53  0.0000000  0 17        .000000000000
G12  22561731.328 5 118562697.641 5     -2697.055          33.000    22561738.977 5  92386542.945 5     -2101.601          32.000
G14  23404224.992 5 122990033.041 5     -1841.801          32.000    23404222.273 5  95836374.983 5     -1435.169          31.000
G18  23585365.227 6 123941930.833 6      3655.680          39.000    23585366.391 5  96578138.773 5      2848.597          30.000
G21  23421462.578 5 123080615.945 5      3382.367          35.000
G25  20608933.547 8 108300674.813 8     -1348.910          51.000    20608935.758 8  84390137.260 8     -1051.099          51.000
G29  20227546.039 8 106296487.707 8       336.367          51.000    20227545.336 8  82828426.543 8       262.104          51.000
G32  24165566.406 6 126990899.967 6     -2899.883          39.000    24165571.148 6  98953961.486 6     -2259.649          40.000
R15  20940127.023 8 111897645.052 8     -2819.988          51.000    20940131.078 8  87031517.039 8     -2193.324          49.000
R16  19284311.664 7 103013347.172 7       845.074          43.000    19284315.609 6  80121495.423 6       657.280          41.000
R18  19151107.766 8 102230031.579 8       302.289          50.000    19151111.383 8  79512239.599 8       235.114          48.000
R19  21352459.438 6 114221272.579 6      3731.840          39.000    21352465.836 7  88838761.777 7      2902.545          44.000
C27  24450926.328 5 127322349.169 5     -2853.688          33.000
C29  23264576.617 8 121144778.233 8      2574.176          48.000
C30  21540874.211 8 112168972.195 8      -351.309          51.000
E01  24224688.242 8 127301572.039 8     -1208.242          51.000    24224691.258 8  97542773.476 8      -925.811          51.000
E26  23298889.539 6 122436464.215 6      -831.172          36.000    23298889.492 7  93814964.336 7      -636.842          42.000
E33  24365839.867 8 128043403.752 8      1990.918          51.000    24365840.414 8  98111178.871 8      1525.416          51.000
> 2020 05 01 11 53 30.0000000  0 16        .000000000000
G12  22577170.047 5 118643821.922 5     -2702.695          34.000    22577179.414 5  92449755.817 5     -2105.993          33.000
G18  23564525.836 6 123832420.217 6      3653.191          37.000    23564526.688 5  96492805.910 5      2846.655          33.000
G21  23402189.555 5 122979340.663 5      3377.934          34.000
G25  20616687.234 8 108341420.241 8     -1359.070          51.000    20616689.578 8  84421886.938 8     -1059.016          51.000
G29  20225692.234 8 106286745.097 8       321.555          51.000    20225690.914 8  82820834.909 8       250.562          51.000
G32  24182155.070 7 127078074.546 7     -2903.457          42.000    24182160.844 7  99021889.640 7     -2262.437          42.000
R15  20956020.758 8 111982574.544 8     -2833.422          51.000    20956024.539 8  87097573.294 8     -2203.773          48.000
R16  19279640.117 7 102988393.144 7       827.117          43.000    19279644.469 7  80102086.711 7       643.313          42.000
R18  19149502.945 8 102221464.094 8       277.496          50.000    19149506.750 8  79505576.014 8       215.830          49.000
R19  21331590.281 6 114109634.980 6      3718.977          39.000    21331595.453 7  88751932.605 7      2892.540          44.000
C27  24467404.781 5 127408153.936 5     -2857.824          32.000
C29  23249795.367 8 121067805.313 8      2565.641          51.000
C30  21542960.477 8 112179836.126 8      -364.578          51.000
E01  24231629.133 8 127338046.270 8     -1214.930          51.000    24231631.992 8  97570721.248 8      -930.881          51.000
E26  23303691.234 6 122461710.247 6      -843.574          40.000    23303694.000 7  93834308.807 7      -646.288          43.000
E33  24354528.266 8 127983959.253 8      1980.531          51.000    24354529.102 8  98065630.516 8      1517.586          51.000
> 2020 05 01 11 54  0.0000000  0 16        .000000000000
G14  23425389.156 5 123101232.920 5     -1864.086          30.000
G18  23543665.641 6 123722799.965 6      3651.547          37.000    23543667.586 5  96407387.615 5      2845.364          31.000
G21  23382905.008 5 122878006.123 5      3375.062          32.000
G25  20624459.445 8 108382263.037 8     -1367.328          51.000    20624461.609 8  84453712.489 8     -1065.450          51.000
G29  20223883.594 8 106277239.474 8       308.684          51.000    20223881.672 8  82813427.954 8       240.533          51.000
G32  24198725.758 7 127165154.556 7     -2905.199          43.000    24198732.836 7  99089744.105 7     -2263.792          43.000
R15  20971950.047 8 112067694.483 8     -2844.805          51.000    20971953.641 7  87163777.655 7     -2212.629          47.000
R16  19275030.039 7 102963765.440 7       811.117          44.000    19275034.000 7  80082931.844 7       630.869          42.000
R18  19147997.875 8 102213428.506 8       254.598          49.000    19148001.656 8  79499326.120 8       198.020          48.000
R19  21310756.867 6 113998187.013 6      3707.254          38.000    21310760.656 7  88665250.924 7      2883.423          45.000
C27  24483870.570 5 127493891.138 5     -2861.152          34.000
C29  23235024.828 8 120990885.682 8      2558.867          51.000
C30  21545084.125 8 112190895.581 8      -376.199          51.000
E01  24238569.461 8 127374518.777 8     -1220.012          51.000    24238572.312 8  97598667.704 8      -934.823          51.000
E26  23308527.664 7 122487125.639 7      -854.359          43.000    23308531.312 7  93853782.936 7      -654.570          43.000
E33  24343237.500 8 127924625.132 8      1971.676          51.000    24343238.719 8  98020166.749 8      1510.768          51.000
> 2020 05 01 11 54 30.0000000  0 16        .000000000000
G14  23436072.602 4 123157411.135 4     -1877.723          29.000
G18  23522837.578 4 123613345.836 4      3646.598          29.000    23522841.016 5  96322101.208 5      2841.520          31.000
G21  23363659.984 5 122776849.074 5      3367.566          32.000
G25  20632302.625 8 108423478.924 8     -1379.266          51.000    20632304.586 8  84485828.756 8     -1074.752          51.000
G29  20222172.391 8 106268246.374 8       292.113          51.000    20222170.406 8  82806420.351 8       227.621          51.000
G32  24215330.312 7 127252412.935 7     -2910.809          44.000    24215338.836 7  99157737.551 7     -2268.166          44.000
R15  20987967.500 8 112153284.590 8     -2859.965          51.000    20987970.547 7  87230347.671 7     -2224.420          46.000
R16  19270533.727 7 102939746.361 7       791.102          44.000    19270537.391 7  80064250.338 7       615.301          42.000
R18  19146644.805 8 102206204.810 8       228.184          49.000    19146648.383 8  79493707.692 8       177.476          48.000
R19  21290011.836 6 113887212.987 6      3691.980          37.000    21290014.703 7  88578937.848 7      2871.543          45.000
C27  24500375.219 5 127579832.450 5     -2867.918          32.000
C29  23220316.914 8 120914293.872 8      2548.465          50.000
C30  21547297.867 8 112202423.082 8      -391.145          51.000
E01  24245561.906 8 127411265.742 8     -1228.543          51.000    24245564.992 8  97626824.464 8      -941.378          51.000
E26  23313449.352 7 122512985.191 7      -868.660          43.000    23313452.906 7  93873597.412 7      -665.465          43.000
E33  24332020.547 8 127865678.450 8      1959.324          51.000    24332021.883 8  97974999.832 8      1501.309          51.000
> 2020 05 01 11 55  0.0000000  0 14        .000000000000
G21  23344450.141 5 122675913.175 5      3362.074          30.000
G25  20640208.078 8 108465022.678 8     -1389.715          51.000    20640209.867 8  84518200.527 8     -1082.895          51.000
G29  20220549.867 8 106259719.914 8       277.012          51.000    20220548.000 8  82799776.361 8       215.853          51.000
G32  24231959.758 7 127339801.514 7     -2914.500          44.000    24231969.250 7  99225832.464 7     -2271.042          43.000
R15  21004063.938 8 112239297.699 8     -2873.598          51.000    21004066.562 7  87297246.655 7     -2235.023          46.000
R16  19266143.297 7 102916292.274 7       773.086          46.000    19266146.953 7  80046008.267 7       601.289          42.000
R18  19145435.125 8 102199746.314 8       203.078          50.000    19145438.641 8  79488684.421 8       157.950          48.000
R19  21269345.867 5 113776669.804 5      3677.957          33.000    21269349.516 7  88492959.871 7      2860.633          45.000
C27  24516909.289 5 127665931.379 5     -2871.848          33.000
C29  23205662.977 8 120837986.463 8      2539.273          50.000
C30  21549592.680 8 112214373.126 8      -404.828          51.000
E01  24252598.102 8 127448242.429 8     -1235.859          51.000    24252601.336 8  97655157.256 8      -947.008          51.000
E26  23318446.117 7 122539242.940 7      -881.469          45.000    23318449.586 7  93893717.031 7      -675.348          42.000
E33  24320869.078 8 127807075.352 8      1948.258          51.000    24320870.547 8  97930096.175 8      1492.794          51.000
> 2020 05 01 11 55 30.0000000  0 15        .000000000000
G18  23481254.086 5 123394827.353 5      3637.465          32.000    23481256.203 4  96151820.250 4      2834.397          26.000
G21  23325276.180 6 122575149.461 6      3355.969          36.000
G25  20648175.094 8 108506890.072 8     -1400.902          51.000    20648177.023 8  84550824.458 8     -1091.612          51.000
G29  20219015.188 8 106251655.513 8       261.250          51.000    20219013.258 8  82793492.408 8       203.571          51.000
G32  24248612.688 7 127427313.232 7     -2919.051          42.000    24248622.273 7  99294023.331 7     -2274.588          42.000
R15  21020238.383 8 112325728.538 8     -2887.793          51.000    21020240.914 7  87364470.577 7     -2246.064          47.000
R16  19261858.375 7 102893401.261 7       753.746          45.000    19261861.852 7  80028204.152 7       586.247          43.000
R18  19144367.922 8 102194048.067 8       177.406          51.000    19144371.195 8  79484252.468 8       137.980          48.000
R19  21248759.391 5 113666556.810 5      3663.055          32.000    21248764.828 7  88407316.419 7      2849.043          45.000
C27  24533471.922 5 127752182.173 5     -2876.996          31.000
C29  23191062.617 8 120761960.495 8      2529.719          50.000
C30  21551967.852 8 112226740.761 8      -419.035          51.000
E01  24259677.492 8 127485445.035 8     -1243.699          51.000    24259680.391 8  97683663.141 8      -952.994          51.000
E26  23323517.703 7 122565893.958 7      -894.754          45.000    23323520.961 7  93914137.960 7      -685.645          42.000
E33  24309782.273 8 127748812.838 8      1936.504          51.000    24309783.953 8  97885453.487 8      1483.815          51.000
> 2020 05 01 11 56  0.0000000  0 14        .000000000000
G02  24007868.664 5 126162203.063 5     -2342.953          35.000
G21  23306134.234 5 122474554.739 5      3348.055          35.000
G25  20656201.969 8 108549071.957 8     -1413.543          51.000    20656204.109 8  84583693.466 8     -1101.462          51.000
G29  20217566.641 8 106244043.672 8       243.980          51.000    20217564.547 8  82787561.105 8       190.115          51.000
G32  24265287.000 6 127514936.219 6     -2924.871          39.000    24265295.422 6  99362300.871 6     -2279.123          40.000
R15  21036488.773 8 112412566.883 8     -2903.668          50.000    21036491.984 8  87432011.490 8     -2258.408          48.000
R16  19257677.219 7 102871066.058 7       732.887          46.000    19257680.602 7  80010832.325 7       570.023          42.000
R18  19143441.312 8 102189100.640 8       150.172          51.000    19143444.367 8  79480404.473 8       116.800          48.000
R19  21228254.109 5 113556867.413 5      3647.074          34.000    21228259.672 7  88322002.483 7      2836.613          44.000
C29  23176514.594 8 120686208.268 8      2518.227          49.000
C30  21554421.320 8 112239516.253 8      -434.922          51.000
E01  24266798.477 8 127522864.959 8     -1253.219          51.000    24266800.648 8  97712335.537 8      -960.241          51.000
E26  23328662.078 7 122592928.334 7      -909.766          44.000    23328665.445 6  93934852.630 6      -697.087          41.000
E33  24298758.508 8 127690883.113 8      1923.152          51.000    24298760.398 8  97841065.809 8      1473.596          51.000
> 2020 05 01 11 56 30.0000000  0 14        .000000000000
G02  24021269.383 5 126232630.674 5     -2352.793          35.000
G21  23287033.281 5 122374176.075 5      3343.262          32.000
G25  20664297.156 8 108591612.657 8     -1423.203          51.000    20664299.352 8  84616842.057 8     -1108.989          51.000
G29  20216212.664 8 106236928.076 8       229.770          51.000    20216210.555 8  82782016.503 8       179.041          51.000
G32  24281990.570 6 127602711.852 6     -2927.801          40.000    24281996.094 6  99430697.336 6     -2281.406          39.000
R15  21052823.047 8 112499856.851 8     -2916.316          48.000    21052827.562 8  87499903.647 8     -2268.246          49.000
R16  19253608.992 7 102849334.093 7       715.184          46.000    19253612.141 7  79993929.685 7       556.254          43.000
R18  19142663.531 8 102184948.334 8       126.055          51.000    19142666.648 8  79477174.922 8        98.043          49.000
R19  21207837.883 6 113447650.259 6      3633.645          36.000    21207842.438 7  88237055.844 7      2826.168          42.000
C29  23162028.594 8 120610774.916 8      2510.016          51.000
C30  21556961.367 8 112252742.727 8      -447.512          51.000
E01  24273969.469 8 127560546.892 8     -1259.566          51.000    24273971.305 8  97741208.694 8      -965.098          51.000
E26  23333887.367 7 122620389.525 7      -921.711          45.000    23333891.055 6  93955894.387 6      -706.270          41.000
E33  24287806.594 8 127633331.748 8      1912.883          51.000    24287808.484 8  97796968.041 8      1465.721          51.000
> 2020 05 01 11 57  0.0000000  0 15        .000000000000
G02  24034726.367 5 126303353.745 5     -2363.355          33.000
G12  22685909.812 5 119215270.822 5     -2741.238          33.000    22685905.430 5  92894981.862 5     -2136.033          30.000
G21  23267958.891 5 122273939.604 5      3337.305          33.000    23267955.055 5  95278385.623 5      2600.497          30.000
G25  20672446.047 8 108634434.997 8     -1433.348          51.000    20672448.094 8  84650210.114 8     -1116.894          51.000
G29  20214938.344 8 106230231.342 8       214.980          51.000    20214936.523 8  82776798.271 8       167.517          51.000
G32  24298708.023 7 127690560.061 7     -2930.699          42.000    24298710.359 7  99499150.401 7     -2283.665          42.000
R15  21069227.586 8 112587518.801 8     -2929.488          51.000    21069232.547 8  87568085.180 8     -2278.491          48.000
R16  19249639.289 7 102828129.128 7       696.891          46.000    19249642.234 7  79977436.941 7       542.026          43.000
R18  19142019.797 8 102181511.776 8       101.336          51.000    19142023.070 8  79474502.058 8        78.820          49.000
R19  21187496.172 6 113338829.658 6      3619.727          36.000    21187498.789 6  88152417.678 6      2815.346          41.000
C29  23147590.086 8 120535585.365 8      2501.000          51.000
C30  21559573.312 8 112266343.039 8      -460.789          51.000
E01  24281175.602 8 127598414.192 8     -1266.582          51.000    24281177.125 8  97770223.869 8      -970.465          51.000
E26  23339179.391 7 122648199.727 7      -933.965          46.000    23339183.352 6  93977203.520 6      -715.662          41.000
E33  24276912.289 8 127576082.940 8      1901.973          51.000    24276914.016 8  97753102.089 8      1457.368          51.000
> 2020 05 01 11 57 30.0000000  0 15        .000000000000
G02  24048256.055 5 126374459.968 5     -2371.445          31.000
G12  22701583.820 5 119297598.881 5     -2743.934          33.000    22701579.375 5  92959175.953 5     -2138.136          35.000
G21  23248928.922 5 122173937.677 5      3334.098          34.000
G25  20680665.555 8 108677628.543 8     -1440.914          51.000    20680667.484 8  84683867.407 8     -1122.790          51.000
G29  20213760.500 8 106224042.545 8       202.922          51.000    20213759.188 8  82771975.829 8       158.121          51.000
G32  24315455.703 6 127778567.744 6     -2931.223          40.000    24315456.859 6  99567727.748 6     -2284.073          40.000
R15  21085719.031 8 112675642.926 8     -2939.918          51.000    21085723.516 8  87636626.182 8     -2286.603          48.000
R16  19245785.836 7 102807544.629 7       681.090          47.000    19245788.852 7  79961426.771 7       529.737          44.000
R18  19141527.094 8 102178881.834 8        79.512          51.000    19141530.625 8  79472456.559 8        61.842          50.000
R19  21167245.633 5 113230500.252 5      3607.949          35.000    21167246.898 6  88068161.562 6      2806.186          40.000
C29  23133215.750 8 120460729.531 8      2494.668          51.000
C30  21562273.742 8 112280405.172 8      -471.277          51.000
E01  24288433.930 8 127636556.866 8     -1270.828          51.000    24288435.281 8  97799450.052 8      -973.751          51.000
E26  23344554.734 7 122676447.642 7      -943.617          45.000    23344559.047 7  93998848.054 7      -723.034          42.000
E33  24266092.664 8 127519227.525 8      1893.730          51.000    24266094.367 8  97709537.563 8      1451.058          51.000
> 2020 05 01 11 58  0.0000000  0 15        .000000000000
G02  24061844.039 5 126445872.452 5     -2378.242          32.000
G12  22717280.148 5 119380119.511 5     -2744.457          33.000    22717275.734 5  93023458.090 5     -2138.538          31.000
G21  23229928.891 5 122074097.789 5      3332.656          34.000
G25  20688941.352 8 108721118.311 8     -1446.996          51.000    20688943.148 8  84717755.519 8     -1127.529          51.000
G29  20212665.164 8 106218286.456 8       192.145          51.000    20212664.164 8  82767490.564 8       149.723          51.000
G32  24332218.953 6 127866657.108 6     -2930.332          37.000    24332219.883 6  99636368.725 6     -2283.376          37.000
R15  21102282.578 8 112764151.951 8     -2949.062          51.000    21102287.055 8  87705466.481 8     -2293.718          48.000
R16  19242034.727 7 102787506.594 7       666.473          47.000    19242037.695 7  79945841.631 7       518.368          43.000
R18  19141170.922 8 102176981.229 8        58.812          51.000    19141174.719 8  79470978.323 8        45.743          50.000
R19  21147072.148 5 113122588.918 5      3597.574          34.000    21147074.234 6  87984230.580 6      2798.113          41.000
C29  23118891.438 8 120386134.540 8      2489.613          51.000
C30  21565048.617 8 112294854.065 8      -480.672          51.000
E01  24295730.523 8 127674900.407 8     -1273.934          51.000    24295731.703 8  97828830.158 8      -976.122          51.000
E26  23349998.750 7 122705057.528 7      -952.203          44.000    23350003.070 7  94020769.973 7      -729.473          42.000
E33  24255333.594 8 127462691.822 8      1886.691          51.000    24255335.719 8  97666218.019 8      1445.623          51.000
> 2020 05 01 11 58 30.0000000  0 16        .000000000000
G02  24075474.875 5 126517507.394 5     -2389.684          35.000
G14  23524088.711 6 123619918.574 6     -1969.152          36.000    23524098.516 5  96327252.670 5     -1534.395          31.000
G18  23357101.961 5 122742407.413 5      3618.473          31.000
G21  23210945.008 5 121974341.110 5      3325.465          33.000    23210945.750 5  95044943.186 5      2591.271          31.000
G25  20697257.992 8 108764822.632 8     -1458.441          51.000    20697259.766 8  84751810.811 8     -1136.448          51.000
G29  20211636.453 8 106212880.785 8       176.340          51.000    20211635.531 8  82763278.370 8       137.408          51.000
R15  21118902.484 8 112852961.745 8     -2963.320          51.000    21118906.945 7  87774540.683 7     -2304.808          47.000
R16  19238370.797 7 102767934.433 7       646.812          47.000    19238373.523 7  79930618.845 7       503.079          43.000
R18  19140935.648 8 102175726.350 8        33.027          50.000    19140939.625 8  79470002.319 8        25.688          50.000
R19  21126961.656 5 113015015.679 5      3582.082          35.000    21126965.312 7  87900562.513 7      2786.064          42.000
C27  24633431.336 5 128272735.690 5     -2898.930          34.000
C29  23104600.758 7 120311720.719 7      2479.430          47.000
C30  21567882.211 8 112309608.042 8      -494.938          51.000
E01  24303049.727 8 127713363.610 8     -1282.121          51.000    24303051.320 8  97858301.957 8      -982.407          51.000
E26  23355496.359 7 122733946.962 7      -965.629          44.000    23355500.172 7  94042906.067 7      -739.981          42.000
E33  24244620.203 8 127406395.399 8      1874.508          51.000    24244622.797 8  97623081.837 8      1436.335          51.000
> 2020 05 01 11 59  0.0000000  0 17        .000000000000
G02  24089210.633 5 126589656.213 5     -2411.848          31.000
G12  22748777.930 5 119545622.068 5     -2768.090          31.000    22748768.664 4  93152422.213 4     -2156.929          29.000
G14  23535426.609 6 123679495.581 6     -1992.531          39.000    23535435.875 5  96373676.260 5     -1552.622          33.000
G18  23336522.469 4 122634255.170 4      3601.891          29.000
G21  23192039.500 5 121874993.941 5      3307.723          35.000    23192044.266 5  94967543.925 5      2577.446          34.000
G25  20705676.969 8 108809064.734 8     -1480.711          51.000    20705678.680 8  84786285.158 8     -1153.801          51.000
G29  20210735.750 8 106208148.397 8       149.531          51.000    20210735.062 8  82759590.817 8       116.521          51.000
R15  21135640.016 8 112942399.811 8     -2988.637          51.000    21135643.750 7  87844103.573 7     -2324.498          46.000
R16  19234855.859 7 102749158.510 7       615.789          47.000    19234858.555 7  79916015.351 7       478.947          44.000
R18  19140882.719 8 102175444.934 8        -3.738          50.000    19140887.141 8  79469783.447 8        -2.908          50.000
R19  21106977.453 6 112908112.440 6      3555.203          38.000    21106981.727 7  87817415.594 7      2765.161          42.000
C27  24650211.336 5 128360113.803 5     -2915.250          35.000
C29  23090404.695 7 120237809.716 7      2458.156          45.000
C30  21570835.484 8 112324986.677 8      -520.102          51.000
E01  24310453.281 8 127752270.182 8     -1301.281          51.000    24310455.617 8  97888113.462 8      -997.098          51.000
E26  23361108.797 6 122763438.319 6      -990.199          41.000    23361112.477 7  94065503.367 7      -758.586          42.000
E33  24234014.625 8 127350662.784 8      1851.316          51.000    24234017.133 8  97580377.653 8      1418.568          51.000
> 2020 05 01 11 59 30.0000000  0 15        .000000000000
G14  23546818.961 6 123739359.287 6     -2000.844          38.000    23546825.383 5  96420323.256 5     -1559.099          31.000
G18  23315959.492 4 122526193.325 4      3597.988          29.000    23315967.875 5  95474987.780 5      2803.627          31.000
G21  23173159.453 6 121775775.263 6      3304.484          37.000    23173166.117 5  94890230.720 5      2574.923          35.000
G25  20714144.164 8 108853560.492 8     -1488.070          51.000    20714145.898 8  84820957.165 8     -1159.535          51.000
G29  20209909.000 8 106203804.610 8       137.582          51.000    20209908.609 8  82756206.054 8       107.207          51.000
R15  21152440.703 8 113032176.104 8     -2998.957          51.000    21152443.977 7  87913929.514 7     -2332.525          47.000
R16  19231436.398 7 102730892.259 7       599.586          47.000    19231438.805 7  79901808.273 7       466.345          43.000
R18  19140957.781 8 102175847.640 8       -25.566          49.000    19140962.719 8  79470096.677 8       -19.882          50.000
R19  21087065.672 6 112801593.302 6      3543.285          39.000    21087069.352 7  87734567.439 7      2755.891          42.000
C27  24667005.211 6 128447562.089 6     -2916.832          36.000
C29  23076251.750 7 120164121.201 7      2451.883          47.000
C30  21573854.734 8 112340707.636 8      -530.484          51.000
E01  24317887.258 8 127791336.408 8     -1305.691          51.000    24317890.109 8  97918047.324 8     -1000.483          51.000
E26  23366781.227 7 122793246.676 7      -999.672          43.000    23366785.141 7  94088343.644 7      -766.084          42.000
E33  24223462.836 8 127295211.134 8      1842.891          51.000    24223464.867 8  97537888.752 8      1412.070          51.000
