     3.02           OBSERVATION DATA    M (MIXED)           RINEX VERSION / TYPE
SAVERINEX           SC600               20200512 235931 LCL PGM / RUN BY / DATE
       G = GPS       R = GLONASS       C = COMPASS          COMMENT
       S = SBAS      J = QZSS          E = GALILEO          COMMENT
BEAN                                                        MARKER NAME
1                                                           MARKER NUMBER
GEODETIC                                                    MARKER TYPE
Unige DICCA         GTER                                    OBSERVER / AGENCY
SC60291900056       SC600               2.12(191226)        REC # / TYPE / VERS
                    HEMA45          NONE                    ANT # / TYPE
  4509407.8091   693652.4678  4442337.6214                  APPROX POSITION XYZ
        0.0000        0.0000        0.0000                  ANTENNA: DELTA H/E/N
G    8 C1C L1C D1C S1C C2Y L2Y D2Y S2Y                      SYS / # / OBS TYPES
R    8 C1C L1C D1C S1C C2P L2P D2P S2P                      SYS / # / OBS TYPES
C    8 C1I L1I D1I S1I C7I L7I D7I S7I                      SYS / # / OBS TYPES
E    8 C1C L1C D1C S1C C7Q L7Q D7Q S7Q                      SYS / # / OBS TYPES
DBHZ                                                        COMMENT
     30.000                                                 INTERVAL
  2020    05    12    21    00    0.0000000     GPS         TIME OF FIRST OBS
  2020    05    12    21    59   30.0000000     GPS         TIME OF LAST OBS
     0                                                      RCV CLOCK OFFS APPL
G L1C  0.00000                                              SYS / PHASE SHIFT
G L2Y  0.00000                                              SYS / PHASE SHIFT
R L1C  0.00000                                              SYS / PHASE SHIFT
R L2P  0.25000                                              SYS / PHASE SHIFT
C L1I  0.00000                                              SYS / PHASE SHIFT
C L7I  0.00000                                              SYS / PHASE SHIFT
E L1C  0.50000                                              SYS / PHASE SHIFT
E L7Q -0.25000                                              SYS / PHASE SHIFT
 12 R01  1 R02 -4 R03  5 R04  6 R10 -5 R12 -1 R13 -2 R14 -7 GLONASS SLOT / FRQ #
    R15  0 R17  4 R18 -3 R23  3                             GLONASS SLOT / FRQ #
 C1C   71.950 C2C   71.950 C2P   71.950                     GLONASS COD/PHS/BIS
    18                                                      LEAP SECONDS
*** Above antenna height is from mark to ANTENNA BOTTOM.    COMMENT
    17     4        0.0000        ANT MEASURE TYPE/HEIGT    COMMENT
    0.0000    0.0000    0.0458    0.0405    0.0000          COMMENT
                    BASE STATION                            COMMENT
                                                            END OF HEADER
> 2020 05 12 21 00  0.0000000  0 19        .000000000000
G01  21005922.641 8 110386876.034 8     -1896.324          50.000    21005924.492 8  86015751.086 8     -1477.655          50.000
G03  20315496.352 8 106758644.801 8       -47.551          51.000    20315497.016 8  83188576.234 8       -37.050          51.000
G04  21627904.734 8 113655407.965 8      2737.684          49.000    21627904.922 8  88562663.117 8      2133.260          48.000
G11  23031336.695 8 121030482.616 8     -3780.191          51.000    23031335.719 7  94309441.227 7     -2945.604          45.000
G14  23816236.422 5 125155169.172 5     -2936.027          33.000
G22  21224573.188 8 111535893.568 8     -1410.742          50.000    21224569.094 7  86911079.309 7     -1099.280          43.000
R02  21049991.508 6 112326803.650 6     -3114.379          36.000
R03  19327922.461 7 103463973.226 7       122.055          47.000    19327923.961 7  80471968.366 7        94.931          43.000
R04  21859322.312 8 117055655.427 8      3153.039          48.000    21859326.086 7  91043341.286 7      2452.364          45.000
R17  21313423.352 8 114052417.595 8     -3839.402          51.000    21313424.391 7  88707429.345 7     -2986.202          46.000
R18  19233029.617 8 102667195.205 8      -393.172          48.000    19233032.891 8  79852283.487 8      -305.800          50.000
C05                                                                  39711952.148 6 159903573.924 6       -27.188          36.000
C20  25688583.648 7 133767240.579 7      2747.898          42.000
C27  23125346.609 8 120419756.825 8     -2728.617          51.000
C30  22236470.219 5 115791076.549 5       195.367          34.000
E04  26687901.898 6 140245855.775 6      2706.938          39.000    26687907.109 7 107461176.533 7      2074.129          43.000
E12  21704596.383 7 114058427.484 7       553.070          44.000    21704596.703 8  87395421.179 8       423.655          48.000
E19  23917687.219 8 125688292.498 8       526.684          49.000    23917687.930 8  96306623.692 8       403.524          51.000
E33  24698918.766 7 129793690.851 7     -2095.148          47.000    24698921.359 8  99452296.752 8     -1605.415          51.000
> 2020 05 12 21 00 30.0000000  0 19        .000000000000
G01  21016782.680 8 110443946.282 8     -1910.457          51.000    21016784.703 8  86060221.399 8     -1488.668          51.000
G03  20315795.109 8 106760214.904 8       -59.246          51.000    20315795.938 8  83189799.705 8       -46.166          51.000
G04  21612307.852 8 113573445.608 8      2724.230          49.000    21612308.531 8  88498796.348 8      2122.777          48.000
G11  23052932.844 8 121143968.889 8     -3787.684          50.000    23052931.859 7  94397872.049 7     -2951.445          44.000
G14  23833010.930 5 125243319.087 5     -2944.879          33.000
G22  21232645.016 8 111578311.268 8     -1419.320          50.000    21232641.047 7  86944132.058 7     -1105.964          43.000
R02  21067513.180 6 112420315.106 6     -3121.914          36.000
R03  19327284.891 8 103460558.307 8       103.336          48.000    19327285.641 7  80469312.312 7        80.372          43.000
R04  21841684.000 8 116961204.879 8      3141.445          48.000    21841688.141 7  90969879.783 7      2443.346          46.000
R17  21334981.242 8 114167778.141 8     -3853.457          48.000    21334982.352 7  88797154.174 7     -2997.136          46.000
R18  19235307.477 8 102679356.473 8      -419.781          48.000    19235311.367 8  79861742.257 8      -326.497          50.000
C05                                                                  39712147.703 5 159904361.709 5       -27.215          35.000
C20  25672760.375 6 133684843.071 6      2743.055          40.000
C27  23141091.312 8 120501744.579 8     -2739.410          51.000
C30  22235384.688 5 115785431.213 5       178.258          35.000
E04  26672459.055 6 140164699.992 6      2701.434          40.000    26672462.141 7 107398992.267 7      2069.888          43.000
E12  21701469.008 7 114041991.255 7       540.812          44.000    21701469.281 8  87382827.166 8       414.365          48.000
E19  23914708.141 8 125672638.232 8       514.789          48.000    23914709.273 8  96294628.869 8       394.476          51.000
E33  24710901.078 7 129856661.639 7     -2105.004          47.000    24710904.406 8  99500547.094 8     -1612.940          51.000
> 2020 05 12 21 01  0.0000000  0 19        .000000000000
G01  21027726.727 8 110501456.651 8     -1923.355          51.000    21027728.617 8  86105034.629 8     -1498.719          51.000
G03  20316164.773 8 106762157.551 8       -69.953          50.000    20316165.430 8  83191313.468 8       -54.509          50.000
G04  21596792.523 8 113491912.853 8      2711.570          49.000    21596793.664 8  88435264.338 8      2112.912          48.000
G11  23074574.266 8 121257694.670 8     -3793.863          50.000    23074573.023 7  94486489.498 7     -2956.260          43.000
G14  23849836.750 5 125331737.171 5     -2950.219          35.000
G22  21240769.320 8 111621004.815 8     -1426.691          51.000    21240765.438 7  86977399.762 7     -1111.708          43.000
R02  21085081.180 5 112514076.893 5     -3128.203          35.000
R03  19326755.367 7 103457723.182 7        85.930          47.000    19326756.133 7  80467107.228 7        66.834          44.000
R04  21824115.867 8 116867128.705 8      3130.688          49.000    21824120.023 7  90896709.448 7      2434.979          46.000
R17  21356620.852 7 114283581.071 7     -3866.457          46.000    21356623.023 7  88887223.133 7     -3007.244          46.000
R18  19237738.172 8 102692334.530 8      -445.082          48.000    19237742.594 8  79871836.286 8      -346.175          50.000
C05                                                                  39712350.484 6 159905178.064 6       -26.554          36.000
C20  25656967.492 6 133602613.281 6      2739.324          40.000
C27  23156902.258 8 120584075.888 8     -2749.133          51.000
C30  22234403.859 5 115780331.780 5       161.773          33.000
E04  26657052.336 6 140083731.914 6      2696.984          40.000    26657053.914 7 107336951.839 7      2066.503          44.000
E12  21698414.789 7 114025939.921 7       529.746          45.000    21698414.938 8  87370528.092 8       405.915          49.000
E19  23911800.672 8 125657360.527 8       504.188          48.000    23911801.953 8  96282922.586 8       386.251          50.000
E33  24722944.406 8 129919948.421 8     -2113.754          50.000    24722947.531 8  99549039.504 8     -1619.651          51.000
> 2020 05 12 21 01 30.0000000  0 19        .000000000000
G01  21038743.109 8 110559346.555 8     -1936.965          51.000    21038744.531 8  86150143.612 8     -1509.323          51.000
G03  20316593.836 8 106764412.410 8       -81.445          50.000    20316594.227 8  83193070.497 8       -63.461          50.000
G04  21581347.867 8 113410751.681 8      2698.141          49.000    21581349.055 7  88372021.873 7      2102.447          47.000
G11  23096248.812 7 121371597.207 7     -3800.758          46.000    23096247.703 7  94575244.698 7     -2961.629          43.000
G14  23866701.961 5 125420367.427 5     -2959.551          34.000
G22  21248934.484 8 111663913.127 8     -1434.953          50.000    21248930.859 7  87010834.819 7     -1118.142          43.000
R02  21102686.367 5 112608025.070 5     -3135.891          33.000    21102689.695 4  87583983.065 4     -2439.029          29.000
R03  19326322.570 7 103455405.569 7        67.699          46.000    19326323.516 7  80465304.633 7        52.655          43.000
R04  21806606.945 8 116773367.165 8      3119.070          50.000    21806610.148 7  90823783.835 7      2425.944          45.000
R17  21378331.055 7 114399762.112 7     -3880.094          46.000    21378334.242 7  88977586.178 7     -3017.851          44.000
R18  19240310.984 8 102706068.808 8      -471.469          48.000    19240315.539 8  79882518.494 8      -366.701          49.000
C05                                                                  39712548.945 5 159905977.125 5       -26.820          35.000
C20  25641195.258 6 133520492.332 6      2734.414          41.000
C27  23172767.719 8 120666689.551 8     -2759.531          51.000
C30  22233514.672 6 115775719.560 6       144.406          36.000
E04  26641670.320 6 140002892.526 6      2691.262          40.000    26641670.945 7 107275010.013 7      2062.303          44.000
E12  21695422.422 7 114010214.587 7       517.656          45.000    21695422.492 8  87358478.801 8       396.732          49.000
E19  23908953.594 7 125642399.406 7       492.469          47.000    23908954.680 8  96271458.854 8       377.337          50.000
E33  24735036.898 8 129983490.560 8     -2123.309          51.000    24735038.656 8  99597727.609 8     -1626.981          50.000
> 2020 05 12 21 02  0.0000000  0 18        .000000000000
G01  21049845.664 8 110617690.042 8     -1950.953          51.000    21049846.719 8  86195606.034 8     -1520.226          51.000
G03  20317096.430 8 106767053.773 8       -93.223          49.000    20317096.500 8  83195128.688 8       -72.641          49.000
G04  21565988.641 8 113330038.742 8      2684.195          50.000    21565989.320 7  88309128.689 7      2091.581          46.000
G11  23117969.805 7 121485748.468 7     -3808.008          43.000    23117970.078 7  94664193.709 7     -2967.279          43.000
G14  23883620.297 5 125509278.955 5     -2965.957          33.000
G22  21257154.648 8 111707110.612 8     -1443.508          50.000    21257151.305 7  87044495.185 7     -1124.811          44.000
R03  19326000.062 7 103453680.168 7        48.965          47.000    19326001.289 7  80463962.665 7        38.084          43.000
R04  21789170.906 8 116679997.576 8      3107.016          48.000    21789172.922 7  90751163.063 7      2416.568          44.000
R17  21400125.484 7 114516394.235 7     -3893.816          46.000    21400129.188 7  89068299.962 7     -3028.527          43.000
R18  19243040.125 8 102720635.614 8      -498.105          49.000    19243044.461 8  79893848.236 8      -387.415          49.000
C05                                                                  39712757.227 6 159906816.114 6       -27.783          36.000
C20  25625459.102 7 133438554.720 7      2729.332          45.000
C27  23188701.352 8 120749657.756 8     -2770.258          51.000
C30  22232736.195 6 115771668.719 6       127.191          38.000
E04  26626327.180 6 139922257.293 6      2685.684          38.000    26626327.383 7 107213224.642 7      2057.936          44.000
E12  21692506.445 7 113994890.924 7       505.328          45.000    21692506.586 8  87346737.301 8       387.143          49.000
E19  23906180.867 7 125627829.117 7       480.410          47.000    23906182.031 8  96260294.614 8       368.109          50.000
E33  24747192.297 8 130047362.165 8     -2133.371          51.000    24747192.680 8  99646668.174 8     -1634.616          51.000
> 2020 05 12 21 02 30.0000000  0 19        .000000000000
G01  21061003.484 8 110676323.996 8     -1964.039          51.000    21061004.344 8  86241294.795 8     -1530.420          51.000
G03  20317641.531 8 106769918.658 8      -104.141          49.000    20317641.367 8  83197361.086 8       -81.145          50.000
G04  21550684.391 8 113249613.454 8      2671.242          50.000    21550684.195 7  88246459.668 7      2081.487          44.000
G11  23139706.594 6 121599983.981 6     -3814.105          41.000    23139708.531 6  94753208.438 6     -2972.027          41.000
G14  23900560.805 5 125598297.380 5     -2974.941          34.000
G22  21265398.844 8 111750434.053 8     -1451.023          50.000    21265395.508 7  87078253.697 7     -1130.668          44.000
R02  21138019.625 6 112796519.908 6     -3149.738          37.000
R03  19325757.570 7 103452380.484 7        31.449          46.000    19325758.266 7  80462951.803 7        24.461          43.000
R04  21771777.172 8 116586855.600 8      3096.023          48.000    21771777.891 7  90678719.284 7      2408.018          43.000
R17  21421973.109 7 114633308.864 7     -3906.691          47.000    21421977.445 7  89159233.487 7     -3038.538          45.000
R18  19245894.328 8 102735870.173 8      -523.832          49.000    19245898.508 8  79905697.303 8      -407.425          49.000
C05                                                                  39712944.516 6 159907570.568 6       -27.448          36.000
C20  25609727.977 7 133356640.002 7      2725.266          45.000
C27  23204671.508 8 120832817.660 8     -2779.992          51.000
C30  22232034.531 6 115768018.865 6       110.266          38.000
E04  26610991.492 6 139841664.643 6      2680.953          37.000    26610992.109 7 107151471.879 7      2054.243          44.000
E12  21689636.172 7 113979807.435 7       493.883          45.000    21689636.430 8  87335179.819 8       378.496          49.000
E19  23903451.602 8 125613486.855 8       469.438          48.000    23903452.906 8  96249305.087 8       359.735          50.000
E33  24759379.172 8 130111400.076 8     -2142.141          51.000    24759378.703 8  99695736.182 8     -1641.377          51.000
> 2020 05 12 21 03  0.0000000  0 19        .000000000000
G01  21072250.297 8 110735426.113 8     -1976.648          51.000    21072250.883 8  86287348.392 8     -1540.246          51.000
G03  20318263.102 8 106773185.073 8      -114.301          50.000    20318262.961 8  83199906.368 8       -89.066          50.000
G04  21535469.203 8 113169656.178 8      2658.684          50.000    21535468.234 7  88184155.335 7      2071.702          44.000
G11  23161494.570 7 121714479.857 7     -3819.391          44.000    23161496.586 7  94842426.024 7     -2976.149          44.000
G14  23917557.227 5 125687611.622 5     -2980.789          34.000
G22  21273700.828 8 111794061.065 8     -1458.027          50.000    21273697.367 7  87112248.769 7     -1136.125          43.000
R02  21155741.586 5 112891091.546 5     -3155.906          35.000
R03  19325628.070 7 103451686.635 7        14.246          46.000    19325628.531 7  80462412.176 7        11.080          43.000
R04  21754461.766 8 116494124.022 8      3085.457          50.000    21754460.430 7  90606594.735 7      2399.803          43.000
R17  21443907.219 7 114750684.405 7     -3918.859          47.000    21443912.461 7  89250525.539 7     -3048.002          47.000
R18  19248907.859 8 102751954.089 8      -549.020          51.000    19248911.656 8  79918206.997 8      -427.015          48.000
C05                                                                  39713144.977 6 159908377.192 6       -26.880          36.000
C20  25594035.430 7 133274925.578 7      2721.809          45.000
C27  23220711.523 8 120916344.214 8     -2789.121          51.000
C30  22231444.328 6 115764947.178 6        93.945          39.000
E04  26595696.094 5 139761293.822 5      2676.941          35.000    26595698.727 7 107089889.076 7      2050.888          44.000
E12  21686845.680 7 113965143.520 7       482.988          45.000    21686845.906 8  87323943.830 8       370.046          49.000
E19  23900799.750 8 125599550.783 8       458.961          48.000    23900800.922 8  96238626.800 8       351.647          50.000
E33  24771631.180 8 130175782.102 8     -2150.516          51.000    24771630.820 8  99745067.860 8     -1647.819          51.000
> 2020 05 12 21 03 30.0000000  0 20        .000000000000
G01  21083550.383 8 110794808.863 8     -1990.398          50.000    21083550.961 8  86333620.673 8     -1550.960          50.000
G03  20318925.445 8 106776665.726 8      -125.852          51.000    20318925.570 8  83202618.567 8       -98.066          51.000
G04  21520307.820 8 113089981.906 8      2644.832          50.000    21520306.664 7  88122071.525 7      2060.911          45.000
G11  23183297.023 7 121829046.779 7     -3826.277          45.000    23183298.203 7  94931698.914 7     -2981.515          43.000
G14  23934573.539 5 125777032.650 5     -2988.562          33.000
G17  22128129.391 5 116284112.707 5       771.309          32.000
G22  21282024.883 8 111837804.267 8     -1466.309          50.000    21282021.227 7  87146334.369 7     -1142.578          43.000
R02  21173475.742 5 112985741.465 5     -3162.672          34.000
R03  19325575.750 7 103451407.073 7        -3.926          46.000    19325576.469 7  80462194.747 7        -3.053          42.000
R04  21737187.109 8 116401613.892 8      3073.570          50.000    21737185.172 7  90534642.438 7      2390.555          43.000
R17  21465892.055 8 114868327.341 8     -3932.180          48.000    21465897.523 8  89342025.596 8     -3058.362          49.000
R18  19252045.070 8 102768697.568 8      -575.508          51.000    19252048.352 8  79931229.689 8      -447.617          48.000
C05                                                                  39713322.703 6 159909092.847 6       -27.427          36.000
C20  25578345.836 7 133193226.654 7      2716.887          45.000
C27  23236785.664 8 121000050.340 8     -2799.484          49.000
C30  22230929.781 6 115762268.830 6        76.434          38.000
E04  26580405.516 5 139680982.911 5      2670.719          34.000    26580411.406 7 107028333.683 7      2046.488          43.000
E12  21684099.766 7 113950713.267 7       470.707          46.000    21684099.773 8  87312886.870 8       360.723          50.000
E19  23898189.547 8 125585833.706 8       447.203          48.000    23898190.531 8  96228116.312 8       342.680          50.000
E33  24783912.750 8 130240320.675 8     -2160.246          51.000    24783912.641 8  99794519.510 8     -1655.254          51.000
> 2020 05 12 21 04  0.0000000  0 18        .000000000000
G01  21094958.781 8 110854759.423 8     -2014.133          51.000    21094959.156 8  86380335.381 8     -1569.454          51.000
G03  20319683.219 8 106780648.029 8      -147.547          51.000    20319683.578 8  83205721.643 8      -114.972          51.000
G04  21505255.320 8 113010880.370 8      2620.902          49.000    21505254.234 7  88060433.988 7      2042.265          45.000
G11  23205167.297 7 121943970.199 7     -3843.102          46.000    23205167.586 6  95021249.575 6     -2994.625          41.000
G22  21290425.695 8 111881951.043 8     -1484.633          50.000    21290421.805 7  87180734.430 7     -1156.857          42.000
R02  21191279.367 5 113080759.778 5     -3179.746          35.000
R03  19325655.430 7 103451833.712 7       -32.375          44.000    19325655.977 7  80462526.577 7       -25.181          42.000
R04  21720007.805 8 116309619.500 8      3051.301          48.000    21720006.992 7  90463091.267 7      2373.234          45.000
R17  21487981.516 8 114986527.562 8     -3955.738          48.000    21487986.305 8  89433959.104 8     -3076.685          50.000
R18  19255360.570 8 102786393.333 8      -612.242          51.000    19255363.414 8  79944993.039 8      -476.188          48.000
C05                                                                  39713532.602 5 159909938.076 5       -35.398          35.000
C20  25562714.391 7 133111829.080 7      2701.969          47.000
C27  23252948.727 8 121084219.436 8     -2819.602          48.000
C30  22230545.625 6 115760269.409 6        49.020          39.000
E04  26565177.398 5 139600949.275 5      2655.938          33.000    26565185.023 7 106967026.884 7      2034.312          42.000
E12  21681453.289 7 113936805.467 7       448.602          47.000    21681453.164 8  87302230.243 8       343.623          49.000
E19  23895675.789 8 125572622.978 8       425.574          49.000    23895676.500 8  96217993.802 8       326.098          50.000
E33  24796278.633 8 130305302.951 8     -2179.832          51.000    24796278.492 8  99844311.145 8     -1670.264          51.000
> 2020 05 12 21 04 30.0000000  0 19        .000000000000
G01  21106443.656 8 110915110.722 8     -2014.590          51.000    21106443.664 8  86427362.349 8     -1569.810          51.000
G03  20320504.758 8 106784965.167 8      -145.672          50.000    20320505.266 8  83209085.630 8      -113.511          50.000
G04  21490280.344 8 112932187.104 8      2620.191          49.000    21490279.703 7  87999114.592 7      2041.708          46.000
G11  23227073.242 7 122059081.289 7     -3836.148          46.000    23227072.094 6  95110946.453 6     -2989.210          39.000
G22  21298871.461 8 111926334.046 8     -1479.512          49.000    21298867.461 7  87215318.579 7     -1152.866          43.000
G31  23332395.625 5 122612573.135 5       563.578          31.000
R02  21209121.367 5 113175974.714 5     -3173.094          32.000
R03  19325834.883 7 103452795.836 7       -37.066          43.000    19325835.609 6  80463274.898 6       -28.829          41.000
R04  21702892.172 7 116217972.527 7      3053.004          47.000    21702892.680 7  90391810.264 7      2374.559          44.000
R17  21510142.859 7 115105112.612 7     -3955.363          47.000    21510146.617 8  89526191.945 8     -3076.394          49.000
R18  19258822.922 8 102804872.744 8      -625.121          51.000    19258825.070 8  79959365.907 8      -486.208          48.000
C05                                                                  39713743.094 6 159910785.431 6       -25.361          36.000
C20  25547109.594 8 133030568.453 8      2710.160          48.000
C27  23269169.406 8 121168684.815 8     -2816.598          48.000
C30  22230260.594 6 115758784.487 6        44.543          37.000
E04  26549980.508 5 139521089.630 5      2663.074          33.000    26549988.570 6 106905841.834 6      2040.475          41.000
E12  21678874.695 7 113923254.742 7       449.609          47.000    21678874.430 8  87291847.222 8       344.530          50.000
E19  23893226.539 8 125559751.767 8       427.230          48.000    23893227.109 8  96208131.460 8       327.391          50.000
E33  24808696.969 8 130370561.993 8     -2176.012          51.000    24808696.930 8  99894314.835 8     -1667.331          51.000
> 2020 05 12 21 05  0.0000000  0 17        .000000000000
G01  21117994.375 8 110975807.985 8     -2024.879          51.000    21117993.844 8  86474658.898 8     -1577.828          51.000
G03  20321379.648 8 106789562.632 8      -153.930          50.000    20321380.398 8  83212668.073 8      -119.945          50.000
G04  21475372.891 8 112853849.867 8      2609.383          49.000    21475373.156 7  87938072.609 7      2033.285          47.000
G11  23249003.867 7 122174323.506 7     -3839.520          45.000    23249000.656 6  95200745.511 6     -2991.836          37.000
G22  21307351.852 8 111970898.566 8     -1484.434          49.000    21307347.602 7  87250044.155 7     -1156.702          43.000
R03  19326103.688 7 103454236.844 7       -51.852          44.000    19326104.789 6  80464395.698 6       -40.329          41.000
R04  21685832.406 8 116126619.149 8      3044.395          48.000    21685833.117 7  90320757.628 7      2367.862          44.000
R17  21532364.039 7 115224023.987 7     -3964.930          45.000    21532367.930 7  89618678.603 7     -3083.834          47.000
R18  19262421.391 8 102824080.812 8      -648.258          51.000    19262423.383 8  79974305.507 8      -504.204          48.000
C05                                                                  39713943.875 5 159911593.485 5       -23.050          35.000
C20  25531521.047 8 132949391.679 8      2708.379          48.000
C27  23285437.016 8 121253391.015 8     -2823.531          48.000
C30  22230063.875 6 115757760.833 6        30.805          37.000
E04                                                                  26534812.367 6 106844737.792 6      2038.756          41.000
E12  21676353.945 7 113910007.950 7       440.758          47.000    21676353.500 8  87281697.087 8       337.676          50.000
E19  23890831.430 8 125547165.893 8       419.113          48.000    23890832.039 8  96198487.758 8       321.049          49.000
E33  24821157.164 8 130436042.999 8     -2182.332          51.000    24821157.352 8  99944488.598 8     -1672.156          51.000
> 2020 05 12 21 05 30.0000000  0 18        .000000000000
G01  21129618.414 8 111036891.666 8     -2039.383          51.000    21129617.820 8  86522256.555 8     -1589.133          51.000
G03  20322315.648 8 106794481.171 8      -166.156          51.000    20322316.664 8  83216500.702 8      -129.472          51.000
G04  21460541.125 8 112775911.738 8      2594.410          49.000    21460542.398 7  87877341.585 7      2021.615          46.000
G11  23270966.500 7 122289735.683 7     -3846.719          44.000    23270961.641 6  95290676.975 6     -2997.443          36.000
G22  21315874.547 8 112015685.440 8     -1493.527          49.000    21315870.125 7  87284942.989 7     -1163.788          43.000
R02  21244899.297 5 113366848.240 5     -3184.922          33.000
R03  19326469.750 7 103456197.451 7       -70.777          44.000    19326471.086 6  80465920.629 6       -55.049          40.000
R04  21668836.469 8 116035602.290 8      3031.422          49.000    21668836.711 7  90249966.760 7      2357.773          44.000
R17  21554652.688 7 115343300.375 7     -3978.613          45.000    21554656.961 7  89711449.171 7     -3094.474          44.000
R18  19266163.977 8 102844059.037 8      -675.590          51.000    19266165.836 8  79989844.144 8      -525.459          48.000
C05                                                                  39714142.664 6 159912393.879 6       -24.116          36.000
C20  25515956.492 8 132868340.078 8      2702.742          48.000
C27  23301758.297 8 121338376.965 8     -2834.398          48.000
C30  22229963.922 6 115757239.479 6        12.020          37.000
E04  26519658.258 5 139361743.145 5      2653.934          34.000    26519664.570 6 106783746.871 6      2033.402          40.000
E12  21673899.172 7 113897107.246 7       427.297          47.000    21673898.477 8  87271812.124 8       327.418          50.000
E19  23888498.414 7 125534905.913 7       406.234          47.000    23888498.852 8  96189093.739 8       311.300          49.000
E33  24833667.172 8 130501786.479 8     -2192.707          50.000    24833667.883 8  99994863.453 8     -1680.159          51.000
> 2020 05 12 21 06  0.0000000  0 18        .000000000000
G01  21141310.961 8 111098336.394 8     -2056.707          51.000    21141310.844 8  86570135.564 8     -1602.629          51.000
G03  20323307.906 8 106799695.742 8      -181.336          51.000    20323308.938 8  83220564.004 8      -141.301          51.000
G04  21445781.312 8 112698349.947 8      2576.543          49.000    21445783.016 7  87816903.812 7      2007.696          45.000
G11  23292956.406 7 122405291.032 7     -3856.758          43.000    23292951.156 6  95380720.038 6     -3005.269          38.000
G22  21324434.836 8 112060669.506 8     -1505.367          49.000    21324430.547 7  87319995.494 7     -1173.013          44.000
R02  21262829.023 5 113462532.205 5     -3193.836          32.000
R03  19326928.062 7 103458651.016 7       -92.617          45.000    19326929.305 6  80467828.937 6       -72.036          40.000
R04  21651898.430 8 115944898.006 8      3015.621          49.000    21651899.242 7  90179419.000 7      2345.483          45.000
R17  21577005.469 8 115462913.784 8     -3995.352          49.000    21577007.656 6  89804481.764 6     -3107.499          41.000
R18  19270046.438 8 102864783.090 8      -705.871          51.000    19270048.180 8  80005962.850 8      -549.011          49.000
C05                                                                  39714334.836 6 159913167.715 6       -27.348          36.000
C20  25500411.383 8 132787389.817 8      2694.074          48.000
C27  23318127.852 8 121423616.370 8     -2848.117          49.000
C30  22229955.766 6 115757196.427 6        -9.023          37.000
E04  26504535.273 6 139282271.644 6      2644.227          37.000    26504540.820 6 106722850.813 6      2026.404          41.000
E12  21671505.602 7 113884528.908 7       411.414          46.000    21671505.039 8  87262174.171 8       315.281          50.000
E19  23886222.578 7 125522946.989 7       391.113          47.000    23886222.914 8  96179930.432 8       299.618          49.000
E33  24846222.398 8 130567767.129 8     -2205.848          50.000    24846223.625 8 100045420.006 8     -1690.219          51.000
> 2020 05 12 21 06 30.0000000  0 18        .000000000000
G01  21153092.836 8 111160251.830 8     -2069.824          51.000    21153093.430 8  86618381.344 8     -1612.850          51.000
G03  20324377.344 8 106805316.284 8      -192.301          51.000    20324378.266 8  83224943.644 8      -149.845          51.000
G04  21431114.906 8 112621276.646 8      2562.812          50.000    21431116.000 7  87756846.725 7      1996.997          44.000
G11  23314994.086 6 122521097.205 6     -3862.363          40.000    23314989.172 6  95470958.567 6     -3009.637          40.000
G22  21333053.453 8 112105960.308 8     -1512.938          49.000    21333049.289 7  87355287.011 7     -1178.915          44.000
R02  21280806.414 5 113558423.816 5     -3200.641          30.000
R03  19327499.266 7 103461708.539 7      -110.047          45.000    19327500.258 6  80470207.035 6       -85.589          40.000
R04  21635039.211 8 115854619.894 8      3004.070          48.000    21635041.086 7  90109202.684 7      2336.499          43.000
R17  21599442.227 8 115582973.258 8     -4007.473          50.000    21599442.484 7  89897861.247 7     -3116.926          42.000
R18  19274089.328 8 102886364.846 8      -731.793          51.000    19274091.133 8  80022748.640 8      -569.175          49.000
C05                                                                  39714541.406 6 159913999.578 6       -27.261          36.000
C20  25484906.750 8 132706650.745 8      2689.652          48.000
C27  23334566.688 8 121509216.759 8     -2857.461          51.000
C30  22230060.234 6 115757741.275 6       -26.113          38.000
E04  26489457.062 6 139203032.111 6      2639.301          36.000    26489461.945 6 106662134.912 6      2022.339          40.000
E12  21669194.461 7 113872384.300 7       399.523          47.000    21669194.148 8  87252868.558 8       306.137          51.000
E19  23884024.984 8 125511399.018 8       380.055          48.000    23884025.336 8  96171081.994 8       291.190          49.000
E33  24858843.969 8 130634094.603 8     -2214.746          51.000    24858845.211 8 100096242.323 8     -1697.043          51.000
> 2020 05 12 21 07  0.0000000  0 17        .000000000000
G01  21164939.188 8 111222508.004 8     -2081.746          48.000    21164940.266 8  86666892.661 8     -1622.137          49.000
G03  20325499.391 8 106811213.145 8      -202.102          51.000    20325500.344 8  83229538.604 8      -157.482          51.000
G04  21416517.375 8 112544564.446 8      2550.172          50.000    21416517.516 7  87697071.037 7      1987.150          44.000
G11  23337054.344 6 122637023.031 6     -3867.281          36.000    23337050.141 6  95561290.351 6     -3013.469          36.000
G22  21341705.602 8 112151427.738 8     -1519.375          48.000    21341701.633 7  87390716.172 7     -1183.926          45.000
R03  19328158.789 7 103465237.373 7      -126.418          44.000    19328159.148 6  80472951.702 6       -98.322          39.000
R04  21618234.930 8 115764637.336 8      2993.508          48.000    21618237.602 7  90039216.230 7      2328.284          42.000
R17  21621936.992 8 115703343.765 8     -4018.469          51.000    21621937.320 7  89991482.722 7     -3125.476          45.000
R18  19278268.047 8 102908672.997 8      -756.668          51.000    19278270.195 8  80040099.426 8      -588.523          49.000
C05                                                                  39714737.883 5 159914791.549 5       -26.729          35.000
C20  25469417.961 8 132625995.297 8      2686.250          48.000
C27  23351049.867 8 121595048.187 8     -2865.801          51.000
C30  22230252.484 6 115758746.320 6       -41.930          36.000
E04  26474398.336 5 139123899.270 5      2634.684          35.000    26474402.945 6 106601500.708 6      2019.098          39.000
E12  21666941.570 8 113860545.085 8       388.535          48.000    21666941.250 8  87243796.952 8       297.781          51.000
E19  23881881.031 8 125500132.486 8       370.051          48.000    23881881.523 8  96162449.213 8       283.414          49.000
E33  24871507.102 8 130700639.015 8     -2222.660          51.000    24871508.258 8 100147230.877 8     -1703.071          51.000
> 2020 05 12 21 07 30.0000000  0 16        .000000000000
G01  21176864.711 8 111285180.835 8     -2095.941          48.000    21176866.391 8  86715728.641 8     -1633.201          48.000
G03  20326688.648 8 106817462.650 8      -213.969          51.000    20326689.797 8  83234408.344 8      -166.729          51.000
G04  21402003.445 8 112468291.922 8      2535.246          50.000    21402003.266 7  87637637.949 7      1975.519          45.000
G22  21350405.797 7 112197148.245 7     -1528.035          47.000    21350402.297 7  87426342.546 7     -1190.677          45.000
R03  19328919.883 7 103469313.823 7      -144.957          43.000    19328920.195 6  80476122.319 6      -112.741          40.000
R04  21601500.141 7 115675029.814 7      2980.898          47.000    21601503.203 6  89969521.477 6      2318.480          40.000
R17  21644503.258 8 115824100.264 8     -4031.395          49.000    21644504.734 7  90085404.436 7     -3135.529          46.000
R18  19282597.164 8 102931785.397 8      -783.637          50.000    19282600.242 8  80058075.728 8      -609.495          50.000
C05                                                                  39714938.633 6 159915600.317 6       -27.073          36.000
C20  25453959.945 8 132545499.983 8      2680.754          49.000
C27  23367591.508 8 121681184.785 8     -2876.086          51.000
C30  22230547.680 6 115760287.876 6       -60.332          37.000
E04                                                                  26459378.445 6 106541007.602 6      2014.351          38.000
E12  21664761.508 7 113849088.887 7       375.625          47.000    21664761.367 8  87235018.826 8       287.823          51.000
E19  23879805.125 8 125489223.551 8       357.902          48.000    23879805.766 8  96154090.436 8       274.213          50.000
E33  24884226.102 8 130767476.315 8     -2232.578          51.000    24884227.109 8 100198443.879 8     -1710.665          51.000
> 2020 05 12 21 08  0.0000000  0 16        .000000000000
G01  21188863.406 8 111348236.516 8     -2108.617          49.000    21188865.156 8  86764862.930 8     -1643.078          49.000
G03  20327938.617 8 106824031.164 8      -224.566          51.000    20327939.930 8  83239526.665 8      -174.987          51.000
G04  21387567.250 8 112392427.741 8      2521.730          51.000    21387567.180 7  87578523.039 7      1964.988          46.000
G22  21359147.633 7 112243088.001 7     -1535.430          47.000    21359144.922 7  87462139.764 7     -1196.436          44.000
R03  19329777.438 7 103473902.945 7      -161.719          45.000    19329777.648 6  80479691.606 6      -125.781          40.000
R04  21584829.602 7 115585764.509 7      2969.473          47.000    21584832.484 6  89900092.941 6      2309.590          39.000
R17  21667134.219 8 115945205.804 8     -4042.863          49.000    21667137.047 7  90179597.647 7     -3144.449          45.000
R18  19287070.430 8 102955668.502 8      -809.293          50.000    19287074.469 8  80076651.448 8      -629.450          50.000
C05                                                                  39715137.797 6 159916401.676 6       -26.949          36.000
C20  25438526.289 8 132465132.496 8      2676.559          48.000
C27  23384185.070 8 121767591.768 8     -2884.996          51.000
C30  22230940.508 6 115762333.254 6       -77.152          39.000
E04                                                                  26444382.633 6 106480630.865 6      2010.280          38.000
E12  21662648.023 7 113837983.540 7       363.914          47.000    21662648.062 8  87226509.522 8       278.795          51.000
E19  23877790.961 8 125478638.716 8       347.016          49.000    23877791.625 8  96145979.990 8       265.916          50.000
E33  24896994.289 8 130834572.744 8     -2241.238          51.000    24896995.500 8 100249855.428 8     -1717.330          51.000
> 2020 05 12 21 08 30.0000000  0 17        .000000000000
G01  21200939.984 8 111411698.872 8     -2121.355          50.000    21200941.578 8  86814314.087 8     -1653.004          50.000
G03  20329253.930 8 106830942.904 8      -235.223          51.000    20329255.188 8  83244912.444 8      -183.290          51.000
G04  21373213.688 8 112316998.338 8      2508.000          51.000    21373213.906 7  87519746.896 7      1954.289          46.000
G11  23403433.258 6 122985877.211 6     -3884.500          37.000    23403439.422 5  95833158.793 5     -3026.883          35.000
G22  21367935.703 7 112289270.992 7     -1542.496          46.000    21367933.453 7  87498126.529 7     -1201.942          43.000
R03  19330735.078 7 103479028.267 7      -178.879          45.000    19330735.477 6  80483678.009 6      -139.128          40.000
R04  21568228.898 8 115496867.583 8      2958.027          48.000    21568231.031 6  89830950.879 6      2300.688          40.000
R17  21689834.555 8 116066682.072 8     -4054.363          49.000    21689837.836 7  90274079.207 7     -3153.394          43.000
R18  19291693.195 8 102980346.711 8      -834.934          51.000    19291697.695 8  80095845.622 8      -649.393          50.000
C05                                                                  39715339.656 6 159917214.396 6       -26.385          36.000
C20  25423121.711 8 132384917.730 8      2672.148          48.000
C27  23400834.781 8 121854291.648 8     -2893.945          51.000
C30  22231435.156 6 115764907.083 6       -93.984          39.000
E04  26429438.312 6 138887644.776 6      2618.438          37.000    26429421.078 6 106420389.971 6      2006.353          39.000
E12  21660606.172 7 113827254.566 7       352.355          47.000    21660605.977 8  87218288.617 8       269.957          51.000
E19  23875842.977 8 125468402.315 8       336.320          49.000    23875843.773 8  96138136.531 8       257.790          50.000
E33  24909815.977 8 130901952.170 8     -2249.793          50.000    24909817.695 8 100301483.800 8     -1723.831          51.000
> 2020 05 12 21 09  0.0000000  0 17        .000000000000
G01  21213083.688 8 111475512.934 8     -2134.734          51.000    21213085.625 8  86864039.291 8     -1663.429          51.000
G03  20330624.203 8 106838143.249 8      -246.586          51.000    20330625.234 8  83250523.097 8      -192.145          51.000
G04  21358932.523 8 112241951.279 8      2493.449          50.000    21358933.281 7  87461268.660 7      1942.947          47.000
G11  23425619.320 6 123102458.923 6     -3889.887          38.000    23425623.938 5  95924001.682 5     -3031.081          33.000
G22  21376759.773 7 112335642.513 7     -1550.723          46.000    21376757.609 7  87534260.183 7     -1208.355          44.000
R03  19331782.523 7 103484633.295 7      -196.559          44.000    19331782.742 6  80488037.450 6      -152.879          40.000
R04  21551687.055 8 115408284.873 8      2945.723          48.000    21551689.266 6  89762053.240 6      2291.118          40.000
R17  21712593.367 8 116188470.749 8     -4066.496          50.000    21712596.242 6  90368803.687 6     -3162.833          40.000
R18  19296454.969 8 103005765.128 8      -861.457          51.000    19296459.820 8  80115615.463 8      -670.022          50.000
C05                                                                  39715533.992 5 159917997.083 5       -26.551          35.000
C20  25407736.438 8 132304802.490 8      2667.020          49.000
C27  23417530.203 8 121941228.857 8     -2903.664          51.000
C30  22232020.891 6 115767955.958 6      -111.352          39.000
E04  26414499.086 6 138809149.041 6      2612.848          40.000    26414484.250 6 106360243.981 6      2001.995          40.000
E12  21658625.953 7 113816848.667 7       339.762          47.000    21658625.531 8  87210315.263 8       260.292          51.000
E19  23873950.906 8 125458459.690 8       324.801          49.000    23873951.891 8  96130518.165 8       248.906          51.000
E33  24922680.203 7 130969559.687 7     -2259.086          47.000    24922682.805 8 100353286.935 8     -1730.955          51.000
> 2020 05 12 21 09 30.0000000  0 17        .000000000000
G01  21225306.695 8 111539742.859 8     -2147.074          51.000    21225308.773 8  86914088.583 8     -1673.045          51.000
G03  20332061.656 8 106845696.765 8      -256.785          51.000    20332062.578 8  83256408.949 8      -200.092          51.000
G04  21344736.523 8 112167353.269 8      2479.926          48.000    21344738.125 8  87403140.347 8      1932.410          48.000
G11  23447841.484 6 123219227.287 6     -3894.566          39.000    23447845.820 6  96014990.049 6     -3034.724          37.000
G22  21385632.188 7 112382266.869 7     -1557.500          45.000    21385629.992 7  87570590.856 7     -1213.636          44.000
R03  19332930.750 7 103490782.720 7      -213.141          44.000    19332931.250 6  80492820.343 6      -165.773          40.000
R04  21535216.352 8 115320083.680 8      2934.473          48.000    21535218.102 6  89693452.312 6      2282.368          41.000
R17  21735422.484 8 116310634.565 8     -4077.504          50.000    21735423.883 6  90463819.879 6     -3171.395          40.000
R18  19301367.883 8 103031989.390 8      -886.699          51.000    19301372.625 8  80136012.087 8      -689.658          50.000
C05                                                                  39715733.242 6 159918799.478 6       -26.116          36.000
C20  25392382.453 8 132224851.594 8      2663.195          48.000
C27  23434282.859 8 122028465.796 8     -2912.027          51.000
C30  22232710.797 6 115771544.360 6      -127.605          40.000
E04  26399595.398 7 138730842.975 7      2607.957          43.000    26399584.602 7 106300243.298 7      1998.338          42.000
E12  21656719.758 8 113806831.682 8       328.336          48.000    21656719.500 8  87202639.909 8       251.555          51.000
E19  23872127.016 8 125448875.391 8       314.281          48.000    23872128.391 8  96123174.353 8       240.882          51.000
E33  24935599.547 7 131037459.505 7     -2267.316          46.000    24935603.516 8 100405314.062 8     -1737.333          51.000
> 2020 05 12 21 10  0.0000000  0 17        .000000000000
G01  21237601.805 8 111604351.862 8     -2160.441          51.000    21237603.922 8  86964433.261 8     -1683.461          51.000
G03  20333559.375 8 106853566.981 8      -268.137          51.000    20333560.289 8  83262541.569 8      -208.938          51.000
G04  21330619.758 8 112093170.086 8      2465.375          49.000    21330621.836 8  87345335.275 8      1921.071          49.000
G11  23470091.102 6 123336143.795 6     -3900.367          39.000    23470096.258 5  96106093.800 5     -3039.247          35.000
G22  21394545.820 7 112429107.622 7     -1565.531          45.000    21394543.391 7  87607090.148 7     -1219.894          43.000
R03  19334173.867 7 103497438.379 7      -230.934          44.000    19334174.930 6  80497996.977 6      -179.615          40.000
R04  21518810.523 8 115232228.415 8      2922.164          48.000    21518812.039 6  89625120.459 6      2272.794          41.000
R17  21758314.617 8 116433133.751 8     -4089.387          51.000    21758316.031 7  90559096.954 7     -3180.637          42.000
R18  19306424.930 8 103058982.715 8      -913.133          51.000    19306429.156 8  80157006.891 8      -710.214          49.000
C05                                                                  39715930.531 6 159919594.055 6       -26.952          36.000
C20  25377053.117 8 132145029.845 8      2658.070          48.000
C27  23451085.836 8 122115964.909 8     -2921.547          50.000
C30  22233497.234 6 115775636.800 6      -145.484          37.000
E04  26384720.648 7 138652691.340 7      2601.898          44.000    26384714.812 7 106240360.925 7      1993.785          42.000
E12  21654880.945 7 113797168.526 7       315.625          47.000    21654880.820 8  87195235.667 8       241.837          51.000
E19  23870364.328 8 125439612.814 8       302.785          48.000    23870366.102 8  96116077.067 8       232.022          51.000
E33  24948568.188 7 131105614.924 7     -2276.559          46.000    24948573.133 8 100457537.019 8     -1744.442          51.000
> 2020 05 12 21 10 30.0000000  0 18        .000000000000
G01  21249966.078 8 111669325.264 8     -2172.766          51.000    21249968.305 8  87015061.897 8     -1693.064          51.000
G03  20335114.555 8 106861739.593 8      -278.359          51.000    20335115.586 8  83268909.842 8      -216.903          51.000
G04  21316580.062 8 112019389.611 8      2451.633          50.000    21316581.844 8  87287843.986 8      1910.363          49.000
G11  23492365.812 6 123453191.938 6     -3904.578          40.000    23492372.359 4  96197300.137 4     -3042.528          29.000
G17  22076962.000 5 116015203.802 5       508.879          35.000    22076972.602 5  90401499.730 5       396.529          33.000
G22  21403497.711 7 112476149.920 7     -1572.383          45.000    21403495.023 7  87643746.482 7     -1225.233          43.000
R03  19335508.250 7 103504584.459 7      -247.199          45.000    19335509.523 6  80503555.033 6      -192.266          39.000
R04  21502466.578 8 115144705.826 8      2910.898          48.000    21502468.547 6  89557047.378 6      2264.032          41.000
R17  21781266.422 8 116555950.777 8     -4100.008          50.000    21781268.461 7  90654621.273 7     -3188.898          44.000
R18  19311623.219 8 103086730.914 8      -938.426          51.000    19311627.500 8  80178588.800 8      -729.887          50.000
C05                                                                  39716123.258 6 159920369.155 6       -26.267          36.000
C20  25361745.914 8 132065324.008 8      2654.047          48.000
C27  23467935.883 8 122203710.495 8     -2929.762          49.000
C30  22234376.086 5 115780219.715 5      -162.281          35.000
E04  26369873.094 7 138574681.059 7      2596.996          43.000    26369871.539 6 106180586.846 6      1989.981          41.000
E12  21653106.992 7 113787846.201 7       304.207          47.000    21653106.719 8  87188092.584 8       233.022          51.000
E19  23868660.227 8 125430657.895 8       292.418          48.000    23868661.906 8  96109215.505 8       224.099          51.000
E33  24961583.906 8 131174011.250 8     -2284.727          48.000    24961588.492 8 100509944.598 8     -1750.623          51.000
> 2020 05 12 21 11  0.0000000  0 19        .000000000000
G01  21262409.375 8 111734714.628 8     -2186.559          51.000    21262411.508 8  87066014.653 8     -1703.812          51.000
G03  20336737.141 8 106870266.580 8      -290.129          51.000    20336738.219 8  83275554.248 8      -226.074          51.000
G04  21302627.383 8 111946065.937 8      2436.551          51.000    21302628.562 8  87230708.664 8      1898.611          48.000
G11  23514674.695 6 123570422.077 6     -3910.441          38.000
G17  22074112.070 5 116000233.153 5       489.504          30.000    22074123.328 5  90389834.399 5       381.435          30.000
G22  21412497.734 7 112523445.862 7     -1580.734          44.000    21412494.844 7  87680600.453 7     -1231.738          42.000
R02  21444008.117 5 114429335.215 5     -3250.863          31.000
R03  19336944.688 7 103512273.037 7      -265.387          43.000    19336946.578 6  80509535.022 6      -206.409          40.000
R04  21486194.445 7 115057570.426 7      2898.055          47.000    21486197.227 6  89489275.373 6      2254.043          41.000
R17  21804287.086 8 116679135.695 8     -4112.230          49.000    21804289.242 7  90750431.739 7     -3198.401          44.000
R18  19316972.867 8 103115286.507 8      -965.328          50.000    19316976.727 8  80200798.695 8      -750.811          49.000
C05                                                                  39716321.438 6 159921167.042 6       -27.043          36.000
C20  25346470.969 7 131985786.495 7      2648.441          46.000
C27  23484842.836 8 122291752.538 8     -2939.602          48.000
C30  22235359.484 5 115785345.067 5      -179.586          35.000
E04  26355062.898 7 138496865.354 7      2590.598          43.000    26355064.102 6 106120961.828 6      1984.988          40.000
E12  21651407.922 7 113778917.980 7       291.082          47.000    21651407.711 8  87181251.461 8       223.022          51.000
E19  23867024.539 8 125422062.419 8       280.543          48.000    23867026.047 8  96102629.360 8       214.959          51.000
E33  24974655.914 8 131242700.260 8     -2294.516          50.000    24974659.547 8 100562576.427 8     -1758.132          51.000
> 2020 05 12 21 11 30.0000000  0 19        .000000000000
G01  21274922.273 8 111800470.078 8     -2194.820          51.000    21274924.070 8  87117252.675 8     -1710.250          51.000
G03  20338417.719 8 106879098.476 8      -296.422          51.000    20338418.766 8  83282436.242 8      -230.978          51.000
G04  21288752.461 8 111873151.761 8      2426.672          50.000    21288753.039 7  87173892.444 7      1890.913          47.000
G11  23537008.797 6 123687782.546 6     -3910.992          37.000
G17  22071368.844 5 115985819.922 5       474.703          32.000    22071377.234 5  90378619.218 5       369.886          33.000
G22  21421536.695 7 112570945.969 7     -1583.727          44.000    21421533.734 6  87717613.495 6     -1234.070          41.000
R02  21462316.359 5 114526928.732 5     -3251.875          33.000    21462296.156 4  89076509.980 4     -2529.230          26.000
R03  19338471.852 7 103520452.590 7      -277.582          45.000    19338475.055 6  80515896.919 6      -215.897          39.000
R04  21469985.922 8 114970773.219 8      2890.699          48.000    21469988.914 6  89421766.419 6      2248.322          40.000
R17  21827366.164 7 116802635.234 7     -4118.770          46.000    21827368.484 7  90846486.911 7     -3203.487          43.000
R18  19322464.328 8 103144599.644 8      -986.641          50.000    19322467.859 8  80223597.806 8      -767.387          49.000
C05                                                                  39716515.664 6 159921949.155 6       -23.566          36.000
C20  25331218.805 7 131906369.124 7      2648.215          45.000
C27  23501797.086 8 122380040.556 8     -2943.992          48.000
C30  22236438.922 6 115790964.527 6      -192.277          37.000
E04  26340280.773 7 138419195.922 7      2589.543          42.000    26340283.125 6 106061448.895 6      1984.249          39.000
E12  21649774.758 8 113770335.671 8       283.285          48.000    21649774.641 8  87174675.403 8       217.114          51.000
E19  23865447.812 8 125413777.055 8       274.109          48.000    23865449.539 8  96096280.838 8       210.032          51.000
E33  24987774.516 8 131311632.064 8     -2298.754          51.000    24987777.359 8 100615394.299 8     -1761.368          51.000
> 2020 05 12 21 12  0.0000000  0 18        .000000000000
G01  21287516.273 8 111866651.669 8     -2212.473          51.000    21287517.852 8  87168822.749 8     -1724.005          51.000
G03  20340167.805 8 106888295.724 8      -311.848          51.000    20340168.844 8  83289602.928 8      -242.998          51.000
G04  21274966.891 8 111800709.624 8      2407.422          49.000    21274967.406 7  87117444.060 7      1875.916          47.000
G11  23559378.469 6 123805331.864 6     -3920.859          36.000
G17  22068741.727 5 115972013.256 5       450.688          35.000    22068746.508 5  90367856.104 5       351.182          35.000
G22  21430626.008 7 112618710.297 7     -1595.895          42.000    21430623.406 6  87754832.463 6     -1243.554          41.000
R03  19340103.242 7 103529183.474 7      -299.602          44.000    19340105.594 6  80522687.566 6      -233.026          40.000
R04  21453853.109 8 114884377.151 8      2873.797          48.000    21453855.734 6  89354569.523 6      2235.178          39.000
R17  21850514.367 6 116926508.043 6     -4134.816          40.000    21850517.406 7  90942832.415 7     -3215.968          42.000
R18  19328108.539 8 103174731.422 8     -1017.477          49.000    19328112.633 8  80247033.615 8      -791.371          49.000
C05                                                                  39716717.633 6 159922763.131 6       -27.052          36.000
C20  25316001.617 7 131827132.803 7      2638.828          46.000
C27  23518810.148 8 122468632.871 8     -2957.477          49.000
C30  22237625.578 6 115797138.522 6      -214.773          39.000
E04  26325538.359 6 138341734.420 6      2579.352          41.000    26325540.477 6 106002095.340 6      1976.410          38.000
E12  21648219.359 8 113762161.022 8       266.332          48.000    21648218.930 8  87168411.717 8       204.070          51.000
E19  23863941.602 8 125405862.005 8       258.215          49.000    23863943.500 8  96090216.067 8       197.919          51.000
E33  25000950.648 8 131380866.833 8     -2312.238          51.000    25000953.102 8 100668444.295 8     -1771.685          51.000
> 2020 05 12 21 12 30.0000000  0 18        .000000000000
G01  21300187.375 8 111933238.475 8     -2225.199          51.000    21300188.383 8  87220708.536 8     -1733.925          51.000
G03  20341983.523 8 106897837.845 8      -322.809          51.000    20341984.781 8  83297038.342 8      -251.539          51.000
G04  21261267.438 8 111728721.196 8      2393.180          48.000    21261268.461 7  87061349.191 7      1864.815          47.000
G11  23581780.055 6 123923047.522 6     -3925.332          36.000
G17  22066210.969 5 115958721.062 5       431.887          31.000
G22  21439761.492 6 112666718.151 6     -1602.922          40.000    21439759.070 6  87792241.154 6     -1249.030          40.000
R03  19341833.398 7 103538443.808 7      -316.398          45.000    19341836.047 6  80529890.097 6      -246.088          40.000
R04  21437790.781 7 114798362.840 7      2861.852          45.000    21437792.227 6  89287669.617 6      2225.891          37.000
R17  21873720.812 5 117050712.250 5     -4145.445          32.000    21873730.992 6  91039449.899 6     -3224.226          38.000
R18  19333902.477 8 103205661.344 8     -1043.195          48.000    19333906.406 8  80271090.264 8      -811.371          48.000
C05                                                                  39716923.281 6 159923591.674 6       -27.070          36.000
C20  25300815.602 7 131748057.981 7      2634.125          45.000
C27  23535877.875 8 122557507.731 8     -2966.043          49.000
C30  22238914.992 6 115803847.172 6      -231.238          39.000
E04  26310832.570 6 138264461.523 6      2573.820          40.000    26310833.922 6 105942886.321 6      1972.046          39.000
E12  21646737.961 8 113754374.819 8       254.180          49.000    21646737.242 8  87162445.664 8       194.791          51.000
E19  23862502.086 8 125398297.004 8       247.363          49.000    23862503.891 8  96084419.518 8       189.619          51.000
E33  25014180.086 8 131450383.726 8     -2320.812          51.000    25014182.266 8 100721710.465 8     -1778.291          51.000
> 2020 05 12 21 13  0.0000000  0 17        .000000000000
G01  21312922.953 8 112000164.813 8     -2237.184          51.000    21312922.773 8  87272858.848 8     -1743.263          51.000
G03  20343852.523 8 106907659.547 8      -332.816          51.000    20343854.023 8  83304691.611 8      -259.337          51.000
G04  21247642.453 8 111657123.364 8      2379.238          49.000    21247643.867 8  87005558.677 8      1853.952          48.000
G11  23604200.797 6 124040862.706 6     -3929.699          37.000    23604199.875 5  96655246.802 5     -3062.109          32.000
G22  21448930.734 6 112714904.040 6     -1609.867          37.000    21448928.172 6  87829788.658 6     -1254.442          37.000
R03  19343649.992 7 103548166.164 7      -332.512          44.000    19343652.148 6  80537451.913 6      -258.620          40.000
R04  21421786.789 7 114712665.522 7      2850.578          46.000    21421786.812 6  89221016.233 6      2217.119          38.000
R17  21896983.828 6 117175214.839 6     -4155.531          41.000    21896993.562 5  91136285.171 5     -3232.089          30.000
R18  19339833.688 8 103237322.653 8     -1068.340          50.000    19339837.844 8  80295715.710 8      -830.931          49.000
C05                                                                  39717120.570 6 159924386.120 6       -26.291          36.000
C20  25285649.008 7 131669080.975 7      2630.125          47.000
C27  23552987.461 8 122646598.908 8     -2974.035          50.000
C30  22240294.148 6 115811026.319 6      -247.941          39.000
E04  26296151.320 7 138187313.222 7      2568.652          42.000    26296153.125 6 105883772.712 6      1968.248          40.000
E12  21645318.164 8 113746913.085 8       242.637          49.000    21645317.305 8  87156728.235 8       185.910          51.000
E19  23861116.656 8 125391016.614 8       237.148          48.000    23861118.359 8  96078841.055 8       181.669          51.000
E33  25027450.281 8 131520117.090 8     -2328.805          51.000    25027452.305 8 100775142.524 8     -1784.424          51.000
> 2020 05 12 21 13 30.0000000  0 17        .000000000000
G01  21325723.812 8 112067435.974 8     -2250.277          48.000    21325723.609 8  87325277.880 8     -1753.463          48.000
G03  20345775.859 8 106917766.592 8      -343.801          51.000    20345777.336 8  83312567.224 8      -267.897          51.000
G04  21234093.688 8 111585923.874 8      2364.527          50.000    21234095.039 8  86950078.579 8      1842.489          48.000
G11  23626640.961 6 124158780.765 6     -3934.336          39.000    23626639.148 4  96747130.994 4     -3065.707          28.000
G22  21458135.094 6 112763273.898 6     -1617.477          40.000    21458132.297 6  87867479.486 6     -1260.368          38.000
R02  21535752.531 5 114918855.479 5     -3275.512          30.000
R03  19345553.469 7 103558355.147 7      -349.574          45.000    19345555.367 6  80545376.700 6      -271.891          41.000
R04  21405842.977 7 114627291.996 7      2838.223          47.000    21405844.078 6  89154614.706 6      2207.510          40.000
R17  21920304.008 7 117300000.707 7     -4166.391          44.000    21920309.508 5  91233340.574 5     -3240.532          34.000
R18  19345903.289 8 103269721.571 8     -1094.453          51.000    19345907.078 8  80320914.860 8      -851.241          48.000
C20  25270502.703 7 131590208.363 7      2625.094          47.000
C27  23570139.492 8 122735910.560 8     -2982.762          50.000
C30  22241764.375 6 115818682.081 6      -264.879          36.000
E04  26281495.500 7 138110296.436 7      2562.816          42.000    26281499.172 7 105824759.842 7      1963.848          42.000
E12  21643961.305 8 113739782.848 8       229.930          49.000    21643960.141 8  87151264.805 8       176.207          51.000
E19  23859786.422 8 125384026.370 8       226.027          48.000    23859788.031 8  96073484.910 8       173.160          51.000
E33  25040762.188 8 131590072.376 8     -2337.688          51.000    25040764.422 8 100828744.621 8     -1791.218          51.000
> 2020 05 12 21 14  0.0000000  0 19        .000000000000
G01  21338601.055 7 112135111.458 7     -2262.191          47.000    21338602.500 7  87378012.027 7     -1762.744          47.000
G03  20347764.898 8 106928218.950 8      -353.719          51.000    20347766.125 8  83320711.923 8      -275.625          51.000
G04  21220632.883 8 111515184.838 8      2350.750          51.000    21220633.938 8  86894957.270 8      1831.753          48.000
G11  23649111.383 6 124276859.918 6     -3938.121          39.000    23649111.047 5  96839140.782 5     -3068.666          30.000
G17  22059291.438 5 115922361.340 5       375.574          34.000
G22  21467386.328 6 112811887.359 6     -1624.203          41.000    21467383.430 6  87905360.107 6     -1265.610          41.000
R02  21554171.969 4 115017203.335 4     -3280.766          29.000
R03  19347555.445 7 103569070.755 7      -365.562          45.000    19347557.008 6  80553711.048 6      -284.326          41.000
R04  21389971.320 7 114542304.944 7      2826.816          46.000    21389974.008 6  89088513.721 6      2198.638          41.000
R17  21943689.641 7 117425127.840 7     -4176.180          43.000    21943696.531 6  91330661.622 6     -3248.140          41.000
R18  19352122.500 8 103302918.419 8     -1119.348          51.000    19352125.648 8  80346734.635 8      -870.607          48.000
C05                                                                  39717504.820 6 159925932.414 6       -26.454          36.000
C20  25255387.914 7 131511500.432 7      2621.344          46.000
C27  23587344.883 8 122825500.559 8     -2990.523          50.000
C30  22243335.758 6 115826874.523 6      -281.340          36.000
E04  26266876.164 6 138033472.272 6      2558.082          41.000    26266882.477 7 105765894.610 7      1960.026          44.000
E12  21642679.148 8 113733045.287 8       218.438          49.000    21642677.805 8  87146102.258 8       167.368          51.000
E19  23858522.836 8 125377386.373 8       215.996          48.000    23858524.523 8  96068397.124 8       165.486          51.000
E33  25054127.297 8 131660309.107 8     -2345.496          50.000    25054129.703 8 100882562.395 8     -1797.207          51.000
> 2020 05 12 21 14 30.0000000  0 20        .000000000000
G01  21351554.781 8 112203187.371 8     -2277.832          48.000    21351557.406 8  87431058.251 8     -1774.931          48.000
G03  20349818.922 8 106939013.147 8      -367.582          51.000    20349820.039 8  83329122.987 8      -286.428          51.000
G04  21207259.555 8 111444904.859 8      2332.965          51.000    21207259.961 7  86840193.668 7      1817.898          47.000
G11  23671611.258 6 124395094.827 6     -3945.543          38.000    23671611.688 5  96931271.860 5     -3074.452          30.000
G14  24319265.281 5 127798606.146 5     -3134.027          32.000
G17  22057199.992 5 115911381.290 5       354.086          33.000
G22  21476683.461 7 112860740.840 7     -1634.648          42.000    21476680.047 6  87943427.731 6     -1273.752          40.000
R02  21572628.141 5 115115703.343 5     -3289.137          30.000
R03  19349655.219 7 103580308.291 7      -385.484          45.000    19349656.352 6  80562451.348 6      -299.821          41.000
R04  21374171.680 7 114457702.171 7      2811.500          46.000    21374175.789 7  89022711.614 7      2186.722          42.000
R17  21967138.164 6 117550589.851 6     -4189.773          36.000    21967145.352 7  91428243.158 7     -3258.716          44.000
R18  19358490.664 8 103336909.807 8     -1148.367          51.000    19358493.500 8  80373172.351 8      -893.174          48.000
C05                                                                  39717702.781 6 159926729.200 6       -27.961          36.000
C20  25240303.977 7 131432954.670 7      2613.410          46.000
C27  23604602.617 8 122915363.942 8     -3002.039          49.000
C30  22245011.344 6 115835600.415 6      -302.043          37.000
E04  26252292.922 7 137956838.510 7      2549.113          42.000    26252301.414 7 105707175.233 7      1953.309          44.000
E12  21641471.359 8 113726698.223 8       202.914          49.000    21641469.945 8  87141238.920 8       155.501          51.000
E19  23857325.086 7 125371093.019 7       201.801          47.000    23857327.070 8  96063574.948 8       154.680          51.000
E33  25067545.172 8 131730823.552 8     -2357.223          50.000    25067547.547 8 100936592.958 8     -1806.217          51.000
> 2020 05 12 21 15  0.0000000  0 17        .000000000000
G01  21364588.578 8 112271679.268 8     -2288.145          49.000    21364591.672 8  87484428.583 8     -1782.970          50.000
G03  20351941.055 8 106950165.161 8      -375.863          51.000    20351942.289 8  83337812.862 8      -292.880          51.000
G04  21193976.633 8 111375101.943 8      2320.621          50.000    21193976.547 7  86785801.800 7      1808.279          47.000
G11  23694143.297 6 124513499.397 6     -3947.555          36.000    23694144.086 5  97023557.013 5     -3076.011          32.000
G14  24337163.570 5 127892665.916 5     -3137.543          33.000
G22  21486029.180 7 112909850.347 7     -1639.504          43.000    21486024.805 6  87981694.857 6     -1277.536          40.000
R03  19351854.664 7 103592082.656 7      -399.551          43.000    19351855.961 6  80571609.213 6      -310.762          41.000
R04  21358447.703 7 114373501.223 7      2801.879          45.000    21358452.594 7  88957222.029 7      2179.239          42.000
R18  19365010.508 8 103371711.536 8     -1171.738          51.000    19365012.727 7  80400240.330 7      -911.352          47.000
C05                                                                  39717907.328 6 159927553.313 6       -26.587          36.000
C20  25225254.492 7 131354587.789 7      2610.844          46.000
C27  23621914.781 8 123005514.929 8     -3007.934          48.000
C30  22246791.352 5 115844876.080 5      -316.336          34.000
E04  26237749.336 7 137880412.266 7      2545.945          43.000    26237758.992 7 105648614.858 7      1950.765          44.000
E12  21640341.062 8 113720758.835 8       192.926          49.000    21640339.562 8  87136687.964 8       147.835          51.000
E19  23856196.469 7 125365162.543 7       193.469          47.000    23856198.586 8  96059030.830 8       148.242          51.000
E33  25081019.086 8 131801631.239 8     -2363.258          51.000    25081021.133 8 100990848.193 8     -1810.853          51.000
> 2020 05 12 21 15 30.0000000  0 18        .000000000000
G01  21377685.281 8 112340500.542 8     -2300.852          51.000    21377688.578 8  87538055.546 8     -1792.871          51.000
G03  20354114.906 8 106961588.856 8      -386.645          51.000    20354116.297 8  83346714.437 8      -301.281          51.000
G04  21180768.195 8 111305692.034 8      2305.738          50.000    21180767.742 7  86731716.180 7      1796.682          45.000
G11  23716690.977 5 124631985.626 5     -3952.320          33.000
G14  24355085.359 5 127986844.013 5     -3141.781          33.000
G22  21495407.008 7 112959129.440 7     -1646.641          44.000    21495401.781 6  88020094.142 6     -1283.097          38.000
R03  19354137.828 7 103604305.464 7      -416.105          43.000    19354139.398 6  80581115.832 6      -323.641          41.000
R04  21342782.000 7 114289615.938 7      2789.496          44.000    21342788.086 7  88891977.947 7      2169.611          42.000
R17  22014217.312 6 117802501.837 6     -4207.664          36.000    22014217.797 7  91624176.497 7     -3272.628          43.000
R18  19371665.867 8 103407236.172 8     -1197.402          51.000    19371667.430 8  80427870.578 8      -931.316          48.000
C05                                                                  39718102.508 6 159928339.109 6       -26.354          36.000
C20  25210223.117 7 131276315.304 7      2606.242          45.000
C27  23639265.328 8 123095866.697 8     -3016.258          49.000
C30  22248661.172 5 115854616.651 5      -333.973          35.000
E04  26223229.000 7 137804108.654 7      2539.934          43.000    26223238.734 7 105590148.398 7      1946.359          43.000
E12  21639272.125 8 113715142.282 8       180.512          49.000    21639270.664 8  87132384.369 8       138.347          51.000
E19  23855120.492 7 125359508.278 7       182.668          47.000    23855122.539 8  96054698.346 8       139.963          51.000
E33  25094532.688 8 131872645.741 8     -2371.871          51.000    25094533.945 8 101045261.872 8     -1817.378          51.000
> 2020 05 12 21 16  0.0000000  0 18        .000000000000
G01  21390851.508 8 112409687.177 8     -2316.207          51.000    21390854.898 8  87591967.199 8     -1804.837          51.000
G03  20356347.398 8 106973320.720 8      -400.137          51.000    20356348.797 8  83355856.139 8      -311.795          51.000
G04  21167641.812 8 111236713.607 8      2288.023          49.000    21167641.492 7  86677966.798 7      1782.878          46.000
G11  23739261.281 5 124750587.969 5     -3959.684          33.000
G14  24373036.125 5 128081175.592 5     -3151.387          31.000
G22  21504823.742 7 113008614.456 7     -1656.973          43.000    21504818.273 6  88058653.917 6     -1291.148          38.000
R03  19356511.578 7 103617012.153 7      -435.465          43.000    19356513.102 6  80590998.804 6      -338.695          41.000
R04  21327182.570 7 114206084.626 7      2774.480          45.000    21327189.703 7  88827009.177 7      2157.929          42.000
R17  22037832.953 6 117928861.735 6     -4220.895          40.000    22037830.820 6  91722456.466 6     -3282.918          40.000
R18  19378463.242 8 103443520.185 8     -1226.074          51.000    19378464.594 8  80456091.467 8      -953.616          48.000
C05                                                                  39718295.234 6 159929114.938 6       -28.729          36.000
C20  25195216.773 7 131198174.260 7      2598.637          43.000
C27  23656661.742 8 123186453.833 8     -3027.387          50.000
C30  22250628.586 6 115864858.553 6      -353.465          38.000
E04  26208738.922 6 137727965.255 6      2531.676          41.000    26208747.797 7 105531804.765 7      1939.820          43.000
E12  21638271.758 8 113709886.236 8       165.270          49.000    21638270.609 8  87128357.001 8       126.596          51.000
E19  23854103.961 7 125354166.763 7       168.895          47.000    23854106.031 8  96050605.506 8       129.449          51.000
E33  25108092.875 8 131943903.111 8     -2383.234          51.000    25108093.070 8 101099861.648 8     -1826.067          50.000
> 2020 05 12 21 16 30.0000000  0 18        .000000000000
G01  21404104.094 8 112479328.664 8     -2326.645          51.000    21404107.516 8  87646233.299 8     -1812.970          50.000
G03  20358655.656 8 106985450.779 8      -408.668          51.000    20358656.961 8  83365308.123 8      -318.443          51.000
G04  21154615.352 8 111168258.702 8      2275.430          50.000    21154615.133 7  86624625.348 7      1773.062          47.000
G11  23761868.602 5 124869394.560 5     -3960.957          34.000
G14  24391032.961 4 128175743.651 4     -3154.602          29.000
G22  21514296.695 7 113058395.518 7     -1661.941          42.000    21514291.984 6  88097444.351 6     -1295.019          37.000
R03  19358992.523 7 103630293.656 7      -449.820          44.000    19358994.461 7  80601328.867 7      -349.860          42.000
R04  21311667.789 7 114123000.388 7      2764.414          45.000    21311674.359 7  88762388.135 7      2150.100          42.000
R17  22061515.719 6 118055602.143 6     -4228.473          41.000    22061514.172 5  91821032.313 5     -3288.815          35.000
R18  19385419.719 8 103480654.981 8     -1249.598          50.000    19385421.242 8  80484974.082 8      -971.909          48.000
C05                                                                  39718502.688 6 159929950.079 6       -27.185          36.000
C20  25180252.031 6 131120254.713 6      2596.059          39.000
C27  23674120.273 8 123277364.015 8     -3033.344          50.000
C30  22252709.836 6 115875691.398 6      -368.680          39.000
E04  26194297.312 6 137652073.283 6      2528.105          41.000    26194304.148 7 105473653.793 7      1937.000          43.000
E12  21637357.461 8 113705081.902 8       155.012          49.000    21637356.641 8  87124675.758 8       118.754          51.000
E19  23853164.102 7 125349228.097 7       160.207          47.000    23853166.359 8  96046821.342 8       122.825          51.000
E33  25121716.250 8 132015492.980 8     -2389.555          51.000    25121715.641 8 101154716.183 8     -1830.931          49.000
> 2020 05 12 21 17  0.0000000  0 17        .000000000000
G01  21417420.602 8 112549308.063 8     -2338.801          49.000    21417424.258 8  87700762.710 8     -1822.442          49.000
G03  20361017.570 8 106997862.547 8      -418.848          51.000    20361018.781 8  83374979.626 8      -326.375          51.000
G04  21141667.031 8 111100212.867 8      2260.848          51.000    21141666.672 7  86571602.646 7      1761.699          47.000
G11  23784490.688 6 124988286.923 6     -3964.855          37.000
G22  21523803.586 6 113108355.958 6     -1668.789          40.000    21523799.094 6  88136374.598 6     -1300.355          36.000
R03  19361558.656 7 103644029.950 7      -465.988          43.000    19361560.273 6  80612012.623 6      -362.435          41.000
R04  21296214.844 7 114040245.874 7      2752.363          44.000    21296220.938 7  88698023.546 7      2140.727          42.000
R17  22085247.773 7 118182601.611 7     -4237.949          43.000    22085242.242 4  91919794.079 4     -3296.189          24.000
R18  19392513.148 8 103518521.574 8     -1274.945          49.000    19392514.648 8  80514425.883 8      -991.627          48.000
C05                                                                  39718702.750 6 159930755.679 6       -26.505          36.000
C20  25165307.758 6 131042442.219 6      2591.422          37.000
C27  23691618.109 8 123368480.230 8     -3041.086          50.000
C30  22254881.984 6 115887000.164 6      -385.395          39.000
E04  26179882.266 7 137576317.489 7      2522.418          44.000    26179886.719 7 105415607.164 7      1932.669          43.000
E12  21636507.273 8 113700614.069 8       142.859          49.000    21636506.656 8  87121252.358 8       109.359          51.000
E19  23852278.844 7 125344575.595 7       149.918          47.000    23852281.164 8  96043256.453 8       114.785          51.000
E33  25135380.375 8 132087298.495 8     -2397.602          51.000    25135379.797 8 101209735.941 8     -1837.144          49.000
> 2020 05 12 21 17 30.0000000  0 17        .000000000000
G01  21430809.258 8 112619667.930 8     -2351.672          48.000    21430813.289 8  87755588.581 8     -1832.472          48.000
G03  20363441.336 8 107010599.182 8      -430.023          51.000    20363442.562 8  83384904.264 8      -335.083          51.000
G04  21128805.086 8 111032621.228 8      2245.508          51.000    21128804.516 8  86518933.830 8      1749.746          48.000
G11  23807138.273 6 125107306.474 6     -3969.500          39.000
G22  21533352.430 6 113158538.612 6     -1676.125          37.000    21533348.352 6  88175478.026 6     -1306.065          36.000
R03  19364217.156 7 103658263.623 7      -482.789          42.000    19364218.812 6  80623083.250 6      -375.503          41.000
R04  21280832.039 7 113957866.424 7      2739.734          46.000    21280837.070 6  88633950.671 6      2130.905          40.000
R17  22109036.062 7 118309901.157 7     -4248.301          44.000    22109038.016 4  92018826.011 4     -3304.234          28.000
R18  19399751.703 7 103557163.725 7     -1301.168          47.000    19399753.695 7  80544480.901 7     -1012.020          47.000
C05                                                                  39718903.914 6 159931565.220 6       -26.980          36.000
C20  25150392.047 6 130964780.301 6      2585.980          36.000
C27  23709163.336 8 123459843.658 8     -3049.629          50.000
C30  22257153.531 6 115898827.908 6      -402.961          38.000
E04  26165501.711 7 137500742.043 7      2516.160          44.000    26165504.438 7 105357698.711 7      1928.099          44.000
E12  21635729.500 8 113696527.055 8       129.965          49.000    21635729.172 8  87118120.729 8        99.562          51.000
E19  23851456.219 7 125340252.394 7       138.637          47.000    23851458.430 8  96039943.872 8       106.276          51.000
E33  25149093.734 8 132159362.323 8     -2406.363          51.000    25149093.188 8 101264953.640 8     -1843.813          49.000
> 2020 05 12 21 18  0.0000000  0 17        .000000000000
G01  21444267.078 8 112690389.895 8     -2363.145          49.000    21444270.688 8  87810696.583 8     -1841.411          49.000
G03  20365923.477 8 107023642.737 8      -439.684          51.000    20365924.781 8  83395068.069 8      -342.611          51.000
G04  21116026.242 8 110965467.838 8      2231.328          50.000    21116025.461 7  86466606.485 7      1738.697          47.000
G11  23829807.078 7 125226433.345 7     -3972.348          42.000
G22  21542940.156 6 113208925.716 6     -1682.859          38.000    21542936.516 5  88214740.711 5     -1311.316          35.000
R03  19366965.078 7 103672975.445 7      -497.973          43.000    19366967.203 6  80634525.780 6      -387.312          41.000
R04  21265515.945 7 113875845.063 7      2728.383          46.000    21265519.602 6  88570156.391 6      2122.079          39.000
R17  22132876.570 7 118437479.642 7     -4257.012          42.000    22132880.039 5  92118053.669 5     -3311.012          35.000
R18  19407131.578 8 103596562.456 8     -1325.711          48.000    19407134.414 7  80575124.357 7     -1031.112          47.000
C05                                                                  39719102.609 6 159932366.184 6       -26.098          36.000
C20  25135503.555 6 130887252.079 6      2582.242          41.000
C27  23726752.484 8 123551434.960 8     -3056.602          51.000
C30  22259521.750 7 115911157.168 7      -419.238          42.000
E04  26151152.039 7 137425330.236 7      2511.312          45.000    26151154.086 7 105299915.687 7      1924.154          45.000
E12  21635021.211 8 113692804.140 8       118.297          49.000    21635020.875 8  87115268.093 8        90.625          51.000
E19  23850692.719 7 125336240.226 7       128.742          47.000    23850694.922 8  96036869.625 8        98.736          51.000
E33  25162852.812 8 132231666.213 8     -2413.906          51.000    25162852.633 8 101320355.298 8     -1849.572          50.000
> 2020 05 12 21 18 30.0000000  0 20        .000000000000
G01  21457787.305 8 112761437.394 8     -2373.418          51.000    21457789.953 8  87866058.230 8     -1849.420          51.000
G03  20368457.109 8 107036957.229 8      -447.996          51.000    20368458.508 8  83405443.001 8      -349.088          51.000
G04  21103324.148 8 110898718.637 8      2218.539          49.000    21103323.516 8  86414594.114 8      1728.732          48.000
G09  23555916.492 6 123787202.934 6      3562.039          37.000
G11  23852489.398 7 125345629.396 7     -3974.074          42.000    23852475.125 5  97671896.602 5     -3096.681          30.000
G17  22044418.453 5 115844200.917 5       205.613          33.000    22044421.992 4  90268226.641 4       160.218          29.000
G22  21552560.375 6 113259481.043 6     -1688.012          39.000    21552557.430 6  88254134.449 6     -1315.328          37.000
R02  21721253.031 5 115908699.396 5     -3318.359          35.000
R03  19369795.875 7 103688127.671 7      -512.223          43.000    19369798.492 6  80646310.869 6      -398.392          41.000
R04  21250258.820 7 113794146.401 7      2718.141          43.000    21250262.820 6  88506613.085 6      2114.112          41.000
R17  22156762.391 7 118565297.473 7     -4264.246          43.000    22156766.414 6  92217467.497 6     -3316.639          36.000
R18  19414646.805 8 103636680.974 8     -1348.914          49.000    19414649.992 7  80606327.666 7     -1049.155          47.000
C05                                                                  39719292.109 6 159933129.595 6       -24.593          36.000
C20  25120634.812 7 130809822.734 7      2579.578          42.000
C27  23744378.367 8 123643216.952 8     -3062.258          51.000
C30  22261980.383 7 115923952.533 7      -434.043          45.000
E04  26136826.797 7 137350047.281 7      2507.633          45.000    26136828.469 7 105242231.347 7      1921.349          46.000
E12  21634375.617 8 113689410.485 8       107.879          50.000    21634375.008 8  87112667.762 8        82.666          51.000
E19  23849981.672 7 125332503.239 7       120.277          47.000    23849983.875 8  96034006.233 8        92.137          51.000
E33  25176650.664 8 132304173.714 8     -2420.043          51.000    25176651.070 8 101375912.988 8     -1854.328          51.000
> 2020 05 12 21 19  0.0000000  0 19        .000000000000
G01  21471388.516 8 112832909.056 8     -2388.895          51.000    21471390.227 8  87921750.387 8     -1861.476          51.000
G03  20371061.203 8 107050641.824 8      -461.738          51.000    20371062.555 8  83416106.310 8      -359.796          51.000
G04  21090717.875 8 110832474.748 8      2200.234          48.000    21090717.773 8  86362975.497 8      1714.468          48.000
G09  23535608.492 5 123680519.840 5      3553.410          35.000    23535610.055 5  96374377.740 5      2768.897          34.000
G11  23875203.586 7 125464991.897 7     -3980.953          43.000
G17  22043314.992 5 115838387.267 5       183.777          31.000    22043316.031 4  90263696.573 4       143.197          29.000
G22  21562231.766 6 113310303.371 6     -1698.105          41.000    21562228.430 5  88293736.267 5     -1323.199          33.000
R03  19372727.094 7 103703819.731 7      -531.605          44.000    19372729.352 6  80658515.788 6      -413.471          40.000
R04  21235079.961 6 113712872.788 6      2702.520          40.000    21235085.758 6  88443400.271 6      2101.957          40.000
R17  22180711.273 6 118693452.644 6     -4276.926          39.000    22180714.602 5  92317143.721 5     -3326.501          34.000
R18  19422315.656 8 103677619.271 8     -1377.680          50.000    19422319.031 7  80638168.526 7     -1071.529          47.000
C05                                                                  39719491.453 6 159933932.587 6       -27.146          36.000
C20  25105804.297 7 130732591.320 7      2571.496          42.000
C27  23762059.508 8 123735286.225 8     -3073.199          51.000
C30  22264546.961 7 115937312.547 7      -454.137          44.000
E04  26122544.266 7 137274993.432 7      2498.359          44.000    26122546.195 7 105184722.499 7      1914.405          46.000
E12  21633811.680 8 113686446.406 8        92.176          49.000    21633810.984 8  87110396.583 8        70.619          51.000
E19  23849341.797 7 125329140.442 7       106.277          47.000    23849343.953 8  96031429.551 8        81.418          51.000
E33  25190505.812 8 132376983.524 8     -2431.512          49.000    25190506.773 8 101431702.348 8     -1863.136          51.000
> 2020 05 12 21 19 30.0000000  0 19        .000000000000
G01  21485052.633 8 112904711.431 8     -2401.359          51.000    21485054.148 8  87977700.242 8     -1871.189          51.000
G03  20373718.070 8 107064603.606 8      -472.523          51.000    20373719.359 8  83426985.603 8      -368.200          51.000
G04  21078190.305 7 110766645.190 7      2184.910          47.000    21078190.945 7  86311679.733 7      1702.527          47.000
G09  23515336.188 5 123573924.776 5      3546.805          35.000    23515337.047 5  96291362.754 5      2763.744          35.000
G11  23897931.430 7 125584426.216 7     -3984.957          44.000    23897922.547 4  97857981.834 4     -3105.164          26.000
G17  22042312.102 5 115833131.023 5       164.793          30.000    22042308.180 5  90259581.955 5       128.395          30.000
G22  21571936.461 7 113361299.991 7     -1705.016          42.000    21571932.812 5  88333473.924 5     -1328.581          32.000
R03  19375742.000 7 103719955.885 7      -547.777          43.000    19375743.500 6  80671066.108 6      -426.049          41.000
R04  21219965.109 7 113631930.706 7      2689.863          43.000    21219969.023 6  88380445.280 6      2092.113          39.000
R17  22204706.594 6 118821847.739 6     -4286.281          39.000    22204706.703 4  92417006.438 4     -3333.777          29.000
R18  19430120.789 8 103719282.753 8     -1403.387          51.000    19430124.062 7  80670573.393 7     -1091.526          47.000
C05                                                                  39719683.141 6 159934704.384 6       -27.122          36.000
C20  25090994.609 6 130655466.765 6      2566.660          41.000
C27  23779777.930 8 123827549.180 8     -3081.043          51.000
C30  22267203.570 7 115951145.482 7      -471.363          43.000
E04  26108286.953 7 137200076.946 7      2492.262          44.000    26108289.859 7 105127318.938 7      1909.727          47.000
E12  21633312.055 8 113683820.192 8        79.340          49.000    21633311.453 8  87108384.283 8        60.826          51.000
E19  23848755.359 7 125326058.638 7        95.574          46.000    23848757.445 8  96029068.181 8        73.190          51.000
E33  25204400.242 8 132450002.359 8     -2439.887          48.000    25204401.789 8 101487651.875 8     -1869.542          51.000
> 2020 05 12 21 20  0.0000000  0 18        .000000000000
G01  21498803.945 8 112976972.864 8     -2413.152          51.000    21498805.391 8  88034007.836 8     -1880.378          51.000
G03  20376452.172 8 107078971.474 8      -482.496          51.000    20376453.570 8  83438181.340 8      -375.971          51.000
G04  21065766.750 8 110701360.804 8      2170.207          48.000    21065767.695 7  86260808.802 7      1691.073          47.000
G09  23495116.883 6 123467668.023 6      3540.508          39.000    23495117.977 6  96208562.857 6      2758.837          38.000
G11  23920697.180 6 125704059.141 6     -3987.871          41.000    23920691.391 5  97951202.155 5     -3107.441          31.000
G22  21581698.734 6 113412599.655 6     -1712.113          41.000    21581695.695 6  88373447.674 6     -1334.117          36.000
R03  19378863.508 7 103736666.305 7      -563.199          44.000    19378866.125 6  80684063.138 6      -438.044          40.000
R04  21204936.891 6 113551452.770 6      2677.973          41.000    21204938.734 6  88317851.341 6      2082.868          38.000
R17  22228771.500 6 118950610.728 6     -4295.086          39.000
R18  19438086.375 8 103761801.402 8     -1428.289          51.000    19438089.133 7  80703643.429 7     -1110.895          47.000
C05                                                                  39719891.727 6 159935544.212 6       -26.780          36.000
C20  25076229.797 6 130578577.579 6      2562.086          39.000
C27  23797557.789 8 123920131.999 8     -3088.320          51.000
C30  22269975.375 7 115965579.218 7      -487.816          43.000
E04  26094081.227 7 137125427.838 7      2487.031          46.000    26094084.492 7 105070120.265 7      1905.629          47.000
E12  21632901.406 8 113681661.920 8        67.289          49.000    21632900.852 8  87106730.534 8        51.541          51.000
E19  23848246.875 7 125323386.720 7        85.324          46.000    23848249.008 8  96027020.864 8        65.432          51.000
E33  25218359.086 8 132523358.711 8     -2447.676          49.000    25218361.164 8 101543860.002 8     -1875.498          51.000
> 2020 05 12 21 20 30.0000000  0 18        .000000000000
G01  21512610.461 8 113049526.652 8     -2424.453          51.000    21512611.875 8  88090543.252 8     -1889.184          51.000
G03  20379231.898 8 107093579.325 8      -492.047          51.000    20379233.453 8  83449564.083 8      -383.413          51.000
G04  21053416.281 8 110636457.324 8      2156.008          50.000    21053417.023 8  86210234.698 8      1680.006          48.000
G09  23474919.562 6 123361522.386 6      3535.098          40.000    23474920.031 6  96125851.996 6      2754.625          40.000
G11  23943468.891 6 125823722.601 6     -3990.562          37.000    23943463.289 5  98044446.263 5     -3109.554          32.000
G22  21591486.945 7 113464036.109 7     -1718.078          43.000    21591485.273 5  88413528.024 5     -1338.756          35.000
R03  19382061.469 7 103753780.238 7      -578.332          43.000    19382062.570 6  80697373.940 6      -449.814          38.000
R04  21189962.648 6 113471270.943 6      2666.691          40.000    21189965.273 6  88255487.680 6      2074.093          39.000
R17  22252871.617 6 119079569.630 6     -4303.004          39.000    22252876.703 5  92617509.134 5     -3346.784          33.000
R18  19446180.539 8 103805006.124 8     -1452.738          51.000    19446183.180 8  80737247.095 8     -1129.908          49.000
C05                                                                  39720085.648 6 159936325.118 6       -26.104          36.000
C20  25061478.914 6 130501760.080 6      2558.414          39.000
C27  23815367.195 8 124012868.416 8     -3094.848          51.000
C30  22272830.250 7 115980449.430 7      -504.117          43.000
E04  26079895.633 8 137050881.131 8      2482.027          48.000    26079898.578 7 105013000.081 7      1901.873          47.000
E12  21632548.398 8 113679806.572 8        55.672          50.000    21632547.727 8  87105308.906 8        42.649          51.000
E19  23847784.781 7 125320958.552 7        75.734          46.000    23847787.016 8  96025160.330 8        58.033          51.000
E33  25232350.898 8 132596885.989 8     -2454.895          49.000    25232353.062 8 101600199.082 8     -1880.993          51.000
> 2020 05 12 21 21  0.0000000  0 18        .000000000000
G01  21526489.164 8 113122460.797 8     -2437.254          51.000    21526490.609 8  88147375.061 8     -1899.159          51.000
G03  20382074.117 8 107108515.719 8      -502.988          51.000    20382075.672 8  83461202.842 8      -391.939          51.000
G04  21041155.578 8 110572025.267 8      2140.098          50.000    21041156.289 8  86160027.938 8      1667.612          48.000
G09  23454761.070 7 123255581.391 7      3528.172          42.000    23454761.469 7  96043300.598 7      2749.225          43.000
G11  23966263.367 5 125943503.680 5     -3994.465          32.000
G22  21601317.844 7 113515697.918 7     -1725.441          42.000    21601316.727 5  88453783.982 5     -1344.500          35.000
R03  19385350.734 7 103771386.999 7      -594.820          43.000    19385351.367 6  80711068.146 6      -462.635          39.000
R04  21175062.641 7 113391476.877 7      2653.648          43.000    21175065.352 6  88193425.618 6      2063.952          39.000
R17  22277024.008 6 119208811.832 6     -4312.188          38.000    22277026.398 6  92718030.766 6     -3353.927          37.000
R18  19454419.828 8 103848986.238 8     -1478.664          51.000    19454422.844 8  80771453.827 8     -1150.072          50.000
C05                                                                  39720281.977 6 159937114.293 6       -26.164          36.000
C20  25046759.047 6 130425102.843 6      2552.605          38.000
C27  23833222.391 8 124105844.635 8     -3102.961          51.000
C30  22275786.312 7 115995843.992 7      -521.633          43.000
E04  26065746.688 8 136976526.534 8      2475.555          48.000    26065749.234 7 104956027.103 7      1896.821          47.000
E12  21632270.164 8 113678343.888 8        42.457          49.000    21632269.344 8  87104188.143 8        32.520          51.000
E19  23847385.766 7 125318862.321 7        64.578          45.000    23847388.055 8  96023554.133 8        49.467          50.000
E33  25246392.227 8 132670672.363 8     -2463.586          51.000    25246394.516 8 101656736.667 8     -1887.689          51.000
> 2020 05 12 21 21 30.0000000  0 17        .000000000000
G01  21540439.398 8 113195769.825 8     -2449.523          51.000    21540440.430 8  88204498.982 8     -1908.723          51.000
G03  20384978.023 8 107123775.822 8      -513.711          51.000    20384979.289 8  83473093.817 8      -400.294          51.000
G04  21028983.969 8 110508061.609 8      2124.695          50.000    21028984.562 8  86110186.147 8      1655.607          48.000
G09  23434641.023 7 123149842.585 7      3521.480          43.000    23434641.305 7  95960906.757 7      2744.011          43.000
G22  21611190.555 6 113567580.162 6     -1732.676          41.000    21611189.203 6  88494211.696 6     -1350.137          36.000
R03  19388730.898 7 103789480.249 7      -610.867          42.000    19388731.789 6  80725140.685 6      -475.119          39.000
R04  21160234.219 7 113312066.770 7      2641.098          43.000    21160235.805 6  88131662.226 6      2054.190          37.000
R17  22301226.133 6 119338329.338 6     -4321.383          36.000    22301228.320 6  92818766.515 6     -3361.079          39.000
R18  19462803.094 8 103893735.861 8     -1504.059          51.000    19462806.086 8  80806259.087 8     -1169.823          49.000
C05                                                                  39720479.711 6 159937910.472 6       -26.357          36.000
C20  25032069.070 6 130348601.896 6      2547.832          40.000
C27  23851121.992 8 124199054.205 8     -3110.496          49.000
C30  22278841.727 7 116011758.398 7      -538.777          42.000
E04  26051633.234 7 136902360.335 7      2469.434          47.000    26051636.070 7 104899198.469 7      1892.172          47.000
E12  21632066.000 8 113677270.122 8        29.703          50.000    21632065.062 8  87103365.376 8        22.742          51.000
E19  23847049.023 7 125317093.201 7        53.859          46.000    23847051.172 8  96022198.566 8        41.335          50.000
E33  25260481.969 8 132744712.472 8     -2471.859          51.000    25260484.141 8 101713468.663 8     -1894.031          51.000
> 2020 05 12 21 22  0.0000000  0 18        .000000000000
G01  21554453.156 8 113269411.672 8     -2458.156          51.000    21554453.570 8  88261882.228 8     -1915.449          51.000
G03  20387935.695 8 107139318.130 8      -520.750          51.000    20387936.664 8  83485204.699 8      -405.779          51.000
G04  21016893.719 8 110444526.758 8      2112.656          49.000    21016894.109 8  86060678.472 8      1646.226          48.000
G09  23414552.031 7 123044266.924 7      3518.160          43.000    23414551.977 7  95878640.034 7      2741.420          44.000
G22  21621097.500 7 113619641.160 7     -1736.348          43.000    21621095.562 5  88534778.715 5     -1352.998          34.000
R02  21852483.914 5 116608985.979 5     -3344.598          31.000
R03  19392193.391 6 103808016.427 6      -623.098          41.000    19392194.594 6  80739557.716 6      -484.632          39.000
R04  21145468.266 7 113232999.611 7      2632.055          42.000    21145468.445 5  88070165.620 5      2047.157          35.000
R17  22325471.508 5 119468076.847 5     -4326.762          35.000    22325473.742 6  92919681.156 6     -3365.259          39.000
R18  19471322.289 8 103939212.204 8     -1525.871          51.000    19471325.477 8  80841629.584 8     -1186.789          50.000
C05                                                                  39720671.125 6 159938681.132 6       -23.723          36.000
C20  25017401.219 6 130272216.896 6      2546.297          41.000
C27  23869057.219 8 124292454.413 8     -3114.371          48.000
C30  22281989.531 7 116028151.633 7      -552.504          44.000
E04  26037547.680 7 136828342.185 7      2466.750          46.000    26037551.367 7 104842483.277 7      1890.143          47.000
E12  21631928.156 8 113676544.942 8        20.332          49.000    21631926.844 8  87102809.715 8        15.576          51.000
E19  23846766.758 7 125315609.485 7        46.852          47.000    23846768.719 8  96021061.695 8        35.842          50.000
E33  25274612.133 8 132818964.366 8     -2476.578          51.000    25274614.008 8 101770362.958 8     -1897.683          51.000
> 2020 05 12 21 22 30.0000000  0 17        .000000000000
G01  21568543.172 8 113343454.742 8     -2475.234          51.000    21568543.281 8  88319578.099 8     -1928.754          51.000
G03  20390960.133 8 107155211.621 8      -536.203          51.000    20390961.141 8  83497589.235 8      -417.821          51.000
G04  21004898.281 8 110381491.491 8      2092.371          49.000    21004898.414 7  86011560.063 7      1630.419          47.000
G09  23394507.430 7 122938925.830 7      3506.852          42.000    23394507.273 7  95796556.079 7      2732.612          42.000
G22  21631051.719 7 113671949.842 7     -1748.273          44.000    21631049.586 5  88575538.749 5     -1362.291          35.000
R03  19395751.078 7 103827064.638 7      -644.047          42.000    19395753.422 6  80754372.985 6      -500.925          39.000
R04  21130780.258 6 113154346.665 6      2614.320          40.000    21130779.906 6  88008991.103 6      2033.360          37.000
R17  22349772.898 4 119598121.641 4     -4339.922          27.000    22349774.852 6  93020827.070 6     -3375.498          40.000
R18  19479990.586 8 103985484.722 8     -1556.121          51.000    19479994.281 8  80877619.298 8     -1210.316          50.000
C05                                                                  39720869.266 6 159939479.599 6       -27.650          36.000
C20  25002768.344 6 130196017.169 6      2536.258          40.000
C27  23887041.672 8 124386112.036 8     -3126.684          48.000
C30  22285243.133 7 116045092.231 7      -574.453          44.000
E04  26023503.680 7 136754542.140 7      2455.848          47.000    26023507.977 7 104785935.184 7      1881.801          46.000
E12  21631869.734 8 113676238.415 8         2.719          49.000    21631868.180 8  87102574.836 8         2.098          51.000
E19  23846552.070 8 125314480.066 8        31.215          48.000    23846553.789 8  96020196.293 8        23.981          50.000
E33  25288795.438 8 132893496.564 8     -2489.602          51.000    25288797.508 8 101827472.027 8     -1907.575          51.000
> 2020 05 12 21 23  0.0000000  0 18        .000000000000
G01  21582697.992 8 113417839.751 8     -2483.668          49.000    21582698.203 8  88377540.430 8     -1935.326          49.000
G03  20394040.211 8 107171397.653 8      -542.820          51.000    20394041.367 8  83510201.738 8      -422.977          51.000
G04  20992987.148 8 110318899.031 8      2080.480          49.000    20992987.055 8  85962786.703 8      1621.154          48.000
G09  23374496.711 6 122833763.135 6      3503.957          40.000    23374496.336 6  95714611.138 6      2730.356          41.000
G11  24057622.789 5 126423665.416 5     -4005.152          35.000
G22  21641041.688 7 113724447.490 7     -1751.465          44.000    21641039.492 6  88616446.053 6     -1364.775          37.000
R02  21890169.477 5 116810083.151 5     -3352.520          33.000
R03  19399393.906 6 103846563.667 6      -656.121          40.000    19399395.641 6  80769538.860 6      -510.316          38.000
R04  21116158.727 6 113076049.414 6      2605.652          37.000    21116159.820 6  87948093.285 6      2026.622          40.000
R18  19488796.922 8 104032492.936 8     -1577.645          51.000    19488800.312 8  80914181.212 8     -1227.060          49.000
C05                                                                  39721063.375 6 159940261.247 6       -24.454          37.000
C20  24988160.227 6 130119945.424 6      2534.973          38.000
C27  23905065.219 8 124479967.388 8     -3130.234          49.000
C30  22288590.750 7 116062522.177 7      -587.621          44.000
E04  26009490.414 7 136680902.643 7      2453.762          47.000    26009494.656 7 104729510.151 7      1879.984          47.000
E12  21631879.922 8 113676292.988 8        -6.234          48.000    21631878.797 8  87102616.642 8        -4.810          51.000
E19  23846393.586 7 125313646.188 7        24.383          47.000    23846394.977 8  96019557.368 8        18.680          50.000
E33  25303020.750 8 132968249.957 8     -2493.895          51.000    25303023.023 8 101884750.589 8     -1910.885          51.000
> 2020 05 12 21 23 30.0000000  0 17        .000000000000
G01  21596924.242 8 113492601.966 8     -2501.641          50.000    21596925.328 8  88435796.723 8     -1949.327          50.000
G03  20397182.836 8 107187912.218 8      -559.195          51.000    20397184.008 8  83523070.222 8      -435.737          51.000
G04  20981167.438 8 110256787.080 8      2059.086          49.000    20981167.727 8  85914387.798 8      1604.486          49.000
G09  23354526.414 6 122728817.167 6      3490.703          38.000    23354526.188 6  95632835.057 6      2720.028          38.000
G11  24080512.539 5 126543939.119 5     -4014.320          31.000
G22  21651074.164 7 113777169.967 7     -1764.418          43.000    21651071.680 6  88657528.463 6     -1374.874          37.000
R03  19403126.289 7 103866548.614 7      -677.562          42.000    19403128.766 6  80785082.712 6      -526.993          39.000
R04  21101609.570 6 112998145.681 6      2586.820          39.000    21101612.766 6  87887501.576 6      2011.977          39.000
R18  19497747.734 8 104080272.304 8     -1608.730          51.000    19497750.703 8  80951342.926 8     -1251.235          49.000
C05                                                                  39721260.172 6 159941054.016 6       -29.312          36.000
C20  24973582.172 5 130044038.133 5      2524.348          33.000
C27  23923134.055 8 124574054.448 8     -3143.309          49.000
C30  22292038.406 6 116080477.178 6      -610.457          41.000
E04  25995515.031 8 136607460.779 8      2441.461          48.000    25995518.781 8 104673236.536 8      1870.727          48.000
E12  21631965.938 8 113676745.719 8       -25.039          48.000    21631965.414 8  87102963.526 8       -19.189          51.000
E19  23846297.984 8 125313143.406 8         7.945          48.000    23846299.180 8  96019172.125 8         6.091          49.000
E33  25317294.992 8 133043260.020 8     -2507.863          51.000    25317297.148 8 101942225.829 8     -1921.636          51.000
> 2020 05 12 21 24  0.0000000  0 17        .000000000000
G01  21611227.156 8 113567765.613 8     -2510.305          50.000    21611228.820 8  88494365.830 8     -1956.082          50.000
G03  20400392.727 8 107204780.092 8      -566.344          51.000    20400393.883 8  83536214.023 8      -441.307          51.000
G04  20969444.336 8 110195182.296 8      2046.812          50.000    20969445.070 8  85866384.099 8      1594.919          48.000
G09  23334601.820 5 122624115.266 5      3486.641          34.000    23334602.727 5  95551249.063 5      2716.863          35.000
G22  21661154.320 7 113830141.987 7     -1768.023          46.000    21661152.172 5  88698805.398 5     -1377.681          33.000
R03  19406955.609 6 103887043.899 6      -689.680          41.000    19406957.820 6  80801023.442 6      -536.418          38.000
R04  21087139.766 6 112920662.087 6      2577.562          41.000    21087142.938 6  87827236.573 6      2004.771          38.000
R17  22422964.289 6 119989789.399 6     -4363.922          36.000    22422967.883 7  93325412.543 7     -3394.161          43.000
R18  19506847.742 8 104128847.437 8     -1630.504          51.000    19506850.336 8  80989123.563 8     -1268.170          48.000
C05                                                                  39721464.633 6 159941877.282 6       -26.554          36.000
C20  24959036.266 4 129968320.896 4      2522.930          29.000
C27  23941251.812 8 124668396.201 8     -3147.156          49.000
C30  22295590.766 7 116098982.030 7      -624.188          42.000
E04  25981582.594 8 136534242.455 8      2438.523          49.000    25981585.430 8 104617134.205 8      1868.536          48.000
E12  21632132.570 8 113677622.471 8       -34.469          48.000    21632132.406 8  87103635.329 8       -26.474          51.000
E19  23846270.234 8 125312996.634 8          .645          48.000    23846271.180 8  96019059.664 8          .533          49.000
E33  25331622.664 8 133118551.069 8     -2512.598          51.000    25331624.594 8 101999916.376 8     -1925.297          51.000
> 2020 05 12 21 24 30.0000000  0 17        .000000000000
G01  21625594.328 8 113643266.080 8     -2522.297          50.000    21625596.500 8  88553197.331 8     -1965.426          50.000
G03  20403657.672 8 107221937.257 8      -576.734          51.000    20403658.938 8  83549583.232 8      -449.403          51.000
G04  20957806.125 8 110134022.400 8      2031.184          51.000    20957806.688 8  85818727.049 8      1582.740          48.000
G09  23314712.477 6 122519595.533 6      3480.621          38.000    23314714.039 5  95469805.076 5      2712.169          35.000
G22  21671269.891 7 113883299.435 7     -1775.070          45.000    21671267.531 5  88740226.828 5     -1383.172          35.000
R03  19410866.711 6 103907982.896 6      -705.316          40.000    19410869.508 6  80817309.355 6      -548.579          38.000
R04  21072737.789 7 112843534.482 7      2564.785          42.000    21072739.820 6  87767248.422 6      1994.833          39.000
R17  22447458.281 6 120120849.972 6     -4372.355          37.000    22447459.711 7  93427348.526 7     -3400.724          43.000
R18  19516084.344 8 104178152.157 8     -1655.680          51.000    19516086.000 8  81027471.658 8     -1287.751          48.000
C05                                                                  39721664.672 6 159942682.428 6       -26.853          37.000
C20  24944515.094 4 129892642.806 4      2517.152          28.000
C27  23959405.594 8 124762927.539 8     -3154.199          48.000
C30  22299237.789 7 116117973.165 7      -641.207          42.000
E04  25967680.906 8 136461184.709 8      2432.469          49.000    25967682.500 8 104561154.919 8      1863.864          49.000
E12  21632367.789 7 113678860.321 7       -47.309          47.000    21632367.938 8  87104583.818 8       -36.309          51.000
E19  23846297.930 8 125313141.468 8        -9.762          48.000    23846298.547 8  96019170.642 8        -7.459          49.000
E33  25345991.336 8 133194058.539 8     -2520.527          51.000    25345993.148 8 102057772.749 8     -1931.352          51.000
> 2020 05 12 21 25  0.0000000  0 18        .000000000000
G01  21640027.500 8 113719112.859 8     -2534.535          50.000    21640030.164 8  88612298.661 8     -1974.966          50.000
G03  20406979.555 8 107239393.940 8      -587.574          51.000    20406981.000 8  83563185.841 8      -457.850          51.000
G04  20946255.008 8 110073319.412 8      2015.164          51.000    20946255.344 8  85771426.029 8      1570.261          48.000
G09  23294860.547 6 122415270.752 6      3473.516          38.000    23294856.430 6  95388512.815 6      2706.633          38.000
G11  24149285.766 6 126905352.192 6     -4020.035          36.000
G22  21681422.633 7 113936652.452 7     -1782.207          44.000    21681421.281 6  88781800.574 6     -1388.736          37.000
R03  19414863.461 6 103929374.489 6      -721.137          41.000    19414865.891 6  80833947.237 6      -560.884          38.000
R04  21058404.469 6 112766774.330 6      2551.941          41.000    21058406.336 6  87707546.083 6      1984.843          39.000
R17  22471992.602 6 120252140.430 6     -4380.676          36.000    22471994.023 7  93529463.280 7     -3407.195          43.000
R18  19525459.461 8 104228196.152 8     -1681.086          51.000    19525460.734 8  81066394.760 8     -1307.508          49.000
C05                                                                  39721862.008 6 159943477.480 6       -26.693          36.000
C20  24930024.766 5 129817190.738 5      2512.215          33.000
C27  23977597.078 7 124857656.979 7     -3161.582          47.000
C30  22302980.734 7 116137460.899 7      -658.621          43.000
E04  25953811.789 8 136388298.863 8      2426.023          49.000    25953812.266 8 104505307.356 8      1858.910          49.000
E12  21632673.922 7 113680470.554 7       -60.484          47.000    21632674.508 8  87105817.618 8       -46.450          51.000
E19  23846382.891 8 125313587.962 8       -20.535          48.000    23846383.445 8  96019512.780 8       -15.789          49.000
E33  25360402.938 8 133269792.178 8     -2528.883          51.000    25360404.430 8 102115802.429 8     -1937.754          51.000
> 2020 05 12 21 25 30.0000000  0 19        .000000000000
G01  21654523.859 8 113795292.165 8     -2543.621          50.000    21654527.047 8  88671659.118 8     -1982.042          50.000
G03  20410355.945 8 107257136.962 8      -594.898          51.000    20410357.445 8  83577011.566 8      -463.557          51.000
G04  20934788.594 8 110013061.873 8      2002.305          51.000    20934788.945 8  85724472.129 8      1560.237          48.000
G09  23275043.906 6 122311130.100 6      3469.441          39.000    23275033.680 6  95307364.213 6      2703.458          38.000
G11  24172234.359 6 127025951.985 6     -4019.543          37.000
G22  21691610.273 7 113990187.862 7     -1786.223          46.000    21691609.469 5  88823516.451 5     -1391.862          35.000
R02  21984718.188 5 117314602.954 5     -3369.637          34.000
R03  19418941.367 7 103951203.799 7      -733.562          42.000    19418944.102 6  80850925.650 6      -570.549          38.000
R04  21044134.430 5 112690369.545 5      2542.168          35.000    21044138.781 6  87648120.091 6      1977.239          38.000
R17  22496566.812 6 120383644.179 6     -4385.781          38.000    22496568.227 7  93631743.896 7     -3411.166          42.000
R18  19534969.938 8 104278964.739 8     -1703.258          49.000    19534971.727 8  81105881.440 8     -1324.756          49.000
C05                                                                  39722054.547 6 159944252.818 6       -24.542          36.000
C20  24915560.328 6 129741864.651 6      2510.016          37.000
C27  23995823.836 7 124952569.845 7     -3165.645          46.000
C30  22306816.641 7 116157432.213 7      -672.469          44.000
E04  25939972.742 8 136315572.813 8      2422.770          49.000    25939972.688 8 104449582.237 8      1856.423          49.000
E12  21633048.945 7 113682440.992 7       -70.484          47.000    21633049.664 8  87107327.430 8       -53.975          51.000
E19  23846522.820 8 125314322.851 8       -28.086          48.000    23846523.492 8  96020075.885 8       -21.505          49.000
E33  25374855.062 8 133345738.307 8     -2533.777          51.000    25374855.727 8 102173994.919 8     -1941.439          51.000
> 2020 05 12 21 26  0.0000000  0 19        .000000000000
G01  21669089.906 8 113871838.428 8     -2558.176          49.000    21669093.734 8  88731305.532 8     -1993.384          49.000
G03  20413793.570 8 107275201.508 8      -607.918          51.000    20413795.000 8  83591087.840 8      -473.705          51.000
G04  20923413.789 8 109953286.704 8      1984.098          50.000    20923414.258 7  85677894.105 7      1546.050          47.000
G09  23255269.266 6 122207211.250 6      3459.668          38.000    23255256.602 6  95226388.446 6      2695.848          38.000
G11  24195200.070 6 127146642.791 6     -4024.684          36.000
G22  21701839.375 7 114043940.814 7     -1795.797          47.000    21701837.945 5  88865401.860 5     -1399.322          33.000
R02  22003678.750 5 117415786.504 5     -3374.766          33.000    22003686.469 4  91323466.338 4     -2624.818          25.000
R03  19423107.836 7 103973505.711 7      -751.809          43.000    19423108.906 6  80868271.526 6      -584.743          36.000
R04  21029940.172 6 112614356.840 6      2526.684          38.000    21029943.523 6  87588999.114 6      1965.204          36.000
R17  22521187.086 5 120515394.231 5     -4395.934          35.000    22521189.117 7  93734216.110 7     -3419.062          42.000
R18  19544622.305 8 104330492.788 8     -1730.691          49.000    19544625.234 8  81145958.820 8     -1346.093          50.000
C05                                                                  39722248.992 6 159945035.767 6       -26.403          36.000
C20  24901127.805 6 129666700.218 6      2502.184          39.000
C27  24014092.266 7 125047699.341 7     -3175.000          45.000
C30  22310751.961 7 116177921.972 7      -691.844          45.000
E04  25926170.688 8 136243042.829 8      2413.949          49.000    25926170.812 8 104394007.369 8      1849.721          50.000
E12  21633499.445 7 113684807.905 7       -85.914          47.000    21633500.188 8  87109141.032 8       -65.788          51.000
E19  23846724.336 8 125315381.040 8       -40.973          49.000    23846725.062 8  96020886.719 8       -31.338          49.000
E33  25389354.117 8 133421931.615 8     -2544.223          51.000    25389353.484 8 102232376.781 8     -1949.409          50.000
> 2020 05 12 21 26 30.0000000  0 19        .000000000000
G01  21683725.711 8 113948751.076 8     -2570.129          50.000    21683730.031 8  88791237.448 8     -2002.698          50.000
G03  20417292.430 8 107293587.664 8      -618.547          51.000    20417293.742 8  83605414.711 8      -481.985          51.000
G04  20912130.906 8 109893995.743 8      1968.078          48.000    20912131.438 7  85631693.400 7      1533.567          47.000
G09  23235537.234 5 122103516.715 5      3451.543          35.000    23235524.242 5  95145587.455 5      2689.517          31.000
G11  24218183.266 5 127267422.943 5     -4027.719          33.000
G22  21712109.758 7 114097911.447 7     -1802.957          47.000    21712107.109 5  88907456.887 5     -1404.902          32.000
R02  22022657.922 5 117517072.848 5     -3378.391          31.000    22022666.086 4  91402241.999 4     -2627.640          28.000
R03  19427361.469 7 103996278.877 7      -767.332          42.000    19427363.602 6  80885984.034 6      -596.811          39.000
R04  21015819.547 6 112538737.234 6      2513.738          40.000    21015822.367 6  87530183.972 6      1955.133          38.000
R17  22545852.609 5 120647387.693 5     -4403.984          35.000    22545855.695 6  93836877.663 6     -3425.324          41.000
R18  19554417.328 8 104382779.246 8     -1755.734          50.000    19554420.977 8  81186626.116 8     -1365.571          51.000
C05                                                                  39722445.523 6 159945826.808 6       -26.744          37.000
C20  24886726.352 6 129591698.279 6      2497.129          39.000
C27  24032401.938 7 125143043.970 7     -3182.035          44.000
C30  22314786.312 7 116198930.217 7      -709.195          44.000
E04  25912405.828 8 136170710.127 8      2407.457          49.000    25912406.625 8 104338583.661 8      1844.714          51.000
E12  21634025.445 7 113687572.400 7       -98.957          47.000    21634026.250 8  87111259.283 8       -75.863          51.000
E19  23846987.219 8 125316762.414 8       -51.703          49.000    23846987.961 8  96021945.192 8       -39.620          50.000
E33  25403900.203 8 133498371.674 8     -2552.387          51.000    25403898.305 8 102290947.694 8     -1955.734          50.000
> 2020 05 12 21 27  0.0000000  0 18        .000000000000
G01  21698438.859 8 114026067.856 8     -2584.418          51.000    21698442.875 8  88851484.283 8     -2013.832          51.000
G03  20420859.797 8 107312333.851 8      -631.160          51.000    20420861.023 8  83620022.131 8      -491.813          51.000
G04  20900947.656 7 109835229.125 7      1949.660          46.000    20900948.141 7  85585901.264 7      1519.219          46.000
G11  24241190.430 5 127388328.726 5     -4032.992          32.000
G19  22328875.344 6 117339039.536 6      1144.395          36.000
G22  21722428.727 8 114152137.922 8     -1812.203          48.000    21722424.398 5  88949711.313 5     -1412.109          30.000
R03  19431711.000 7 104019561.095 7      -784.883          42.000    19431713.516 6  80904092.415 6      -610.464          37.000
R04  21001778.852 6 112463551.318 6      2498.617          41.000    21001782.617 6  87471706.099 6      1943.369          38.000
R17  22570570.852 5 120779660.651 5     -4413.953          34.000    22570574.227 6  93939756.600 6     -3433.075          40.000
R18  19564361.609 8 104435862.200 8     -1783.098          50.000    19564365.688 8  81227912.844 8     -1386.854          51.000
C05                                                                  39722651.328 6 159946655.687 6       -28.575          36.000
C20  24872362.930 6 129516897.764 6      2489.812          36.000
C27  24050760.422 7 125238640.099 7     -3190.980          45.000
C30  22318927.180 7 116220495.054 7      -728.484          45.000
E04  25898685.852 8 136098614.122 8      2398.848          49.000    25898687.258 8 104283341.325 8      1838.087          51.000
E12  21634634.648 8 113690773.915 8      -114.336          48.000    21634635.336 8  87113712.384 8       -87.629          51.000
E19  23847318.891 8 125318505.174 8       -64.453          49.000    23847319.562 8  96023280.556 8       -49.335          49.000
E33  25418500.453 8 133575096.365 8     -2562.543          51.000    25418498.031 8 102349736.696 8     -1963.507          50.000
> 2020 05 12 21 27 30.0000000  0 18        .000000000000
G01  21713196.555 8 114103617.559 8     -2593.254          51.000    21713199.906 8  88911912.601 8     -2020.720          51.000
G03  20424463.148 8 107331269.493 8      -638.605          51.000    20424464.398 8  83634777.171 8      -497.615          51.000
G04  20889831.906 7 109776817.935 7      1936.723          45.000    20889832.125 7  85540386.082 7      1509.135          45.000
G11  24264189.203 5 127509188.026 5     -4032.492          35.000
G19  22322371.547 6 117304868.124 6      1126.324          37.000
G22  21732763.688 7 114206449.645 7     -1816.070          46.000    21732758.219 5  88992032.126 5     -1415.120          33.000
R03  19436121.953 6 104043177.055 6      -797.168          41.000    19436123.797 6  80922460.378 6      -620.020          39.000
R04  20987788.305 7 112388626.336 7      2488.668          42.000    20987789.094 5  87413431.105 5      1935.634          35.000
R17  22595307.797 5 120912036.449 5     -4418.262          30.000    22595311.422 6  94042715.479 6     -3436.429          39.000
R18  19574422.484 8 104489567.003 8     -1804.855          51.000    19574426.469 8  81269683.236 8     -1403.776          50.000
C05                                                                  39722834.203 6 159947392.121 6       -26.514          36.000
C20  24858005.281 6 129442130.398 6      2487.441          38.000
C27  24069134.227 7 125334317.121 7     -3194.848          42.000
C30  22323143.242 7 116242447.347 7      -742.473          46.000
E04  25884978.789 8 136026585.321 8      2395.523          49.000    25884980.609 8 104228150.469 8      1835.534          51.000
E12  21635294.859 8 113694242.914 8      -124.520          48.000    21635295.383 8  87116370.436 8       -95.390          51.000
E19  23847686.828 8 125320438.560 8       -71.914          49.000    23847687.617 8  96024761.995 8       -55.154          50.000
E33  25433122.102 8 133651934.595 8     -2567.543          51.000    25433119.883 8 102408612.715 8     -1967.359          51.000
> 2020 05 12 21 28  0.0000000  0 20        .000000000000
G01  21728039.141 8 114181612.867 8     -2604.625          51.000    21728041.859 8  88972688.134 8     -2029.578          51.000
G03  20428143.117 8 107350608.042 8      -648.512          51.000    20428144.508 8  83649846.174 8      -505.334          51.000
G04  20878824.812 7 109718977.235 7      1921.094          46.000    20878824.430 7  85495315.448 7      1496.956          43.000
G09  23176577.414 6 121793723.745 6      3431.430          36.000    23176572.172 5  94904195.622 5      2673.841          34.000
G11  24287219.836 5 127630212.019 5     -4034.008          34.000
G17  22042043.656 5 115831734.769 5      -159.496          34.000    22042050.414 5  90258510.329 5      -124.283          33.000
G19  22316006.203 5 117271421.491 5      1105.531          35.000
G22  21743155.570 7 114261059.984 7     -1822.578          46.000    21743150.398 5  89034585.595 5     -1420.188          34.000
R03  19440635.852 7 104067342.978 7      -811.785          43.000    19440639.242 6  80941256.090 6      -631.388          40.000
R04  20973888.633 7 112314180.675 7      2476.133          44.000    20973883.789 5  87355528.985 5      1925.884          33.000
R17  22620105.086 5 121044729.332 5     -4425.348          35.000    22620107.797 6  94145920.989 6     -3441.940          38.000
R18  19584640.367 8 104544109.504 8     -1829.188          51.000    19584643.719 8  81312105.193 8     -1422.698          48.000
C05                                                                  39723034.984 6 159948199.959 6       -25.793          36.000
C20  24843694.414 6 129367608.564 6      2482.793          37.000
C27  24087563.461 6 125430284.811 6     -3200.855          41.000
C30  22327474.203 7 116264998.607 7      -758.961          47.000
E04  25871325.469 8 135954838.222 8      2389.586          49.000    25871327.906 8 104173175.444 8      1831.002          51.000
E12  21636046.828 8 113698193.789 8      -136.988          49.000    21636047.227 8  87119397.724 8      -104.962          51.000
E19  23848131.562 8 125322775.937 8       -81.855          49.000    23848132.609 8  96026552.988 8       -62.756          50.000
E33  25447805.594 8 133729099.220 8     -2574.891          51.000    25447804.414 8 102467738.846 8     -1972.956          51.000
> 2020 05 12 21 28 30.0000000  0 20        .000000000000
G01  21742947.875 8 114259956.283 8     -2615.746          51.000    21742950.227 8  89033734.912 8     -2038.244          51.000
G03  20431881.367 8 107370252.822 8      -658.324          51.000    20431882.805 8  83665153.795 8      -512.980          51.000
G04  20867908.523 7 109661612.060 7      1905.898          46.000    20867907.594 7  85450615.297 7      1485.116          43.000
G09  23157015.625 6 121690922.036 6      3424.762          39.000    23157008.141 6  94824090.466 6      2668.649          39.000
G11  24310263.680 5 127751302.644 5     -4035.625          33.000
G17  22043011.844 5 115836832.916 5      -178.547          33.000
G22  21753585.844 7 114315872.080 7     -1828.836          47.000    21753581.430 6  89077296.301 6     -1425.067          36.000
R02  22098762.336 5 117923212.427 5     -3388.242          33.000    22098756.188 4  91718053.423 4     -2635.296          25.000
R03  19445234.141 7 104091959.049 7      -826.562          42.000    19445237.578 6  80960401.914 6      -642.885          38.000
R04  20960059.914 6 112240117.045 6      2463.883          40.000    20960053.422 5  87297923.942 5      1916.353          35.000
R17  22644942.602 5 121177637.800 5     -4431.957          35.000    22644944.766 6  94249294.183 6     -3447.078          36.000
R18  19594996.344 8 104599390.111 8     -1853.449          51.000    19594998.750 7  81355101.202 7     -1441.572          46.000
C05                                                                  39723235.094 6 159949006.076 6       -25.590          36.000
C20  24829411.938 5 129293237.326 5      2477.703          34.000
C27  24106030.805 7 125526445.760 7     -3207.082          42.000
C30  22331901.688 7 116288052.943 7      -775.207          47.000
E04  25857707.484 8 135883277.251 8      2383.852          49.000    25857710.648 8 104118343.025 8      1826.522          51.000
E12  21636872.492 8 113702530.900 8      -149.574          49.000    21636872.477 8  87122720.961 8      -114.546          51.000
E19  23848634.703 8 125325420.205 8       -91.742          49.000    23848635.680 8  96028579.122 8       -70.239          49.000
E33  25462532.617 8 133806493.068 8     -2582.055          51.000    25462533.094 8 102527040.618 8     -1978.428          51.000
> 2020 05 12 21 29  0.0000000  0 21        .000000000000
G01  21757915.211 8 114338610.100 8     -2628.320          49.000    21757917.516 8  89095023.594 8     -2048.039          49.000
G03  20435670.844 8 107390166.871 8      -669.570          51.000    20435672.195 8  83680671.240 8      -521.743          51.000
G04  20857075.969 7 109604687.083 7      1888.820          47.000    20857075.117 7  85406258.133 7      1471.805          45.000
G09  23137489.086 6 121588304.128 6      3416.348          39.000    23137480.289 6  94744128.548 6      2662.089          39.000
G11  24333313.148 5 127872422.585 5     -4039.230          32.000
G17  22044081.039 5 115842463.848 5      -197.723          30.000
G19  22303623.609 5 117206332.716 5      1063.152          32.000
G22  21764047.383 7 114370849.111 7     -1836.516          45.000    21764043.414 6  89120135.571 6     -1431.051          39.000
R02  22117824.234 5 118024906.674 5     -3391.023          31.000
R03  19449909.812 7 104116986.057 7      -842.453          42.000    19449912.305 6  80979867.318 6      -655.241          39.000
R04  20946292.172 5 112166398.769 5      2450.738          35.000    20946289.305 6  87240587.442 6      1906.127          36.000
R17  22669813.312 6 121310721.386 6     -4440.090          37.000    22669815.258 5  94352803.584 5     -3453.406          34.000
R18  19605483.562 8 104655369.918 8     -1878.980          51.000    19605484.602 7  81398641.034 7     -1461.429          45.000
C05                                                                  39723427.555 6 159949780.999 6       -26.475          36.000
C20  24815151.242 5 129218980.713 5      2471.961          35.000
C27  24124528.836 7 125622761.755 7     -3214.324          45.000
C30  22336418.219 7 116311573.611 7      -793.043          46.000
E04  25844118.008 8 135811866.415 8      2376.578          49.000    25844121.570 8 104063625.651 8      1820.975          51.000
E12  21637764.836 8 113707218.215 8      -163.355          50.000    21637764.164 8  87126312.550 8      -125.201          51.000
E19  23849189.102 8 125328334.315 8      -102.965          49.000    23849189.766 8  96030812.023 8       -78.892          49.000
E33  25477296.180 8 133884078.571 8     -2590.621          51.000    25477298.016 8 102586489.270 8     -1985.096          51.000
> 2020 05 12 21 29 30.0000000  0 18        .000000000000
G01  21772961.953 7 114417686.637 7     -2638.840          47.000    21772964.844 7  89156641.709 7     -2056.239          47.000
G03  20439533.117 8 107410463.183 8      -678.957          51.000    20439534.391 8  83696486.552 8      -529.057          51.000
G04  20846349.164 8 109548316.861 8      1873.867          48.000    20846349.109 7  85362333.287 7      1460.159          47.000
G09  23118018.305 6 121485985.378 6      3409.863          38.000    23118014.336 6  94664399.842 6      2657.042          38.000
G11  24356387.789 5 127993679.049 5     -4040.523          35.000    24356387.164 5  99735336.278 5     -3148.460          33.000
G22  21774562.023 7 114426104.201 7     -1842.570          43.000    21774558.352 6  89163191.478 6     -1435.769          39.000
R03  19454683.781 7 104142537.747 7      -856.328          43.000    19454686.039 6  80999740.898 6      -666.033          39.000
R04  20932610.453 6 112093141.902 6      2438.219          38.000    20932610.344 6  87183609.940 6      1896.398          37.000
R17  22694737.602 6 121444092.017 6     -4446.562          37.000    22694739.219 5  94456536.307 5     -3458.434          34.000
R18  19616122.945 8 104712162.683 8     -1902.617          51.000    19616122.883 7  81442813.171 7     -1479.813          44.000
C05                                                                  39723634.148 6 159950613.083 6       -25.481          36.000
C20  24800935.297 6 129144951.466 6      2468.121          36.000
C27  24143077.789 7 125719343.070 7     -3219.711          46.000
C30  22341045.398 7 116335672.460 7      -808.938          46.000
E04  25830578.977 8 135740719.757 8      2371.230          49.000    25830582.641 8 104009110.707 8      1816.917          51.000
E12  21638745.352 8 113712369.730 8      -175.461          50.000    21638744.258 8  87130259.807 8      -134.417          51.000
E19  23849816.281 8 125331630.826 8      -112.152          49.000    23849816.734 8  96033337.940 8       -85.983          50.000
E33  25492117.664 8 133961968.176 8     -2597.340          50.000    25492120.469 8 102646170.913 8     -1990.134          51.000
> 2020 05 12 21 30  0.0000000  0 19        .000000000000
G01  21788061.148 8 114497036.459 8     -2654.328          50.000    21788064.586 8  89218472.755 8     -2068.308          50.000
G03  20443439.891 8 107430993.037 8      -692.957          51.000    20443440.977 8  83712483.850 8      -539.967          51.000
G04  20835700.180 8 109492354.298 8      1853.809          49.000    20835700.586 7  85318726.130 7      1444.529          47.000
G09  23098576.156 5 121383819.380 5      3397.418          33.000    23098578.547 5  94584790.089 5      2647.345          30.000
G11  24379459.820 5 128114923.369 5     -4046.449          35.000    24379459.445 5  99829812.343 5     -3153.080          33.000
G22  21785101.391 7 114481488.220 7     -1852.977          43.000    21785097.953 6  89206347.835 6     -1443.881          41.000
R02  22155984.148 5 118228558.357 5     -3399.809          33.000
R03  19459526.969 7 104168461.456 7      -875.129          44.000    19459528.148 6  81019903.799 6      -680.653          39.000
R04  20918986.914 6 112020196.026 6      2421.754          38.000    20918988.336 6  87126874.317 6      1883.586          37.000
R17  22719685.961 5 121577595.302 5     -4457.473          34.000    22719687.945 5  94560372.096 5     -3466.926          34.000
R18  19626885.797 8 104769615.985 8     -1931.047          51.000    19626886.156 7  81487499.029 7     -1501.928          46.000
C05                                                                  39723826.547 6 159951387.385 6       -28.861          36.000
C20  24786736.117 6 129071003.105 6      2458.832          39.000
C27  24161648.094 7 125816040.675 7     -3230.004          44.000
C30  22345755.820 8 116360201.987 8      -829.512          48.000
E04  25817062.258 8 135669689.616 8      2360.984          50.000    25817065.914 8 103954685.068 8      1809.078          51.000
E12  21639785.844 8 113717837.694 8      -192.316          50.000    21639784.891 8  87134449.530 8      -147.350          51.000
E19  23850488.000 8 125335160.960 8      -126.348          49.000    23850488.359 8  96036042.856 8       -96.815          50.000
E33  25506968.898 8 134040012.604 8     -2608.773          51.000    25506972.117 8 102705971.189 8     -1998.930          51.000
> 2020 05 12 21 30 30.0000000  0 19        .000000000000
G01  21803225.742 8 114576725.146 8     -2662.195          51.000    21803228.719 8  89280567.826 8     -2074.438          51.000
G03  20447403.727 8 107451822.776 8      -699.578          51.000    20447404.562 8  83728714.822 8      -545.126          51.000
G04  20825141.664 8 109436867.299 8      1841.379          50.000    20825142.172 8  85275489.540 8      1434.841          48.000
G11  24402541.570 5 128236220.290 5     -4044.547          30.000    24402533.500 4  99924294.402 4     -3151.595          26.000
G17  22047959.266 5 115862797.233 5      -255.031          34.000
G22  21795678.000 7 114537067.713 7     -1856.141          45.000    21795674.336 6  89249656.533 6     -1446.343          40.000
R02  22175091.109 6 118330478.030 6     -3398.848          37.000
R03  19464451.852 7 104194822.999 7      -886.148          44.000    19464452.797 6  81040407.241 6      -689.227          39.000
R04  20905433.320 6 111947629.711 6      2412.234          36.000    20905437.773 6  87070433.793 6      1876.179          38.000
R17  22744671.805 6 121711295.721 6     -4459.910          36.000    22744673.516 5  94664361.238 5     -3468.822          34.000
R18  19637784.531 8 104827795.631 8     -1951.637          51.000    19637785.836 7  81532749.825 7     -1517.940          47.000
C05                                                                  39724017.703 6 159952156.984 6       -25.787          36.000
C20  24772566.180 6 128997202.153 6      2457.375          41.000
C27  24180251.727 7 125912918.583 7     -3232.312          42.000
C30  22350562.070 8 116385227.772 8      -842.719          48.000
E04  25803580.797 8 135598843.357 8      2358.285          50.000    25803583.961 8 103900400.314 8      1806.977          51.000
E12  21640899.359 8 113723689.369 8      -201.664          50.000    21640898.484 8  87138933.271 8      -154.519          51.000
E19  23851216.609 8 125338990.675 8      -132.809          48.000    23851217.086 8  96038977.329 8      -101.837          50.000
E33  25521862.359 8 134118277.597 8     -2612.746          50.000    25521865.594 8 102765940.467 8     -2001.896          51.000
> 2020 05 12 21 31  0.0000000  0 18        .000000000000
G01  21818448.203 8 114656717.321 8     -2672.270          51.000    21818450.164 8  89342899.369 8     -2082.288          51.000
G03  20451417.945 8 107472917.758 8      -708.496          51.000    20451418.703 8  83745152.473 8      -552.075          51.000
G04  20814667.344 8 109381822.827 8      1826.445          50.000    20814668.055 8  85232597.758 8      1423.204          48.000
G09  23059826.008 5 121180215.004 5      3387.430          33.000    23059821.297 5  94426128.037 5      2639.559          35.000
G22  21806285.000 6 114592807.764 6     -1861.621          41.000    21806281.750 6  89293090.343 6     -1450.617          41.000
R02  22194197.922 5 118432429.132 5     -3400.109          34.000
R03  19469451.695 7 104221586.014 7      -899.738          43.000    19469452.617 6  81061222.957 6      -699.793          39.000
R04  20891946.844 5 111875408.758 5      2401.078          35.000    20891952.180 6  87014261.896 6      1867.508          37.000
R17  22769686.148 5 121845155.172 5     -4465.559          34.000    22769688.648 5  94768474.089 5     -3473.215          34.000
R18  19648812.344 8 104886665.369 8     -1974.707          51.000    19648814.875 8  81578537.350 8     -1535.883          49.000
C05                                                                  39724201.016 6 159952894.771 6       -24.593          36.000
C20  24758418.391 6 128923514.999 6      2453.566          40.000
C27  24198882.609 6 126009940.823 6     -3237.285          41.000
C30  22355457.141 8 116410715.356 8      -858.199          48.000
E04  25790127.930 8 135528147.355 8      2353.070          50.000    25790130.438 8 103846230.667 8      1803.017          51.000
E12  21642079.469 8 113729891.042 8      -213.477          50.000    21642078.469 8  87143685.200 8      -163.558          51.000
E19  23851995.664 8 125343085.266 8      -141.887          48.000    23851996.211 8  96042114.737 8      -108.671          50.000
E33  25536790.680 8 134196727.981 8     -2619.090          48.000    25536794.086 8 102826051.797 8     -2006.745          51.000
> 2020 05 12 21 31 30.0000000  0 18        .000000000000
G01  21833751.742 8 114737137.367 8     -2685.953          50.000    21833753.445 8  89405564.286 8     -2092.954          50.000
G03  20455506.430 8 107494403.202 8      -720.875          51.000    20455507.281 8  83761894.375 8      -561.721          51.000
G04  20804301.188 8 109327347.621 8      1808.164          50.000    20804302.180 7  85190149.569 7      1408.959          47.000
G09  23040519.930 5 121078776.372 5      3377.633          35.000    23040516.758 6  94347085.005 6      2631.925          36.000
G22  21816946.578 7 114648833.701 7     -1870.559          42.000    21816943.422 6  89336746.893 6     -1457.578          40.000
R02  22213330.211 5 118534537.739 5     -3404.492          33.000
R03  19474549.680 7 104248876.449 7      -916.602          43.000    19474549.578 6  81082448.830 6      -712.912          39.000
R04  20878551.031 5 111803661.560 5      2385.922          33.000    20878554.711 6  86958458.601 6      1855.723          36.000
R17  22794753.188 5 121979297.862 5     -4474.184          34.000    22794756.609 5  94872807.227 5     -3479.921          34.000
R18  19659993.141 8 104946350.724 8     -2001.180          51.000    19659996.594 8  81624959.266 8     -1556.473          50.000
C05                                                                  39724400.281 6 159953697.074 6       -26.451          36.000
C20  24744316.086 6 128850066.547 6      2446.141          38.000
C27  24217565.750 7 126107229.813 7     -3245.379          43.000
C30  22360464.531 8 116436788.587 8      -877.035          48.000
E04  25776727.859 8 135457727.835 8      2344.496          50.000    25776729.781 8 103792272.873 8      1796.405          51.000
E12  21643349.930 8 113736568.873 8      -228.762          50.000    21643349.133 8  87148801.964 8      -175.264          51.000
E19  23852848.812 8 125347569.325 8      -154.105          48.000    23852849.445 8  96045550.576 8      -118.117          50.000
E33  25551777.781 7 134275488.367 7     -2628.754          47.000    25551781.781 8 102886400.670 8     -2014.213          51.000
> 2020 05 12 21 32  0.0000000  0 20        .000000000000
G01  21849118.422 8 114817891.361 8     -2697.918          48.000    21849120.453 8  89468489.432 8     -2102.277          48.000
G03  20459651.461 8 107516186.004 8      -731.680          51.000    20459652.477 8  83778867.996 8      -570.140          51.000
G04  20794025.898 8 109273350.143 8      1791.250          51.000    20794026.664 7  85148073.650 7      1395.782          47.000
G09  23021256.766 6 120977563.714 6      3369.652          39.000    23021254.328 6  94268218.081 6      2625.703          39.000
G19  22269400.984 5 117026490.690 5       934.277          35.000
G22  21827644.477 6 114705052.204 6     -1877.859          41.000    21827641.438 6  89380553.521 6     -1463.270          40.000
R02  22232475.914 5 118636708.443 5     -3406.832          34.000    22232478.336 4  92273037.962 4     -2649.758          28.000
R03  19479728.484 7 104276598.243 7      -931.699          42.000    19479728.750 6  81104010.232 6      -724.655          40.000
R04  20865225.156 5 111732294.208 5      2372.035          34.000    20865228.023 6  86902950.722 6      1844.919          36.000
R17  22819854.234 5 122113626.131 5     -4481.488          31.000    22819859.141 6  94977284.764 6     -3485.602          36.000
R18  19671308.891 8 105006755.607 8     -2026.125          51.000    19671312.719 8  81671940.858 8     -1575.875          51.000
C05                                                                  39724597.812 5 159954492.883 5       -27.061          35.000
C20  24730242.211 5 128776765.298 5      2439.984          33.000
C25  25655272.922 6 133593731.061 6      1298.238          38.000
C27  24236283.234 7 126204691.693 7     -3252.289          45.000
C30  22365565.906 7 116463355.036 7      -894.387          47.000
E04  25763363.188 8 135387492.726 8      2337.336          51.000    25763364.516 8 103738456.372 8      1790.922          51.000
E12  21644693.484 8 113743630.666 8      -242.547          51.000    21644692.930 8  87154212.917 8      -185.824          51.000
E19  23853758.359 8 125352349.981 8      -165.137          48.000    23853759.148 8  96049213.678 8      -126.488          50.000
E33  25566806.086 7 134354465.074 7     -2637.023          46.000    25566810.891 8 102946915.283 8     -2020.576          51.000
> 2020 05 12 21 32 30.0000000  0 18        .000000000000
G01  21864556.148 7 114899020.030 7     -2710.820          47.000    21864558.406 7  89531706.597 7     -2112.328          47.000
G03  20463861.023 8 107538307.661 8      -743.449          51.000    20463862.141 8  83796105.653 8      -579.311          51.000
G04  20783849.867 8 109219873.414 8      1773.516          51.000    20783850.117 8  85106403.499 8      1381.963          48.000
G09  23002044.570 7 120876620.892 7      3359.754          42.000    23002043.180 7  94189561.425 7      2617.993          42.000
G17  22054651.727 6 115898004.715 6      -333.418          37.000
G22  21838386.727 6 114761504.910 6     -1886.285          39.000    21838384.320 6  89424542.646 6     -1469.836          39.000
R03  19484994.953 6 104304792.120 6      -948.004          41.000    19484996.305 6  81125938.827 6      -737.333          40.000
R04  20851977.742 6 111661350.023 6      2357.363          40.000    20851980.000 5  86847771.968 5      1833.508          35.000
R18  19682767.148 8 105067920.920 8     -2051.949          51.000    19682770.961 8  81719513.887 8     -1595.961          50.000
C05                                                                  39724801.844 6 159955314.379 6       -28.067          36.000
C20  24716206.719 5 128703653.047 5      2434.398          30.000
C25  25647836.008 5 133555002.342 5      1283.328          33.000
C27  24255041.688 7 126302365.852 7     -3259.781          45.000
C30  22370769.734 7 116490455.551 7      -912.660          47.000
E04  25750041.562 8 135317484.525 8      2329.410          51.000    25750042.484 8 103684813.754 8      1784.801          51.000
E12  21646118.430 8 113751118.789 8      -257.203          51.000    21646117.773 8  87159950.567 8      -197.111          51.000
E19  23854732.258 8 125357468.090 8      -176.758          48.000    23854733.117 8  96053135.348 8      -135.390          50.000
E33  25581883.188 7 134433698.987 7     -2645.789          46.000    25581889.109 8 103007626.967 8     -2027.377          51.000
> 2020 05 12 21 33  0.0000000  0 18        .000000000000
G01  21880046.609 8 114980424.676 8     -2720.371          48.000    21880049.477 8  89595138.824 8     -2119.767          48.000
G03  20468116.438 8 107560670.284 8      -751.785          51.000    20468117.555 8  83813531.080 8      -585.807          51.000
G04  20773754.594 8 109166820.998 8      1758.934          51.000    20773754.773 8  85065063.971 8      1370.598          50.000
G09  22982865.648 7 120775852.246 7      3353.664          43.000    22982864.820 7  94111040.476 7      2613.248          43.000
G17  22056593.469 6 115908198.309 6      -350.484          37.000    22056602.047 5  90318109.189 5      -273.102          31.000
G22  21849155.070 6 114818093.962 6     -1890.660          38.000    21849153.094 6  89468637.998 6     -1473.248          38.000
R03  19490330.539 7 104333356.951 7      -960.711          42.000    19490332.133 6  81148155.885 6      -747.220          40.000
R04  20838790.609 6 111590730.145 6      2346.250          40.000    20838790.578 5  86792845.366 5      1824.858          30.000
R17  22870170.312 5 122382886.894 5     -4493.586          30.000    22870173.047 6  95186715.776 6     -3495.011          37.000
R18  19694349.219 8 105129745.455 8     -2074.141          51.000    19694352.375 8  81767599.670 8     -1613.217          50.000
C20  24702179.008 4 128630743.685 4      2429.727          29.000
C25  25640460.500 5 133516610.412 5      1271.438          30.000
C27  24273821.422 7 126400153.625 7     -3263.855          44.000
C30  22376058.164 8 116517992.867 8      -927.473          49.000
E04  25736744.562 8 135247606.352 8      2324.820          51.000    25736745.039 8 103631270.781 8      1781.383          51.000
E12  21647605.938 8 113758936.265 8      -268.285          51.000    21647605.312 8  87165940.569 8      -205.632          51.000
E19  23855751.602 7 125362825.596 7      -184.855          47.000    23855752.719 8  96057240.460 8      -141.586          51.000
E33  25596990.922 7 134513091.637 7     -2651.395          46.000    25596997.500 8 103068460.257 8     -2031.549          51.000
> 2020 05 12 21 33 30.0000000  0 18        .000000000000
G01  21895621.758 8 115062272.156 8     -2731.410          49.000    21895624.867 8  89658916.112 8     -2128.372          49.000
G03  20472449.703 8 107583441.541 8      -761.613          51.000    20472450.852 8  83831274.927 8      -593.465          51.000
G04  20763772.055 8 109114362.039 8      1742.973          50.000    20763772.180 8  85024186.868 8      1358.164          49.000
G09  22963752.359 7 120675427.800 7      3345.922          43.000    22963753.070 7  94032787.745 7      2607.215          44.000
G22  21859981.242 6 114874986.839 6     -1897.477          37.000    21859979.555 6  89512970.165 6     -1478.550          37.000
R02  22290007.789 5 118943741.003 5     -3413.348          35.000    22290010.320 5  92511794.254 5     -2654.832          31.000
R03  19495768.172 6 104362462.215 6      -974.883          41.000    19495769.758 6  81170793.296 6      -758.242          40.000
R04  20825693.156 6 111520606.708 6      2333.711          38.000
R17  22895401.789 5 122517893.278 5     -4499.762          31.000    22895394.141 6  95291685.728 6     -3499.815          37.000
R18  19706086.148 8 105192398.264 8     -2097.887          51.000    19706089.352 8  81816329.630 8     -1631.690          50.000
C05                                                                  39725205.391 6 159956939.380 6       -26.814          36.000
C20  24688193.578 6 128557984.206 6      2425.332          36.000
C27  24292654.086 7 126498219.471 7     -3269.223          43.000
C30  22381462.867 8 116546132.956 8      -943.969          49.000
E04  25723503.898 8 135178026.904 8      2318.453          50.000    25723504.109 8 103577956.689 8      1776.486          50.000
E12  21649188.125 8 113767251.681 8      -281.273          50.000    21649187.820 8  87172312.110 8      -215.545          51.000
E19  23856848.297 8 125368590.001 8      -194.691          48.000    23856849.656 8  96061657.351 8      -149.206          51.000
E33  25612161.242 8 134592810.073 8     -2658.520          48.000    25612167.539 8 103129543.176 8     -2037.071          51.000
> 2020 05 12 21 34  0.0000000  0 18        .000000000000
G01  21911255.797 8 115144427.972 8     -2744.227          50.000    21911258.875 8  89722933.641 8     -2138.355          50.000
G03  20476835.320 8 107606487.699 8      -773.309          51.000    20476836.531 8  83849232.984 8      -602.578          51.000
G04  20753877.125 8 109062364.318 8      1724.996          49.000    20753876.930 8  84983669.145 8      1344.150          49.000
G09  22944680.195 7 120575216.144 7      3336.285          45.000    22944683.219 7  93954700.816 7      2599.706          45.000
G22  21870839.492 6 114932049.942 6     -1906.113          37.000    21870837.711 6  89557434.931 6     -1485.280          36.000
R02  22309200.469 5 119046136.402 5     -3416.656          33.000
R03  19501280.023 6 104391969.980 6      -990.750          41.000    19501282.438 6  81193743.851 6      -770.580          39.000
R04  20812663.734 6 111450843.934 6      2318.867          40.000    20812672.805 4  86684032.220 4      1803.563          27.000
R18  19717952.328 8 105255741.493 8     -2123.449          51.000    19717955.984 8  81865596.560 8     -1651.572          49.000
C05                                                                  39725411.562 6 159957769.616 6       -27.934          36.000
C20  24674243.734 6 128485352.995 6      2418.176          39.000
C25  25625985.438 5 133441221.261 5      1243.762          33.000
C27  24311513.734 6 126596429.196 6     -3276.578          41.000
C30  22386957.852 8 116574742.953 8      -962.043          50.000
E04  25710294.094 8 135108613.436 8      2310.523          50.000    25710294.727 8 103524769.767 8      1770.398          49.000
E12  21650839.883 8 113775932.135 8      -296.020          49.000    21650840.016 8  87178963.350 8      -226.763          51.000
E19  23857997.062 8 125374627.128 8      -206.258          48.000    23857998.336 8  96066283.196 8      -158.039          51.000
E33  25627368.336 8 134672719.880 8     -2667.336          49.000    25627373.586 8 103190772.762 8     -2043.833          51.000
> 2020 05 12 21 34 30.0000000  0 20        .000000000000
G01  21926928.492 8 115226786.751 8     -2752.695          51.000    21926931.133 8  89787109.304 8     -2144.960          51.000
G03  20481253.367 8 107629704.325 8      -780.902          51.000    20481254.594 8  83867323.872 8      -608.495          51.000
G04  20744050.156 8 109010724.819 8      1711.156          48.000    20744050.266 8  84943430.566 8      1333.369          48.000
G09  22925630.039 7 120475115.167 7      3330.617          45.000    22925635.188 7  93876700.109 7      2595.289          45.000
G17  22063086.562 5 115942283.739 5      -406.426          35.000    22063088.211 5  90344641.591 5      -316.695          35.000
G22  21881710.305 5 114989178.585 5     -1909.730          35.000    21881708.734 5  89601950.865 5     -1488.099          34.000
R02  22328400.414 5 119148541.499 5     -3416.348          35.000    22328406.773 4  92671185.813 4     -2657.162          28.000
R03  19506847.578 6 104421772.762 6     -1002.723          40.000    19506848.875 6  81216923.738 6      -779.895          38.000
R04  20799683.648 6 111381336.386 6      2308.297          37.000    20799691.852 5  86629970.682 5      1795.339          32.000
R17  22945902.188 5 122788160.483 5     -4510.172          32.000    22945897.414 5  95501883.007 5     -3507.914          34.000
R18  19729928.062 8 105319667.640 8     -2144.891          51.000    19729932.008 8  81915316.894 8     -1668.248          50.000
C05                                                                  39725592.414 6 159958497.936 6       -26.031          36.000
C20  24660301.375 6 128412747.097 6      2415.316          39.000
C25  25618831.336 5 133403982.332 5      1232.148          35.000
C27  24330380.727 6 126694677.626 6     -3279.953          40.000
C30  22392523.070 8 116603719.080 8      -976.168          50.000
E04  25697096.516 8 135039262.460 8      2306.383          50.000    25697097.406 8 103471630.734 8      1767.252          49.000
E12  21652541.398 8 113784874.029 8      -306.660          49.000    21652541.906 8  87185814.927 8      -234.994          51.000
E19  23859177.797 8 125380832.147 8      -213.977          48.000    23859179.031 8  96071037.705 8      -163.884          51.000
E33  25642591.758 8 134752716.007 8     -2672.148          50.000    25642595.836 8 103252068.488 8     -2047.547          51.000
> 2020 05 12 21 35  0.0000000  0 17        .000000000000
G01  21942669.438 8 115309505.145 8     -2767.945          49.000    21942670.820 8  89851565.180 8     -2156.844          49.000
G03  20485733.695 8 107653248.819 8      -794.988          51.000    20485734.969 8  83885670.242 8      -619.471          51.000
G04  20734321.297 7 108959602.374 7      1690.715          47.000    20734322.219 7  84903594.887 7      1317.440          47.000
G09  22906632.078 7 120375284.566 7      3318.473          42.000    22906638.352 7  93798910.048 7      2585.823          42.000
R02  22347603.914 5 119251028.708 5     -3422.094          35.000    22347611.922 4  92750897.950 4     -2661.635          28.000
R03  19512499.414 6 104452029.113 6     -1020.922          39.000    19512501.195 6  81240456.507 6      -794.047          38.000
R17  22971196.430 5 122923516.237 5     -4520.348          33.000    22971190.883 5  95607159.672 5     -3515.829          33.000
R18  19742042.695 8 105384335.117 8     -2172.711          51.000    19742046.766 8  81965613.802 8     -1689.886          50.000
C05                                                                  39725777.969 6 159959245.342 6       -29.016          36.000
C20  24646394.336 6 128340323.180 6      2406.648          38.000
C25  25611761.898 6 133367174.798 6      1214.539          36.000
C27  24349284.742 6 126793118.969 6     -3289.551          36.000
C30  22398187.898 8 116633216.948 8      -996.672          50.000
E04  25683941.641 8 134970132.323 8      2295.871          51.000    25683941.922 8 103418660.934 8      1759.132          49.000
E12  21654322.805 8 113794235.631 8      -323.938          49.000    21654323.234 8  87192988.101 8      -248.179          51.000
E19  23860420.672 8 125387362.535 8      -227.961          48.000    23860421.656 8  96076041.524 8      -174.677          51.000
E33  25657861.172 8 134832955.249 8     -2683.469          50.000    25657864.047 8 103313550.512 8     -2056.239          50.000
> 2020 05 12 21 35 30.0000000  0 18        .000000000000
G01  21958491.320 8 115392649.234 8     -2775.082          48.000    21958491.055 8  89916352.749 8     -2162.405          48.000
G03  20490289.203 8 107677188.205 8      -801.137          51.000    20490290.391 8  83904324.333 8      -624.262          51.000
G04  20724704.078 7 108909065.385 7      1678.164          47.000    20724705.469 7  84864215.429 7      1307.663          47.000
G09  22887699.648 6 120275793.638 6      3314.090          39.000    22887705.734 6  93721384.671 6      2582.408          39.000
G31  23348172.336 6 122695479.815 6      -659.559          38.000    23348174.414 5  95606869.410 5      -513.942          32.000
R02  22366836.828 6 119353666.810 6     -3420.543          39.000    22366848.281 4  92830727.541 4     -2660.422          29.000
R03  19518248.242 7 104482806.075 7     -1031.234          42.000    19518250.555 6  81264394.137 6      -802.071          36.000
R04  20773965.742 4 111243663.167 4      2282.113          29.000    20773986.414 5  86522855.508 5      1774.983          31.000
R17  22996539.984 5 123059135.958 5     -4521.672          31.000    22996535.570 5  95712641.515 5     -3516.862          33.000
R18  19754308.570 8 105449809.978 8     -2192.531          51.000    19754312.609 8  82016538.686 8     -1705.302          50.000
C05                                                                  39725981.086 6 159960063.576 6       -25.717          36.000
C20  24632536.234 5 128268148.552 5      2405.078          35.000
C25  25604789.359 6 133330867.168 6      1205.539          37.000
C30  22403965.555 8 116663302.654 8     -1009.367          51.000
E04  25670842.258 8 134901291.083 8      2293.281          51.000    25670841.438 8 103365912.493 8      1757.169          49.000
E12  21656197.125 8 113804084.784 8      -333.090          48.000    21656197.195 8  87200534.864 8      -255.198          51.000
E19  23861738.102 8 125394284.784 8      -233.883          48.000    23861738.758 8  96081345.591 8      -179.227          51.000
E33  25673189.344 8 134913504.014 8     -2686.738          51.000    25673191.125 8 103375269.686 8     -2058.664          49.000
> 2020 05 12 21 36  0.0000000  0 19        .000000000000
G01  21974360.922 8 115476044.486 8     -2783.852          48.000    21974360.039 7  89981336.003 7     -2169.238          47.000
G03  20494886.773 8 107701348.692 8      -808.809          51.000    20494887.812 8  83923150.695 8      -630.240          51.000
G04  20715165.789 8 108858941.533 8      1664.266          49.000    20715167.117 8  84825157.872 8      1296.830          48.000
G09  22868799.469 6 120176470.906 6      3308.234          39.000    22868804.086 6  93643990.335 6      2577.842          39.000
G22  21914589.789 6 115161929.411 6     -1926.844          37.000    21914583.453 6  89736551.559 6     -1501.434          36.000
G31  23351987.773 5 122715542.234 5      -676.895          33.000    23351991.336 5  95622502.302 5      -527.456          33.000
R02  22386066.016 6 119456277.882 6     -3419.582          38.000    22386078.242 4  92910535.046 4     -2659.681          27.000
R03  19524061.953 6 104513925.289 6     -1042.754          41.000    19524063.914 6  81288597.944 6      -811.031          37.000
R04  20761210.328 6 111175367.434 6      2271.191          36.000
R17  23021899.930 5 123194839.525 5     -4524.332          33.000    23021895.516 5  95818188.632 5     -3518.928          33.000
R18  19766692.570 8 105515913.932 8     -2213.602          51.000    19766696.180 8  82067952.860 8     -1721.690          49.000
C05                                                                  39726168.898 6 159960819.837 6       -24.023          36.000
C20  24618695.859 5 128196051.733 5      2401.934          35.000
C25  25597880.555 5 133294889.510 5      1194.258          31.000
C30  22409822.758 8 116693803.652 8     -1023.242          49.000
E04  25657764.922 8 134832565.899 8      2289.219          51.000    25657763.617 8 103313252.977 8      1754.107          49.000
E12  21658131.133 7 113814248.535 7      -343.559          47.000    21658131.344 8  87208322.693 8      -263.330          51.000
E19  23863096.867 7 125401424.825 7      -241.312          47.000    23863097.398 8  96086816.544 8      -184.890          51.000
E33  25688543.062 8 134994187.863 8     -2691.359          50.000    25688543.922 8 103437092.381 8     -2062.201          50.000
> 2020 05 12 21 36 30.0000000  0 21        .000000000000
G01  21990300.148 8 115559805.212 8     -2798.254          50.000    21990299.789 8  90046604.077 8     -2180.458          50.000
G03  20499548.367 8 107725845.607 8      -822.270          51.000    20499549.273 8  83942239.198 8      -640.730          51.000
G04  20705728.508 8 108809347.492 8      1644.137          50.000    20705729.586 8  84786513.145 8      1281.145          49.000
G09  22849953.797 6 120077433.995 6      3296.254          40.000    22849955.242 6  93566818.760 6      2568.513          39.000
G17  22073232.859 5 115995621.446 5      -482.484          31.000
G22  21925627.148 6 115219918.902 6     -1936.871          36.000    21925618.781 6  89781738.249 6     -1509.247          36.000
G31  23355926.242 6 122736235.222 6      -700.805          36.000    23355932.977 5  95638626.658 5      -546.079          35.000
R02  22405311.555 6 119558978.317 6     -3424.934          37.000    22405321.922 5  92990407.031 5     -2663.840          30.000
R03  19529961.195 6 104545502.570 6     -1060.402          37.000    19529963.156 6  81313158.074 6      -824.757          36.000
R04  20748535.070 5 111107499.646 5      2254.844          31.000    20748549.633 5  86416949.052 5      1753.770          32.000
R17  23047295.219 5 123330741.392 5     -4533.492          32.000    23047292.453 5  95923890.011 5     -3526.049          32.000
R18  19779216.047 8 105582762.507 8     -2240.738          51.000    19779218.656 7  82119946.196 7     -1742.796          47.000
C05                                                                  39726363.312 5 159961602.827 5       -26.907          35.000
C20  24604892.820 5 128124147.726 5      2393.492          31.000
C25  25591057.852 5 133259358.116 5      1176.719          31.000
C27  24406232.031 5 127089658.562 5     -3303.352          31.000
C30  22415781.281 8 116724833.853 8     -1043.230          49.000
E04  25644731.445 8 134764073.070 8      2279.098          51.000    25644730.023 8 103260771.504 8      1746.328          49.000
E12  21660146.859 7 113824843.026 7      -360.418          46.000    21660147.500 8  87216440.549 8      -276.197          51.000
E19  23864518.922 7 125408897.527 7      -254.648          47.000    23864519.625 8  96092542.386 8      -195.129          51.000
E33  25703944.023 8 135075121.445 8     -2702.062          50.000    25703944.391 8 103499106.409 8     -2070.409          50.000
> 2020 05 12 21 37  0.0000000  0 17        .000000000000
G01  22006304.875 8 115643910.243 8     -2809.895          50.000    22006305.812 8  90112140.433 8     -2189.528          50.000
G03  20504270.047 8 107750658.612 8      -833.055          51.000    20504270.961 8  83961574.003 8      -649.134          51.000
G04  20696388.484 8 108760264.204 8      1626.973          51.000    20696389.289 8  84748266.429 8      1267.771          50.000
G09  22831159.242 6 119978664.679 6      3287.422          40.000    22831157.586 6  93489855.747 6      2561.630          40.000
G31  23359979.805 5 122757538.525 5      -721.352          35.000    23359986.727 5  95655226.630 5      -562.092          35.000
R02  22424569.680 6 119661745.275 6     -3427.109          37.000    22424579.250 5  93070336.906 5     -2665.526          32.000
R03  19535940.844 6 104577515.693 6     -1074.832          37.000    19535943.711 6  81338057.163 6      -835.980          37.000
R04  20735939.023 5 111040039.861 5      2241.371          34.000    20735952.414 5  86364480.295 5      1743.289          33.000
R17  23072723.703 5 123466817.667 5     -4539.543          31.000    23072721.297 5  96029727.097 5     -3530.759          32.000
R18  19791874.375 8 105650333.496 8     -2265.047          51.000    19791876.383 7  82172501.396 7     -1761.703          46.000
C05                                                                  39726560.648 6 159962396.796 6       -27.001          36.000
C27  24425268.789 4 127188812.349 4     -3308.301          27.000
C30  22421837.633 8 116756372.652 8     -1060.359          50.000
E04  25631738.039 8 134695793.170 8      2271.816          51.000    25631736.578 8 103208453.157 8      1740.733          49.000
E12  21662241.117 7 113835848.676 7      -374.328          47.000    21662241.812 8  87224873.464 8      -286.874          51.000
E19  23866000.148 7 125416682.497 7      -265.316          46.000    23866001.422 8  96098507.497 8      -203.297          51.000
E33  25719388.383 8 135156283.761 8     -2709.863          49.000    25719388.461 8 103561295.700 8     -2076.386          50.000
> 2020 05 12 21 37 30.0000000  0 17        .000000000000
G01  22022380.438 8 115728387.984 8     -2818.598          49.000    22022382.219 8  90177967.246 8     -2196.310          49.000
G03  20509057.438 8 107775816.984 8      -840.898          51.000    20509058.461 8  83981177.911 8      -655.246          51.000
G04  20687151.562 8 108711722.338 8      1612.535          51.000    20687151.953 8  84710441.614 8      1256.524          49.000
G09  22812421.562 6 119880194.606 6      3280.797          40.000    22812419.453 6  93413125.896 6      2556.468          39.000
G31  23364156.258 5 122779481.524 5      -738.148          35.000    23364157.680 5  95672325.019 5      -575.181          35.000
R02  22443844.656 5 119764607.836 5     -3426.949          32.000    22443854.062 5  93150341.172 5     -2665.399          30.000
R03  19542006.430 6 104609993.203 6     -1086.754          37.000    19542010.508 5  81363317.483 5      -845.256          35.000
R04  20723425.844 5 110973018.807 5      2230.039          35.000    20723435.320 5  86312352.858 5      1734.481          31.000
R18  19804672.461 8 105718654.457 8     -2286.297          49.000    19804674.711 7  82225639.867 7     -1778.231          45.000
C05                                                                  39726766.438 6 159963225.104 6       -25.491          36.000
C20  24577366.172 5 127980798.232 5      2384.578          33.000
C27  24444341.305 4 127288100.475 4     -3311.504          29.000
C30  22427997.180 8 116788448.682 8     -1074.648          50.000
E04  25618790.633 8 134627756.496 8      2267.285          51.000    25618789.992 8 103156321.179 8      1737.339          50.000
E12  21664419.766 8 113847295.598 8      -385.469          48.000    21664420.281 8  87233644.498 8      -295.365          51.000
E19  23867546.398 7 125424808.491 7      -273.160          46.000    23867547.898 8  96104733.900 8      -209.269          51.000
E33  25734881.945 8 135237703.459 8     -2714.805          49.000    25734881.711 8 103623682.194 8     -2080.217          50.000
> 2020 05 12 21 38  0.0000000  0 17        .000000000000
G01  22038493.414 7 115813064.436 7     -2830.324          47.000    22038495.867 7  90243948.905 7     -2205.447          47.000
G03  20513877.547 8 107801147.607 8      -851.805          51.000    20513878.875 8  84000916.043 8      -663.744          51.000
G04  20677985.023 8 108663550.126 8      1594.984          51.000    20677984.883 8  84672904.833 8      1242.845          48.000
G09  22793707.938 7 119781852.934 7      3271.250          42.000    22793707.773 7  93336496.102 7      2549.026          43.000
G31  23368421.266 6 122801890.960 6      -758.906          37.000    23368418.977 6  95689786.855 6      -591.362          36.000
R02  22463104.578 5 119867388.671 5     -3429.234          34.000    22463113.516 5  93230281.907 5     -2667.179          30.000
R03  19548127.266 6 104642757.134 6     -1101.609          36.000    19548130.688 5  81388800.441 5      -856.807          35.000
R04  20710960.773 5 110906260.654 5      2216.594          35.000    20710966.875 5  86260429.956 5      1724.023          31.000
R18  19817577.281 8 105787547.671 8     -2310.594          48.000    19817580.398 7  82279223.425 7     -1797.128          44.000
C05                                                                  39726947.859 6 159963955.959 6       -26.092          36.000
C20  24563643.609 5 127909303.233 5      2378.312          34.000
C27  24463427.773 5 127387484.125 5     -3318.074          34.000
C30  22434227.047 8 116820889.988 8     -1091.918          51.000
E04  25605856.742 8 134559790.818 8      2259.715          50.000    25605857.438 8 103104243.607 8      1731.494          50.000
E12  21666649.516 8 113859011.446 8      -399.547          48.000    21666650.062 8  87242621.570 8      -306.203          51.000
E19  23869124.750 7 125433102.335 7      -283.883          46.000    23869126.102 8  96111088.914 8      -217.494          51.000
E33  25750391.836 8 135319206.719 8     -2722.734          50.000    25750391.539 8 103686132.727 8     -2086.248          51.000
> 2020 05 12 21 38 30.0000000  0 17        .000000000000
G01  22054692.141 7 115898193.733 7     -2843.348          47.000    22054695.602 7  90310283.466 7     -2215.593          47.000
G03  20518779.016 8 107826905.584 8      -863.719          51.000    20518780.570 8  84020987.182 8      -673.028          51.000
G04  20668937.312 8 108616003.943 8      1576.410          51.000    20668936.945 8  84635855.876 8      1228.372          48.000
G09  22775067.727 7 119683896.992 7      3260.777          44.000    22775069.195 7  93260166.848 7      2540.869          44.000
G17  22085105.898 5 116058014.390 5      -559.227          33.000    22085104.922 5  90434811.625 5      -435.761          32.000
R02  22482399.344 6 119970345.449 6     -3432.828          39.000    22482407.195 4  93310359.462 4     -2669.974          27.000
R03  19554350.852 6 104676066.063 6     -1117.242          36.000    19554354.438 5  81414707.424 5      -868.963          35.000
R04  20698623.484 5 110840120.624 5      2201.457          34.000    20698598.609 5  86208940.596 5      1712.250          32.000
R18  19830638.188 8 105857270.527 8     -2335.883          49.000    19830641.695 7  82333452.311 7     -1816.798          45.000
C05                                                                  39727153.695 6 159964784.693 6       -27.680          36.000
C20  24549973.094 6 127838094.143 6      2370.887          38.000
C27  24482570.297 5 127487147.847 5     -3325.086          33.000
C30  22440575.758 8 116853948.881 8     -1110.238          51.000
E04  25592985.320 8 134492152.222 8      2251.105          50.000    25592987.172 8 103052416.657 8      1724.870          50.000
E12  21668978.984 8 113871252.104 8      -414.820          49.000    21668979.617 8  87252000.764 8      -317.885          51.000
E19  23870783.422 7 125441818.445 7      -295.648          46.000    23870784.820 8  96117767.501 8      -226.509          51.000
E33  25765966.352 8 135401047.997 8     -2731.773          51.000    25765966.586 8 103748842.246 8     -2093.138          51.000
> 2020 05 12 21 39  0.0000000  0 17        .000000000000
G01  22070929.695 8 115983524.059 8     -2850.191          49.000    22070933.070 8  90376774.636 8     -2220.928          50.000
G03  20523714.172 8 107852839.941 8      -869.961          51.000    20523715.664 8  84041195.768 8      -677.892          51.000
G04  20659961.008 8 108568834.113 8      1563.469          51.000    20659960.672 7  84599100.186 7      1218.290          47.000
G09  22756453.562 7 119586078.089 7      3255.801          45.000    22756455.711 7  93183944.368 7      2536.991          45.000
G31  23377313.508 5 122848590.356 5      -796.668          33.000    23377316.156 5  95726201.702 5      -620.780          32.000
R02  22501679.852 6 120073222.530 6     -3430.285          41.000    22501686.508 4  93390351.060 4     -2668.000          24.000
R03  19560627.305 6 104709662.703 6     -1127.230          38.000    19560629.141 5  81440838.106 5      -876.738          32.000
R04  20686268.141 5 110774111.856 5      2191.469          32.000    20686280.336 5  86157632.606 5      1704.470          31.000
R18  19843807.461 8 105927566.131 8     -2355.258          51.000    19843810.703 7  82388126.647 7     -1831.867          46.000
C05                                                                  39727336.102 5 159965519.344 5       -24.633          35.000
C20  24536305.789 6 127766923.025 6      2369.176          39.000
C27  24501715.945 5 127586840.968 5     -3326.285          32.000
C30  22446994.977 8 116887376.228 8     -1122.836          51.000
E04  25580128.594 8 134424590.635 8      2248.273          49.000    25580131.672 8 103000648.708 8      1722.703          50.000
E12  21671360.758 8 113883767.346 8      -424.250          50.000    21671361.078 8  87261590.355 8      -325.081          51.000
E19  23872474.719 7 125450705.685 7      -301.590          46.000    23872476.141 8  96124577.209 8      -231.055          51.000
E33  25781557.531 8 135482975.650 8     -2734.871          51.000    25781557.789 8 103811617.960 8     -2095.527          51.000
> 2020 05 12 21 39 30.0000000  0 18        .000000000000
G01  22087241.656 8 116069240.131 8     -2862.258          50.000    22087244.023 8  90443566.348 8     -2230.334          50.000
G03  20528718.312 8 107879136.298 8      -881.203          51.000    20528719.781 8  84061686.434 8      -686.652          51.000
G04  20651092.031 8 108522227.553 8      1545.500          51.000    20651091.578 8  84562783.408 8      1204.289          48.000
G09  22737901.398 7 119488584.036 7      3245.930          46.000    22737903.734 7  93107975.026 7      2529.296          46.000
G31  23381931.117 5 122872847.805 5      -817.406          35.000    23381928.352 5  95745103.568 5      -636.940          34.000
R02  22520979.992 6 120176207.052 6     -3433.246          40.000
R03  19566993.961 6 104743734.811 6     -1142.453          36.000    19566994.023 5  81467338.619 5      -888.572          34.000
R04  20674041.547 5 110708605.855 5      2177.145          32.000    20674047.438 4  86106683.364 4      1693.329          29.000
R17  23200271.328 5 124149337.407 5     -4562.316          32.000    23200274.250 5  96560607.254 5     -3548.468          33.000
R18  19857119.422 8 105998620.963 8     -2379.688          51.000    19857121.836 7  82443391.518 7     -1850.868          47.000
C05                                                                  39727530.445 5 159966301.502 5       -25.765          35.000
C20  24522678.711 6 127695974.514 6      2362.281          36.000
C27  24520900.242 5 127686745.641 5     -3332.688          32.000
C30  22453520.250 8 116921355.449 8     -1140.480          50.000
E04  25567322.070 8 134357292.621 8      2240.297          49.000    25567326.148 8 102949082.727 8      1716.609          49.000
E12  21673830.234 8 113896743.532 8      -438.781          50.000    21673829.992 8  87271533.151 8      -336.275          51.000
E19  23874233.781 7 125459949.375 7      -312.684          47.000    23874235.023 8  96131660.038 8      -239.550          51.000
E33  25797200.031 8 135565174.558 8     -2743.047          50.000    25797199.977 8 103874601.545 8     -2101.842          50.000
> 2020 05 12 21 40  0.0000000  0 18        .000000000000
G01  22103616.594 8 116155286.541 8     -2873.305          51.000    22103617.992 8  90510615.420 8     -2238.942          50.000
G03  20533781.008 8 107905740.174 8      -891.516          51.000    20533782.414 8  84082416.725 8      -694.684          51.000
G04  20642319.844 8 108476130.946 8      1528.316          49.000    20642319.586 8  84526864.018 8      1190.899          48.000
G09  22719401.250 7 119391362.572 7      3236.543          47.000    22719403.602 7  93032218.065 7      2521.982          47.000
G22  22003916.898 5 115631350.275 5     -1981.078          33.000    22003903.117 5  90102312.507 5     -1543.694          32.000
G31  23386663.094 5 122897738.684 5      -838.645          34.000    23386660.500 5  95764474.053 5      -653.489          31.000
R02  22540288.641 6 120279242.023 6     -3434.875          38.000
R03  19573436.922 6 104778225.155 6     -1156.145          37.000    19573437.672 5  81494164.535 5      -899.224          33.000
R04  20661891.164 5 110643503.750 5      2163.609          32.000    20661889.719 5  86056048.414 5      1682.810          30.000
R18  19870562.680 8 106070377.776 8     -2403.258          51.000    19870564.625 8  82499202.365 8     -1869.204          49.000
C05                                                                  39727726.711 6 159967091.790 6       -26.152          36.000
C20  24509082.000 5 127625195.425 5      2356.609          34.000
C27  24540114.844 5 127786805.988 5     -3337.289          34.000
C30  22460140.992 8 116955832.036 8     -1157.113          50.000
E04  25554555.633 8 134290204.650 8      2233.066          49.000    25554559.242 8 102897677.663 8      1711.021          49.000
E12  21676377.070 8 113910126.868 8      -452.500          50.000    21676376.508 8  87281787.899 8      -346.769          51.000
E19  23876050.180 7 125469494.513 7      -322.875          46.000    23876051.195 8  96138973.843 8      -247.344          51.000
E33  25812882.766 8 135647589.533 8     -2750.379          48.000    25812883.242 8 103937750.690 8     -2107.484          50.000
> 2020 05 12 21 40 30.0000000  0 17        .000000000000
G01  22120064.539 8 116241716.887 8     -2884.996          51.000    22120065.352 8  90577963.680 8     -2248.049          51.000
G03  20538912.594 8 107932706.158 8      -902.449          51.000    20538913.727 8  84103429.185 8      -703.207          51.000
G04  20633655.469 8 108430600.172 8      1510.723          50.000    20633655.594 8  84491385.525 8      1177.186          49.000
G09  22700963.625 7 119294470.608 7      3226.602          47.000    22700966.109 7  92956717.816 7      2514.235          47.000
G17  22098675.000 6 116129321.285 6      -632.926          37.000    22098687.133 5  90490428.358 5      -493.183          34.000
R02  22559617.492 6 120382381.725 6     -3437.289          38.000    22559623.609 4  93630809.203 4     -2673.444          28.000
R03  19579968.375 6 104813188.007 6     -1170.777          39.000    19579968.562 5  81521357.826 5      -910.608          33.000
R17  23251495.539 4 124423442.890 4     -4571.973          28.000    23251498.047 5  96773803.630 5     -3555.979          30.000
R18  19884146.516 8 106142890.109 8     -2427.074          51.000    19884149.039 8  82555600.830 8     -1887.724          50.000
C05                                                                  39727935.195 6 159967931.414 6       -27.097          36.000
C20  24495528.344 6 127554640.434 6      2350.629          36.000
C27  24559370.305 6 127887074.526 6     -3343.492          36.000
C30  22466867.586 8 116990859.585 8     -1174.359          51.000
E04  25541839.977 8 134223382.183 8      2225.309          51.000    25541841.133 8 102846476.053 8      1705.095          48.000
E12  21679011.992 8 113923972.675 8      -466.848          51.000    21679011.109 8  87292397.003 8      -357.807          51.000
E19  23877934.227 7 125479395.518 7      -333.605          46.000    23877935.289 8  96146560.341 8      -255.704          51.000
E33  25828616.656 8 135730274.502 8     -2758.188          49.000    25828618.094 8 104001106.687 8     -2113.539          49.000
> 2020 05 12 21 41  0.0000000  0 19        .000000000000
G01  22136558.312 8 116328389.295 8     -2894.668          51.000    22136559.133 8  90645500.595 8     -2255.585          51.000
G03  20544086.250 8 107959893.392 8      -911.574          51.000    20544087.188 8  84124614.043 8      -710.318          51.000
G04  20625072.328 8 108385495.651 8      1494.660          49.000    20625072.758 8  84456239.149 8      1164.670          49.000
G09  22682561.602 7 119197769.490 7      3218.406          45.000    22682564.547 7  92881366.259 7      2507.846          44.000
G17  22102334.070 6 116148546.042 6      -650.465          36.000    22102339.594 5  90505408.678 5      -506.847          32.000
R02  22578939.094 6 120485482.022 6     -3437.535          37.000    22578944.016 5  93710998.384 5     -2673.635          30.000
R03  19586561.828 5 104848478.565 5     -1183.410          31.000    19586562.586 5  81548806.066 5      -920.430          32.000
R04  20637834.562 5 110514680.664 5      2136.957          30.000
R17  23277137.633 4 124560680.477 4     -4576.441          29.000    23277142.609 4  96880539.748 4     -3559.451          28.000
R18  19897843.898 8 106216012.676 8     -2449.203          50.000    19897847.914 8  82612473.921 8     -1904.936          50.000
C05                                                                  39728129.188 6 159968712.766 6       -26.318          36.000
C20  24481993.398 6 127484170.773 6      2345.785          38.000
C25  25533272.828 5 132958462.425 5      1051.141          31.000
C27  24578638.680 6 127987409.924 6     -3346.801          36.000
C30  22473673.141 8 117026298.001 8     -1189.695          51.000
E04  25529148.391 8 134156685.281 8      2219.695          51.000    25529146.773 8 102795370.662 8      1700.692          49.000
E12  21681708.328 8 113938140.818 8      -479.207          51.000    21681706.844 8  87303253.094 8      -367.191          51.000
E19  23879859.062 7 125489510.956 7      -342.352          45.000    23879860.188 8  96154311.131 8      -262.294          51.000
E33  25844375.805 8 135813087.902 8     -2764.176          51.000    25844376.969 7 104064561.077 7     -2117.936          47.000
> 2020 05 12 21 41 30.0000000  0 18        .000000000000
G01  22153117.820 8 116415409.791 8     -2899.637          50.000    22153119.422 8  90713308.758 8     -2259.457          50.000
G03  20549322.273 8 107987408.783 8      -915.883          51.000    20549323.297 8  84146054.614 8      -713.675          51.000
G04  20616590.656 8 108340925.380 8      1483.668          48.000    20616591.602 8  84421509.080 8      1156.105          48.000
G09  22664216.148 7 119101368.310 7      3215.285          44.000    22664219.281 7  92806248.414 7      2505.417          44.000
G17  22106107.133 5 116168362.806 5      -663.453          34.000    22106105.727 5  90520792.156 5      -516.967          33.000
R02  22598273.109 5 120588651.005 5     -3433.629          33.000    22598277.094 5  93791241.039 5     -2670.591          32.000
R03  19593235.539 6 104884203.927 6     -1190.984          37.000    19593235.289 4  81576541.049 4      -926.324          26.000
R17  23302810.703 5 124698044.403 5     -4574.453          30.000    23302811.891 4  96987373.655 4     -3557.914          27.000
R18  19911675.633 8 106289851.904 8     -2466.312          51.000    19911680.703 8  82669904.416 8     -1918.246          50.000
C05                                                                  39728329.156 5 159969518.164 5       -22.186          35.000
C20  24468496.719 6 127413893.046 6      2346.406          39.000
C25  25527262.188 5 132927163.005 5      1042.469          33.000
C27  24597939.383 5 128087916.524 5     -3346.547          35.000
C30  22480577.969 8 117062252.647 8     -1200.297          51.000
E04  25516500.977 8 134090221.763 8      2218.469          49.000    25516498.664 8 102744444.115 8      1699.824          50.000
E12  21684486.469 8 113952738.896 8      -486.906          51.000    21684484.281 8  87314438.625 8      -373.048          51.000
E19  23881845.195 7 125499947.739 7      -346.434          46.000    23881846.125 8  96162308.141 8      -265.347          51.000
E33  25860179.906 8 135896135.979 8     -2765.336          51.000    25860180.047 8 104128195.267 8     -2118.756          48.000
> 2020 05 12 21 42  0.0000000  0 17        .000000000000
G01  22169713.797 8 116502626.303 8     -2915.121          48.000    22169716.469 8  90781269.701 8     -2271.523          48.000
G03  20554591.859 8 108015101.260 8      -930.707          51.000    20554593.023 8  84167633.173 8      -725.226          51.000
G04  20608182.438 8 108296739.538 8      1461.770          49.000    20608183.594 8  84387078.552 8      1139.041          49.000
G09  22645900.336 7 119005118.225 7      3201.238          47.000    22645902.086 7  92731248.344 7      2494.471          47.000
G19  22187212.320 5 116594587.007 5       502.883          32.000
G31  23406704.562 5 123003062.109 5      -916.664          33.000
R03  19599962.078 5 104920208.946 5     -1209.527          35.000    19599960.852 5  81604544.418 5      -940.737          31.000
R18  19925613.383 8 106364252.500 8     -2494.152          51.000    19925618.125 8  82727771.548 8     -1939.896          48.000
C05                                                                  39728506.406 5 159970231.145 5       -25.729          35.000
C20  24455009.516 6 127343658.294 6      2335.902          39.000
C25  25521310.031 5 132896174.184 5      1022.656          30.000
C27  24617242.680 5 128188442.748 5     -3355.422          31.000
C30  22487553.539 8 117098573.219 8     -1221.480          51.000
E04  25503868.672 7 134023841.464 7      2206.480          47.000    25503867.742 8 102693581.300 8      1690.692          51.000
E12  21687317.766 8 113967616.517 8      -505.305          51.000    21687315.227 8  87325838.351 8      -387.193          51.000
E19  23883863.523 7 125510554.189 7      -361.117          46.000    23883864.414 8  96170435.159 8      -276.712          51.000
E33  25875999.625 8 135979266.904 8     -2777.133          51.000    25875999.133 8 104191892.957 8     -2127.921          50.000
> 2020 05 12 21 42 30.0000000  0 17        .000000000000
G01  22186390.141 7 116590267.655 7     -2926.195          46.000    22186394.016 7  90849561.683 7     -2280.149          47.000
G03  20559938.750 8 108043200.591 8      -941.180          51.000    20559940.234 8  84189528.744 8      -733.387          51.000
G04  20599891.438 8 108253169.005 8      1444.277          50.000    20599892.352 8  84353127.475 8      1125.411          50.000
G09  22627658.172 8 118909251.152 8      3191.395          50.000    22627657.844 8  92656546.759 8      2486.801          49.000
G19  22184405.820 5 116579849.291 5       480.172          33.000
R03  19606784.422 6 104956726.128 6     -1223.391          37.000    19606784.672 5  81632946.711 5      -951.523          31.000
R17  23354204.203 4 124973062.654 4     -4588.684          29.000    23354200.539 4  97201256.108 4     -3568.976          28.000
R18  19939700.141 8 106439445.359 8     -2517.438          51.000    19939703.742 8  82786254.885 8     -1958.007          48.000
C05                                                                  39728704.688 5 159971030.155 5       -26.448          35.000
C20  24441575.594 6 127273694.920 6      2329.488          38.000
C25  25515458.945 5 132865697.483 5      1007.883          32.000
C27  24636592.438 5 128289214.733 5     -3361.785          31.000
C30  22494642.750 8 117135486.826 8     -1238.207          51.000
E04  25491295.500 7 133957775.071 7      2199.027          46.000    25491296.977 8 102642958.971 8      1685.050          51.000
E12  21690245.938 8 113983004.100 8      -519.266          51.000    21690243.414 8  87337628.815 8      -397.819          51.000
E19  23885957.906 7 125521559.809 7      -371.371          47.000    23885958.852 8  96178868.026 8      -284.557          51.000
E33  25891878.547 8 136062709.708 8     -2784.445          51.000    25891878.211 8 104255829.618 8     -2133.521          51.000
> 2020 05 12 21 43  0.0000000  0 16        .000000000000
G01  22203120.992 8 116678192.871 8     -2935.871          48.000    22203125.539 8  90918074.862 8     -2287.692          48.000
G03  20565336.383 8 108071566.752 8      -950.156          51.000    20565338.266 8  84211632.258 8      -740.381          51.000
G04  20591690.977 8 108210074.915 8      1428.207          51.000    20591691.719 8  84319547.692 8      1112.892          50.000
G09  22609462.734 8 118813629.295 8      3183.086          51.000    22609461.383 8  92582036.277 8      2480.327          51.000
G17  22118021.383 6 116230988.468 6      -723.523          36.000    22118027.711 5  90569615.113 5      -563.784          35.000
R03  19613673.727 5 104993611.535 5     -1236.824          30.000    19613675.156 4  81661635.329 4      -961.974          29.000
R18  19953908.297 8 106515286.477 8     -2539.031          51.000    19953911.352 8  82845242.409 8     -1974.802          49.000
C05                                                                  39728897.664 5 159971806.356 5       -25.928          35.000
C20  24428167.328 6 127203864.839 6      2325.059          36.000
C25  25509688.375 6 132835651.928 6       994.441          36.000
C27  24655963.031 4 128390069.215 4     -3364.301          29.000
C30  22501818.648 8 117172854.111 8     -1253.434          51.000
E04  25478756.461 8 133891883.384 8      2193.301          48.000    25478759.516 8 102592470.536 8      1680.611          51.000
E12  21693244.508 8 113998762.322 8      -531.598          51.000    21693242.320 8  87349703.287 8      -407.361          51.000
E19  23888101.758 7 125532823.990 7      -379.945          47.000    23888102.523 8  96187499.015 8      -291.193          51.000
E33  25907789.844 8 136146323.665 8     -2790.191          51.000    25907790.109 8 104319897.426 8     -2137.927          51.000
> 2020 05 12 21 43 30.0000000  0 18        .000000000000
G01  22219915.070 8 116766447.689 8     -2947.203          48.000    22219919.562 8  90986844.873 8     -2296.519          48.000
G03  20570793.820 8 108100246.549 8      -960.918          51.000    20570795.867 8  84233980.142 8      -748.767          51.000
G04  20583590.414 8 108167505.171 8      1410.418          51.000    20583590.922 8  84286376.481 8      1099.027          49.000
G09  22591323.023 8 118718301.609 8      3172.887          51.000    22591322.086 8  92507755.025 8      2472.379          51.000
G17  22122208.148 5 116253001.544 5      -742.930          35.000    22122213.867 5  90586768.176 5      -578.909          35.000
G22  22083997.547 5 116052190.841 5     -2027.051          33.000
R02  22675638.648 5 121001571.828 5     -3443.832          32.000    22675641.609 5  94112319.422 5     -2678.542          35.000
R03  19620638.344 6 105030911.024 6     -1250.133          37.000    19620643.102 4  81690646.107 4      -972.322          29.000
R04  20578848.156 5 110198794.635 5      2070.723          34.000    20578852.898 5  85710187.737 5      1610.562          31.000
R18  19968246.062 8 106591821.089 8     -2562.543          51.000    19968249.141 8  82904769.305 8     -1993.092          49.000
C05                                                                  39729094.141 5 159972597.822 5       -26.940          35.000
C20  24414793.039 5 127134215.225 5      2318.883          34.000
C25  25504005.633 6 132806057.832 6       979.012          36.000
C30  22509090.523 8 117210720.774 8     -1270.367          51.000
E04  25466260.562 8 133826214.080 8      2185.449          48.000    25466263.766 8 102542152.514 8      1674.544          51.000
E12  21696322.555 8 114014938.574 8      -545.984          50.000    21696320.961 8  87362098.073 8      -418.409          51.000
E19  23890303.539 7 125544393.299 7      -390.531          47.000    23890304.047 8  96196363.810 8      -299.259          51.000
E33  25923742.102 8 136230154.778 8     -2797.832          49.000    25923742.938 8 104384131.643 8     -2143.811          51.000
> 2020 05 12 21 44  0.0000000  0 18        .000000000000
G01  22236763.852 8 116854987.727 8     -2955.508          49.000    22236768.055 8  91055837.125 8     -2302.993          49.000
G03  20576302.812 8 108129196.573 8      -969.023          51.000    20576304.828 8  84256538.596 8      -755.083          51.000
G04  20575581.188 8 108125417.476 8      1395.270          49.000    20575581.484 8  84253580.907 8      1087.226          49.000
G09  22573231.023 8 118623226.894 8      3165.387          51.000    22573231.328 8  92433670.880 8      2466.538          51.000
G17  22126498.680 5 116275542.688 5      -759.816          33.000    22126503.086 5  90604332.712 5      -592.059          33.000
G22  22095580.352 5 116113057.107 5     -2031.164          35.000
R02  22694991.656 6 121104854.760 6     -3442.461          37.000    22694996.867 6  94192650.565 6     -2677.470          36.000
R03  19627674.773 5 105068579.094 5     -1261.648          34.000    19627678.398 4  81719943.470 4      -981.288          28.000
R04  20567277.719 5 110136835.909 5      2059.637          34.000    20567282.602 4  85661997.613 4      1601.934          25.000
R18  19982704.820 8 106669002.539 8     -2583.047          51.000    19982708.031 8  82964799.312 8     -2009.036          50.000
C05                                                                  39729286.109 5 159973370.657 5       -25.095          35.000
C20  24401442.602 5 127064703.797 5      2314.996          34.000
C25  25498401.500 5 132776874.127 5       966.586          32.000
C30  22516450.031 8 117249043.199 8     -1284.531          51.000
E04  25453799.039 8 133760724.640 8      2180.348          50.000    25453801.273 8 102491972.343 8      1670.683          51.000
E12  21699471.828 8 114031490.090 8      -557.594          49.000    21699470.828 8  87374780.396 8      -427.208          51.000
E19  23892555.047 8 125556224.078 8      -398.281          48.000    23892555.180 8  96205428.962 8      -305.257          51.000
E33  25939726.703 7 136314158.921 7     -2802.469          45.000    25939728.383 8 104448498.462 8     -2147.478          51.000
> 2020 05 12 21 44 30.0000000  0 16        .000000000000
G01  22253683.867 8 116943901.349 8     -2967.285          49.000    22253687.938 8  91125120.495 8     -2312.170          49.000
G03  20581880.391 8 108158506.172 8      -980.344          51.000    20581882.172 8  84279377.238 8      -763.904          51.000
G04  20567680.828 8 108083902.293 8      1376.906          50.000    20567681.141 8  84221231.444 8      1072.917          49.000
G09  22555204.203 8 118528496.661 8      3154.566          51.000    22555205.984 8  92359855.158 8      2458.107          51.000
G22  22107211.164 5 116174178.917 5     -2039.125          34.000    22107209.023 5  90525314.481 5     -1588.944          32.000
R02  22714363.703 6 121208230.499 6     -3445.062          36.000    22714369.711 6  94273053.924 6     -2679.490          36.000
R03  19634796.688 5 105106705.259 5     -1275.863          30.000    19634799.219 5  81749597.094 5      -992.344          30.000
R18  19997301.086 8 106746919.595 8     -2606.781          50.000    19997304.766 8  83025401.464 8     -2027.497          49.000
C05                                                                  39729490.555 5 159974193.789 5       -26.397          35.000
C20  24388136.195 6 126995419.711 6      2308.078          37.000
C25  25492892.602 5 132748191.165 5       950.730          34.000
C30  22523914.039 8 117287909.303 8     -1301.961          51.000
E04  25441388.773 8 133695505.354 8      2172.102          49.000    25441389.406 8 102441999.161 8      1664.326          51.000
E12  21702709.469 8 114048506.881 8      -572.293          48.000    21702709.062 8  87387819.253 8      -438.507          51.000
E19  23894873.148 8 125568405.129 8      -409.227          48.000    23894873.062 8  96214762.473 8      -313.476          51.000
E33  25955759.875 6 136398424.665 6     -2810.496          41.000    25955763.672 8 104513065.773 8     -2153.542          51.000
> 2020 05 12 21 45  0.0000000  0 15        .000000000000
G01  22270652.656 8 117033071.600 8     -2977.375          50.000    22270656.805 8  91194603.790 8     -2320.032          50.000
G03  20587504.375 8 108188059.411 8      -990.070          51.000    20587505.898 8  84302405.738 8      -771.483          51.000
G04  20559867.773 8 108042844.781 8      1360.031          49.000    20559868.164 8  84189238.595 8      1059.768          49.000
G09  22537221.086 8 118433997.137 8      3145.184          51.000    22537224.062 8  92286219.197 8      2450.792          51.000
G22  22118869.008 5 116235439.413 5     -2044.473          34.000    22118864.031 5  90573051.926 5     -1593.105          31.000
R02  22733732.086 6 121311580.595 6     -3445.281          36.000    22733737.219 5  94353437.374 5     -2679.663          35.000
R18  20012012.266 8 106825452.143 8     -2629.000          48.000    20012016.711 8  83086482.339 8     -2044.778          49.000
C05                                                                  39729685.500 5 159974978.647 5       -26.221          35.000
C20  24374852.852 6 126926248.768 6      2302.848          37.000
C25  25487459.227 4 132719895.732 4       935.844          29.000
C30  22531460.570 8 117327203.471 8     -1317.840          51.000
E04  25429007.289 8 133630441.074 8      2165.395          49.000    25429006.984 8 102392144.750 8      1659.091          50.000
E12  21706013.844 8 114065873.621 8      -585.590          48.000    21706014.023 8  87401126.259 8      -448.753          51.000
E19  23897235.539 8 125580820.074 8      -418.613          48.000    23897235.625 8  96224275.227 8      -320.750          51.000
E33  25971819.930 6 136482835.309 6     -2817.090          40.000    25971826.781 8 104577744.151 8     -2158.481          51.000
> 2020 05 12 21 45 30.0000000  0 19        .000000000000
G01  22287673.117 8 117122513.061 8     -2987.691          51.000    22287676.875 8  91264298.399 8     -2328.074          51.000
G03  20593177.602 8 108217871.869 8      -999.867          51.000    20593179.133 8  84325636.221 8      -779.117          51.000
G04  20552144.680 7 108002261.492 7      1343.094          47.000    20552145.328 7  84157615.277 7      1046.567          47.000
G09  22519285.164 8 118339746.064 8      3135.914          50.000    22519288.773 8  92212776.842 8      2443.569          50.000
G17  22140007.266 5 116346505.129 5      -816.215          35.000    22140010.023 5  90659639.275 5      -636.009          30.000
G19  22170175.391 4 116505057.835 4       350.020          29.000
G22  22130556.078 5 116296853.981 5     -2051.555          35.000    22130549.828 4  90620907.525 4     -1598.611          27.000
G31  23446082.398 5 123209970.989 5     -1053.492          35.000
R02  22753097.797 6 121414919.997 6     -3445.738          36.000    22753102.680 5  94433812.438 5     -2680.016          35.000
R03  19649233.281 5 105183852.342 5     -1301.719          34.000    19649237.852 5  81809702.370 5     -1012.451          31.000
R04  20533027.055 5 109953396.883 5      2018.105          34.000    20533034.312 4  85519341.805 4      1569.635          28.000
R18  20026841.391 8 106904613.678 8     -2650.902          48.000    20026846.000 8  83148052.440 8     -2061.813          48.000
C05                                                                  39729874.008 5 159975738.624 5       -26.297          35.000
C20  24361593.852 5 126857207.169 5      2297.867          35.000
C30  22539092.180 8 117366940.462 8     -1333.641          51.000
E04  25416658.273 8 133565548.291 8      2158.504          49.000    25416657.766 8 102342421.720 8      1653.910          50.000
E12  21709387.984 7 114083606.463 7      -598.895          47.000    21709388.656 8  87414713.756 8      -458.893          51.000
E19  23899645.391 8 125593484.312 8      -428.000          49.000    23899645.695 8  96233978.997 8      -327.972          51.000
E33  25987913.273 7 136567405.791 7     -2823.422          44.000    25987920.492 8 104642544.963 8     -2163.368          51.000
> 2020 05 12 21 46  0.0000000  0 18        .000000000000
G01  22304760.836 8 117212307.553 8     -2996.164          50.000    22304763.875 8  91334268.079 8     -2334.676          50.000
G03  20598915.914 8 108248026.471 8     -1007.887          51.000    20598917.547 8  84349133.315 8      -785.366          51.000
G04  20544528.102 8 107962236.404 8      1327.797          48.000    20544528.875 8  84126426.912 8      1034.647          49.000
G09  22501412.750 8 118245828.555 8      3128.027          49.000    22501416.141 8  92139594.400 8      2437.427          49.000
G17  22144719.516 5 116371275.691 5      -832.730          34.000    22144717.812 5  90678941.024 5      -648.881          31.000
R02  22772477.766 6 121518330.943 6     -3445.066          38.000    22772481.648 6  94514243.157 6     -2679.496          36.000
R03  19656576.375 5 105223105.689 5     -1313.035          35.000    19656569.000 5  81840232.649 5     -1021.253          31.000
R04  20521758.852 5 109893058.280 5      2006.840          32.000    20521755.297 4  85472411.792 4      1560.872          24.000
R18  20041804.172 8 106984486.377 8     -2671.262          49.000    20041808.266 8  83210175.644 8     -2077.648          48.000
C05                                                                  39730071.750 5 159976534.993 5       -25.016          35.000
C20  24348375.312 5 126788377.859 5      2293.551          33.000
C25  25476847.156 5 132664630.472 5       908.008          32.000
C27  24772739.000 5 128998150.000 5     -3388.578          30.000
C30  22546824.453 8 117407201.698 8     -1347.789          51.000
E04  25404357.859 8 133500910.726 8      2153.449          49.000    25404357.406 8 102292894.255 8      1650.031          50.000
E12  21712847.883 8 114101788.930 8      -610.531          48.000    21712848.555 8  87428645.772 8      -467.789          51.000
E19  23902118.555 8 125606480.189 8      -435.656          49.000    23902118.742 8  96243936.877 8      -333.841          50.000
E33  26004053.977 7 136652218.250 7     -2828.098          46.000    26004060.086 8 104707531.159 8     -2166.873          51.000
> 2020 05 12 21 46 30.0000000  0 18        .000000000000
G01  22321893.336 8 117302338.122 8     -3003.973          50.000    22321894.922 8  91404421.737 8     -2340.758          50.000
G03  20604697.305 8 108278407.275 8     -1015.590          51.000    20604698.922 8  84372806.666 8      -791.369          51.000
G04  20536996.172 8 107922654.625 8      1312.816          48.000    20536996.781 8  84095583.952 8      1022.971          48.000
G09  22483582.391 8 118152130.790 8      3120.414          48.000    22483584.867 8  92066583.164 8      2431.495          48.000
G17  22149524.500 5 116396526.557 5      -848.980          33.000    22149520.242 5  90698617.005 5      -661.540          32.000
G31  23458329.031 5 123274330.924 5     -1089.121          35.000
R02  22791849.203 6 121621695.942 6     -3443.938          39.000    22791851.773 5  94594638.112 5     -2678.618          33.000
R03  19663966.305 6 105262674.898 6     -1323.305          38.000    19663959.516 4  81871008.787 4     -1029.240          28.000
R04  20510548.734 6 109833050.036 6      1995.629          37.000
R18  20056877.820 8 107064949.713 8     -2691.051          50.000    20056881.664 8  83272758.198 8     -2093.039          48.000
C20  24335176.648 4 126719646.343 4      2290.051          29.000
C25  25471654.789 5 132637604.805 5       895.590          35.000
C27  24792271.242 5 129099860.309 5     -3390.676          34.000
C30  22554634.914 8 117447871.594 8     -1361.641          51.000
E04  25392084.023 8 133436413.331 8      2148.320          49.000    25392083.977 8 102243474.193 8      1646.148          50.000
E12  21716371.539 7 114120305.642 7      -622.027          47.000    21716371.812 8  87442833.912 8      -476.690          51.000
E19  23904632.578 8 125619691.425 8      -443.297          49.000    23904632.664 8  96254059.767 8      -339.654          50.000
E33  26020218.477 8 136737155.930 8     -2832.633          48.000    26020223.500 8 104772613.281 8     -2170.441          51.000
> 2020 05 12 21 47  0.0000000  0 16        .000000000000
G01  22339099.000 8 117392755.020 8     -3021.859          49.000    22339099.656 8  91474876.431 8     -2354.696          49.000
G03  20610550.570 8 108309165.619 8     -1033.301          51.000    20610552.156 8  84396774.200 8      -805.169          51.000
G04  20529577.266 8 107883668.409 8      1287.996          48.000    20529577.961 8  84065205.099 8      1003.633          48.000
G09  22465823.430 8 118058806.158 8      3102.902          49.000    22465825.195 8  91993862.706 8      2417.849          49.000
R02  22811239.516 6 121725166.211 6     -3452.395          37.000    22811241.883 5  94675114.938 5     -2685.199          32.000
R03  19671448.109 6 105302713.187 6     -1343.789          38.000    19671438.250 4  81902149.595 4     -1045.166          29.000
R18  20072090.297 8 107146155.159 8     -2720.844          50.000    20072094.773 8  83335917.955 8     -2116.212          48.000
C05                                                                  39730458.672 5 159978091.935 5       -29.275          35.000
C20  24322026.578 5 126651169.306 5      2276.449          30.000
C25  25466564.836 5 132611106.715 5       872.910          32.000
C27  24811844.359 6 129201771.634 6     -3402.141          37.000
C30  22562552.164 8 117489099.288 8     -1385.078          51.000
E04  25379865.633 8 133372208.244 8      2133.586          49.000    25379866.484 8 102194278.101 8      1634.882          51.000
E12  21719987.656 7 114139308.484 7      -643.152          47.000    21719987.625 8  87457394.522 8      -492.781          51.000
E19  23907216.297 8 125633268.912 8      -460.254          50.000    23907216.430 8  96264463.306 8      -352.698          51.000
E33  26036435.086 8 136822369.368 8     -2846.699          48.000    26036439.477 8 104837906.689 8     -2181.195          51.000
> 2020 05 12 21 47 30.0000000  0 14        .000000000000
G01  22356361.984 8 117483473.326 8     -3024.941          49.000    22356362.695 8  91545566.024 8     -2357.097          49.000
G03  20616459.680 8 108340217.572 8     -1035.863          51.000    20616461.172 8  84420970.507 8      -807.166          51.000
G04  20522256.195 8 107845194.917 8      1277.945          49.000    20522256.891 8  84035225.762 8       995.802          49.000
G09  22448120.016 8 117965772.907 8      3100.215          49.000    22448121.727 8  91921369.307 8      2415.752          50.000
R02  22830632.953 5 121828656.400 5     -3445.707          35.000    22830636.188 5  94755607.353 5     -2679.994          32.000
R03  19678997.367 6 105343133.346 6     -1349.676          36.000    19678991.953 5  81933587.595 5     -1049.748          31.000
R18  20087425.586 8 107228015.002 8     -2735.484          51.000    20087430.383 8  83399586.701 8     -2127.602          48.000
C05                                                                  39730660.773 5 159978905.907 5       -23.953          35.000
C27  24831438.844 6 129303799.111 6     -3398.793          36.000
C30  22570559.977 8 117530800.950 8     -1393.984          51.000
E04  25367687.172 8 133308212.442 8      2133.781          48.000    25367688.984 8 102145242.351 8      1634.966          51.000
E12  21723680.500 8 114158714.127 8      -649.520          49.000    21723680.422 8  87472263.770 8      -497.624          51.000
E19  23909853.781 8 125647128.319 8      -462.668          50.000    23909853.914 8  96275082.849 8      -354.476          51.000
E33  26052687.586 8 136907773.896 8     -2845.922          49.000    26052691.555 8 104903346.508 8     -2180.665          51.000
> 2020 05 12 21 48  0.0000000  0 15        .000000000000
G01  22373667.188 8 117574412.533 8     -3037.742          50.000    22373667.719 8  91616427.748 8     -2367.072          50.000
G03  20622409.484 8 108371483.825 8     -1048.652          51.000    20622410.891 8  84445333.823 8      -817.132          51.000
G04  20515017.609 8 107807155.632 8      1257.758          49.000    20515018.266 8  84005584.766 8       980.071          49.000
G09  22430457.070 8 117872953.780 8      3087.602          48.000    22430459.125 8  91849042.757 8      2405.923          49.000
G22  22189553.648 5 116606890.559 5     -2083.035          30.000
R02  22850014.875 5 121932084.842 5     -3449.004          33.000    22850018.406 5  94836051.691 5     -2682.556          30.000
R03  19686602.828 6 105383852.984 6     -1365.191          37.000    19686598.625 5  81965258.453 5     -1061.816          31.000
R18  20102868.000 8 107310446.231 8     -2760.035          51.000    20102872.711 8  83463699.861 8     -2146.694          49.000
C05                                                                  39730848.398 5 159979661.157 5       -25.989          35.000
C27  24851038.602 5 129405862.402 5     -3405.594          34.000
C30  22578643.328 8 117572897.090 8     -1412.613          51.000
E04  25355534.125 8 133244347.288 8      2123.879          49.000    25355536.914 8 102096306.739 8      1627.454          51.000
E12  21727435.148 8 114178443.678 8      -665.840          50.000    21727435.133 8  87487381.212 8      -510.216          51.000
E19  23912529.531 8 125661189.888 8      -474.895          49.000    23912529.875 8  96285857.298 8      -363.826          51.000
E33  26068960.859 8 136993289.322 8     -2855.203          50.000    26068964.180 8 104968871.290 8     -2187.708          49.000
> 2020 05 12 21 48 30.0000000  0 17        .000000000000
G01  22391041.680 8 117665714.890 8     -3044.090          50.000    22391041.836 8  91687572.419 8     -2372.018          50.000
G03  20628427.242 8 108403107.489 8     -1054.707          51.000    20628428.727 8  84469975.643 8      -821.850          51.000
G04  20507888.820 8 107769694.788 8      1244.441          49.000    20507889.633 8  83976394.479 8       969.695          49.000
G09  22412862.336 8 117780494.163 8      3081.375          48.000    22412864.523 8  91776996.308 8      2401.071          48.000
G31  23484153.906 5 123410061.486 5     -1166.992          30.000
R02  22869412.602 5 122035595.826 5     -3445.980          34.000    22869415.500 4  94916560.266 4     -2680.207          29.000
R03  19694292.039 6 105425016.520 6     -1374.082          39.000    19694288.148 5  81997274.555 5     -1068.730          33.000
R18  20118444.148 8 107393591.734 8     -2777.945          51.000    20118448.844 8  83528368.574 8     -2160.624          49.000
C05                                                                  39731048.703 5 159980468.430 5       -23.630          35.000
C20  24282739.383 4 126446598.569 4      2267.871          29.000
C25  25451794.945 5 132534169.191 5       835.812          30.000
C27  24870672.141 5 129508101.610 5     -3405.484          31.000
C30  22586829.641 8 117615528.851 8     -1424.621          51.000
E04  25343433.820 8 133180756.876 8      2120.488          51.000    25343437.406 8 102047581.671 8      1624.745          51.000
E12  21731278.844 8 114198640.917 8      -675.727          50.000    21731278.703 8  87502857.009 8      -517.717          51.000
E19  23915270.789 8 125675596.332 8      -480.578          49.000    23915271.500 8  96296896.010 8      -368.259          51.000
E33  26085282.039 8 137079058.090 8     -2857.855          50.000    26085283.531 7 105034590.141 7     -2189.884          45.000
> 2020 05 12 21 49  0.0000000  0 15        .000000000000
G01  22408449.594 8 117757192.967 8     -3058.461          50.000    22408449.359 8  91758854.014 8     -2383.216          49.000
G03  20634477.492 8 108434902.355 8     -1068.922          51.000    20634479.125 8  84494750.881 8      -832.926          51.000
G04  20500835.016 8 107732626.961 8      1222.805          49.000    20500835.953 8  83947510.466 8       952.835          49.000
G09  22395301.086 8 117688209.821 8      3067.008          50.000    22395303.297 8  91705086.455 8      2389.879          50.000
R02  22888789.680 4 122138999.234 4     -3451.391          29.000    22888792.320 4  94996985.105 4     -2684.412          27.000
R03  19702027.984 6 105466432.952 6     -1391.469          40.000    19702024.953 5  82029487.389 5     -1082.250          33.000
R04  20455677.297 4 109539229.775 4      1924.164          29.000
R18  20134118.336 8 107477259.943 8     -2803.953          51.000    20134122.750 8  83593443.858 8     -2180.852          50.000
C05                                                                  39731226.320 5 159981183.753 5       -27.242          35.000
C25  25447020.680 5 132509313.905 5       816.238          30.000
C30  22595083.422 8 117658510.821 8     -1444.766          51.000
E04  25331350.578 8 133117255.733 8      2108.898          51.000    25331354.383 8 101998924.979 8      1615.936          51.000
E12  21735175.961 8 114219120.062 8      -693.637          50.000    21735175.617 8  87518548.812 8      -531.470          51.000
E19  23918042.344 8 125690161.291 8      -494.449          49.000    23918043.195 8  96308056.174 8      -378.873          50.000
E33  26101615.938 8 137164893.124 8     -2868.527          50.000    26101613.914 7 105100359.734 7     -2197.983          45.000
> 2020 05 12 21 49 30.0000000  0 14        .000000000000
G01  22425929.328 8 117849049.116 8     -3063.008          50.000    22425929.477 8  91830430.200 8     -2386.762          50.000
G03  20640599.055 8 108467071.899 8     -1073.461          51.000    20640600.820 8  84519818.056 8      -836.463          51.000
G04  20493894.961 8 107696156.509 8      1210.777          50.000    20493895.906 8  83919091.968 8       943.466          49.000
G09  22377812.586 8 117596306.238 8      3062.234          51.000    22377814.938 8  91633473.333 8      2386.160          51.000
G17  22180583.047 5 116559755.231 5      -956.656          33.000
R03  19709849.875 7 105508307.744 7     -1398.035          42.000    19709846.430 5  82062056.621 5     -1087.361          34.000
R18  20149928.391 8 107561654.698 8     -2820.031          51.000    20149932.562 8  83659084.186 8     -2193.358          49.000
C05                                                                  39731420.312 5 159981963.888 5       -23.225          34.000
C20  24256698.117 5 126310964.232 5      2257.734          35.000
C30  22603443.211 8 117702043.779 8     -1455.148          51.000
E04  25319323.117 8 133054048.154 8      2107.191          51.000    25319326.664 8 101950493.219 8      1614.592          51.000
E12  21739165.477 8 114240085.067 8      -701.754          51.000    21739164.875 8  87534612.897 8      -537.687          51.000
E19  23920882.648 8 125705087.560 8      -498.422          49.000    23920883.484 8  96319493.181 8      -381.857          50.000
E33  26118001.070 8 137250997.080 8     -2869.430          50.000    26117997.438 7 105166335.445 7     -2198.609          47.000
> 2020 05 12 21 50  0.0000000  0 15        .000000000000
G01  22443459.125 8 117941168.792 8     -3075.543          50.000    22443460.102 8  91902211.740 8     -2396.527          50.000
G03  20646770.336 8 108499502.567 8     -1085.805          51.000    20646772.219 8  84545088.703 8      -846.085          51.000
G04  20487047.273 8 107660170.832 8      1190.945          51.000    20487047.938 8  83891051.184 8       928.009          49.000
G09  22360375.508 8 117504672.039 8      3049.508          51.000    22360377.984 8  91562070.098 8      2376.240          50.000
G31  23504672.891 6 123517886.841 6     -1225.973          37.000    23504678.930 5  96247725.312 5      -955.303          35.000
R03  19717735.242 6 105550523.839 6     -1413.219          40.000    19717732.508 5  82094891.335 5     -1099.170          34.000
R18  20165852.695 8 107646658.550 8     -2844.039          51.000    20165856.266 8  83725198.277 8     -2212.033          49.000
C05                                                                  39731609.023 5 159982724.689 5       -25.333          35.000
C20  24243728.148 5 126243399.824 5      2249.352          35.000
C27  24929672.094 5 129815342.650 5     -3418.586          31.000
C30  22611887.344 8 117746014.368 8     -1473.449          51.000
E04  25307329.883 8 132991021.424 8      2097.363          51.000    25307332.719 8 101902200.030 8      1607.163          51.000
E12  21743226.148 8 114261422.892 8      -717.934          51.000    21743225.094 8  87550962.665 8      -550.168          51.000
E19  23923769.891 8 125720260.993 8      -510.320          49.000    23923770.719 8  96331119.591 8      -391.040          50.000
E33  26134415.445 8 137337255.608 8     -2878.406          50.000    26134412.398 8 105232429.625 8     -2205.442          48.000
> 2020 05 12 21 50 30.0000000  0 16        .000000000000
G01  22461047.867 8 118033597.694 8     -3085.738          49.000    22461049.680 8  91974234.259 8     -2404.471          49.000
G03  20653000.352 8 108532241.243 8     -1096.203          51.000    20653002.094 8  84570599.358 8      -854.187          51.000
G04  20480300.758 8 107624717.638 8      1173.211          50.000    20480301.227 8  83863425.339 8       914.190          50.000
G09  22342998.852 8 117413356.176 8      3038.840          49.000    22343001.297 8  91490914.925 8      2367.930          49.000
G31  23511731.203 6 123554978.105 6     -1245.684          38.000    23511737.258 6  96276627.620 6      -970.666          37.000
R03  19725692.102 6 105593127.387 6     -1426.270          39.000    19725692.391 5  82128027.428 5     -1109.321          34.000
R18  20181899.445 8 107732316.196 8     -2865.816          51.000    20181902.609 8  83791820.882 8     -2228.968          48.000
C05                                                                  39731801.320 5 159983498.424 5       -25.741          35.000
C20  24230789.172 5 126176019.817 5      2243.465          31.000
C25  25433277.359 4 132437739.328 4       773.016          29.000
C27  24949373.039 5 129917956.163 5     -3422.180          31.000
C30  22620424.500 8 117790468.167 8     -1489.562          51.000
E04  25295380.047 8 132928223.211 8      2089.871          51.000    25295381.492 8 101854081.947 8      1601.372          50.000
E12  21747366.688 8 114283180.899 8      -731.930          50.000    21747365.398 8  87567634.381 8      -560.802          51.000
E19  23926713.164 8 125735728.307 8      -520.062          49.000    23926713.984 8  96342971.175 8      -398.466          50.000
E33  26150867.852 8 137423714.764 8     -2884.922          50.000    26150866.102 8 105298677.561 8     -2210.554          49.000
> 2020 05 12 21 51  0.0000000  0 17        .000000000000
G01  22478690.875 8 118126311.028 8     -3094.801          50.000    22478692.562 8  92046478.409 8     -2411.533          50.000
G03  20659284.516 8 108565264.150 8     -1105.273          51.000    20659286.000 8  84596331.495 8      -861.252          51.000
G04  20473651.109 8 107589774.013 8      1156.707          50.000    20473651.422 8  83836196.566 8       901.330          50.000
G09  22325678.414 8 117322336.991 8      3029.438          48.000    22325680.352 8  91419990.937 8      2360.601          48.000
G17  22197484.641 5 116648571.642 5     -1013.332          33.000    22197471.242 5  90894944.219 5      -789.609          33.000
G22  22261492.398 5 116984938.555 5     -2117.406          35.000
G31  23518897.609 6 123592638.348 6     -1264.465          37.000    23518900.047 5  96305973.199 5      -985.303          33.000
R03  19733717.477 6 105636092.851 6     -1438.137          37.000    19733720.672 5  82161444.974 5     -1118.554          34.000
R04  20413108.289 5 109311276.159 5      1872.793          31.000
R18  20198063.297 8 107818601.168 8     -2886.191          51.000    20198066.500 7  83858931.427 7     -2244.816          47.000
C05                                                                  39731992.969 5 159984270.274 5       -25.445          35.000
C25  25428863.016 4 132414769.895 4       758.789          29.000
C30  22629050.180 8 117835380.762 8     -1504.414          51.000
E04  25283469.094 8 132865630.520 8      2083.309          51.000    25283469.375 8 101806121.356 8      1596.310          50.000
E12  21751582.438 8 114305335.800 8      -744.820          49.000    21751581.297 8  87584610.186 8      -570.680          51.000
E19  23929707.805 8 125751465.098 8      -528.688          49.000    23929708.703 8  96355029.242 8      -405.047          50.000
E33  26167353.789 8 137510349.982 8     -2890.332          50.000    26167352.477 8 105365060.389 8     -2214.733          48.000
> 2020 05 12 21 51 30.0000000  0 17        .000000000000
G01  22496401.094 8 118219376.790 8     -3111.027          51.000    22496401.328 8  92118997.147 8     -2424.177          51.000
G03  20665635.914 8 108598640.551 8     -1121.387          51.000    20665637.383 8  84622339.070 8      -873.808          51.000
G04  20467111.898 8 107555410.050 8      1132.852          50.000    20467112.047 8  83809419.460 8       882.741          49.000
G09  22308427.703 7 117231685.727 7      3012.633          46.000    22308428.547 7  91349353.651 7      2347.509          46.000
G22  22273619.391 6 117048656.686 6     -2131.086          36.000
G31  23526184.523 6 123630936.020 6     -1289.906          36.000    23526181.711 5  96335815.425 5     -1005.131          32.000
R03  19741823.656 5 105679489.023 5     -1456.641          35.000    19741827.789 5  82195197.556 5     -1132.943          32.000
R04  20402660.258 5 109255350.292 5      1853.457          31.000
R18  20214357.281 8 107905580.924 8     -2913.785          51.000    20214360.828 7  83926582.350 7     -2266.277          47.000
C05                                                                  39732197.359 5 159985093.619 5       -30.354          35.000
C25  25424556.273 5 132392324.471 5       736.434          33.000
C27  24988845.773 5 130123463.258 5     -3434.090          30.000
C30  22637777.117 8 117880819.853 8     -1526.336          51.000
E04  25271610.344 8 132803313.397 8      2069.656          51.000    25271610.195 8 101758371.908 8      1585.897          50.000
E12  21755887.055 8 114327957.255 8      -764.770          50.000    21755885.773 8  87601943.487 8      -586.016          51.000
E19  23932766.781 8 125767540.360 8      -544.379          48.000    23932767.766 8  96367346.650 8      -417.136          50.000
E33  26183886.391 8 137597229.677 8     -2902.922          51.000    26183884.320 7 105431630.531 7     -2224.335          47.000
> 2020 05 12 21 52  0.0000000  0 15        .000000000000
G01  22514148.469 8 118312638.120 8     -3121.723          50.000    22514146.555 8  92191668.277 8     -2432.511          50.000
G03  20672024.891 8 108632214.637 8     -1132.352          51.000    20672026.422 8  84648500.697 8      -882.352          51.000
G04  20460653.328 8 107521470.707 8      1114.387          49.000    20460653.555 8  83782973.242 8       868.353          48.000
G09  22291217.656 7 117141248.686 7      3001.055          46.000    22291218.289 7  91278883.246 7      2338.484          47.000
G22  22285760.703 6 117112468.363 6     -2138.598          36.000
R03  19749981.188 5 105723155.985 5     -1469.863          34.000    19749982.781 4  82229160.753 4     -1143.227          28.000
R18  20230751.227 8 107993094.521 8     -2936.004          50.000    20230754.680 7  83994648.505 7     -2283.559          46.000
C05                                                                  39732384.367 5 159985846.920 5       -31.326          34.000
C25  25420316.383 5 132370245.102 5       719.660          34.000
C27  25008594.461 4 130226320.530 4     -3439.535          29.000
C30  22646575.180 8 117926630.144 8     -1542.961          51.000
E04  25259774.492 8 132741116.791 8      2061.285          50.000    25259774.750 8 101710714.803 8      1579.408          51.000
E12  21760250.906 8 114350889.879 8      -779.383          49.000    21760249.500 8  87619515.238 8      -597.321          50.000
E19  23935860.328 8 125783797.884 8      -554.770          48.000    23935861.469 8  96379803.720 8      -425.095          50.000
E33  26200435.773 8 137684197.196 8     -2910.297          51.000    26200432.805 7 105498267.959 7     -2229.935          47.000
> 2020 05 12 21 52 30.0000000  0 17        .000000000000
G01  22531970.336 8 118406292.649 8     -3121.766          49.000    22531968.148 8  92264645.806 8     -2432.548          49.000
G03  20678489.258 8 108666185.216 8     -1132.422          51.000    20678490.812 8  84674971.268 8      -882.407          51.000
G04  20454313.586 8 107488155.621 8      1106.684          50.000    20454313.812 8  83757013.434 8       862.351          49.000
G09  22274086.984 8 117051226.639 8      3000.285          48.000    22274088.438 8  91208736.204 8      2337.885          48.000
G17  22215319.062 5 116742286.822 5     -1065.043          34.000    22215318.547 5  90968001.448 5      -829.891          33.000
G22  22297959.711 6 117176571.590 6     -2135.043          41.000
R03  19758226.680 5 105767294.382 5     -1472.074          34.000    19758225.344 4  82263477.619 4     -1144.947          29.000
R04  20381983.266 5 109144595.024 5      1835.191          32.000
R18  20247282.562 8 108081341.223 8     -2947.074          51.000    20247285.594 7  84063284.827 7     -2292.169          45.000
C05                                                                  39732592.391 5 159986684.328 5       -24.143          35.000
C20  24179382.227 4 125908390.047 4      2223.613          29.000
C27  25028387.648 6 130329396.414 6     -3432.684          36.000
C30  22655481.609 8 117973007.683 8     -1548.793          51.000
E04  25247999.609 8 132679240.311 8      2063.723          51.000    25248000.492 8 101663302.975 8      1581.369          51.000
E12  21764711.906 8 114374332.941 8      -783.352          49.000    21764710.680 8  87637478.082 8      -600.239          50.000
E19  23939026.258 8 125800435.801 8      -554.473          48.000    23939027.586 8  96392552.252 8      -424.799          50.000
E33  26217039.477 8 137771450.543 8     -2906.648          51.000    26217036.703 8 105565124.386 8     -2227.154          48.000
> 2020 05 12 21 53  0.0000000  0 18        .000000000000
G01  22549832.969 7 118500166.260 7     -3131.879          47.000    22549832.445 7  92337794.062 7     -2440.425          47.000
G03  20684996.102 8 108700379.208 8     -1142.570          51.000    20684997.492 8  84701615.932 8      -890.315          51.000
G04  20448060.086 8 107455292.505 8      1088.875          51.000    20448060.539 8  83731405.819 8       848.474          50.000
G09  22257003.109 8 116961448.590 8      2989.418          50.000    22257005.078 8  91138779.314 8      2329.420          50.000
G17  22221463.242 6 116774586.574 6     -1084.125          36.000    22221464.656 5  90993170.748 5      -844.782          34.000
G22  22310180.852 6 117240793.276 6     -2141.812          37.000    22310177.242 4  91356452.804 4     -1668.939          27.000
R03  19766525.531 6 105811726.717 6     -1484.648          37.000    19766527.922 5  82298036.193 5     -1154.724          32.000
R04  20371761.789 5 109089821.520 5      1821.180          33.000    20371764.469 4  84847677.838 4      1416.473          26.000
R12  22929875.359 6 122487280.664 6       835.758          38.000    22929877.641 5  95267888.676 5       650.031          33.000
R18  20263918.117 8 108170142.722 8     -2968.160          51.000    20263920.742 7  84132352.629 7     -2308.572          45.000
C05                                                                  39732788.398 5 159987473.152 5       -25.104          35.000
C20  24166598.625 5 125841814.175 5      2216.812          32.000
C27  25048188.367 6 130432499.759 6     -3436.527          37.000
C30  22664463.359 8 118019780.044 8     -1564.656          51.000
E04  25236252.750 8 132617511.714 8      2056.074          50.000    25236254.258 8 101616004.451 8      1575.445          51.000
E12  21769237.211 8 114398113.760 8      -797.453          48.000    21769236.320 8  87655699.746 8      -611.030          50.000
E19  23942231.711 8 125817280.728 8      -564.109          48.000    23942233.039 8  96405459.408 8      -432.225          50.000
E33  26233664.328 8 137858815.810 8     -2913.168          50.000    26233662.688 8 105632066.590 8     -2232.138          48.000
> 2020 05 12 21 53 30.0000000  0 19        .000000000000
G01  22567746.789 7 118594308.470 7     -3140.656          47.000    22567748.383 7  92411151.679 7     -2447.262          47.000
G03  20691555.133 8 108734847.411 8     -1151.504          51.000    20691556.367 8  84728474.278 8      -897.276          51.000
G04  20441902.531 8 107422932.844 8      1072.258          51.000    20441903.250 8  83706190.516 8       835.526          50.000
G09  22239976.023 8 116871967.372 8      2979.723          51.000    22239977.430 8  91069053.704 8      2321.865          51.000
G17  22227707.727 6 116807404.553 6     -1100.902          38.000    22227710.430 6  91018743.045 6      -857.861          36.000
G22  22322434.156 6 117305184.306 6     -2147.191          38.000    22322430.719 4  91406627.472 4     -1673.142          28.000
R03  19774890.703 6 105856503.450 6     -1496.121          40.000    19774894.109 5  82332862.575 5     -1163.647          31.000
R04  20361613.117 5 109035434.677 5      1808.305          31.000    20361615.016 4  84805400.933 4      1406.462          25.000
R12  22925261.695 6 122462630.252 6       811.633          39.000    22925263.977 5  95248716.171 5       631.270          35.000
R18  20280667.008 8 108259547.764 8     -2988.137          51.000    20280669.375 7  84201889.840 7     -2324.106          45.000
C05                                                                  39732982.227 5 159988254.077 5       -24.596          34.000
C20  24153848.273 5 125775437.377 5      2212.086          34.000
C25  25408158.789 4 132306946.225 4       683.441          29.000
C27  25068002.820 6 130535679.139 6     -3438.574          39.000
C30  22673530.211 8 118066996.576 8     -1579.207          51.000
E04  25224543.641 8 132555982.520 8      2049.594          50.000    25224546.055 8 101568858.715 8      1570.489          51.000
E12  21773836.500 7 114422283.536 7      -810.172          47.000    21773836.086 8  87674219.439 8      -620.832          51.000
E19  23945486.000 7 125834383.061 7      -572.352          47.000    23945487.500 8  96418563.791 8      -438.648          50.000
E33  26250319.711 8 137946342.901 8     -2918.344          49.000    26250319.984 8 105699132.800 8     -2236.128          49.000
> 2020 05 12 21 54  0.0000000  0 16        .000000000000
G01  22585707.336 8 118688693.985 8     -3157.148          48.000    22585710.891 8  92484698.851 8     -2460.116          48.000
G03  20698161.750 8 108769565.609 8     -1168.254          51.000    20698162.953 8  84755527.417 8      -910.325          51.000
G04  20435836.344 8 107391053.153 8      1047.773          51.000    20435837.086 8  83681349.197 8       816.447          51.000
G09  22223000.961 8 116782760.749 8      2962.074          50.000    22223001.805 8  90999542.064 8      2308.110          50.000
G17  22234045.914 6 116840713.855 6     -1125.301          37.000    22234054.375 5  91044698.320 5      -876.855          34.000
G22  22334715.398 6 117369720.542 6     -2159.574          37.000    22334711.961 4  91456915.464 4     -1682.788          28.000
R03  19783315.945 6 105901598.041 6     -1515.535          36.000    19783314.445 4  82367942.094 4     -1178.750          28.000
R12  22920774.625 6 122438652.022 6       780.375          37.000    22920780.328 5  95230083.748 5       606.958          35.000
R18  20297524.086 8 108349528.966 8     -3015.945          51.000    20297525.742 7  84271875.168 7     -2345.738          44.000
C25  25404271.297 5 132286697.383 5       661.199          33.000
C27  25087827.445 6 130638908.733 6     -3448.449          39.000
C30  22682678.008 8 118114632.284 8     -1601.629          51.000
E04  25212868.297 8 132494629.201 8      2035.203          51.000    25212871.250 8 101521847.732 8      1559.399          51.000
E12  21778505.336 8 114446818.434 8      -830.820          48.000    21778505.289 8  87693018.881 8      -636.609          51.000
E19  23948784.555 8 125851717.937 8      -588.602          48.000    23948786.312 8  96431846.366 8      -451.078          50.000
E33  26267001.055 8 138034006.733 8     -2931.242          49.000    26267003.188 8 105766303.798 8     -2246.121          49.000
> 2020 05 12 21 54 30.0000000  0 17        .000000000000
G01  22603718.266 8 118783341.164 8     -3153.367          50.000    22603722.867 8  92558449.903 8     -2457.169          50.000
G03  20704819.656 8 108804553.317 8     -1165.000          51.000    20704821.023 8  84782790.566 8      -907.792          51.000
G04  20429865.258 8 107359673.686 8      1043.480          51.000    20429865.992 8  83656897.670 8       813.102          51.000
G09  22206081.844 8 116693850.254 8      2964.660          50.000    22206082.727 8  90930261.179 8      2310.128          50.000
G22  22347028.180 6 117434421.793 6     -2153.797          37.000    22347025.297 5  91507331.964 5     -1678.289          35.000
R03  19791801.477 6 105947028.952 6     -1513.824          36.000    19791801.273 5  82403277.244 5     -1177.422          33.000
R12  22916422.844 6 122415411.955 6       768.859          38.000    22916426.219 5  95211999.449 5       598.002          34.000
R18  20314492.117 8 108440103.314 8     -3023.004          51.000    20314493.320 7  84342321.854 7     -2351.228          44.000
C05                                                                  39733353.734 5 159989750.532 5       -20.147          34.000
C20  24128435.719 5 125643117.106 5      2206.480          32.000
C25  25400466.109 5 132266893.801 5       658.773          33.000
C27  25107665.016 6 130742206.296 6     -3438.523          39.000
C30  22691909.984 8 118162705.560 8     -1603.859          51.000
E04  25201230.758 8 132433472.053 8      2041.246          51.000    25201233.719 8 101474987.070 8      1564.063          51.000
E12  21783247.875 8 114471738.323 8      -831.152          49.000    21783247.641 8  87712113.337 8      -636.833          50.000
E19  23952131.344 8 125869304.714 8      -584.441          48.000    23952132.859 8  96445321.949 8      -447.789          50.000
E33  26283711.992 8 138121826.002 8     -2923.855          48.000    26283715.469 7 105833593.887 7     -2240.393          47.000
> 2020 05 12 21 55  0.0000000  0 19        .000000000000
G01  22621789.102 8 118878302.259 8     -3171.836          50.000    22621793.602 8  92632445.556 8     -2471.560          50.000
G03  20711539.031 8 108839863.997 8     -1183.699          51.000    20711540.688 8  84810305.384 8      -922.363          51.000
G04  20423999.594 8 107328848.577 8      1017.016          51.000    20424000.109 8  83632878.111 8       792.480          51.000
G09  22189229.227 8 116605291.309 8      2944.934          49.000    22189230.617 8  90861254.208 8      2294.753          49.000
G17  22247024.289 5 116908913.466 5     -1157.238          32.000
G22  22359382.609 6 117499340.852 6     -2168.793          37.000    22359380.875 5  91557918.267 5     -1689.966          33.000
R02  23121604.750 5 123381304.613 5     -3452.719          31.000
R03  19800360.266 6 105992849.308 6     -1535.199          39.000    19800364.430 5  82438915.355 5     -1194.041          34.000
R12  22912214.141 6 122392929.429 6       734.969          38.000    22912219.055 5  95194515.205 5       571.642          33.000
R18  20331580.023 8 108531322.499 8     -3052.633          49.000    20331581.836 7  84413270.069 7     -2374.270          45.000
C05                                                                  39733545.398 5 159990522.132 5       -27.261          35.000
C20  24115776.414 5 125577228.633 5      2192.074          31.000
C25  25396759.234 5 132247588.862 5       633.793          30.000
C27  25127525.523 6 130845622.915 6     -3450.527          39.000
C30  22701235.727 8 118211268.294 8     -1628.180          50.000
E04  25189640.945 8 132372565.278 8      2024.941          51.000    25189643.695 8 101428318.258 8      1551.534          51.000
E12  21788073.883 8 114497096.994 8      -853.816          48.000    21788073.461 8  87731544.018 8      -654.208          51.000
E19  23955535.961 8 125887195.947 8      -602.699          48.000    23955537.078 8  96459030.835 8      -461.749          50.000
E33  26300462.586 7 138209853.278 7     -2938.895          46.000    26300466.195 7 105901043.355 7     -2251.856          46.000
> 2020 05 12 21 55 30.0000000  0 19        .000000000000
G01  22639907.664 8 118973514.177 8     -3178.219          50.000    22639911.477 8  92706636.643 8     -2476.534          50.000
G03  20718308.188 8 108875435.735 8     -1190.547          51.000    20718309.992 8  84838023.631 8      -927.699          51.000
G04  20418227.367 8 107298516.587 8      1002.391          51.000    20418227.812 8  83609242.817 8       781.084          51.000
G09  22172431.750 8 116517024.079 8      2936.746          48.000    22172433.633 8  90792474.525 8      2288.374          48.000
G17  22253661.859 6 116943783.213 6     -1171.641          36.000    22253670.375 6  91125063.448 6      -912.961          36.000
G31  23588277.289 5 123957212.504 5     -1434.254          31.000    23588276.391 5  96590047.182 5     -1117.613          30.000
R02  23140997.609 5 123484797.595 5     -3449.191          32.000
R03  19808981.453 6 106038994.516 6     -1544.059          39.000    19808985.867 5  82474806.058 5     -1200.938          30.000
R04  20321700.797 4 108821746.628 4      1753.777          29.000
R12  22908137.695 5 122371158.785 5       713.418          35.000    22908143.945 5  95177592.862 5       554.881          30.000
R18  20348775.992 8 108623120.653 8     -3069.887          48.000    20348778.766 7  84484668.615 7     -2387.693          46.000
C05                                                                  39733732.680 5 159991275.674 5       -24.995          35.000
C25  25393137.500 4 132228725.719 4       621.539          29.000
C27  25147396.930 6 130949095.584 6     -3450.578          36.000
C30  22710642.930 8 118260258.117 8     -1640.559          50.000
E04  25178086.852 8 132311847.772 8      2020.297          50.000    25178089.359 8 101381794.459 8      1548.100          51.000
E12  21792971.266 7 114522832.976 7      -864.520          47.000    21792970.859 8  87751263.792 8      -662.472          51.000
E19  23958986.594 8 125905329.565 8      -609.023          48.000    23958987.570 8  96472925.439 8      -466.618          50.000
E33  26317240.922 7 138298025.786 7     -2941.922          44.000    26317243.719 7 105968604.104 7     -2254.230          45.000
> 2020 05 12 21 56  0.0000000  0 20        .000000000000
G01  22658082.109 8 119069019.990 8     -3187.980          50.000    22658085.211 8  92781056.721 8     -2484.141          50.000
G03  20725135.359 8 108911312.783 8     -1200.504          51.000    20725137.117 8  84865979.780 8      -935.455          51.000
G04  20412557.422 8 107268722.683 8       984.621          51.000    20412558.094 8  83586026.785 8       767.237          51.000
G09  22155698.867 8 116429094.701 8      2925.652          48.000    22155700.648 8  90723958.118 8      2279.729          48.000
G17  22260403.617 5 116979207.045 5     -1189.387          32.000    22260409.164 5  91152666.518 5      -926.789          32.000
G31  23596519.836 5 124000531.396 5     -1452.863          33.000    23596524.414 5  96623802.227 5     -1132.098          33.000
R02  23160394.617 5 123588306.197 5     -3450.086          33.000
R03  19817671.930 5 106085507.876 5     -1555.680          33.000    19817671.734 5  82510983.073 5     -1209.973          30.000
R12  22904204.617 5 122350147.282 5       688.672          35.000    22904211.844 5  95161250.448 5       535.631          30.000
R18  20366089.023 8 108715539.910 8     -3090.508          49.000    20366092.367 8  84556550.258 8     -2403.728          48.000
C05                                                                  39733923.961 5 159992045.381 5       -25.654          34.000
C20  24090567.102 5 125445886.987 5      2182.508          34.000
C23  25733452.430 6 134000836.185 6      2590.898          36.000
C25  25389608.961 4 132210346.539 4       605.637          28.000
C27  25167287.383 5 131052666.417 5     -3453.703          35.000
C30  22720141.094 8 118309717.824 8     -1656.027          50.000
E04  25166577.180 8 132251364.479 8      2012.617          50.000    25166578.945 8 101335450.136 8      1542.150          51.000
E12  21797948.820 8 114548990.808 8      -878.574          48.000    21797948.531 8  87771306.786 8      -673.106          51.000
E19  23962491.852 8 125923749.286 8      -618.340          48.000    23962492.875 8  96487039.259 8      -473.778          50.000
E33  26334055.812 7 138386386.898 7     -2948.082          45.000    26334057.117 7 106036309.358 7     -2258.872          46.000
> 2020 05 12 21 56 30.0000000  0 18        .000000000000
G01  22676309.477 8 119164803.496 8     -3199.492          50.000    22676311.859 8  92855693.187 8     -2493.114          50.000
G03  20732017.789 8 108947480.146 8     -1212.512          51.000    20732019.523 8  84894162.144 8      -944.814          51.000
G04  20406987.062 8 107239452.405 8       964.754          50.000    20406988.039 8  83563218.788 8       751.756          50.000
G09  22139028.523 8 116341490.147 8      2912.605          50.000    22139029.523 8  90655694.852 8      2269.563          50.000
G22  22396663.719 6 117695254.604 6     -2186.984          36.000
R02  23179791.055 5 123691814.151 5     -3452.621          33.000
R03  19826426.328 6 106132372.937 6     -1570.211          38.000    19826427.453 5  82547433.729 5     -1221.275          32.000
R12  22900408.586 5 122329878.307 5       661.227          32.000    22900419.141 5  95145485.692 5       514.287          33.000
R18  20383515.273 8 108808562.041 8     -3112.930          49.000    20383518.906 8  84628900.818 8     -2421.168          49.000
C05                                                                  39734116.656 5 159992822.164 5       -28.094          34.000
C20  24078012.766 5 125380506.680 5      2174.301          35.000
C23  25718543.828 5 133923193.248 5      2583.152          32.000
C27  25187194.906 5 131156318.735 5     -3457.957          31.000
C30  22729727.031 8 118359631.525 8     -1673.434          51.000
E04  25155109.688 8 132191101.134 8      2002.910          51.000    25155110.062 8 101289274.351 8      1534.641          51.000
E12  21803004.047 8 114575555.775 8      -894.535          50.000    21803003.742 8  87791661.761 8      -685.396          51.000
E19  23966048.438 7 125942439.635 7      -629.648          47.000    23966049.695 8  96501360.450 8      -482.470          50.000
E33  26350904.484 7 138474920.751 7     -2956.188          47.000    26350904.852 7 106104146.982 7     -2265.065          47.000
> 2020 05 12 21 57  0.0000000  0 18        .000000000000
G01  22694591.805 8 119260876.149 8     -3204.348          49.000    22694593.734 8  92930554.965 8     -2496.894          50.000
G03  20738957.898 8 108983950.472 8     -1218.078          51.000    20738959.609 8  84922580.581 8      -949.152          51.000
G04  20401519.148 8 107210719.062 8       951.430          51.000    20401519.977 8  83540829.164 8       741.374          51.000
G09  22122423.148 8 116254225.023 8      2905.871          50.000    22122423.297 8  90587696.078 8      2264.315          50.000
G22  22409138.812 6 117760857.258 6     -2189.738          36.000
G31  23613333.391 5 124088882.039 5     -1489.355          32.000
R02  23199190.242 5 123795333.772 5     -3448.223          34.000
R03  19835249.195 6 106179601.071 6     -1577.551          37.000    19835251.680 5  82584166.716 5     -1226.987          31.000
R12  22896757.648 6 122310366.901 6       640.566          37.000    22896766.195 5  95130310.203 5       498.224          34.000
R18  20401056.047 8 108902197.051 8     -3128.570          49.000    20401060.477 8  84701728.089 8     -2433.329          49.000
C05                                                                  39734313.367 5 159993613.947 5       -24.793          34.000
C23  25703671.141 5 133845740.803 5      2581.090          31.000
C27  25207120.164 5 131260063.408 5     -3456.895          31.000
C30  22739402.188 8 118410010.683 8     -1684.281          51.000
E04  25143686.453 8 132131071.062 8      1999.805          50.000    25143685.945 8 101243277.322 8      1532.267          51.000
E12  21808139.320 8 114602540.851 8      -903.805          51.000    21808138.836 8  87812338.644 8      -692.565          51.000
E19  23969658.742 7 125961412.764 7      -634.426          47.000    23969660.055 8  96515898.303 8      -486.127          50.000
E33  26367788.633 8 138563639.111 8     -2957.695          50.000    26367788.414 8 106172125.988 8     -2266.247          48.000
> 2020 05 12 21 57 30.0000000  0 20        .000000000000
G01  22712904.453 7 119357111.303 7     -3215.070          47.000    22712906.547 7  93005543.389 7     -2505.250          47.000
G03  20745931.758 8 109020598.338 8     -1229.066          51.000    20745933.477 8  84951137.354 8      -957.714          51.000
G04  20396129.891 8 107182397.803 8       932.703          51.000    20396130.633 8  83518760.672 8       726.785          51.000
G09  22105858.750 8 116167175.889 8      2893.504          51.000    22105858.742 8  90519865.628 8      2254.681          51.000
G22  22421647.148 6 117826590.134 6     -2197.117          37.000
G31  23621880.328 6 124133795.624 6     -1509.199          37.000    23621880.672 6  96727646.798 6     -1175.996          36.000
R02  23218568.234 5 123898737.159 5     -3449.426          34.000
R03  19844115.609 6 106227062.890 6     -1590.684          38.000    19844118.633 5  82621081.456 5     -1237.198          32.000
R04  20282986.281 5 108614476.001 5      1700.242          34.000    20282990.945 4  84477931.998 4      1322.417          25.000
R12  22893224.375 5 122291487.337 5       614.016          32.000    22893231.734 5  95115626.187 5       477.568          35.000
R18  20418687.234 8 108996314.617 8     -3149.828          49.000    20418692.391 8  84774930.640 8     -2449.866          49.000
C05                                                                  39734490.102 5 159994325.036 5       -25.841          34.000
C23  25688812.336 4 133768357.461 4      2574.848          29.000
C25  25379552.281 4 132157955.778 4       558.375          29.000
C27  25227038.180 5 131363774.333 5     -3460.895          33.000
C30  22749142.117 8 118460729.894 8     -1700.715          49.000
E04  25132283.367 8 132071149.607 8      1991.055          49.000    25132283.070 8 101197363.494 8      1525.685          51.000
E12  21813330.594 8 114629820.936 8      -918.785          50.000    21813330.031 8  87833241.548 8      -703.956          51.000
E19  23973298.930 7 125980542.753 7      -644.828          47.000    23973300.211 8  96530556.337 8      -493.984          50.000
E33  26384683.562 8 138652415.686 8     -2964.605          50.000    26384683.289 8 106240149.600 8     -2271.557          49.000
> 2020 05 12 21 58  0.0000000  0 19        .000000000000
G01  22731288.008 7 119453723.652 7     -3222.477          44.000    22731290.570 7  93080825.705 7     -2511.024          44.000
G03  20752980.469 8 109057639.666 8     -1237.051          51.000    20752982.281 8  84980000.711 8      -963.939          51.000
G04  20390860.281 8 107154705.156 8       916.895          51.000    20390861.258 8  83497182.019 8       714.463          51.000
G09  22089376.758 8 116080560.568 8      2884.352          51.000    22089376.617 8  90452373.217 8      2247.547          51.000
G22  22434210.609 6 117892611.733 6     -2200.934          39.000
G31  23630554.703 6 124179376.057 6     -1526.348          38.000    23630554.258 6  96763164.030 6     -1189.362          39.000
R02  23237965.492 5 124002241.856 5     -3447.664          34.000
R03  19853067.164 6 106274976.888 6     -1600.230          36.000    19853070.164 5  82658347.921 5     -1244.627          31.000
R04  20273510.391 5 108563696.957 5      1689.336          32.000
R18  20436449.805 8 109091131.295 8     -3167.730          50.000    20436454.961 8  84848676.927 8     -2463.790          49.000
C05                                                                  39734687.945 5 159995122.180 5       -24.920          34.000
C20  24040529.422 5 125185346.176 5      2161.797          32.000
C23  25674000.492 5 133691294.007 5      2569.582          30.000
C27  25246988.984 5 131467663.734 5     -3461.566          34.000
C30  22758988.031 8 118512002.014 8     -1714.008          48.000
E04  25120941.859 8 132011553.368 8      1985.379          50.000    25120942.570 8 101151698.855 8      1521.273          51.000
E12  21818619.117 8 114657612.227 8      -930.590          51.000    21818618.641 8  87854536.160 8      -713.097          51.000
E19  23977010.031 7 126000045.216 7      -651.957          47.000    23977011.406 8  96545499.801 8      -499.590          49.000
E33  26401629.852 8 138741465.508 8     -2968.648          51.000    26401629.961 8 106308382.573 8     -2274.640          50.000
> 2020 05 12 21 58 30.0000000  0 20        .000000000000
G01  22749709.594 7 119550534.084 7     -3231.152          44.000    22749711.797 7  93156262.360 7     -2517.781          44.000
G03  20760070.180 8 109094896.567 8     -1246.512          51.000    20760071.992 8  85009032.050 8      -971.311          51.000
G04  20385676.484 8 107127463.794 8       899.484          50.000    20385677.445 8  83475954.983 8       700.897          50.000
G09  22072943.562 8 115994203.177 8      2873.438          49.000    22072943.297 8  90385081.772 8      2239.042          49.000
G19  22160498.500 5 116454220.178 5      -218.277          33.000
G22  22446794.938 6 117958744.569 6     -2207.457          38.000
G31  23639321.555 6 124225443.784 6     -1544.590          39.000    23639320.656 6  96799060.960 6     -1203.577          40.000
R02  23257347.594 5 124105667.473 5     -3447.238          32.000
R03  19862068.219 5 106323160.492 5     -1611.547          32.000    19862071.172 4  82695824.068 4     -1253.425          29.000
R12  22886601.766 5 122256085.843 5       566.281          31.000    22886606.859 5  95088107.016 5       440.435          33.000
R18  20454309.312 8 109186463.430 8     -3187.148          51.000    20454313.898 8  84922824.127 8     -2478.893          49.000
C05                                                                  39734873.445 5 159995869.015 5       -25.022          34.000
C20  24028099.609 5 125120600.062 5      2155.168          33.000
C23  25659216.523 4 133614309.451 4      2563.688          29.000
C27  25266938.891 5 131571553.592 5     -3463.711          32.000
C30  22768906.117 8 118563649.646 8     -1728.750          49.000
E04  25109628.852 8 131952105.200 8      1978.133          50.000    25109630.570 8 101106147.683 8      1515.706          51.000
E12  21823971.242 8 114685737.110 8      -944.012          51.000    21823970.930 8  87876086.381 8      -723.373          51.000
E19  23980758.031 8 126019741.587 8      -660.781          48.000    23980759.555 8  96560591.819 8      -506.328          50.000
E33  26418593.641 8 138830609.754 8     -2974.090          51.000    26418594.406 8 106376687.898 8     -2278.836          49.000
> 2020 05 12 21 59  0.0000000  0 19        .000000000000
G01  22768185.477 7 119647628.552 7     -3240.332          43.000    22768188.164 7  93231920.335 7     -2524.934          42.000
G03  20767217.461 8 109132456.161 8     -1256.105          51.000    20767219.062 8  85038299.262 8      -978.783          51.000
G04  20380595.078 8 107100761.391 8       882.023          50.000    20380596.141 8  83455147.924 8       687.291          50.000
G09  22056575.430 7 115908192.818 7      2862.230          46.000    22056576.594 7  90318060.715 7      2230.306          46.000
G17  22302903.617 5 117202550.202 5     -1291.738          33.000    22302900.203 5  91326645.394 5     -1006.558          31.000
G22  22459417.656 6 118025075.374 6     -2213.617          41.000
G31  23648196.992 6 124272084.833 6     -1563.355          40.000    23648195.906 6  96835404.685 6     -1218.196          40.000
R02  23276730.773 5 124209100.975 5     -3446.820          32.000
R03  19871135.984 6 106371701.024 6     -1623.383          37.000    19871139.227 4  82733577.809 4     -1262.631          28.000
R18  20472281.359 8 109282396.306 8     -3206.816          51.000    20472285.414 8  84997438.558 8     -2494.191          49.000
C05                                                                  39735062.961 5 159996632.099 5       -25.518          35.000
C20  24015703.703 5 125056044.061 5      2150.047          33.000
C25  25370299.758 5 132109795.753 5       512.105          33.000
C27  25286904.414 5 131675528.618 5     -3466.656          32.000
C30  22778912.805 8 118615757.991 8     -1743.750          49.000
E04  25098361.023 8 131892892.920 8      1970.602          51.000    25098363.594 8 101060777.258 8      1510.007          51.000
E12  21829403.195 8 114714282.958 8      -957.660          51.000    21829403.367 8  87897959.160 8      -733.812          51.000
E19  23984559.562 8 126039718.699 8      -669.773          48.000    23984561.180 8  96575898.963 8      -513.149          50.000
E33  26435591.453 8 138919934.637 8     -2979.621          49.000    26435592.562 8 106445131.635 8     -2283.086          48.000
> 2020 05 12 21 59 30.0000000  0 19        .000000000000
G01  22786736.234 7 119745113.912 7     -3250.516          44.000    22786740.055 7  93307882.987 7     -2532.866          43.000
G03  20774442.977 8 109170426.712 8     -1266.992          51.000    20774444.281 8  85067886.684 8      -987.267          51.000
G04  20375636.984 8 107074706.717 8       863.254          49.000    20375638.398 8  83434845.597 8       672.668          49.000
G09  22040294.094 7 115822639.558 7      2849.742          47.000    22040296.977 7  90251395.805 7      2220.578          47.000
G17  22310354.695 5 117241696.113 5     -1310.039          35.000    22310347.102 5  91357148.715 5     -1020.819          34.000
G19  22163246.164 4 116468644.375 4      -261.637          29.000
G22  22472098.398 6 118091712.485 6     -2220.641          40.000
G31  23657202.070 6 124319406.410 6     -1582.828          38.000    23657200.492 6  96872278.679 6     -1233.373          38.000
R02  23296136.102 4 124312651.754 4     -3446.637          29.000
R03  19880291.664 6 106420707.029 6     -1635.270          36.000    19880293.914 4  82771693.509 4     -1271.882          26.000
R18  20490385.672 8 109379037.214 8     -3227.383          51.000    20490389.750 8  85072603.694 8     -2510.190          49.000
C23  25629795.227 5 133461076.201 5      2548.422          30.000
C25  25367421.797 5 132094808.232 5       494.566          34.000
C27  25306908.062 5 131779694.103 5     -3470.121          31.000
C30  22789028.516 8 118668433.132 8     -1759.730          50.000
E04  25087158.883 8 131834025.397 8      1962.191          51.000    25087161.953 8 101015671.000 8      1503.491          51.000
E12  21834935.742 8 114743358.228 8      -972.309          51.000    21834936.492 8  87920237.594 8      -745.025          51.000
E19  23988434.953 8 126060083.994 8      -679.656          48.000    23988436.633 8  96591503.553 8      -520.800          50.000
E33  26452643.719 8 139009547.509 8     -2986.195          48.000    26452645.242 7 106513796.044 7     -2288.264          47.000
