     3.02           OBSERVATION DATA    M (MIXED)           RINEX VERSION / TYPE
SAVERINEX           SC600               20200507 175516 LCL PGM / RUN BY / DATE
       G = GPS       R = GLONASS       C = COMPASS          COMMENT
       S = SBAS      J = QZSS          E = GALILEO          COMMENT
BEAN                                                        MARKER NAME
1                                                           MARKER NUMBER
GEODETIC                                                    MARKER TYPE
Unige DICCA         GTER                                    OBSERVER / AGENCY
SC60291900056       SC600               2.12(191226)        REC # / TYPE / VERS
                    HEMA45          NONE                    ANT # / TYPE
  4509407.8091   693652.4678  4442337.6214                  APPROX POSITION XYZ
        0.0000        0.0000        0.0000                  ANTENNA: DELTA H/E/N
G    8 C1C L1C D1C S1C C2Y L2Y D2Y S2Y                      SYS / # / OBS TYPES
R    8 C1C L1C D1C S1C C2P L2P D2P S2P                      SYS / # / OBS TYPES
C    8 C1I L1I D1I S1I C7I L7I D7I S7I                      SYS / # / OBS TYPES
E    8 C1C L1C D1C S1C C7Q L7Q D7Q S7Q                      SYS / # / OBS TYPES
DBHZ                                                        COMMENT
     30.000                                                 INTERVAL
  2020    05    07    15    00    0.0000000     GPS         TIME OF FIRST OBS
  2020    05    07    15    55    0.0000000     GPS         TIME OF LAST OBS
     0                                                      RCV CLOCK OFFS APPL
G L1C  0.00000                                              SYS / PHASE SHIFT
G L2Y  0.00000                                              SYS / PHASE SHIFT
R L1C  0.00000                                              SYS / PHASE SHIFT
R L2P  0.25000                                              SYS / PHASE SHIFT
C L1I  0.00000                                              SYS / PHASE SHIFT
C L7I  0.00000                                              SYS / PHASE SHIFT
E L1C  0.50000                                              SYS / PHASE SHIFT
E L7Q -0.25000                                              SYS / PHASE SHIFT
 13 R01  1 R02 -4 R03  5 R08  6 R10 -5 R12 -1 R13 -2 R14 -7 GLONASS SLOT / FRQ #
    R15  0 R16 -1 R17  4 R18 -3 R23  3                      GLONASS SLOT / FRQ #
 C1C   71.950 C2C   71.950 C2P   71.950                     GLONASS COD/PHS/BIS
    18                                                      LEAP SECONDS
*** Above antenna height is from mark to ANTENNA BOTTOM.    COMMENT
    17     4        0.0000        ANT MEASURE TYPE/HEIGT    COMMENT
    0.0000    0.0000    0.0458    0.0405    0.0000          COMMENT
                    BASE STATION                            COMMENT
                                                            END OF HEADER
> 2020 05 07 15 00  0.0000000  0 13        .000000000000
G10  23163127.508 8 121723067.232 8      3232.961          51.000    23163131.969 8  94849151.673 8      2519.190          51.000
G16  20531885.711 6 107895791.312 6       691.973          37.000    20531884.070 5  84074647.799 5       539.199          35.000
G18  21475761.398 7 112855901.263 7     -2350.941          45.000    21475760.961 7  87939681.352 7     -1831.902          42.000
G20  21368933.344 8 112294505.962 8      1613.270          51.000    21368933.055 7  87502227.744 7      1257.093          47.000
G21  21839481.094 8 114767310.939 8     -2083.914          50.000    21839479.586 7  89429084.510 7     -1623.829          44.000
G26  20681028.781 8 108679521.041 8     -1575.066          51.000    20681031.570 8  84685349.746 8     -1227.328          51.000
R15  21783670.117 6 116405288.002 6     -4132.172          37.000    21783673.312 6  90537452.630 6     -3213.914          40.000
C12  22966017.883 4 119590088.682 4      1759.875          28.000
C22  25216828.227 8 131310663.801 8      2889.434          48.000
C24  23477858.914 7 122255366.311 7     -1282.918          42.000
E11  23115920.992 8 121475024.113 8     -1361.418          51.000    23115920.039 8  93078264.925 8     -1043.131          51.000
E25  24574039.625 8 129137434.168 8     -2159.859          51.000    24574043.703 8  98949468.018 8     -1654.951          51.000
E36  23675433.484 8 124415249.879 8      1048.852          51.000    23675435.117 8  95331187.634 8       803.654          48.000
> 2020 05 07 15 00 30.0000000  0 13        .000000000000
G10  23144705.273 8 121626256.885 8      3224.949          51.000    23144709.953 8  94773715.055 8      2512.950          51.000
G16  20527998.039 6 107875361.030 6       673.965          36.000    20527996.500 5  84058728.125 5       525.164          35.000
G18  21489225.047 7 112926654.308 7     -2361.926          45.000    21489225.211 7  87994813.604 7     -1840.465          42.000
G20  21359785.094 8 112246432.171 8      1595.594          51.000    21359785.125 7  87464767.667 7      1243.320          47.000
G21  21851410.797 8 114830002.003 8     -2091.480          51.000    21851409.148 7  89477934.666 7     -1629.725          43.000
G26  20690081.344 8 108727092.865 8     -1592.445          51.000    20690084.141 8  84722418.658 8     -1240.866          51.000
R15  21806909.344 6 116529482.158 6     -4143.418          38.000    21806915.258 6  90634048.047 6     -3222.658          38.000
C12  22955898.797 5 119537408.967 5      1754.641          30.000    22955912.062 5  92433899.763 5      1356.452          30.000
C22  25200209.820 7 131224126.391 7      2883.574          47.000
C24  23485306.109 6 122294153.793 6     -1298.629          39.000
E11  23123721.773 8 121516016.753 8     -1367.555          51.000    23123720.555 8  93109674.856 8     -1047.849          51.000
E25  24586413.367 8 129202457.316 8     -2171.070          51.000    24586418.266 8  98999290.926 8     -1663.526          51.000
E36  23669481.000 8 124383968.279 8      1040.539          50.000    23669482.148 8  95307218.652 8       797.254          49.000
> 2020 05 07 15 01  0.0000000  0 13        .000000000000
G10  23126315.266 8 121529616.967 8      3214.703          51.000    23126319.758 8  94698411.259 8      2504.963          51.000
G16  20524203.961 6 107855426.250 6       652.168          36.000    20524203.945 5  84043194.464 5       508.180          35.000
G18  21502737.383 7 112997662.965 7     -2374.895          46.000    21502737.641 6  88050145.018 6     -1850.567          39.000
G20  21350725.328 8 112198822.482 8      1575.566          51.000    21350725.531 8  87427669.215 8      1227.714          48.000
G21  21863371.000 8 114892852.920 8     -2101.391          51.000    21863369.398 7  89526909.386 7     -1637.447          43.000
G26  20699220.523 8 108775118.811 8     -1612.164          51.000    20699223.297 8  84759841.457 8     -1256.232          51.000
R15  21830200.445 6 116653944.463 6     -4156.598          37.000    21830207.438 6  90730852.029 6     -3232.912          38.000
C12                                                                  22945820.289 4  92393308.404 4      1350.879          29.000
C22  25183612.312 7 131137698.897 7      2875.438          46.000
C24  23492831.750 6 122333353.403 6     -1317.426          36.000
E11  23131545.570 8 121557130.321 8     -1375.957          51.000    23131543.984 8  93141177.452 8     -1054.350          51.000
E25  24598838.586 8 129267750.606 8     -2184.672          51.000    24598843.359 8  99049320.816 8     -1673.993          51.000
E36  23663563.141 8 124352869.831 8      1029.977          49.000    23663564.555 8  95283389.998 8       789.215          49.000
> 2020 05 07 15 01 30.0000000  0 13        .000000000000
G10  23107973.094 8 121433228.070 8      3210.109          51.000    23107976.852 8  94623303.060 8      2501.387          51.000
G16  20520519.344 6 107836065.950 6       637.289          37.000    20520519.125 5  84028108.436 5       496.583          34.000
G18  21516312.914 7 113069002.899 7     -2382.133          45.000    21516312.992 6  88105734.544 6     -1856.210          39.000
G20  21341768.859 8 112151756.303 8      1561.199          51.000    21341769.234 7  87390994.281 7      1216.519          47.000
G21  21875376.102 8 114955939.960 8     -2105.566          50.000    21875374.602 7  89576068.110 7     -1640.701          44.000
G26  20708460.578 8 108823675.547 8     -1626.055          51.000    20708463.516 8  84797677.841 8     -1267.059          51.000
R15  21853555.320 5 116778749.883 5     -4164.750          32.000    21853563.789 6  90827922.865 6     -3239.253          36.000
R18  19657827.625 4 104934817.380 4       257.070          29.000
C22  25167049.914 7 131051460.887 7      2872.742          46.000
C24  23500452.758 6 122373040.681 6     -1329.867          39.000
E11  23139406.875 8 121598441.554 8     -1379.141          51.000    23139405.180 8  93172831.504 8     -1056.690          51.000
E25  24611329.719 8 129333390.533 8     -2192.332          51.000    24611333.906 8  99099616.305 8     -1679.824          51.000
E36  23657694.680 8 124322031.985 8      1024.980          49.000    23657696.812 8  95259761.011 8       785.378          50.000
> 2020 05 07 15 02  0.0000000  0 13        .000000000000
G10  23089664.930 8 121337017.434 8      3204.945          51.000    23089668.312 8  94548333.795 8      2497.363          51.000
G16  20516930.289 5 107817205.718 5       621.656          35.000    20516929.391 5  84013412.225 5       484.401          34.000
G18  21529936.703 7 113140596.240 7     -2389.707          44.000    21529936.789 6  88161521.556 6     -1862.109          38.000
G20  21332901.508 8 112105159.631 8      1546.348          50.000    21332902.047 7  87354685.184 7      1204.946          46.000
G21  21887411.234 8 115019185.007 8     -2109.992          50.000    21887409.773 7  89625349.955 7     -1644.150          44.000
G26  20717787.180 8 108872686.409 8     -1640.160          51.000    20717790.164 8  84835868.103 8     -1278.047          51.000
C19  24238836.133 5 126217980.850 5       679.441          30.000
C22  25150510.477 7 130965340.041 7      2869.672          47.000
C24  23508154.344 7 122413139.475 7     -1342.676          43.000
C26  24755713.375 5 128909494.565 5     -3224.711          31.000
E11  23147291.172 8 121639873.880 8     -1382.223          51.000    23147289.602 8  93204578.351 8     -1059.058          51.000
E25  24623871.703 8 129399300.304 8     -2200.629          50.000    24623875.750 8  99150118.573 8     -1686.157          51.000
E36  23651861.414 8 124291378.873 8      1019.547          49.000    23651864.070 8  95236273.547 8       781.325          50.000
> 2020 05 07 15 02 30.0000000  0 15        .000000000000
G10  23071404.391 8 121241057.084 8      3194.535          51.000    23071408.016 8  94473559.546 8      2489.248          51.000
G16  20513449.945 6 107798915.831 6       599.812          37.000    20513448.406 5  83999160.334 5       467.383          35.000
G18  21543621.539 7 113212510.297 7     -2402.516          45.000    21543622.039 6  88217558.460 6     -1872.093          38.000
G20  21324137.227 8 112059103.428 8      1526.195          51.000    21324137.562 7  87318797.240 7      1189.243          46.000
G21  21899489.594 8 115082657.103 8     -2119.465          51.000    21899488.125 7  89674808.730 7     -1651.531          44.000
G26  20727213.141 8 108922219.450 8     -1659.816          51.000    20727215.789 8  84874465.266 8     -1293.363          51.000
R15  21900443.398 5 117029331.751 5     -4185.590          31.000    21900429.852 5  91022775.871 5     -3255.465          30.000
R18  19655083.305 4 104920134.383 4       232.910          29.000
C19  24234981.078 5 126197912.045 5       660.000          30.000
C22  25134008.445 8 130879407.453 8      2861.250          49.000
C24  23515948.594 7 122453716.815 7     -1360.438          44.000
C26  24774317.812 5 129006367.858 5     -3231.164          34.000
E11  23155211.430 8 121681495.519 8     -1390.367          51.000    23155210.000 8  93236470.254 8     -1065.319          51.000
E25  24636477.508 8 129465547.790 8     -2213.715          50.000    24636482.094 8  99200879.611 8     -1696.238          51.000
E36  23646076.383 8 124260979.322 8      1009.043          49.000    23646079.477 8  95212980.387 8       773.214          50.000
> 2020 05 07 15 03  0.0000000  0 15        .000000000000
G10  23053189.984 8 121145339.853 8      3186.480          50.000    23053194.188 8  94398974.731 8      2482.975          50.000
G16  20510076.453 6 107781187.404 6       581.527          39.000    20510074.688 6  83985346.013 6       453.141          38.000
G18  21557364.969 7 113284732.733 7     -2412.492          45.000    21557365.859 6  88273835.673 6     -1879.864          37.000
G20  21315474.484 8 112013579.361 8      1508.676          51.000    21315474.562 7  87283323.977 7      1175.595          46.000
G21  21911608.477 8 115146342.478 8     -2126.367          51.000    21911607.164 7  89724433.685 7     -1656.909          44.000
G26  20736736.062 8 108972263.571 8     -1676.512          49.000    20736738.344 8  84913460.651 8     -1306.373          49.000
R15  21923961.469 6 117155040.835 6     -4195.555          38.000    21923953.695 5  91120524.344 5     -3263.215          30.000
R17  20956871.078 5 112144467.018 5     -2510.281          32.000    20956863.078 4  87223429.315 4     -1952.444          29.000
C19  24231225.289 4 126178337.946 4       644.672          29.000
C22  25117541.625 8 130793655.753 8      2855.406          50.000
C24  23523831.812 6 122494761.394 6     -1375.879          41.000
C26  24792944.422 6 129103352.953 6     -3234.465          37.000
E11  23163165.539 8 121723295.544 8     -1396.215          51.000    23163164.242 8  93268498.837 8     -1069.788          51.000
E25  24649145.664 8 129532121.782 8     -2224.469          51.000    24649150.805 8  99251890.822 8     -1704.481          51.000
E36  23640337.508 8 124230822.998 8      1001.332          49.000    23640341.148 8  95189873.611 8       767.263          49.000
> 2020 05 07 15 03 30.0000000  0 14        .000000000000
G10  23035020.352 8 121049858.209 8      3179.285          50.000    23035024.797 8  94324573.492 8      2477.365          50.000
G16  20506808.023 6 107764011.111 6       563.887          39.000    20506805.812 6  83971961.914 6       439.392          37.000
G18  21571164.727 7 113357251.104 7     -2421.520          45.000    21571165.422 6  88330343.494 6     -1886.898          37.000
G20  21306911.375 8 111968578.860 8      1491.852          51.000    21306911.008 7  87248258.706 7      1162.482          46.000
G21  21923766.016 8 115210230.597 8     -2132.344          51.000    21923764.711 7  89774216.631 7     -1661.567          44.000
G26  20746354.000 8 109022807.287 8     -1692.637          50.000    20746356.133 8  84952845.295 8     -1318.941          50.000
R15  21947537.680 7 117281048.749 7     -4204.820          42.000    21947537.156 5  91218530.347 5     -3270.419          32.000
R17  20970963.211 5 112219856.108 5     -2514.688          33.000    20970950.156 4  87282065.267 4     -1955.865          26.000
C22  25101107.820 8 130708077.215 8      2850.289          50.000
C24  23531801.492 6 122536261.373 6     -1390.324          40.000
C26  24811589.453 6 129200437.227 6     -3237.164          38.000
E11  23171151.430 8 121765262.562 8     -1401.137          51.000    23171150.266 8  93300655.380 8     -1073.595          51.000
E25  24661874.164 8 129599010.639 8     -2234.180          51.000    24661879.539 8  99303143.288 8     -1711.949          51.000
E36  23634642.797 8 124200899.263 8       994.195          49.000    23634646.875 8  95166945.049 8       761.795          49.000
> 2020 05 07 15 04  0.0000000  0 16        .000000000000
G10  23016896.227 8 120954615.551 8      3170.410          48.000    23016900.039 8  94250358.488 8      2470.453          49.000
G16  20503644.867 6 107747388.641 6       544.598          39.000    20503642.969 6  83959009.320 6       424.359          38.000
G18  21585020.562 7 113430063.898 7     -2432.359          46.000    21585020.711 6  88387080.696 6     -1895.348          37.000
G20  21298448.273 8 111924103.789 8      1473.410          51.000    21298447.094 7  87213602.814 7      1148.115          45.000
G21  21935961.797 8 115274319.406 8     -2139.938          51.000    21935960.250 7  89824155.957 7     -1667.484          44.000
G26  20756067.156 8 109073849.973 8     -1710.031          51.000    20756069.766 8  84992618.758 8     -1332.492          51.000
R15  21971171.375 7 117407352.163 7     -4215.250          43.000    21971175.711 5  91316766.269 5     -3278.531          34.000
R17  20985074.203 4 112295415.072 4     -2522.059          29.000    20985065.250 4  87340811.293 4     -1961.601          26.000
C12                                                                  22885953.844 4  92152243.896 4      1325.174          29.000
C19  24223974.117 5 126140588.708 5       611.543          31.000
C22  25084707.242 8 130622674.920 8      2843.375          49.000
C24  23539858.039 7 122578215.923 7     -1406.363          43.000
C26  24830252.016 6 129297618.863 6     -3241.488          37.000
E11  23179169.078 8 121807396.184 8     -1407.324          51.000    23179168.055 8  93332939.576 8     -1078.351          51.000
E25  24674662.609 8 129666213.629 8     -2245.629          51.000    24674668.023 8  99354636.456 8     -1720.662          51.000
E36  23628992.750 8 124171208.354 8       985.547          49.000    23628996.789 8  95144194.873 8       755.189          48.000
> 2020 05 07 15 04 30.0000000  0 14        .000000000000
G10  22998815.445 7 120859600.469 7      3163.125          47.000    22998815.625 7  94176320.925 7      2464.779          47.000
G16  20500584.773 6 107731306.585 6       526.801          40.000    20500583.367 6  83946477.882 6       410.497          39.000
G18  21598929.461 7 113503154.677 7     -2441.188          45.000    21598929.109 6  88444034.523 6     -1902.227          37.000
G20  21290082.602 8 111880141.879 8      1456.742          51.000    21290081.531 7  87179346.814 7      1135.127          47.000
G21  21948192.742 8 115338593.286 8     -2145.590          51.000    21948191.109 7  89874239.487 7     -1671.888          43.000
G26  20765872.625 8 109125376.242 8     -1725.625          51.000    20765875.414 8  85032769.082 8     -1344.643          51.000
R15  21994857.641 7 117533932.184 7     -4224.293          42.000    21994865.742 5  91415217.307 5     -3285.564          35.000
R17  20999220.555 5 112371127.450 5     -2526.324          32.000    20999220.812 4  87399712.679 4     -1964.916          28.000
C22  25068338.180 8 130537437.320 8      2838.305          48.000
C24  23547999.898 7 122620609.423 7     -1420.691          45.000
C26  24848929.047 5 129394881.267 5     -3243.633          35.000
E11  23187215.586 8 121849681.310 8     -1412.172          51.000    23187214.672 8  93365339.861 8     -1082.069          51.000
E25  24687507.773 8 129733715.227 8     -2255.152          51.000    24687513.023 8  99406358.448 8     -1727.929          51.000
E36  23623384.695 8 124141735.649 8       978.594          50.000    23623388.188 8  95121611.923 8       749.784          48.000
> 2020 05 07 15 05  0.0000000  0 15        .000000000000
G10  22980786.727 7 120764860.811 7      3153.375          44.000    22980785.148 7  94102497.955 7      2457.178          45.000
G16  20497636.188 6 107715811.179 6       506.891          40.000    20497634.820 6  83934403.514 6       394.980          39.000
G18  21612899.414 7 113576566.322 7     -2452.402          44.000    21612899.070 6  88501238.377 6     -1910.963          37.000
G20  21281823.195 8 111836739.620 8      1437.258          51.000    21281822.953 7  87145526.928 7      1119.944          47.000
G21  21960467.141 8 115403095.836 8     -2153.926          51.000    21960465.656 7  89924501.201 7     -1678.384          42.000
G26  20775778.289 8 109177429.929 8     -1743.910          51.000    20775781.383 8  85073330.384 8     -1358.894          51.000
R03  23608520.578 7 126378259.283 7      3977.070          42.000    23608524.750 6  98294216.296 6      3093.280          38.000
R15  22018605.023 7 117660830.466 7     -4235.168          42.000    22018615.297 6  91513915.838 6     -3294.023          37.000
C19  24217113.336 5 126104846.634 5       578.277          34.000
C22  25052009.633 7 130452411.530 7      2830.574          47.000
C24  23556234.352 7 122663484.939 7     -1437.414          43.000
C26  24867629.281 5 129492266.599 5     -3247.574          31.000
E11  23195299.281 8 121892161.939 8     -1419.555          51.000    23195298.445 8  93397889.945 8     -1087.648          51.000
E25  24700417.953 8 129801559.143 8     -2267.336          51.000    24700423.062 8  99458342.745 8     -1737.288          51.000
E36  23617826.789 8 124112525.822 8       969.262          50.000    23617829.859 8  95099230.413 8       742.642          49.000
> 2020 05 07 15 05 30.0000000  0 15        .000000000000
G10  22962799.727 7 120670342.676 7      3147.062          44.000    22962800.891 7  94028847.498 7      2452.256          44.000
G16  20494788.359 6 107700846.934 6       490.234          41.000    20494787.234 6  83922743.055 6       381.998          38.000
G18  21626919.109 7 113650240.025 7     -2459.941          43.000    21626919.117 6  88558646.456 6     -1916.837          38.000
G20  21273659.711 8 111793841.906 8      1421.715          51.000    21273659.883 7  87112100.159 7      1107.833          46.000
G21  21972773.867 8 115467768.144 8     -2158.312          50.000    21972772.438 7  89974895.201 7     -1681.802          42.000
G26  20785773.031 8 109229953.118 8     -1758.379          51.000    20785776.523 8  85114257.523 8     -1370.165          51.000
R03  23586231.969 7 126258947.130 7      3976.281          42.000    23586235.148 6  98201418.060 6      3092.666          37.000
R15  22042401.672 6 117787985.273 6     -4242.410          41.000    22042411.781 6  91612813.947 6     -3299.655          36.000
R17  21027626.703 6 112523071.272 6     -2536.855          36.000    21027624.430 5  87517934.399 5     -1973.107          31.000
C22  25035710.766 7 130367543.959 7      2826.418          47.000
C24  23564548.859 7 122706784.836 7     -1450.191          42.000
C26  24886339.594 4 129589688.621 4     -3249.617          29.000
E11  23203409.336 8 121934780.425 8     -1422.738          51.000    23203408.477 8  93430545.671 8     -1090.105          51.000
E25  24713382.492 8 129869687.371 8     -2275.457          51.000    24713387.461 8  99510544.890 8     -1743.499          51.000
E36  23612307.969 8 124083521.919 8       963.578          51.000    23612310.938 8  95077006.660 8       738.326          50.000
> 2020 05 07 15 06  0.0000000  0 16        .000000000000
G10  22944859.477 7 120576072.479 7      3136.590          43.000    22944863.922 7  93955390.160 7      2444.096          44.000
G16  20492046.383 7 107686438.155 7       469.395          42.000    20492045.500 6  83911515.419 6       365.762          40.000
G18  21640992.797 7 113724197.262 7     -2471.543          44.000    21640992.805 6  88616275.408 6     -1925.881          36.000
G20  21265596.883 8 111751473.962 8      1401.820          50.000    21265597.156 7  87079086.175 7      1092.328          46.000
G21  21985117.125 8 115532632.617 8     -2166.859          51.000    21985115.352 7  90025438.920 7     -1688.462          42.000
G26  20795861.445 8 109282968.095 8     -1776.895          51.000    20795864.812 8  85155567.878 8     -1384.593          51.000
R03  23563959.680 6 126139728.177 6      3970.473          37.000    23563962.633 5  98108692.283 5      3088.148          35.000
R15  22066250.891 6 117915416.074 6     -4254.117          38.000    22066259.742 5  91711926.774 5     -3308.755          35.000
R17  21041866.625 6 112599283.067 6     -2544.801          37.000    21041865.992 5  87577210.297 5     -1979.286          32.000
R18  19647587.602 5 104880169.170 5       146.023          35.000    19647588.188 4  81573456.341 4       113.571          29.000
C19  24210618.867 5 126071037.386 5       544.836          31.000
C22  25019447.078 7 130282860.434 7      2818.234          47.000
C24  23572948.406 7 122750530.806 7     -1467.148          43.000
E11  23211549.977 8 121977559.306 8     -1430.074          51.000    23211549.141 8  93463324.293 8     -1095.813          51.000
E25  24726405.594 8 129938122.127 8     -2287.867          51.000    24726410.477 8  99562981.891 8     -1753.017          51.000
E36  23606832.492 8 124054747.112 8       953.816          50.000    23606835.867 8  95054958.430 8       730.775          50.000
> 2020 05 07 15 06 30.0000000  0 15        .000000000000
G10  22926969.828 7 120482063.764 7      3131.105          46.000    22926975.898 7  93882136.576 7      2439.822          46.000
G16  20489412.438 7 107672596.713 7       453.469          42.000    20489412.203 7  83900729.894 7       353.349          42.000
G18  21655122.109 6 113798446.636 6     -2477.809          41.000    21655122.148 6  88674132.059 6     -1930.760          37.000
G20  21257637.555 8 111709648.134 8      1387.051          51.000    21257637.750 7  87046494.617 7      1080.819          47.000
G21  21997498.633 8 115597697.908 8     -2170.242          51.000    21997496.484 6  90076139.123 6     -1691.098          41.000
G26  20806045.391 8 109336484.414 8     -1790.254          51.000    20806048.344 8  85197268.910 8     -1395.003          51.000
R03  23541706.656 5 126020617.976 5      3970.684          31.000    23541712.344 6  98016050.992 6      3088.309          37.000
R15  22090152.930 5 118043129.971 5     -4259.836          33.000    22090162.633 5  91811259.789 5     -3313.206          33.000
R17  21056137.094 5 112675666.592 5     -2546.945          35.000    21056138.031 5  87636619.764 5     -1980.951          32.000
C19  24207512.789 5 126054870.972 5       531.637          30.000
C22  25003221.430 7 130198374.198 7      2814.633          47.000
C24  23581435.859 7 122794732.061 7     -1479.148          43.000
E11  23219723.062 8 122020508.621 8     -1432.648          51.000    23219722.281 8  93496233.519 8     -1097.789          51.000
E25  24739488.867 8 130006872.925 8     -2294.980          51.000    24739493.445 8  99615661.052 8     -1758.471          51.000
E36  23601402.391 8 124026211.864 8       949.109          50.000    23601406.211 8  95033093.775 8       727.150          50.000
> 2020 05 07 15 07  0.0000000  0 15        .000000000000
G10  22909121.461 8 120388267.072 8      3118.758          49.000    22909127.547 8  93809048.250 8      2430.201          49.000
G16  20486876.602 7 107659271.423 7       431.457          43.000    20486877.055 6  83890346.509 6       336.200          41.000
G18  21669296.414 6 113872933.821 6     -2491.305          38.000    21669296.719 6  88732174.013 6     -1941.273          37.000
G20  21249771.812 8 111668313.680 8      1365.410          50.000    21249772.234 7  87014285.986 7      1063.956          46.000
G21  22009908.242 8 115662910.676 8     -2180.301          50.000    22009906.344 7  90126954.251 7     -1698.936          42.000
G26  20816314.609 8 109390448.637 8     -1810.430          51.000    20816317.289 8  85239318.948 8     -1410.724          51.000
R03  23519466.555 6 125901567.520 6      3963.008          36.000    23519473.773 6  97923456.143 6      3082.336          38.000
R15  22114094.391 5 118171069.566 5     -4272.660          34.000    22114108.977 4  91910843.489 4     -3323.174          25.000
R17  21070457.555 5 112752206.507 5     -2555.969          32.000    21070439.172 5  87696130.637 5     -1987.976          33.000
C19  24204494.203 5 126039154.000 5       511.754          32.000
C22  24987024.656 7 130114035.990 7      2804.613          46.000
C24  23590001.242 7 122839335.218 7     -1497.508          44.000
E11  23227918.406 8 122063575.038 8     -1441.758          51.000    23227917.617 8  93529232.459 8     -1104.697          51.000
E25  24752622.055 8 130075886.238 8     -2309.043          51.000    24752626.086 8  99668541.340 8     -1769.225          51.000
E36  23596007.727 8 123997863.586 8       937.711          49.000    23596011.141 8  95011372.383 8       718.452          49.000
> 2020 05 07 15 07 30.0000000  0 15        .000000000000
G10  22891323.078 8 120294731.141 8      3111.562          50.000    22891328.703 8  93736163.133 8      2424.594          50.000
G16  20484447.969 7 107646508.920 7       414.156          43.000    20484448.406 7  83880401.680 7       322.719          42.000
G18  21683524.062 6 113947702.594 6     -2499.238          39.000    21683524.062 6  88790435.406 6     -1947.455          36.000
G20  21242008.742 8 111627517.916 8      1348.898          51.000    21242009.070 7  86982497.119 7      1051.090          46.000
G21  22022354.281 8 115728314.470 8     -2185.273          49.000    22022352.828 7  90177918.236 7     -1702.810          44.000
G26  20826677.641 8 109444905.328 8     -1825.391          51.000    20826680.242 8  85281752.715 8     -1422.382          51.000
R03  23497248.828 6 125782627.821 6      3961.035          39.000    23497255.555 6  97830947.529 6      3080.808          39.000
R15  22138086.164 6 118299277.275 6     -4279.957          37.000    22138104.711 4  92010573.572 4     -3328.859          27.000
R18  19645404.156 5 104868500.664 5       110.793          30.000    19645398.281 4  81564365.399 4        86.172          28.000
C19  24201576.836 5 126023939.671 5       497.094          34.000
C22  24970865.633 7 130029893.838 7      2799.430          46.000
C24  23598652.539 7 122884384.194 7     -1511.051          43.000
E11  23236144.516 8 122106803.511 8     -1445.488          51.000    23236143.688 8  93562355.581 8     -1107.630          51.000
E25  24765813.664 8 130145206.522 8     -2317.699          51.000    24765817.117 8  99721656.849 8     -1775.926          51.000
E36  23590657.156 8 123969747.837 8       931.383          49.000    23590659.867 8  94989829.155 8       713.645          49.000
> 2020 05 07 15 08  0.0000000  0 15        .000000000000
G10  22873575.477 8 120201462.287 8      3105.816          51.000    22873580.250 8  93663486.146 8      2420.120          51.000
G16  20482127.562 7 107634313.849 7       398.367          44.000    20482127.898 7  83870899.032 7       310.419          43.000
G18  21697805.680 6 114022754.359 6     -2505.008          38.000    21697805.711 6  88848917.295 6     -1951.954          37.000
G20  21234349.250 8 111587266.066 8      1333.988          51.000    21234349.023 7  86951132.059 7      1039.471          45.000
G21  22034837.016 8 115793911.197 8     -2188.457          48.000    22034835.797 7  90229032.561 7     -1705.294          44.000
G26  20837134.898 8 109499856.710 8     -1838.520          51.000    20837137.469 8  85324571.958 8     -1432.616          51.000
R03  23475052.703 6 125663806.778 6      3960.188          40.000    23475059.523 6  97738531.230 6      3080.146          40.000
R15  22162128.352 6 118427752.378 6     -4285.875          36.000
R17  21099110.641 5 112905618.601 5     -2562.648          35.000    21099106.930 4  87815455.237 4     -1993.168          25.000
C12  22807967.961 4 118767129.047 4      1671.617          27.000    22807966.438 4  91838227.850 4      1291.815          29.000
C22  24954745.438 7 129945953.764 7      2795.965          45.000
C24  23607388.742 6 122929880.831 6     -1522.801          40.000
E11  23244402.031 8 122150196.705 8     -1447.902          51.000    23244401.016 8  93595604.917 8     -1109.468          51.000
E25  24779063.883 8 130214836.006 8     -2324.996          51.000    24779066.836 8  99775009.273 8     -1781.482          51.000
E36  23585351.430 8 123941867.801 8       926.727          48.000    23585354.344 8  94968466.545 8       709.999          49.000
> 2020 05 07 15 08 30.0000000  0 17        .000000000000
G10  22855877.805 8 120108456.073 8      3095.582          51.000    22855881.352 8  93591013.795 8      2412.145          51.000
G16  20479913.875 7 107622679.770 7       377.984          46.000    20479913.656 7  83861833.512 7       294.536          42.000
G18  21712139.656 6 114098079.814 6     -2515.781          39.000    21712139.438 6  88907612.437 6     -1960.349          37.000
G20  21226792.094 8 111547552.254 8      1314.441          50.000    21226791.461 7  86920186.269 7      1024.243          44.000
G21  22047354.734 8 115859692.533 8     -2196.117          48.000    22047353.656 7  90280290.731 7     -1711.260          43.000
G26  20847684.531 8 109555294.255 8     -1856.297          51.000    20847687.133 8  85367770.005 8     -1446.468          51.000
R03  23452877.969 6 125545101.668 6      3954.520          41.000    23452885.023 6  97646205.113 6      3075.740          39.000
R15  22186216.977 6 118556483.477 6     -4295.961          36.000
R17  21113497.211 5 112982602.890 5     -2568.977          32.000    21113496.461 4  87875337.916 4     -1998.099          27.000
R18  19644262.828 5 104862410.505 5        88.277          34.000    19644280.883 3  81559685.193 3        68.663          23.000
C12                                                                  22798365.461 5  91799568.991 5      1286.357          31.000
C19  24196022.164 5 125995036.585 5       465.383          30.000
C22  24938663.609 7 129862211.094 7      2787.703          44.000
C24  23616208.594 6 122975816.376 6     -1538.797          39.000
E11  23252689.344 8 122193746.400 8     -1454.727          51.000    23252688.109 8  93628974.158 8     -1114.613          50.000
E25  24792370.852 8 130284766.031 8     -2336.227          51.000    24792373.648 8  99828591.982 8     -1790.054          51.000
E36  23580089.109 8 123914215.848 8       917.652          48.000    23580093.023 8  94947278.705 8       703.103          49.000
> 2020 05 07 15 09  0.0000000  0 18        .000000000000
G10  22838222.695 8 120015673.977 8      3079.137          51.000    22838225.258 8  93518716.089 8      2399.330          51.000
G16  20477799.312 7 107611566.093 7       352.121          47.000    20477798.820 7  83853173.505 7       274.380          44.000
G18  21726517.641 6 114173635.495 6     -2532.117          40.000    21726517.148 5  88966487.018 5     -1973.084          35.000
G20  21219329.492 8 111508336.629 8      1289.078          50.000    21219328.688 7  86889628.681 7      1004.476          44.000
G21  22059899.234 8 115925614.975 8     -2209.543          48.000    22059898.430 7  90331658.869 7     -1721.722          42.000
G26  20858318.305 8 109611175.238 8     -1879.887          51.000    20858320.703 8  85411313.588 8     -1464.850          51.000
R03  23430718.086 7 125426474.657 7      3942.879          43.000    23430724.531 6  97553939.696 6      3066.687          38.000
R15  22210347.117 6 118685424.373 6     -4311.480          39.000    22210353.016 4  92310850.850 4     -3353.380          29.000
R16  20142199.672 6 107596008.120 6     -1195.082          37.000    20142206.062 5  83685806.707 5      -929.505          32.000
R17  21127907.328 6 113059700.268 6     -2581.992          36.000    21127905.703 4  87935302.356 4     -2008.216          26.000
C12                                                                  22788787.438 5  91761011.799 5      1275.782          31.000
C19  24193377.805 5 125981285.769 5       440.680          31.000
C22  24922612.688 7 129778627.344 7      2773.785          44.000
C24  23625107.133 7 123022148.200 7     -1560.703          43.000
C26  25017760.875 5 130274034.025 5     -3275.277          32.000
E11  23260998.359 8 122237410.336 8     -1467.059          51.000    23260997.008 8  93662430.934 8     -1124.080          50.000
E25  24805726.578 8 130354953.911 8     -2353.770          51.000    24805729.453 8  99882372.281 8     -1803.502          51.000
E36  23574862.367 7 123886750.254 7       902.531          47.000    23574866.703 8  94926233.674 8       691.703          48.000
> 2020 05 07 15 09 30.0000000  0 17        .000000000000
G10  22820613.820 8 119923137.006 8      3078.152          50.000    22820615.266 8  93446609.376 8      2398.560          50.000
G16  20475787.164 7 107600992.095 7       341.168          46.000    20475786.758 7  83844934.021 7       265.845          44.000
G18  21740942.742 6 114249437.483 6     -2533.000          40.000    21740941.469 5  89025553.464 5     -1973.763          35.000
G20  21211965.383 8 111469638.948 8      1278.922          51.000    21211964.852 7  86859474.672 7       996.566          44.000
G21  22072473.734 7 115991695.088 7     -2207.621          47.000    22072473.102 7  90383149.874 7     -1720.224          43.000
G26  20869039.430 8 109667516.567 8     -1888.012          51.000    20869041.406 8  85455215.886 8     -1471.178          51.000
R03  23408577.102 7 125307948.569 7      3946.898          44.000    23408582.633 6  97461752.822 6      3069.813          36.000
R15  22234520.195 7 118814589.311 7     -4311.551          42.000    22234527.836 5  92411312.320 5     -3353.431          34.000
R16  20148928.664 6 107631955.309 6     -1213.105          37.000    20148933.164 5  83713765.725 5      -943.523          31.000
R18  19643381.914 5 104857743.079 5        64.715          30.000    19643385.305 5  81556009.157 5        50.334          30.000
C12                                                                  22779240.109 5  91722570.328 5      1278.047          32.000
C22  24906596.375 7 129695223.174 7      2774.895          45.000
C24  23634086.156 7 123068892.785 7     -1567.383          45.000
C26  25036577.453 5 130372020.824 5     -3269.398          34.000
E11  23269332.383 8 122281205.801 8     -1464.133          51.000    23269330.938 8  93695988.491 8     -1121.901          50.000
E25  24819134.680 8 130425416.504 8     -2355.516          51.000    24819137.695 8  99936363.072 8     -1804.888          51.000
E36  23569674.789 8 123859488.941 8       903.039          48.000    23569678.242 7  94905345.156 7       691.948          47.000
> 2020 05 07 15 10  0.0000000  0 17        .000000000000
G10  22803072.656 8 119830963.230 8      3068.723          48.000    22803072.891 8  93374785.626 8      2391.212          48.000
G16  20473899.648 7 107591073.695 7       322.016          47.000    20473899.258 7  83837205.390 7       250.921          44.000
G18  21755436.055 6 114325598.840 6     -2542.430          37.000    21755434.406 5  89084900.006 5     -1981.111          33.000
G20  21204722.117 8 111431575.533 8      1260.562          51.000    21204721.633 7  86829814.894 7       982.256          44.000
G21  22085100.102 7 116058046.928 7     -2213.773          47.000    22085099.422 7  90434852.619 7     -1725.018          42.000
G26  20879869.414 8 109724432.085 8     -1904.262          49.000    20879871.281 8  85499565.611 8     -1483.840          49.000
G27  21559518.234 5 113296032.709 5      2108.539          31.000
R03  23386477.375 7 125189645.259 7      3942.043          45.000    23386481.086 5  97369739.202 5      3066.036          34.000
R15  22258756.617 7 118944091.165 7     -4320.102          42.000    22258762.359 6  92512035.885 6     -3360.082          36.000
R16  20155823.984 6 107668790.223 6     -1240.332          40.000    20155829.023 4  83742415.065 4      -964.706          29.000
C12                                                                  22769743.938 4  91684322.454 4      1273.227          29.000
C22  24890637.281 7 129612115.245 7      2767.645          44.000
C24  23643165.312 7 123116162.597 7     -1582.188          43.000
C26  25055424.039 5 130470165.938 5     -3271.668          35.000
E11  23277713.141 8 122325247.119 8     -1469.969          51.000    23277711.641 8  93729734.422 8     -1126.400          50.000
E25  24832617.125 8 130496267.683 8     -2365.973          51.000    24832620.188 8  99990651.584 8     -1812.846          51.000
E36  23564547.711 7 123832546.764 7       895.082          46.000    23564550.664 8  94884701.150 8       685.782          48.000
> 2020 05 07 15 10 30.0000000  0 15        .000000000000
G10  22785579.250 8 119739040.258 8      3059.527          50.000    22785576.383 8  93303157.420 8      2384.050          49.000
G16  20472115.305 7 107581696.851 7       303.152          47.000    20472114.914 7  83829898.751 7       236.226          45.000
G18  21769975.125 6 114402002.553 6     -2551.273          38.000    21769974.266 5  89144435.332 5     -1988.002          34.000
G20  21197577.891 8 111394032.669 8      1242.355          50.000    21197577.391 7  86800560.765 7       968.072          46.000
G21  22097755.961 7 116124553.238 7     -2219.746          47.000    22097755.148 6  90486675.718 6     -1729.672          41.000
G26  20890786.258 7 109781805.387 7     -1920.355          47.000    20890788.539 7  85544272.060 7     -1496.384          47.000
R03  23364398.305 7 125071451.800 7      3937.688          45.000    23364400.148 6  97277811.063 6      3062.649          37.000
R15  22283032.812 7 119073808.948 7     -4327.766          42.000    22283036.031 6  92612927.384 6     -3366.043          36.000
R16  20162864.109 6 107706394.332 6     -1266.426          39.000    20162865.367 4  83771662.586 4      -985.001          25.000
C22  24874713.391 7 129529192.050 7      2760.688          45.000
C24  23652321.406 7 123163841.883 7     -1596.477          42.000
C26  25074280.352 6 130568353.056 6     -3274.074          36.000
E11  23286118.586 8 122369418.253 8     -1475.043          51.000    23286117.094 8  93763579.827 8     -1130.246          50.000
E25  24846151.664 8 130567391.017 8     -2375.656          51.000    24846154.719 8 100045148.624 8     -1820.284          51.000
E36  23559459.062 7 123805808.274 7       887.508          46.000    23559462.523 8  94864213.248 8       679.979          49.000
> 2020 05 07 15 11  0.0000000  0 17        .000000000000
G10  22768144.062 8 119647418.689 8      3049.758          51.000    22768140.531 8  93231764.110 8      2376.441          51.000
G16  20470443.266 7 107572910.183 7       283.766          47.000    20470442.594 7  83823051.975 7       221.116          45.000
G18  21784568.820 6 114478694.299 6     -2560.734          36.000    21784569.156 5  89204195.115 5     -1995.390          32.000
G20  21190542.305 8 111357060.098 8      1223.664          51.000    21190541.805 7  86771750.985 7       953.504          46.000
G21  22110450.016 7 116191260.279 7     -2226.102          47.000    22110449.070 6  90538655.218 6     -1734.625          40.000
G26  20901799.297 8 109839682.916 8     -1936.824          48.000    20901802.055 8  85589371.443 8     -1509.214          48.000
R03  23342349.523 7 124953421.424 7      3932.301          43.000    23342351.172 6  97186009.735 6      3058.456          38.000
R15  22307357.055 6 119203787.185 6     -4335.957          38.000    22307358.227 5  92714021.416 5     -3372.417          35.000
R16  20170056.219 6 107744814.176 6     -1293.309          37.000    20170055.258 4  83801522.680 4     -1005.904          28.000
R17  21185845.352 5 113369760.377 5     -2594.906          33.000
R18  19642617.547 5 104853631.114 5        28.492          33.000    19642606.531 5  81552782.519 5        22.158          31.000
C22  24858834.195 7 129446503.570 7      2752.992          46.000
C24  23661564.352 7 123211976.490 7     -1611.277          45.000
C26  25093152.953 5 130666627.276 5     -3276.707          35.000
E11  23294557.719 8 122413766.206 8     -1480.336          51.000    23294556.312 8  93797560.720 8     -1134.227          50.000
E25  24859746.891 8 130638832.957 8     -2385.953          51.000    24859750.047 8 100099889.796 8     -1828.243          51.000
E36  23554418.711 8 123779320.989 8       879.523          48.000    23554422.156 8  94843917.827 8       673.959          48.000
> 2020 05 07 15 11 30.0000000  0 15        .000000000000
G10  22750749.766 8 119556010.326 8      3041.129          51.000    22750748.398 8  93160536.896 8      2369.714          51.000
G16  20468866.250 8 107564623.526 8       265.570          48.000    20468865.180 7  83816594.839 7       206.938          45.000
G18  21799199.812 6 114555581.067 6     -2568.320          37.000    21799200.578 6  89264106.926 6     -2001.289          36.000
G20  21183598.234 8 111320567.913 8      1206.062          51.000    21183597.727 7  86743315.542 7       939.789          47.000
G21  22123164.570 7 116258075.730 7     -2231.227          46.000    22123163.344 6  90590719.188 6     -1738.618          40.000
G26  20912891.430 8 109897972.265 8     -1952.102          50.000    20912894.266 8  85634791.725 8     -1521.118          50.000
R03  23320314.391 7 124835465.753 7      3928.348          42.000    23320316.680 6  97094266.547 6      3055.385          40.000
R15  22331712.297 6 119333929.038 6     -4342.746          38.000    22331711.203 5  92815242.705 5     -3377.694          35.000
R16  20177383.492 6 107783955.857 6     -1319.121          37.000    20177384.539 5  83831966.196 5     -1025.986          33.000
C22  24842983.609 8 129363962.069 8      2746.680          48.000
C24  23670878.344 7 123260474.448 7     -1624.898          46.000
C26  25112024.664 5 130764895.897 5     -3277.383          35.000
E11  23303013.039 8 122458199.070 8     -1484.824          51.000    23303011.867 8  93831606.687 8     -1137.737          50.000
E25  24873385.156 8 130710501.046 8     -2395.039          51.000    24873388.570 8 100154804.271 8     -1835.154          51.000
E36  23549409.203 8 123752993.536 8       872.582          49.000    23549411.758 8  94823744.839 8       668.512          48.000
> 2020 05 07 15 12  0.0000000  0 18        .000000000000
G10  22733418.758 8 119464936.569 8      3030.980          51.000    22733419.781 8  93089570.378 8      2361.806          50.000
G16  20467407.133 8 107556956.057 8       246.082          49.000    20467405.789 7  83810620.192 7       191.752          45.000
G18  21813890.102 5 114632779.285 5     -2577.473          34.000    21813890.383 5  89324261.348 5     -2008.426          34.000
G20  21176768.406 8 111284675.907 8      1187.180          51.000    21176767.922 8  86715347.761 8       925.075          48.000
G21  22135921.992 7 116325116.558 7     -2237.625          44.000    22135920.547 6  90642958.792 6     -1743.604          39.000
G26  20924084.711 8 109956790.630 8     -1968.570          51.000    20924087.586 8  85680624.197 8     -1533.951          51.000
R02  21870641.266 5 116705915.492 5      1555.039          35.000
R03  23298316.695 7 124717710.030 7      3922.602          42.000    23298319.234 6  97002678.899 6      3050.918          38.000
R15  22356120.352 5 119464350.707 5     -4351.242          32.000    22356117.406 5  92916681.706 5     -3384.303          33.000
R16  20184867.602 6 107823937.930 6     -1345.797          37.000    20184870.484 5  83863063.336 5     -1046.731          33.000
R17  21214995.664 5 113525730.045 5     -2604.754          34.000
R18  19642407.641 5 104852498.781 5         5.066          32.000
C22  24827184.258 8 129281687.638 8      2738.840          48.000
C24  23680283.594 7 123309451.637 7     -1639.742          44.000
C26  25130918.086 5 130863274.156 5     -3279.867          31.000
E11  23311506.930 8 122502834.502 8     -1490.605          51.000    23311506.141 8  93865807.844 8     -1142.098          50.000
E25  24887088.586 8 130782512.486 8     -2405.277          51.000    24887092.453 8 100209981.849 8     -1843.062          51.000
E36  23544452.352 8 123726944.112 8       864.551          48.000    23544454.555 8  94803784.879 8       662.430          49.000
> 2020 05 07 15 12 30.0000000  0 16        .000000000000
G10  22716138.383 8 119374130.015 8      3022.133          49.000    22716141.164 8  93018812.031 8      2354.909          50.000
G16  20466052.664 8 107549838.391 8       227.762          48.000    20466051.445 7  83805073.951 7       177.477          47.000
G18  21828625.438 5 114710216.636 5     -2585.973          33.000    21828624.953 5  89384602.145 5     -2015.034          30.000
G20  21170039.727 8 111249315.225 8      1169.551          51.000    21170039.336 8  86687793.987 8       911.338          48.000
G21  22148708.664 7 116392310.687 7     -2242.523          45.000    22148706.984 6  90695317.848 6     -1747.421          38.000
G26  20935365.156 8 110016066.393 8     -1983.684          51.000    20935368.008 8  85726813.062 8     -1545.727          51.000
R02  21861954.414 6 116659583.766 6      1532.727          36.000    21861965.844 4  90735230.420 4      1192.124          29.000
R03  23276343.812 7 124600087.434 7      3918.121          43.000    23276346.078 6  96911194.726 6      3047.428          36.000
R16  20192495.477 6 107864686.973 6     -1371.609          36.000    20192499.289 5  83894757.072 5     -1066.804          35.000
R17  21229613.203 5 113603918.412 5     -2608.641          35.000
C22  24811421.953 7 129199613.209 7      2732.125          46.000
C24  23689766.164 7 123358836.746 7     -1653.227          44.000
C26  25149818.523 5 130961690.261 5     -3281.367          31.000
E11  23320025.844 8 122547601.354 8     -1494.688          51.000    23320025.367 8  93900109.714 8     -1145.280          51.000
E25  24900843.266 8 130854795.688 8     -2414.227          50.000    24900848.078 8 100265367.658 8     -1849.838          51.000
E36  23539534.555 7 123701102.218 7       857.680          47.000    23539537.500 8  94783983.968 8       657.210          50.000
> 2020 05 07 15 13  0.0000000  0 18        .000000000000
G10  22698914.289 8 119283619.671 8      3012.523          49.000    22698918.844 8  92948284.477 8      2347.421          48.000
G16  20464808.062 8 107543297.576 8       209.082          49.000    20464806.977 7  83799977.200 7       162.921          47.000
G18  21843411.398 6 114787917.362 6     -2594.027          37.000    21843410.266 4  89445148.151 4     -2021.320          28.000
G20  21163417.359 8 111214513.740 8      1151.344          51.000    21163417.039 8  86660675.955 8       897.151          48.000
G21  22161529.344 7 116459683.187 7     -2248.109          45.000    22161527.602 6  90747815.870 6     -1751.774          37.000
G26  20946737.289 8 110075824.319 8     -1999.180          51.000    20946740.117 8  85773377.623 8     -1557.802          51.000
R03  23254401.602 7 124482628.959 7      3913.195          43.000    23254403.344 5  96819838.214 5      3043.599          34.000
R15  22405044.461 5 119725772.297 5     -4364.840          31.000    22405050.445 5  93120064.657 5     -3394.878          32.000
R16  20200271.484 5 107906227.924 5     -1396.984          35.000    20200276.469 6  83927066.703 6     -1086.543          36.000
R17  21244260.500 5 113682320.155 5     -2612.906          34.000
C12  22713450.086 4 118274882.108 4      1612.152          29.000    22713442.578 5  91457626.468 5      1246.881          32.000
C19  24175705.242 5 125889236.340 5       317.148          31.000
C22  24795703.117 7 129117767.309 7      2725.000          45.000
C24  23699331.750 7 123408653.998 7     -1666.996          44.000
C26  25168730.602 4 131060167.705 4     -3283.668          29.000
E11  23328574.562 8 122592524.992 8     -1499.211          51.000    23328574.172 8  93934531.720 8     -1148.758          51.000
E25  24914653.758 8 130927375.434 8     -2423.590          49.000    24914659.938 8 100320980.724 8     -1857.066          51.000
E36  23534661.359 8 123675493.697 8       850.469          48.000    23534664.875 8  94764361.865 8       651.637          50.000
> 2020 05 07 15 13 30.0000000  0 17        .000000000000
G10  22681766.594 8 119193509.455 8      3005.770          49.000    22681772.102 8  92878068.709 8      2342.158          49.000
G16  20463692.648 8 107537435.722 8       193.008          49.000    20463691.172 7  83795409.518 7       150.399          46.000
G18  21858266.469 6 114865980.660 6     -2599.672          39.000    21858266.086 5  89505943.504 5     -2025.715          31.000
G20  21156920.617 8 111180373.625 8      1135.828          51.000    21156920.266 7  86634073.261 7       885.061          47.000
G21  22174402.789 7 116527333.576 7     -2250.980          43.000    22174401.438 6  90800530.455 6     -1754.011          38.000
G26  20958220.008 8 110136164.102 8     -2012.141          51.000    20958222.945 8  85820395.601 8     -1567.905          51.000
R03  23232509.828 7 124365442.082 7      3910.676          43.000    23232511.047 5  96728692.928 5      3041.637          35.000
R15  22429591.867 5 119856951.436 5     -4369.074          32.000    22429600.234 4  93222092.766 4     -3398.175          29.000
R16  20208214.234 6 107948661.513 6     -1420.176          37.000    20208221.266 5  83960070.629 5     -1104.581          35.000
R17  21258926.758 5 113760843.404 5     -2614.852          30.000
C12  22704202.273 5 118226733.970 5      1607.922          30.000
C19  24173944.617 4 125880075.052 4       303.109          27.000
C22  24780048.078 7 129036252.731 7      2720.336          45.000
C24  23709000.758 7 123459001.953 7     -1678.332          45.000
E11  23337172.195 8 122637705.755 8     -1501.473          51.000    23337171.664 8  93969150.738 8     -1150.410          51.000
E25  24928539.805 8 131000351.529 8     -2430.156          49.000    24928546.977 8 100376897.474 8     -1862.089          51.000
E36  23529851.945 7 123650219.360 7       845.793          47.000    23529855.531 8  94744995.843 8       648.036          49.000
> 2020 05 07 15 14  0.0000000  0 16        .000000000000
G10  22664639.531 8 119103505.537 8      2992.480          50.000    22664645.094 8  92807935.797 8      2331.803          50.000
G16  20462649.930 8 107531956.763 8       170.461          49.000    20462648.102 7  83791140.202 7       132.827          47.000
G18  21873133.641 6 114944107.734 6     -2610.887          39.000
G20  21150493.297 8 111146599.840 8      1113.797          48.000    21150493.383 7  86607756.025 7       867.894          47.000
G21  22187272.078 6 116594963.040 6     -2259.699          41.000    22187271.625 6  90853228.754 6     -1760.808          38.000
G26  20969756.461 8 110196787.707 8     -2031.270          51.000    20969759.109 8  85867634.749 8     -1582.807          51.000
R02  21836710.875 6 116524865.736 6      1461.734          36.000    21836710.953 4  90630448.088 4      1136.911          24.000
R03  23210613.172 6 124248228.965 6      3901.863          40.000    23210615.172 6  96637527.266 6      3034.786          37.000
R15  22454148.023 5 119988150.529 5     -4379.262          34.000    22454153.094 4  93324136.368 4     -3406.095          28.000
R16  20216268.297 6 107991684.373 6     -1449.699          38.000    20216276.195 6  83993532.897 6     -1127.544          36.000
R17  21273635.406 5 113839472.968 5     -2623.758          33.000    21273641.562 4  88541870.569 4     -2040.701          26.000
C22  24764400.805 7 128954778.070 7      2709.348          46.000
C24  23718715.609 7 123509585.008 7     -1695.734          46.000
E11  23345762.188 8 122682846.204 8     -1510.035          51.000    23345761.375 8  94003738.871 8     -1157.019          51.000
E25  24942445.352 8 131073426.004 8     -2443.320          50.000    24942452.281 8 100432889.575 8     -1872.140          51.000
E36  23525049.297 7 123624982.278 7       834.723          46.000    23525052.977 8  94725658.332 8       639.617          49.000
> 2020 05 07 15 14 30.0000000  0 18        .000000000000
G10  22647571.844 8 119013812.619 8      2985.305          51.000    22647576.570 8  92738045.219 8      2326.211          51.000
G16  20461718.641 8 107527062.985 8       154.105          50.000    20461716.969 7  83787326.863 7       120.082          47.000
G18  21888051.008 5 115022498.525 5     -2616.621          35.000
G20  21144173.914 7 111113395.434 7      1098.199          46.000    21144174.648 7  86581882.502 7       855.743          46.000
G21  22200175.695 6 116662772.257 6     -2262.602          41.000    22200175.609 6  90906067.111 6     -1763.069          37.000
G26  20981384.859 8 110257895.584 8     -2044.191          51.000    20981387.203 8  85915251.242 8     -1592.879          51.000
G27  21452932.039 5 112735938.843 5      2042.168          33.000
R02  21828540.867 5 116481305.982 5      1440.520          32.000
R03  23188750.688 6 124131199.981 6      3898.590          39.000    23188753.906 6  96546504.794 6      3032.240          39.000
R15  22478744.539 5 120119570.982 5     -4383.840          33.000    22478746.039 4  93426357.111 4     -3409.656          26.000
R16  20224470.352 5 108035499.623 5     -1472.805          35.000    20224478.516 5  84027611.406 5     -1145.518          35.000
R17  21288345.242 5 113918171.402 5     -2626.320          30.000
C19  24170661.383 5 125862962.808 5       268.828          33.000
C22  24748800.789 7 128873545.918 7      2704.387          47.000
C24  23728513.148 7 123560601.448 7     -1707.031          47.000
E11  23354382.750 8 122728147.296 8     -1511.762          51.000    23354381.578 8  94038450.089 8     -1158.348          51.000
E25  24956408.234 8 131146799.311 8     -2449.906          50.000    24956413.961 8 100489110.627 8     -1877.180          51.000
E36  23520291.953 7 123599984.012 7       830.016          47.000    23520296.172 8  94706503.805 8       636.133          50.000
> 2020 05 07 15 15  0.0000000  0 15        .000000000000
G10  22630578.281 8 118924509.127 8      2977.035          51.000    22630581.664 8  92668458.097 8      2319.771          51.000
G16  20460913.398 8 107522831.017 8       136.773          50.000    20460911.719 8  83784029.213 8       106.577          48.000
G18  21903032.375 5 115101226.528 5     -2622.824          33.000
G20  21137977.641 7 111080837.015 7      1081.180          47.000    21137978.781 7  86556512.313 7       842.481          45.000
G21  22213127.836 7 116730835.317 7     -2266.266          43.000    22213127.258 5  90959103.254 5     -1765.921          35.000
G26  20993119.375 8 110319561.889 8     -2058.164          51.000    20993121.789 8  85963302.868 8     -1603.764          51.000
R03  23166936.336 6 124014436.770 6      3894.527          40.000    23166942.344 6  96455689.049 6      3029.083          41.000
R15  22503396.438 5 120251285.246 5     -4387.918          34.000
R16  20232835.422 6 108080182.121 6     -1497.363          37.000    20232841.281 5  84062364.365 5     -1164.619          34.000
R18  19643398.891 5 104857811.887 5       -59.273          32.000    19643394.453 4  81556054.091 4       -46.105          27.000
C22  24733262.852 7 128792633.779 7      2698.426          47.000
C24  23738407.648 7 123612124.421 7     -1719.148          46.000
E11  23363048.141 8 122773683.913 8     -1514.938          51.000    23363046.648 8  94073341.775 8     -1160.844          51.000
E25  24970442.141 8 131220545.669 8     -2457.672          51.000    24970446.531 8 100545617.528 8     -1883.160          51.000
E36  23515594.867 8 123575299.859 8       824.379          49.000    23515599.570 8  94687589.979 8       631.664          50.000
> 2020 05 07 15 15 30.0000000  0 16        .000000000000
G10  22613633.500 8 118835463.387 8      2961.176          50.000    22613635.570 8  92599071.871 8      2307.413          50.000
G16  20460208.727 8 107519127.328 8       111.812          51.000    20460207.180 8  83781143.222 8        87.127          49.000
G18  21918051.617 5 115180155.534 5     -2637.129          35.000
G20  21131879.359 7 111048791.350 7      1056.789          46.000    21131880.922 7  86531541.680 7       823.475          46.000
G21  22226102.523 6 116799016.577 6     -2277.645          41.000    22226101.102 6  91012231.507 6     -1774.785          38.000
G26  21004934.266 8 110381650.710 8     -2079.434          51.000    21004936.805 8  86011683.726 8     -1620.341          51.000
R02  21812651.297 5 116396490.015 5      1389.059          31.000
R03  23145146.992 6 123897806.789 6      3882.391          40.000    23145155.250 6  96364976.921 6      3019.637          41.000
R16  20241337.172 6 108125593.096 6     -1528.660          39.000    20241340.859 6  84097683.994 6     -1188.961          36.000
R17  21317873.242 5 114076243.406 5     -2638.785          35.000
C19  24167791.773 5 125848003.602 5       231.688          33.000
C22  24717761.781 8 128711910.993 8      2684.902          49.000
C24  23748373.648 7 123664018.994 7     -1738.648          47.000
E11  23371732.602 8 122819320.802 8     -1525.895          51.000    23371730.891 8  94108310.284 8     -1169.198          51.000
E25  24984521.086 8 131294529.251 8     -2472.828          50.000    24984524.570 8 100602306.207 8     -1894.782          51.000
E36  23510932.328 8 123550795.041 8       810.977          50.000    23510936.719 8  94668813.580 8       621.416          50.000
> 2020 05 07 15 16  0.0000000  0 15        .000000000000
G10  22596748.609 8 118746733.404 8      2954.301          49.000    22596749.633 8  92529931.720 8      2302.056          49.000
G16  20459615.125 8 107516007.748 8        96.141          50.000    20459613.656 8  83778712.375 8        74.915          49.000
G18  21933119.617 6 115259338.722 6     -2641.551          37.000
G20  21125889.609 7 111017315.091 7      1041.590          47.000    21125891.086 7  86507014.733 7       811.628          45.000
G21  22239109.531 6 116867369.550 6     -2279.289          39.000    22239107.812 6  91065493.551 6     -1776.066          37.000
G26  21016839.844 8 110444215.751 8     -2091.547          50.000    21016842.508 8  86060435.678 8     -1629.777          49.000
R02  21804902.656 5 116355126.244 5      1368.340          31.000
R03  23123394.719 7 123781370.890 7      3879.766          42.000    23123404.039 6  96274415.727 6      3017.595          41.000
R15  22552792.289 4 120515276.651 4     -4402.562          29.000
R16  20249985.102 6 108171786.755 6     -1551.195          38.000    20249988.734 6  84133612.415 6     -1206.488          38.000
C22  24702308.055 8 128631434.781 8      2680.223          49.000
C24  23758421.359 8 123716338.152 8     -1749.262          48.000
E11  23380446.461 8 122865112.265 8     -1527.078          51.000    23380444.672 8  94143397.236 8     -1170.105          51.000
E25  24998655.391 8 131368803.855 8     -2478.672          50.000    24998658.375 8 100659217.883 8     -1899.323          51.000
E36  23506314.148 8 123526524.408 8       807.086          49.000    23506317.812 8  94650216.615 8       618.369          49.000
> 2020 05 07 15 16 30.0000000  0 14        .000000000000
G10  22579920.406 8 118658302.740 8      2942.137          48.000    22579921.188 8  92461024.799 8      2292.577          48.000
G16  20459128.992 8 107513453.249 8        75.262          51.000    20459127.578 8  83776721.846 8        58.645          49.000
G18  21948232.234 6 115338754.793 6     -2651.418          37.000
G20  21120005.227 8 110986390.233 8      1021.152          48.000    21120005.953 7  86482917.440 7       795.706          46.000
G21  22252145.172 6 116935873.392 6     -2286.195          41.000    22252143.633 6  91118873.154 6     -1781.454          36.000
G26  21028832.211 8 110507236.215 8     -2108.699          50.000    21028834.977 8  86109542.531 8     -1643.142          50.000
R03  23101676.812 7 123665113.907 7      3871.621          43.000    23101686.031 6  96183993.670 6      3011.264          41.000
R16  20258775.711 6 108218740.950 6     -1578.203          40.000    20258779.617 6  84170132.331 6     -1227.494          39.000
C12  22649275.633 5 117940712.915 5      1571.254          33.000
C22  24686898.367 8 128551188.619 8      2670.555          49.000
C24  23768546.961 8 123769061.007 8     -1764.648          49.000
E11  23389185.867 8 122911038.291 8     -1533.426          51.000    23389184.188 8  94178587.300 8     -1174.972          51.000
E25  25012841.023 8 131443348.840 8     -2489.840          50.000    25012843.930 8 100716336.731 8     -1907.751          51.000
E36  23501736.500 8 123502468.439 8       797.852          49.000    23501739.859 8  94631784.127 8       611.320          49.000
> 2020 05 07 15 17  0.0000000  0 13        .000000000000
G10  22563149.977 8 118570175.928 8      2934.918          48.000    22563151.742 8  92392354.628 8      2286.949          48.000
G16  20458751.086 8 107511466.440 8        59.258          51.000    20458749.719 8  83775173.679 8        46.175          50.000
G20  21114226.461 8 110956019.672 8      1005.637          50.000    21114226.641 7  86459252.107 7       783.613          47.000
G21  22265209.750 6 117004528.552 6     -2288.430          41.000    22265208.789 5  91172370.665 5     -1783.192          35.000
G26  21040911.062 8 110570712.373 8     -2120.898          49.000    21040914.242 8  86159004.490 8     -1652.645          49.000
R03  23079994.602 7 123549042.054 7      3868.434          45.000    23080001.953 6  96093715.633 6      3008.785          40.000
R16  20267708.625 6 108266455.549 6     -1600.793          40.000    20267712.586 6  84207243.647 6     -1245.061          39.000
C12  22640237.078 4 117893655.935 4      1567.391          27.000
C22  24671533.562 8 128471176.866 8      2665.551          49.000
C24  23778749.750 8 123822187.556 8     -1775.195          50.000
E11  23397951.039 8 122957099.857 8     -1535.160          51.000    23397949.578 8  94213881.219 8     -1176.310          51.000
E25  25027077.938 8 131518164.516 8     -2495.844          50.000    25027081.094 8 100773663.024 8     -1912.481          51.000
E36  23497199.977 8 123478628.575 8       793.535          49.000    23497203.359 8  94613517.229 8       608.033          49.000
> 2020 05 07 15 17 30.0000000  0 13        .000000000000
G10  22546431.273 8 118482319.376 8      2917.219          50.000    22546434.086 8  92323895.010 8      2273.157          49.000
G16  20458474.297 8 107510011.707 8        32.961          51.000    20458473.023 8  83774040.121 8        25.684          50.000
G20  21108546.516 8 110926168.286 8       979.598          51.000    21108545.992 7  86435991.313 7       763.323          47.000
G21  22278295.984 7 117073296.890 7     -2300.871          42.000    22278294.914 5  91225956.380 5     -1792.887          35.000
G26  21053069.422 8 110634606.363 8     -2143.574          50.000    21053072.820 8  86208792.011 8     -1670.318          50.000
R03  23058341.062 7 123433122.837 7      3854.520          47.000    23058346.078 6  96003556.340 6      2997.963          40.000
R16  20276775.836 6 108314891.424 6     -1633.402          40.000    20276780.547 6  84244916.002 6     -1270.424          41.000
R18  19645991.773 5 104871623.377 5      -125.707          35.000    19646007.727 4  81566895.558 4       -97.772          26.000
C22  24656206.391 7 128391365.991 7      2650.285          47.000
C24  23789022.188 8 123875679.914 8     -1795.844          49.000
E11  23406734.914 8 123003259.770 8     -1547.352          51.000    23406733.711 8  94249250.499 8     -1185.606          51.000
E25  25041359.102 8 131593213.104 8     -2512.367          51.000    25041362.289 8 100831167.782 8     -1925.085          50.000
E36  23492697.406 8 123454968.091 8       778.930          49.000    23492700.781 8  94595387.792 8       596.749          49.000
> 2020 05 07 15 18  0.0000000  0 15        .000000000000
G10  22529784.492 8 118394839.815 8      2912.035          50.000    22529787.727 8  92255729.153 8      2269.118          50.000
G16  20458318.531 8 107509193.999 8        18.980          51.000    20458317.438 8  83773402.934 8        14.790          50.000
G18  21993832.992 5 115578364.656 5     -2674.242          33.000
G20  21102985.125 8 110896941.013 8       966.102          51.000    21102984.148 8  86413216.823 8       752.809          48.000
G21  22291423.445 7 117142280.985 7     -2300.812          44.000    22291421.594 5  91279710.146 5     -1792.841          31.000
G26  21065326.914 8 110699020.638 8     -2153.492          50.000    21065330.203 8  86258984.906 8     -1678.046          50.000
R03  23036736.742 7 123317466.787 7      3853.066          47.000    23036740.250 6  95913601.754 6      2996.836          41.000
R16  20285996.156 6 108364151.919 6     -1653.543          37.000    20286002.414 6  84283229.690 6     -1286.089          40.000
R18  19646705.164 5 104875449.875 5      -131.629          32.000    19646719.156 4  81569871.405 4      -102.369          26.000
C19  24162270.141 4 125819281.235 4       150.758          27.000
C22  24640937.773 7 128311861.565 7      2647.215          47.000
C24  23799383.898 8 123929639.327 8     -1804.195          48.000
E11  23415557.117 8 123049621.133 8     -1546.395          51.000    23415556.125 8  94284774.145 8     -1184.900          51.000
E25  25055704.367 8 131668597.145 8     -2516.066          51.000    25055707.102 8 100888929.560 8     -1927.895          49.000
E36  23488248.461 8 123431590.653 8       776.797          48.000    23488252.047 8  94577475.214 8       595.211          50.000
> 2020 05 07 15 18 30.0000000  0 16        .000000000000
G10  22513188.609 8 118307627.769 8      2903.156          50.000    22513191.477 8  92187771.759 8      2262.200          50.000
G16  20458262.562 8 107508900.723 8         1.695          51.000    20458261.727 8  83773174.397 8         1.318          50.000
G18  22009118.648 5 115658686.033 5     -2679.488          35.000
G20  21097521.141 8 110868226.832 8       949.246          51.000    21097520.352 8  86390842.161 8       739.675          49.000
G21  22304570.461 7 117211367.351 7     -2303.984          43.000    22304568.602 4  91333543.672 4     -1795.309          29.000
G26  21077661.891 8 110763841.398 8     -2166.828          50.000    21077665.086 8  86309494.529 8     -1688.441          50.000
R02  21768143.094 5 116158985.754 5      1249.398          31.000
R03  23015160.656 7 123201964.015 7      3848.098          47.000    23015163.812 7  95823766.346 7      2992.968          42.000
R16  20295349.438 6 108414120.664 6     -1676.852          39.000    20295355.734 6  84322094.152 6     -1304.221          39.000
R18  19647474.281 6 104879566.688 6      -141.570          36.000
C22  24625707.102 7 128232554.887 7      2640.805          47.000
C24  23809813.781 8 123983952.752 8     -1815.723          49.000
E02  24075456.555 6 126517376.557 6       143.820          39.000    24075460.109 6  96941897.234 6       109.880          39.000
E11  23424396.195 8 123096070.925 8     -1549.047          51.000    23424395.352 8  94320365.536 8     -1186.923          51.000
E25  25070091.984 8 131744202.998 8     -2523.211          51.000    25070093.781 8 100946861.292 8     -1933.345          48.000
E36  23483831.969 8 123408383.692 8       771.309          48.000    23483836.133 8  94559693.249 8       591.006          50.000
> 2020 05 07 15 19  0.0000000  0 17        .000000000000
G10  22496653.125 8 118220733.816 8      2890.117          51.000    22496655.555 8  92120062.215 8      2252.042          51.000
G16  20458315.836 8 107509180.700 8       -19.922          51.000    20458315.023 8  83773392.563 8       -15.520          51.000
G18  22024447.891 5 115739235.345 5     -2689.406          30.000
G20  21092164.016 8 110840074.768 8       928.000          51.000    21092163.305 8  86368905.507 8       723.117          48.000
G21  22317745.430 6 117280601.748 6     -2311.312          39.000    22317743.891 5  91387492.550 5     -1801.017          34.000
G26  21090083.031 8 110829114.853 8     -2184.406          50.000    21090086.539 8  86360356.892 8     -1702.138          50.000
R02  21761194.547 6 116121880.219 6      1222.117          36.000
R03  22993622.922 8 123086668.194 8      3838.629          48.000    22993625.883 7  95734091.875 7      2985.603          43.000
R16  20304845.508 6 108464843.892 6     -1704.500          39.000    20304850.008 6  84361545.523 6     -1325.722          39.000
R18  19648309.211 6 104884022.035 6      -155.168          36.000
C19  24160726.039 5 125811206.141 5       116.504          30.000
C22  24610524.312 7 128153495.821 7      2630.082          47.000
C24  23820320.930 8 124038665.730 8     -1831.387          49.000
E02  24074686.641 6 126513326.590 6       126.875          37.000    24074688.109 6  96938794.044 6        97.006          39.000
E11  23433261.070 8 123142656.265 8     -1556.254          51.000    23433260.367 8  94356060.797 8     -1192.454          51.000
E25  25084530.500 8 131820076.996 8     -2534.684          51.000    25084531.031 7 101004998.480 7     -1942.100          47.000
E36  23479457.188 8 123385394.677 8       761.531          48.000    23479461.883 8  94542078.282 8       583.553          50.000
> 2020 05 07 15 19 30.0000000  0 18        .000000000000
G10  22480182.703 8 118134182.429 8      2879.301          49.000    22480185.391 8  92052619.604 8      2243.614          50.000
G16  20458482.461 8 107510056.043 8       -39.172          51.000    20458481.688 8  83774074.651 8       -30.524          51.000
G18  22039822.859 5 115820051.486 5     -2697.590          33.000
G20  21086918.156 8 110812507.435 8       909.078          51.000    21086917.242 8  86347424.480 8       708.373          49.000
G21  22330952.102 6 117350005.055 6     -2316.141          38.000    22330951.891 5  91441573.038 5     -1804.788          32.000
G26  21102594.148 8 110894861.089 8     -2199.418          49.000    21102597.906 8  86411587.681 8     -1713.835          49.000
R02  21754398.258 5 116085571.198 5      1198.266          33.000    21754401.953 4  90288837.242 4       931.990          28.000
R03  22972128.828 8 122971605.671 8      3831.449          49.000    22972131.328 7  95644598.869 7      2980.019          44.000
R15  22726711.312 5 121444649.482 5     -4445.332          32.000    22726719.312 5  94456983.253 5     -3457.480          31.000
R16  20314485.438 6 108516341.030 6     -1729.484          38.000    20314490.250 6  84401598.832 6     -1345.158          40.000
R18  19649210.406 5 104888836.743 5      -166.082          31.000    19649213.750 4  81580206.781 4      -129.166          26.000
C12  22595542.539 4 117660903.362 4      1536.516          29.000
C22  24595394.391 8 128074708.448 8      2621.695          48.000
C24  23830908.469 8 124093797.946 8     -1844.738          49.000
E02  24074000.273 6 126509734.398 6       111.973          36.000    24074002.609 6  96936041.541 6        85.785          38.000
E11  23442155.688 8 123189398.017 8     -1560.906          51.000    23442155.148 8  94391875.905 8     -1196.034          51.000
E25  25099023.750 8 131896239.415 8     -2543.672          51.000    25099022.719 7 101063356.644 7     -1949.107          47.000
E36  23475128.047 8 123362644.959 8       754.328          48.000    23475132.578 8  94524646.688 8       577.992          49.000
> 2020 05 07 15 20  0.0000000  0 21        .000000000000
G10  22463775.242 8 118047960.445 8      2870.496          50.000    22463778.531 8  91985433.683 8      2236.750          50.000
G16  20458759.344 8 107511511.678 8       -56.129          51.000    20458758.703 8  83775208.901 8       -43.740          51.000
G18  22055242.188 5 115901078.393 5     -2702.574          35.000
G20  21081780.688 8 110785510.036 8       892.359          51.000    21081779.750 8  86326387.562 8       695.345          48.000
G21  22344187.883 6 117419559.683 6     -2318.934          39.000    22344187.391 4  91495771.393 4     -1806.964          29.000
G26  21115191.797 8 110961062.679 8     -2212.316          49.000    21115195.414 8  86463173.310 8     -1723.883          49.000
G27  21327581.820 5 112077198.660 5      1953.504          34.000
R02  21747719.031 4 116049980.770 4      1174.719          29.000    21747733.359 4  90261166.439 4       913.682          25.000
R03  22950675.789 8 122856764.862 8      3826.320          48.000    22950678.477 7  95555278.313 7      2976.030          45.000
R15  22751682.781 5 121578097.203 5     -4448.684          32.000    22751695.961 5  94560775.766 5     -3460.096          32.000
R16  20324267.273 6 108568593.815 6     -1752.492          38.000    20324272.602 6  84442239.863 6     -1363.049          40.000
R17  21451915.242 4 114793530.695 4     -2674.566          29.000
R18  19650176.953 5 104893993.934 5      -175.387          32.000
C12                                                                  22586699.586 5  90947268.698 5      1185.165          32.000
C19  24159577.102 5 125805219.048 5        84.660          34.000
C22  24580314.195 7 127996179.585 7      2615.238          47.000
C24  23841573.125 8 124149331.819 8     -1855.867          49.000
E02  24073399.961 6 126506584.387 6        99.301          36.000    24073401.789 6  96933627.890 6        76.378          37.000
E11  23451076.898 8 123236279.492 8     -1562.969          51.000    23451076.477 8  94427798.065 8     -1197.647          50.000
E25  25113568.695 8 131972672.918 8     -2550.266          51.000    25113566.445 7 101121922.512 7     -1954.151          47.000
E36  23470841.555 8 123340118.362 8       749.148          49.000    23470845.258 8  94507386.068 8       574.035          49.000
> 2020 05 07 15 20 30.0000000  0 20        .000000000000
G10  22447420.617 8 117962012.826 8      2860.465          51.000    22447423.977 8  91918461.542 8      2228.934          51.000
G16  20459135.750 8 107513490.314 8       -74.535          51.000    20459135.312 8  83776750.696 8       -58.082          51.000
G18  22070693.570 5 115982275.586 5     -2709.648          31.000
G20  21076740.789 8 110759025.764 8       874.352          51.000    21076740.070 8  86305750.505 8       681.316          49.000
G21  22357441.219 6 117489206.141 6     -2322.770          37.000    22357439.547 5  91549977.321 5     -1809.966          31.000
G26  21127864.719 7 111027660.192 7     -2226.383          47.000    21127868.477 7  86515067.494 7     -1734.841          47.000
G27  21316453.125 5 112018714.655 5      1947.277          32.000
R02  21741175.305 5 116015101.918 5      1151.438          34.000
R03  22929253.336 8 122742091.428 8      3819.684          48.000    22929256.961 7  95466087.927 7      2970.865          45.000
R15  22776674.805 6 121711646.145 6     -4453.078          36.000    22776689.953 5  94664674.583 5     -3463.508          30.000
R16  20334179.570 6 108621541.118 6     -1776.203          41.000    20334184.617 6  84483421.111 6     -1381.491          39.000
R18  19651196.578 5 104899434.479 5      -186.293          33.000    19651197.375 4  81588441.919 4      -144.895          26.000
C12                                                                  22577887.484 5  90911794.444 5      1180.686          30.000
C22  24565272.781 7 127917854.509 7      2607.609          45.000
C24  23852303.750 8 124205208.234 8     -1868.195          49.000
C26  25453251.578 5 132541755.471 5     -3296.473          30.000
E02  24072873.414 6 126503819.325 6        85.656          36.000    24072874.789 5  96931509.107 5        66.103          35.000
E11  23460013.547 8 123283242.156 8     -1566.531          51.000    23460013.078 8  94463782.443 8     -1200.377          50.000
E25  25128154.023 8 132049318.339 8     -2558.266          51.000    25128152.195 8 101180650.749 8     -1960.313          48.000
E36  23466586.258 8 123317756.803 8       742.699          48.000    23466589.516 8  94490251.900 8       569.102          48.000
> 2020 05 07 15 21  0.0000000  0 17        .000000000000
G10  22431135.000 8 117876427.325 8      2847.164          51.000    22431138.109 8  91851771.581 8      2218.572          51.000
G16  20459627.969 8 107516076.990 8       -96.004          51.000    20459627.531 8  83778766.285 8       -74.808          51.000
G20  21071814.812 8 110733140.829 8       853.125          51.000    21071814.070 8  86285580.432 8       664.773          48.000
G21  22370727.539 5 117559028.412 5     -2330.262          33.000    22370726.000 5  91604384.397 5     -1815.770          32.000
G26  21140629.070 7 111094737.046 7     -2243.422          47.000    21140632.953 8  86567335.186 8     -1748.121          48.000
R03  22907878.961 8 122627676.729 8      3809.883          48.000    22907883.383 7  95377098.752 7      2963.242          45.000
R15  22801701.578 5 121845378.759 5     -4460.160          35.000    22801718.844 4  94768692.233 4     -3469.016          28.000
R16  20344237.883 7 108675266.872 7     -1803.371          43.000    20344241.375 6  84525207.792 6     -1402.622          38.000
R18  19652285.555 5 104905243.652 5      -200.066          30.000    19652291.508 4  81592960.171 4      -155.604          29.000
C19  24158797.102 5 125801179.445 5        49.988          34.000
C22  24550285.914 7 127839819.982 7      2596.730          42.000
C24  23863116.531 8 124261509.549 8     -1883.324          51.000
C26  25472253.312 5 132640712.514 5     -3298.781          30.000
E02  24072436.898 6 126501524.555 6        68.762          38.000    24072437.773 5  96929750.752 5        53.262          33.000
E11  23468981.711 8 123330370.330 8     -1573.438          51.000    23468981.023 8  94499893.632 8     -1205.627          50.000
E25  25142795.422 8 132126259.159 8     -2569.191          51.000    25142795.430 8 101239605.346 8     -1968.601          50.000
E36  23462378.258 8 123295644.933 8       733.184          48.000    23462381.562 8  94473309.066 8       561.808          48.000
> 2020 05 07 15 21 30.0000000  0 15        .000000000000
G10  22414904.539 8 117791133.827 8      2837.742          51.000    22414907.359 8  91785309.157 8      2211.228          51.000
G16  20460222.305 8 107519199.761 8      -113.457          51.000    20460221.750 8  83781199.608 8       -88.408          51.000
G20  21066989.070 8 110707783.228 8       836.074          51.000    21066988.477 8  86265821.272 8       651.486          48.000
G26  21153470.773 8 111162218.827 8     -2256.699          50.000    21153474.664 8  86619918.364 8     -1758.467          50.000
R03  22886540.211 8 122513451.024 8      3803.793          48.000    22886544.836 7  95288256.584 7      2958.506          43.000
R15  22826747.398 6 121979216.995 6     -4463.695          36.000
R16  20354427.594 7 108729694.587 7     -1826.332          43.000    20354429.336 6  84567540.409 6     -1420.484          39.000
C19  24158559.820 5 125799892.377 5        34.520          30.000
C22  24535341.000 7 127762006.357 7      2589.469          43.000
C24  23873996.719 8 124318161.724 8     -1894.797          51.000
C26  25491250.133 5 132739628.524 5     -3297.699          30.000
E02  24072076.055 6 126499627.595 6        55.875          36.000    24072077.078 5  96928297.318 5        43.020          31.000
E11  23477967.352 8 123377590.357 8     -1576.129          51.000    23477966.398 8  94536075.207 8     -1207.788          49.000
E25  25157478.750 8 132203421.097 8     -2576.402          51.000    25157480.836 8 101298729.395 8     -1974.117          51.000
E36  23458204.234 8 123273709.578 8       727.668          49.000    23458207.109 8  94456501.472 8       557.573          48.000
> 2020 05 07 15 22  0.0000000  0 13        .000000000000
G10  22398749.031 8 117706235.706 8      2824.746          51.000    22398751.023 8  91719154.789 8      2201.101          51.000
G16  20460937.781 8 107522959.611 8      -134.621          51.000    20460937.188 8  83784129.347 8      -104.900          51.000
G20  21062283.078 8 110683054.596 8       815.148          51.000    21062282.906 8  86246552.214 8       635.181          48.000
G26  21166408.508 8 111230204.416 8     -2273.250          51.000    21166411.883 8  86672894.122 8     -1771.364          51.000
R03  22865256.836 7 122399521.436 7      3793.953          47.000    22865261.164 7  95199644.779 7      2950.855          42.000
R15  22851832.164 5 122113258.984 5     -4469.809          35.000    22851846.258 4  94977039.893 4     -3476.518          26.000
R16  20364766.891 7 108784923.850 7     -1853.027          42.000    20364768.867 6  84610496.459 6     -1441.243          40.000
C22  24520459.336 7 127684515.783 7      2578.969          46.000
C24  23884962.375 8 124375262.540 8     -1909.496          50.000
C26  25510261.531 5 132838626.736 5     -3300.203          32.000
E11  23486989.508 8 123425001.998 8     -1582.055          51.000    23486988.320 8  94572403.599 8     -1212.212          49.000
E25  25172222.938 8 132280903.239 8     -2586.695          51.000    25172226.750 8 101358098.801 8     -1982.004          51.000
E36  23454083.023 8 123252051.042 8       718.695          49.000    23454085.305 8  94439905.980 8       550.704          48.000
> 2020 05 07 15 22 30.0000000  0 17        .000000000000
G10  22382644.500 8 117621606.560 8      2832.727          51.000    22382645.812 8  91653210.006 8      2207.319          51.000
G16  20461750.055 8 107527227.795 8      -134.324          51.000    20461749.281 8  83787455.195 8      -104.668          51.000
G18  22132959.875 5 116309498.497 5     -2721.445          35.000
G20  21057672.492 8 110658826.806 8       815.602          50.000    21057672.461 8  86227673.433 8       635.534          48.000
G21  22410735.898 5 117769214.276 5     -2324.656          35.000
G26  21179417.086 8 111298563.054 8     -2268.535          51.000    21179419.789 8  86726160.567 8     -1767.693          51.000
R03  22844005.133 7 122285761.010 7      3805.871          47.000    22844008.664 6  95111164.551 6      2960.125          40.000
R15  22876929.016 4 122247371.463 4     -4455.500          27.000
R16  20375230.484 7 108840820.865 7     -1857.777          42.000    20375233.484 6  84653971.861 6     -1444.941          40.000
R18  19655915.773 4 104924607.551 4      -213.672          29.000    19655919.461 5  81608053.892 5      -166.192          34.000
C19  24158357.898 5 125798903.259 5        18.984          32.000
C22  24505616.672 7 127607222.796 7      2589.320          47.000
C24  23895988.578 8 124432682.102 8     -1903.047          50.000
C26  25529260.547 5 132937564.163 5     -3280.203          31.000
E11  23496023.469 8 123472475.467 8     -1567.098          51.000    23496022.211 8  94608779.375 8     -1200.820          49.000
E25  25187003.305 8 132358575.065 8     -2575.965          51.000    25187008.289 8 101417613.535 8     -1973.830          51.000
E36  23449989.539 7 123230539.844 7       730.867          47.000    23449992.062 8  94423423.402 8       560.039          48.000
> 2020 05 07 15 23  0.0000000  0 17        .000000000000
G10  22366588.516 8 117537234.117 8      2798.383          51.000    22366589.602 8  91587465.223 8      2180.558          51.000
G16  20462656.352 8 107531989.620 8      -176.570          51.000    20462655.242 8  83791165.697 8      -137.587          51.000
G18  22148600.539 5 116391679.867 5     -2750.266          32.000
G20  21053154.820 8 110635085.765 8       773.590          51.000    21053154.289 8  86209173.930 8       602.797          49.000
G21  22424103.297 5 117839463.049 5     -2351.906          33.000
G26  21192493.195 8 111367278.093 8     -2306.129          51.000    21192495.602 8  86779704.703 8     -1796.984          51.000
R03  22822782.945 7 122172159.213 7      3774.023          46.000    22822786.078 6  95022807.676 6      2935.355          40.000
R15  22902037.914 4 122381524.233 4     -4483.508          29.000
R16  20385815.898 7 108897367.765 7     -1905.488          43.000    20385819.172 6  84697952.792 6     -1482.049          40.000
C19  24158383.977 6 125799040.567 6       -21.234          36.000
C22  24490809.992 8 127530115.090 8      2557.500          49.000
C24  23907072.938 8 124490403.685 8     -1938.648          50.000
C26  25548245.984 5 133036423.702 5     -3303.645          34.000
E02  24071482.008 5 126496495.555 5         7.152          32.000    24071488.500 5  96925903.497 5         5.013          33.000
E11  23505066.242 8 123519994.985 8     -1594.613          51.000    23505065.086 8  94645190.418 8     -1221.862          49.000
E25  25201816.734 8 132436420.051 8     -2607.449          51.000    25201822.359 8 101477260.937 8     -1997.877          51.000
E36  23445921.000 7 123209160.664 7       700.629          47.000    23445924.086 8  94407041.975 8       536.822          48.000
> 2020 05 07 15 23 30.0000000  0 13        .000000000000
G10  22350691.164 8 117453693.299 8      2792.492          51.000    22350692.102 8  91522368.496 8      2175.968          51.000
G16  20463765.617 8 107537818.111 8      -190.504          51.000    20463764.203 8  83795707.373 8      -148.445          51.000
G20  21048838.820 8 110612404.483 8       759.941          51.000    21048838.258 8  86191500.220 8       592.162          49.000
G26  21205745.484 8 111436920.066 8     -2315.281          51.000    21205747.859 8  86833971.124 8     -1804.118          51.000
R03  22801700.383 7 122059303.160 7      3771.348          45.000    22801703.750 6  94935030.818 6      2933.273          41.000
R16  20396631.539 7 108955143.743 7     -1924.551          43.000    20396634.812 6  84742889.637 6     -1496.873          41.000
C19  24158599.586 5 125800167.673 5       -33.062          33.000
C22  24476147.930 8 127453762.250 8      2553.891          50.000
C24  23918324.719 8 124548992.431 8     -1946.039          51.000
E02                                                                  24071533.594 5  96926099.476 5        -2.023          32.000
E11  23514226.477 8 123568132.072 8     -1593.309          51.000    23514225.578 8  94682074.662 8     -1220.790          49.000
E25  25216771.719 8 132515008.988 8     -2610.484          51.000    25216777.492 8 101537478.389 8     -2000.211          51.000
E36  23441986.555 7 123188485.445 7       699.039          47.000    23441989.875 8  94391199.913 8       535.663          48.000
> 2020 05 07 15 24  0.0000000  0 16        .000000000000
G10  22334784.172 8 117370100.154 8      2778.605          51.000    22334785.180 8  91457231.039 8      2165.150          51.000
G16  20464908.898 8 107543826.431 8      -211.996          51.000    20464907.602 8  83800389.164 8      -165.192          51.000
G20  21044555.938 8 110589897.440 8       738.738          51.000    21044555.422 8  86173962.285 8       575.640          49.000
G21  22451027.352 5 117980962.505 5     -2357.395          34.000
G26  21219004.883 8 111506600.633 8     -2331.922          49.000    21219007.523 8  86888267.633 8     -1817.082          49.000
R03  22780589.016 7 121946294.718 7      3760.727          45.000    22780593.633 6  94847135.441 6      2925.010          41.000
R15  22952441.062 5 122650881.171 5     -4487.738          33.000
R16  20407507.820 7 109013244.641 7     -1950.676          42.000    20407511.523 6  84788079.197 6     -1517.192          41.000
R18  19660159.977 5 104947257.046 5      -266.355          31.000    19660154.547 5  81625635.763 5      -207.165          32.000
C22  24461462.297 8 127377288.193 8      2542.621          51.000
C24  23929574.094 8 124607567.865 8     -1960.898          51.000
C26  25586329.898 5 133234724.561 5     -3300.676          31.000
E02  24071592.773 5 126497073.052 5       -19.199          32.000    24071586.180 5  96926304.614 5       -14.756          32.000
E11  23523335.289 8 123615999.315 8     -1599.574          51.000    23523334.602 8  94718752.162 8     -1225.657          49.000
E25  25231699.203 8 132593453.733 8     -2620.984          51.000    25231704.734 8 101597585.372 8     -2008.329          51.000
E36  23438017.289 7 123167627.224 7       689.598          47.000    23438020.711 7  94375217.632 7       528.498          47.000
> 2020 05 07 15 24 30.0000000  0 17        .000000000000
G10  22318961.898 8 117286952.620 8      2767.211          51.000    22318963.141 8  91392440.814 8      2156.271          51.000
G16  20466180.648 8 107550510.310 8      -230.945          51.000    20466179.406 8  83805597.364 8      -179.960          51.000
G20  21040400.625 8 110568060.625 8       719.812          51.000    21040399.992 8  86156946.591 8       560.893          49.000
G21  22464506.781 5 118051801.142 5     -2362.355          31.000
G26  21232365.477 8 111576813.313 8     -2346.227          48.000    21232368.609 8  86942978.797 8     -1828.228          48.000
R03  22759544.406 7 121833643.020 7      3752.254          46.000    22759549.586 6  94759517.541 6      2918.423          40.000
R15  22977653.461 5 122785610.486 5     -4491.301          33.000
R16  20418538.438 7 109072171.392 7     -1974.867          43.000    20418542.805 6  84833911.150 6     -1536.008          41.000
C12  22508676.469 5 117208582.908 5      1478.754          30.000    22508689.250 5  90633126.840 5      1143.161          33.000
C19  24159191.055 5 125803230.278 5       -67.867          31.000
C22  24446848.047 8 127301186.128 8      2533.535          51.000
C24  23940914.438 8 124666618.727 8     -1973.203          51.000
C26  25605350.992 5 133333771.669 5     -3299.586          31.000
E02  24071753.625 5 126497909.319 5       -34.160          35.000    24071742.844 5  96926936.577 5       -25.546          31.000
E11  23532486.867 8 123664091.283 8     -1603.754          51.000    23532486.203 8  94755601.844 8     -1228.889          49.000
E25  25246693.266 8 132672248.053 8     -2629.340          51.000    25246698.133 8 101657960.193 8     -2014.716          51.000
E36  23434107.625 8 123147080.831 8       682.746          48.000    23434110.844 7  94359474.315 7       523.140          47.000
> 2020 05 07 15 25  0.0000000  0 16        .000000000000
G10  22303182.109 8 117204028.830 8      2742.461          51.000    22303183.656 8  91327824.944 8      2136.986          51.000
G16  20467538.305 8 107557645.537 8      -263.152          51.000    20467536.867 8  83811157.277 8      -205.054          50.000
G20  21036330.211 8 110546670.198 8       687.746          51.000    21036329.570 8  86140278.740 8       535.906          49.000
G26  21245784.633 8 111647331.827 8     -2373.535          49.000    21245788.016 8  86997928.286 8     -1849.508          49.000
R02  21688694.445 5 115735028.076 5       911.977          32.000
R03  22738524.758 7 121721123.442 7      3730.195          46.000    22738529.492 6  94672002.415 6      2901.266          40.000
R15  23002860.195 5 122920328.814 5     -4508.949          32.000
R16  20429680.922 7 109131692.841 7     -2012.105          45.000    20429684.930 6  84880205.604 6     -1564.971          40.000
R17  21603088.516 5 115602489.551 5     -2730.418          33.000
C12                                                                  22500177.008 5  90598832.766 5      1128.635          32.000
C22  24432263.047 8 127225236.039 8      2511.496          51.000
C24  23952302.281 8 124725920.555 8     -1998.578          50.000
E02  24071973.453 5 126499070.731 5       -61.520          34.000    24071962.109 5  96927812.539 5       -46.549          33.000
E11  23541638.367 8 123712182.673 8     -1620.984          51.000    23541637.664 8  94792451.091 8     -1242.002          48.000
E25  25261710.922 8 132751165.853 8     -2650.352          51.000    25261714.336 8 101718429.631 8     -2030.831          50.000
E36  23430214.883 8 123126621.441 8       662.703          49.000    23430217.867 7  94343797.655 7       507.809          47.000
> 2020 05 07 15 25 30.0000000  0 17        .000000000000
G10  22287472.680 8 117121475.730 8      2760.418          51.000    22287473.969 8  91263497.939 8      2150.978          51.000
G16  20469009.414 8 107565376.597 8      -252.832          50.000    20469008.023 8  83817181.480 8      -197.012          50.000
G18  22227558.086 5 116806587.721 5     -2765.031          33.000
G20  21032372.430 8 110525871.430 8       698.281          51.000    21032371.578 8  86124071.913 8       544.115          49.000
G26  21259289.500 8 111718298.764 8     -2358.188          50.000    21259292.891 8  87053227.170 8     -1837.549          51.000
R03  22717558.164 7 121608887.865 7      3751.547          45.000    22717562.219 6  94584708.130 6      2917.873          40.000
R15  23028095.898 5 123055178.524 5     -4482.133          35.000    23028103.953 4  95709599.373 4     -3486.106          25.000
R16  20440961.883 7 109191952.820 7     -2005.770          45.000    20440965.266 6  84927074.420 6     -1560.043          39.000
R18  19664896.719 5 104972555.236 5      -281.918          33.000    19664896.586 5  81645305.936 5      -219.276          34.000
C12                                                                  22491699.750 5  90564688.336 5      1146.360          30.000
C19  24160135.547 5 125808143.719 5       -85.422          32.000
C22  24417735.070 8 127149583.379 8      2531.543          51.000
C24  23963764.984 8 124785614.333 8     -1981.668          49.000
E02  24072280.766 6 126500681.992 6       -46.344          38.000    24072269.305 5  96929043.278 5       -35.459          34.000
E11  23550817.109 8 123760417.033 8     -1595.332          51.000    23550816.352 8  94829409.887 8     -1222.433          49.000
E25  25276779.273 8 132830349.972 8     -2629.156          51.000    25276780.945 8 101779103.120 8     -2014.536          49.000
E36  23426365.805 8 123106393.039 8       685.234          48.000    23426369.055 7  94328297.971 7       525.023          47.000
> 2020 05 07 15 26  0.0000000  0 17        .000000000000
G10  22271822.141 8 117039232.272 8      2729.660          51.000    22271822.430 8  91199412.212 8      2127.011          51.000
G16  20470581.938 8 107573640.584 8      -290.898          50.000    20470580.992 8  83823620.930 8      -226.677          50.000
G18  22243439.648 5 116890036.645 5     -2790.617          34.000
G20  21028515.109 8 110505601.409 8       660.309          51.000    21028514.133 8  86108277.103 8       514.526          48.000
G26  21272867.367 8 111789648.629 8     -2391.320          50.000    21272870.508 8  87108824.405 8     -1863.370          50.000
R03  22696632.922 7 121496876.147 7      3723.305          44.000    22696637.422 6  94497587.952 6      2895.904          41.000
R15  23053343.102 5 123190091.056 5     -4505.340          30.000    23053351.242 4  95814531.079 4     -3504.165          25.000
R16  20452368.242 7 109252883.915 7     -2048.641          45.000    20452371.469 6  84974465.214 6     -1593.390          39.000
R18  19666582.914 5 104981574.760 5      -311.719          34.000    19666588.703 5  81652321.237 5      -242.445          34.000
C12                                                                  22483242.250 5  90530644.760 5      1127.944          33.000
C19  24160747.094 5 125811348.370 5      -121.531          32.000
C22  24403252.555 8 127074167.437 8      2503.352          51.000
C24  23975291.055 8 124845634.902 8     -2012.676          49.000
E02  24072663.039 6 126502682.500 6       -79.812          38.000    24072651.914 6  96930576.129 6       -61.125          36.000
E11  23560010.781 8 123808729.835 8     -1618.070          51.000    23560009.961 8  94866428.788 8     -1239.808          49.000
E25  25291885.891 8 132909735.055 8     -2655.969          51.000    25291886.062 8 101839930.594 8     -2035.087          48.000
E36  23422547.867 8 123086331.458 8       659.383          48.000    23422551.617 7  94312926.116 7       505.271          47.000
> 2020 05 07 15 26 30.0000000  0 16        .000000000000
G10  22256321.086 8 116957774.653 8      2708.566          51.000    22256320.875 8  91135938.816 8      2110.571          51.000
G16  20472346.023 8 107582910.618 8      -319.375          50.000    20472345.305 8  83830844.325 8      -248.864          50.000
G18  22259432.922 6 116974102.579 6     -2806.391          36.000
G20  21024848.594 8 110486334.121 8       632.000          51.000    21024847.812 8  86093263.653 8       492.468          48.000
G26  21286607.875 8 111861853.162 8     -2414.539          51.000    21286610.391 8  87165087.614 8     -1881.462          51.000
R03  22675840.742 7 121385574.974 7      3704.582          46.000    22675845.711 7  94411020.432 7      2881.342          42.000
R16  20463990.008 7 109314964.479 7     -2081.883          45.000    20463993.250 6  85022750.057 6     -1619.245          40.000
R18  19668414.336 5 104991355.067 5      -331.707          34.000    19668416.023 4  81659931.143 4      -257.997          29.000
C12                                                                  22474899.141 5  90497065.065 5      1116.595          35.000
C19  24161536.570 5 125815482.806 5      -146.562          31.000
C22  24388906.016 8 126999459.969 8      2484.891          51.000
C24  23986970.516 8 124906449.587 8     -2034.105          49.000
E02  24073209.250 6 126505551.203 6      -103.844          37.000    24073199.641 5  96932774.191 5       -79.290          35.000
E11  23569309.273 8 123857593.957 8     -1631.562          50.000    23569308.367 8  94903870.122 8     -1250.107          48.000
E25  25307120.531 8 132989793.196 8     -2673.410          51.000    25307119.992 8 101901273.780 8     -2048.484          48.000
E36  23418851.844 7 123066909.925 7       643.293          47.000    23418855.641 7  94298044.703 7       492.856          46.000
> 2020 05 07 15 27  0.0000000  0 16        .000000000000
G10  22240769.211 8 116876050.263 8      2718.590          50.000    22240769.867 8  91072257.533 8      2118.385          50.000
G16  20474100.898 8 107592132.051 8      -316.559          50.000    20474100.180 8  83838029.849 8      -246.669          50.000
G18  22275352.484 5 117057747.497 5     -2790.711          35.000
G20  21021172.406 8 110467015.282 8       634.734          51.000    21021171.656 8  86078210.029 8       494.598          48.000
G26  21300309.680 8 111933855.305 8     -2406.676          50.000    21300311.852 8  87221193.114 8     -1875.332          50.000
R03  22654982.375 7 121273913.909 7      3717.785          47.000    22654986.758 7  94324173.023 7      2891.614          42.000
R16  20475625.656 7 109377119.026 7     -2083.371          46.000    20475628.930 6  85071092.484 6     -1620.400          41.000
R17  21664164.133 5 115929317.270 5     -2721.531          33.000
R18  19670188.562 5 105000823.043 5      -320.824          33.000    19670187.398 4  81667286.200 4      -249.527          26.000
C12                                                                  22466473.656 5  90463140.875 5      1129.300          33.000
C22  24374494.578 8 126924417.734 8      2496.938          51.000
C24  23998601.062 8 124967010.672 8     -2024.340          49.000
E02  24073719.773 6 126508233.041 6       -96.414          38.000    24073709.352 5  96934829.143 5       -74.205          32.000
E11  23578511.750 8 123905953.377 8     -1613.770          50.000    23578510.586 8  94940924.741 8     -1236.459          48.000
E25  25322281.953 8 133069467.549 8     -2659.438          50.000    25322281.953 8 101962322.903 8     -2037.727          49.000
E36  23415076.969 7 123047072.846 7       658.109          47.000    23415080.352 7  94282844.865 7       504.260          45.000
> 2020 05 07 15 27 30.0000000  0 15        .000000000000
G10  22225376.266 8 116795162.206 8      2669.629          50.000    22225378.641 8  91009227.917 8      2080.230          50.000
G16  20476055.953 8 107602405.283 8      -372.688          50.000    20476055.414 8  83846034.962 8      -290.406          50.000
G20  21017695.883 8 110448746.189 8       578.828          51.000    21017695.102 8  86063974.403 8       451.035          48.000
G26  21314181.688 8 112006753.773 8     -2457.484          48.000    21314184.023 8  87277997.063 8     -1914.923          48.000
R02  21664481.977 6 115605742.930 6       772.027          39.000    21664481.555 4  89915637.753 4       600.472          26.000
R03  22634266.930 7 121163018.758 7      3670.730          47.000    22634270.477 7  94237921.352 7      2855.019          42.000
R16  20487483.789 7 109440463.502 7     -2144.105          46.000    20487487.438 6  85120360.404 6     -1667.638          41.000
R18  19672113.852 5 105011096.553 5      -368.074          34.000    19672112.859 4  81675279.601 4      -286.286          26.000
C19  24163262.477 5 125824481.574 5      -195.031          33.000
C22  24360228.227 8 126850133.654 8      2450.930          49.000
C24  24010391.016 8 125028406.617 8     -2072.953          48.000
E02  24074403.906 6 126511828.782 6      -147.758          39.000    24074391.516 5  96937599.318 5      -112.879          33.000
E11  23587827.555 8 123954907.876 8     -1654.281          50.000    23587826.078 7  94978435.331 7     -1267.575          47.000
E25  25337579.398 8 133149857.106 8     -2704.234          51.000    25337580.805 8 102023920.062 8     -2072.073          50.000
E36  23411432.234 7 123027920.335 7       614.344          46.000    23411435.750 7  94268169.569 7       470.881          46.000
> 2020 05 07 15 28  0.0000000  0 15        .000000000000
G10  22210057.938 8 116714667.441 8      2703.617          49.000    22210062.055 8  90946504.723 8      2106.715          48.000
G16  20478126.219 8 107613284.911 8      -345.852          49.000    20478125.961 8  83854512.581 8      -269.495          49.000
G20  21014334.469 8 110431081.744 8       605.785          51.000    21014333.742 8  86050209.916 8       472.040          49.000
G26  21328138.648 7 112080101.023 7     -2425.469          47.000    21328141.656 7  87335150.782 7     -1889.973          47.000
R02  21660106.086 5 115582370.111 5       793.059          30.000    21660106.031 4  89897479.563 4       616.823          26.000
R03  22613610.438 7 121052440.358 7      3708.156          46.000    22613613.320 7  94151916.021 7      2884.125          42.000
R16  20499479.703 8 109504541.677 8     -2120.629          48.000    20499482.547 6  85170198.948 6     -1649.378          41.000
R18  19674104.172 6 105021721.665 6      -332.785          36.000    19674110.078 5  81683552.616 5      -258.833          31.000
C22  24346022.383 7 126776168.641 7      2486.859          46.000
C24  24022255.406 7 125090193.758 7     -2039.277          47.000
C26  25738415.039 5 134026658.239 5     -3277.574          31.000
E02  24075176.172 5 126515892.954 5      -116.430          35.000    24075165.742 5  96940713.461 5       -89.551          35.000
E11  23597171.617 8 124004011.069 8     -1612.066          50.000    23597169.961 7  95016059.847 7     -1235.217          47.000
E25  25352928.086 8 133230514.631 8     -2665.859          51.000    25352931.047 8 102085722.538 8     -2042.689          51.000
E36  23407832.758 7 123009006.377 7       653.520          45.000    23407836.953 7  94253677.083 7       500.740          45.000
> 2020 05 07 15 28 30.0000000  0 16        .000000000000
G10  22194740.617 8 116634178.062 8      2657.777          49.000    22194746.109 8  90883785.722 8      2070.992          49.000
G16  20480237.500 8 107624380.700 8      -398.504          49.000    20480237.539 8  83863158.645 8      -310.523          48.000
G20  21011013.914 8 110413632.173 8       553.191          51.000    21011013.367 8  86036612.884 8       431.058          49.000
G26  21342106.484 8 112153504.716 8     -2472.684          49.000    21342110.148 8  87392348.509 8     -1926.766          49.000
R02  21655800.969 5 115559394.325 5       733.969          34.000    21655800.719 5  89879610.569 5       570.868          31.000
R03  22592939.258 7 120941785.274 7      3664.195          45.000    22592941.953 7  94065851.025 7      2849.933          43.000
R15  23179988.992 4 123866796.387 4     -4532.566          29.000    23180007.625 4  96340945.028 4     -3525.332          28.000
R16  20511538.484 8 109568953.571 8     -2178.027          48.000    20511540.281 6  85220297.067 6     -1694.024          41.000
R18  19676086.000 6 105032300.957 6      -377.586          36.000    19676092.047 5  81691780.993 5      -293.681          30.000
C19  24165438.109 6 125835776.154 6      -215.895          36.000
C22  24331804.000 7 126702138.125 7      2444.152          45.000
C24  24034121.164 8 125151983.119 8     -2084.281          49.000
E02  24075962.492 5 126520036.308 5      -164.137          33.000    24075954.992 5  96943887.359 5      -125.450          35.000
E11  23606469.414 8 124052871.757 8     -1649.520          50.000    23606467.719 7  95053498.531 7     -1263.870          46.000
E25  25368253.578 8 133311048.099 8     -2707.270          51.000    25368257.539 8 102147429.971 8     -2074.315          51.000
E36  23404204.438 7 122989940.090 7       613.312          45.000    23404209.203 7  94239067.886 7       469.968          45.000
> 2020 05 07 15 29  0.0000000  0 16        .000000000000
G10  22179589.109 8 116554559.086 8      2660.637          48.000    22179595.484 8  90821744.950 8      2073.223          48.000
G16  20482554.141 8 107636554.959 8      -402.758          49.000    20482554.273 8  83872645.085 8      -313.837          49.000
G20  21007898.562 8 110397260.559 8       548.738          51.000    21007897.836 8  86023855.790 8       427.588          49.000
G21  22586889.016 5 118694886.097 5     -2397.750          33.000
G26  21356249.578 8 112227825.536 8     -2471.609          51.000    21356253.422 8  87450260.842 8     -1925.929          51.000
R03  22572418.883 7 120831936.328 7      3669.559          47.000    22572421.656 7  93980413.064 7      2854.104          43.000
R15  23205429.219 4 124002766.141 4     -4518.984          29.000    23205444.578 4  96446667.223 4     -3514.766          27.000
R16  20523823.008 8 109634572.937 8     -2186.027          48.000    20523824.719 7  85271334.328 7     -1700.247          42.000
R18  19678223.477 5 105043709.813 5      -372.633          35.000    19678225.523 5  81700654.398 5      -289.826          33.000
C19  24166718.906 5 125842450.522 5      -217.977          34.000
C22  24317738.570 7 126628899.131 7      2448.961          47.000
C24  24046152.016 8 125214627.294 8     -2081.516          51.000
E02  24076928.297 5 126525112.367 5      -163.770          32.000    24076923.086 5  96947782.182 5      -125.710          35.000
E11  23615885.016 8 124102351.627 8     -1638.828          49.000    23615883.508 7  95091411.674 7     -1255.699          46.000
E25  25383719.414 8 133392318.328 8     -2700.191          51.000    25383723.711 8 102209701.937 8     -2068.981          51.000
E36  23400711.391 7 122971583.625 7       621.133          46.000    23400716.289 7  94225002.556 7       475.879          44.000
> 2020 05 07 15 29 30.0000000  0 16        .000000000000
G10  22164437.812 8 116474938.386 8      2647.812          49.000    22164444.156 8  90759702.848 8      2063.231          49.000
G16  20484909.617 8 107648933.137 8      -422.250          48.000    20484909.852 8  83882290.416 8      -329.026          48.000
G20  21004821.914 8 110381092.588 8       529.320          51.000    21004821.227 8  86011257.387 8       412.457          50.000
G21  22600589.617 5 118766876.632 5     -2401.867          33.000
G26  21370400.773 8 112302186.915 8     -2485.633          51.000    21370404.156 8  87508204.746 8     -1936.857          51.000
R03  22551883.719 8 120722007.721 8      3659.211          48.000    22551886.578 7  93894913.164 7      2846.056          42.000
R16  20536166.055 8 109700507.583 8     -2209.289          48.000    20536167.914 6  85322616.794 6     -1718.336          41.000
R17  21741129.773 5 116341120.750 5     -2749.445          34.000    21741128.945 4  90487552.959 4     -2138.457          28.000
R18  19680349.891 6 105055059.006 6      -384.098          37.000    19680356.367 5  81709481.558 5      -298.740          34.000
C12                                                                  22425226.078 5  90297112.786 5      1099.088          35.000
C22  24303660.281 8 126555587.291 8      2438.711          48.000
C24  24058180.172 8 125277257.399 8     -2093.520          50.000
E02  24077904.859 5 126530243.650 5      -179.102          33.000    24077905.289 5  96951727.748 5      -137.180          35.000
E11  23625251.891 8 124151575.249 8     -1642.617          49.000    23625250.570 7  95129128.454 7     -1258.617          45.000
E25  25399158.266 8 133473449.063 8     -2708.348          48.000    25399162.961 8 102271867.018 8     -2075.150          51.000
E36  23397186.852 7 122953061.855 7       613.879          45.000    23397191.438 7  94210810.531 7       470.402          44.000
> 2020 05 07 15 30  0.0000000  0 17        .000000000000
G10  22149346.008 8 116395628.395 8      2635.738          50.000    22149351.586 8  90697902.909 8      2053.822          50.000
G16  20487362.805 8 107661825.137 8      -440.938          48.000    20487363.266 8  83892336.120 8      -343.588          48.000
G20  21001843.094 8 110365438.895 8       510.551          51.000    21001842.414 8  85999059.720 8       397.835          50.000
G21  22614299.922 5 118838947.653 5     -2405.004          33.000
G26  21384618.219 8 112376896.841 8     -2498.883          51.000    21384620.797 8  87566420.225 8     -1947.181          51.000
R03  22531393.414 7 120612319.223 7      3649.461          47.000    22531395.930 7  93809600.004 7      2838.473          42.000
R16  20548626.453 8 109767069.442 8     -2231.777          48.000    20548627.883 6  85374387.086 6     -1735.830          41.000
R17  21756543.711 4 116423593.075 4     -2752.953          29.000
R18  19682523.109 5 105066662.470 5      -393.695          34.000    19682530.625 4  81718506.555 4      -306.204          27.000
C12  22417052.984 4 116731485.638 4      1417.156          29.000    22417038.273 5  90264160.548 5      1095.059          34.000
C19  24169400.195 5 125856409.074 5      -252.094          30.000
C22  24289627.727 7 126482512.102 7      2429.066          47.000
C24  24070263.180 8 125340178.444 8     -2104.996          48.000
E02  24078953.984 6 126535769.209 6      -193.148          36.000    24078958.477 5  96955961.646 5      -147.901          35.000
E11  23634628.938 8 124200851.809 8     -1646.113          48.000    23634627.453 7  95166885.810 7     -1261.385          45.000
E25  25414627.977 7 133554748.559 7     -2715.270          45.000    25414633.953 8 102334161.455 8     -2080.768          51.000
E36  23393689.453 7 122934684.326 7       607.309          44.000    23393694.242 7  94196729.050 7       465.316          44.000
> 2020 05 07 15 30 30.0000000  0 15        .000000000000
G10  22134355.992 8 116316852.545 8      2619.566          50.000    22134360.406 8  90636519.193 8      2041.224          50.000
G16  20489955.875 8 107675452.173 8      -463.891          49.000    20489956.203 8  83902954.574 8      -361.470          49.000
G20  20999004.258 8 110350520.719 8       487.648          51.000    20999003.641 8  85987435.169 8       379.986          50.000
G26  21398943.242 8 112452174.267 8     -2516.188          51.000    21398945.008 8  87625077.877 8     -1960.669          51.000
R03  22510990.438 7 120503100.704 7      3635.387          46.000    22510992.438 6  93724652.373 6      2827.526          40.000
R16  20561245.305 7 109834479.863 7     -2258.594          46.000    20561247.469 7  85426817.377 7     -1756.684          42.000
R18  19684786.766 6 105078743.837 6      -408.289          36.000
C12  22408933.781 5 116689203.010 5      1406.566          31.000    22408917.055 5  90231465.011 5      1087.396          33.000
C19  24170925.797 5 125864318.748 5      -271.895          35.000
C22  24275682.562 7 126409894.791 7      2415.527          46.000
C24  24082442.984 8 125403607.154 8     -2120.207          48.000
E02  24080117.719 5 126541892.157 5      -211.746          35.000    24080123.703 5  96960653.316 5      -162.127          35.000
E11  23644057.977 7 124250401.479 7     -1653.758          47.000    23644056.266 7  95204852.427 7     -1267.249          45.000
E25  25430170.477 7 133636436.141 7     -2726.836          43.000    25430178.445 8 102396753.258 8     -2089.448          51.000
E36  23390261.406 7 122916671.501 7       596.949          43.000    23390266.492 7  94182927.011 7       457.433          43.000
> 2020 05 07 15 31  0.0000000  0 16        .000000000000
G10  22119400.523 8 116238258.955 8      2594.344          51.000    22119404.281 8  90575277.483 8      2021.567          51.000
G16  20492621.492 8 107689459.549 8      -495.520          49.000    20492621.375 8  83913869.414 8      -386.119          49.000
G20  20996237.945 8 110335984.388 8       455.863          51.000    20996237.555 8  85976108.170 8       355.218          50.000
G26  21413307.789 8 112527662.779 8     -2542.129          49.000    21413309.055 8  87683899.993 8     -1980.883          49.000
R02  21636598.391 5 115457020.091 5       604.719          35.000    21636583.109 4  89799844.880 4       470.337          26.000
R03  22490607.992 7 120393995.519 7      3612.270          46.000    22490609.938 6  93639792.848 6      2809.543          39.000
R16  20573954.695 7 109902375.612 7     -2293.930          47.000    20573958.359 7  85479625.179 7     -1784.168          43.000
R17  21787446.523 5 116589015.707 5     -2776.133          31.000
R18  19687072.602 5 105090942.357 5      -431.328          35.000    19687081.461 4  81737429.801 4      -335.474          24.000
C12                                                                  22400793.414 5  90198754.740 5      1073.456          34.000
C22  24261757.648 7 126337386.479 7      2393.004          47.000
C24  24094653.258 8 125467190.185 8     -2144.227          49.000
E02  24081328.398 5 126548258.032 5      -238.750          35.000    24081336.805 6  96965531.039 6      -182.576          38.000
E11  23653471.375 7 124299869.009 7     -1669.887          46.000    23653469.727 7  95242756.095 7     -1279.431          45.000
E25  25445720.375 7 133718155.717 7     -2746.621          44.000    25445729.047 8 102459369.547 8     -2104.548          51.000
E36  23386835.359 7 122898668.504 7       577.859          43.000    23386839.938 7  94169132.507 7       442.733          43.000
> 2020 05 07 15 31 30.0000000  0 15        .000000000000
G10  22104553.281 8 116160235.052 8      2610.160          51.000    22104556.820 8  90514479.665 8      2033.891          51.000
G16  20495432.875 8 107704232.242 8      -486.359          50.000    20495432.562 8  83925380.575 8      -378.981          49.000
G20  20993617.562 8 110322215.022 8       465.180          51.000    20993617.344 8  85965378.806 8       362.478          50.000
G26  21427785.031 8 112603745.337 8     -2526.992          48.000    21427786.867 8  87743185.063 8     -1969.085          48.000
R03  22470321.164 7 120285400.495 7      3630.562          46.000    22470322.938 6  93555330.146 6      2823.771          37.000
R16  20586828.508 8 109971144.487 8     -2287.527          48.000    20586832.523 7  85533112.067 7     -1779.188          43.000
C12                                                                  22392739.875 5  90166324.926 5      1091.057          35.000
C19  24174230.266 5 125881548.674 5      -289.059          33.000
C22  24247928.219 8 126265371.049 8      2411.074          48.000
C24  24106967.086 8 125531306.836 8     -2127.363          50.000
C26  25871252.297 4 134718380.729 4     -3276.562          29.000
E02  24082659.492 5 126555251.820 5      -224.641          35.000    24082669.523 6  96970889.909 6      -172.094          38.000
E11  23662942.203 7 124349638.580 7     -1644.965          46.000    23662940.828 7  95280891.221 7     -1260.425          45.000
E25  25461350.516 7 133800290.659 7     -2725.914          46.000    25461358.602 8 102522304.077 8     -2088.628          51.000
E36  23383484.430 7 122881059.848 7       599.199          42.000    23383488.352 7  94155640.179 7       459.228          42.000
> 2020 05 07 15 32  0.0000000  0 15        .000000000000
G10  22089799.312 8 116082701.869 8      2558.285          51.000    22089802.859 8  90454064.199 8      1993.469          51.000
G16  20498374.320 8 107719688.882 8      -544.512          49.000    20498373.914 8  83937424.678 8      -424.295          50.000
G20  20991127.648 8 110309131.888 8       406.750          50.000    20991127.633 8  85955184.166 8       316.948          49.000
G26  21442359.312 7 112680338.569 7     -2579.625          47.000    21442362.320 7  87802868.101 7     -2010.097          47.000
R02  21629953.289 5 115421616.091 5       542.344          34.000
R03  22450115.219 7 120177236.992 7      3580.004          44.000    22450115.984 6  93471203.075 6      2784.451          37.000
R16  20599849.945 8 110040700.452 8     -2349.855          48.000    20599853.906 7  85587211.108 7     -1827.668          43.000
C12                                                                  22384740.828 5  90134113.433 5      1056.302          34.000
C19  24176058.609 5 125891067.555 5      -344.941          30.000
C22  24234178.586 8 126193770.085 8      2362.016          49.000
C24  24119367.289 8 125595874.286 8     -2177.480          50.000
E02  24084094.883 5 126562772.258 5      -278.688          34.000    24084104.453 6  96976667.601 6      -213.321          36.000
E11  23672454.688 7 124399628.029 7     -1687.848          46.000    23672453.719 7  95319194.820 7     -1293.193          45.000
E25  25477044.242 8 133882757.815 8     -2772.320          48.000    25477051.062 8 102585493.144 8     -2124.248          51.000
E36  23380193.430 7 122863763.702 7       553.414          43.000    23380196.922 7  94142387.329 7       424.036          43.000
> 2020 05 07 15 32 30.0000000  0 15        .000000000000
G10  22075126.719 8 116005596.342 8      2573.934          51.000    22075130.227 8  90393982.001 8      2005.666          51.000
G16  20501433.219 8 107735763.740 8      -535.262          50.000    20501432.500 8  83949950.530 8      -417.087          50.000
G20  20988755.922 8 110296669.753 8       415.984          50.000    20988756.062 8  85945473.420 8       324.147          48.000
G26  21457018.555 8 112757374.990 8     -2564.320          48.000    21457022.289 8  87862896.499 8     -1998.172          48.000
R03  22429977.383 7 120069442.841 7      3597.883          42.000    22429979.344 6  93387363.274 6      2798.353          38.000
R15  23383459.656 5 124954117.381 5     -4532.027          32.000
R16  20613005.070 7 110110973.893 7     -2343.324          46.000    20613009.125 7  85641868.200 7     -1822.586          43.000
R18  19694439.938 5 105130265.838 5      -444.387          32.000
C12  22376795.797 4 116521840.981 4      1388.969          29.000    22376783.250 5  90102069.968 5      1073.492          34.000
C22  24220496.195 8 126122520.952 8      2379.855          48.000
C24  24131840.555 8 125660825.394 8     -2160.598          48.000
E02  24085622.102 5 126570799.799 5      -264.387          33.000    24085630.039 5  96982813.941 5      -202.654          35.000
E11  23681996.516 7 124449771.136 7     -1663.113          45.000    23681995.883 7  95357616.178 7     -1274.322          45.000
E25  25492788.547 8 133965490.060 8     -2751.355          49.000    25492793.820 8 102648885.305 8     -2108.074          51.000
E36  23376949.609 7 122846714.175 7       575.137          43.000    23376952.742 7  94129323.432 7       440.689          43.000
> 2020 05 07 15 33  0.0000000  0 17        .000000000000
G10  22060424.258 8 115928333.214 8      2555.691          51.000    22060427.352 8  90333777.003 8      1991.451          51.000
G16  20504497.930 8 107751868.841 8      -559.688          50.000    20504497.180 8  83962499.951 8      -436.120          49.000
G18  22469891.000 5 118080084.613 5     -2875.730          34.000
G20  20986390.852 8 110284241.286 8       391.414          50.000    20986390.711 7  85935788.914 7       305.001          46.000
G26  21471650.617 8 112834264.886 8     -2582.949          50.000    21471654.398 8  87922810.709 8     -2012.688          50.000
R03  22409797.492 6 119961424.057 6      3581.535          39.000    22409801.133 6  93303348.688 6      2785.638          41.000
R16  20626181.906 7 110181363.742 7     -2370.844          47.000    20626186.156 7  85696615.822 7     -1843.990          44.000
R17  21849522.367 5 116921202.611 5     -2776.746          32.000    21849533.664 4  90938745.007 4     -2159.691          27.000
R18  19696916.969 5 105143510.729 5      -460.086          32.000    19696921.523 4  81778253.875 4      -357.848          29.000
C12  22368768.641 5 116480037.063 5      1377.621          31.000    22368756.367 5  90069744.496 5      1065.457          35.000
C19  24179918.109 5 125911182.406 5      -355.742          34.000
C22  24206769.938 8 126051043.561 8      2364.203          48.000
C24  24144274.594 8 125725575.586 8     -2177.059          49.000
E02  24087128.406 5 126578714.755 5      -284.074          35.000    24087136.117 5  96988878.651 5      -218.230          33.000
E11  23691455.781 7 124499479.409 7     -1672.094          45.000    23691455.156 7  95395704.337 7     -1281.272          44.000
E25  25508470.992 8 134047897.954 8     -2763.816          49.000    25508475.008 8 102712028.945 8     -2117.655          51.000
E36  23373640.289 7 122829323.072 7       563.242          42.000    23373643.266 7  94115997.805 7       431.548          43.000
> 2020 05 07 15 33 30.0000000  0 15        .000000000000
G10  22045910.844 8 115852063.761 8      2539.051          51.000    22045913.484 8  90274346.319 8      1978.484          51.000
G16  20507786.992 8 107769153.291 8      -582.562          49.000    20507786.695 8  83975968.336 8      -453.945          49.000
G18  22486364.344 5 118166649.873 5     -2883.969          33.000
G20  20984250.883 8 110272995.700 8       368.445          50.000    20984250.648 7  85927026.150 7       287.103          46.000
G26  21486473.500 8 112912155.111 8     -2599.742          51.000    21486476.844 8  87983504.367 8     -2025.776          51.000
R02  21621066.898 6 115374161.206 6       484.820          36.000    21621067.367 4  89735463.778 4       377.086          28.000
R03  22389796.383 6 119854355.316 6      3566.750          40.000    22389800.586 7  93220073.054 7      2774.142          42.000
R16  20639599.164 7 110253034.786 7     -2396.898          47.000    20639603.531 7  85752359.967 7     -1864.254          44.000
C12                                                                  22360878.625 6  90038017.673 6      1057.812          36.000
C22  24193219.016 8 125980478.745 8      2350.090          48.000
C24  24156888.438 8 125791261.083 8     -2191.988          49.000
E02  24088834.008 6 126587671.978 6      -302.535          36.000    24088839.586 5  96995742.001 5      -231.852          33.000
E11  23701050.914 7 124549900.961 7     -1679.277          45.000    23701049.852 7  95434339.027 7     -1286.644          44.000
E25  25524309.750 8 134131128.719 8     -2774.855          49.000    25524312.984 8 102775803.101 8     -2126.200          51.000
E36  23370484.195 7 122812738.880 7       552.605          42.000    23370486.992 7  94103290.436 7       423.389          43.000
> 2020 05 07 15 34  0.0000000  0 15        .000000000000
G10  22031416.805 8 115775895.658 8      2524.355          51.000    22031418.898 8  90214994.596 8      1967.030          51.000
G16  20511129.930 8 107786721.534 8      -603.340          50.000    20511129.906 8  83989657.858 8      -470.135          49.000
G18  22502814.625 5 118253091.088 5     -2892.438          35.000
G20  20982166.016 8 110262038.720 8       347.457          51.000    20982165.539 7  85918488.260 7       270.746          47.000
G26  21501316.211 8 112990148.790 8     -2614.480          51.000    21501318.789 8  88044278.621 8     -2037.258          51.000
R03  22369803.508 6 119747329.327 6      3553.488          40.000    22369807.891 7  93136830.701 7      2763.827          43.000
R16  20653085.703 8 110325073.983 8     -2420.547          48.000    20653089.891 7  85808390.439 7     -1882.648          44.000
R18  19702230.750 5 105171821.308 5      -485.668          34.000    19702248.414 5  81800361.451 5      -377.742          32.000
C12                                                                  22352978.938 6  90006203.699 6      1052.179          38.000
C22  24179673.609 8 125909942.051 8      2337.926          50.000
C24  24169511.812 8 125856992.989 8     -2204.594          50.000
E02  24090568.070 6 126596776.627 6      -318.633          38.000    24090572.344 5  97002718.287 5      -244.153          34.000
E11  23710611.492 7 124600140.237 7     -1684.297          44.000    23710609.914 7  95472834.053 7     -1290.583          43.000
E25  25540134.133 8 134214285.779 8     -2783.441          49.000    25540137.117 8 102839520.795 8     -2132.743          51.000
E36  23367311.617 7 122796066.285 7       544.234          43.000    23367313.734 7  94090515.283 7       417.184          44.000
> 2020 05 07 15 34 30.0000000  0 15        .000000000000
G10  22017062.797 8 115700464.342 8      2509.082          51.000    22017064.562 8  90156216.982 8      1955.129          51.000
G16  20514647.539 8 107805206.837 8      -624.230          49.000    20514647.219 8  84004061.982 8      -486.413          49.000
G20  20980256.508 8 110252003.514 8       326.270          51.000    20980256.383 8  85910668.640 8       254.236          48.000
G26  21516298.375 8 113068876.945 8     -2629.555          51.000    21516300.109 8  88105625.179 8     -2049.004          51.000
R03  22349939.172 6 119640995.788 6      3539.922          40.000    22349944.305 6  93054126.945 6      2753.276          41.000
R16  20666760.922 7 110398121.495 7     -2444.551          47.000    20666764.930 7  85865205.118 7     -1901.320          44.000
R17  21896389.180 6 117171953.023 6     -2793.812          36.000
R18  19705012.438 5 105186663.853 5      -499.082          32.000
C12                                                                  22345178.078 6  89974788.052 6      1046.065          38.000
C22  24166254.555 8 125840063.040 8      2325.293          51.000
C24  24182264.414 8 125923396.386 8     -2217.590          50.000
E02  24092450.320 6 126606661.678 6      -335.223          38.000    24092454.523 5  97010292.580 5      -257.419          33.000
E11  23720257.531 7 124650829.560 7     -1690.426          43.000    23720256.016 7  95511673.916 7     -1295.213          43.000
E25  25556064.594 8 134298000.557 8     -2792.832          50.000    25556067.820 8 102903665.853 8     -2140.046          51.000
E36  23364242.875 7 122779937.870 7       535.516          44.000    23364244.602 7  94078157.153 7       410.369          45.000
> 2020 05 07 15 35  0.0000000  0 15        .000000000000
G10  22002767.305 8 115625341.093 8      2505.707          51.000    22002769.312 8  90097679.409 8      1952.502          51.000
G16  20518257.664 8 107824177.654 8      -633.590          51.000    20518257.000 8  84018844.417 8      -493.706          49.000
G20  20978440.375 8 110242459.377 8       316.770          51.000    20978440.688 8  85903231.672 8       246.833          48.000
G26  21531337.273 8 113147906.371 8     -2632.477          51.000    21531339.102 8  88167206.482 8     -2051.280          51.000
G27  21015173.719 5 110435483.237 5      1694.727          32.000
R02  21613540.359 6 115333909.932 6       413.426          39.000    21613551.656 4  89704257.973 4       321.556          25.000
R03  22330122.023 6 119534920.030 6      3538.488          38.000    22330127.992 6  92971623.665 6      2752.161          39.000
R16  20680541.367 7 110471735.327 7     -2456.281          46.000    20680545.641 7  85922460.310 7     -1910.441          44.000
C12  22337397.492 4 116316690.684 4      1358.020          28.000    22337391.945 4  89943440.540 4      1048.008          28.000
C22  24152879.906 8 125770416.706 8      2324.402          50.000
C24  24195063.148 8 125990041.847 8     -2218.754          51.000
E02  24094397.719 6 126616896.090 6      -340.172          36.000
E11  23729906.789 7 124701537.003 7     -1683.867          42.000    23729905.523 7  95550527.669 7     -1290.119          42.000
E25  25572018.914 8 134381840.180 8     -2789.723          50.000    25572022.352 8 102967906.564 8     -2137.598          51.000
E36  23361195.656 7 122763922.046 7       538.969          44.000    23361197.000 7  94065885.323 7       412.767          45.000
> 2020 05 07 15 35 30.0000000  0 17        .000000000000
G10  21988478.930 8 115550255.571 8      2492.316          51.000    21988481.477 8  90039171.242 8      1942.065          51.000
G16  20521908.258 8 107843361.207 8      -652.934          51.000    20521907.141 8  84033792.628 8      -508.779          49.000
G20  20976665.891 8 110233133.821 8       297.375          51.000    20976665.867 8  85895965.009 8       231.721          49.000
G26  21546380.828 8 113226962.304 8     -2645.512          50.000    21546383.641 8  88228808.441 8     -2061.438          51.000
G27  21005560.773 5 110384966.119 5      1684.777          32.000
R02  21611287.727 6 115321785.021 6       386.832          36.000    21611278.578 5  89694842.009 5       300.869          32.000
R03  22310302.883 6 119428828.782 6      3526.535          40.000    22310308.531 6  92889108.277 6      2742.864          39.000
R16  20694375.195 7 110545635.052 7     -2478.008          46.000    20694379.742 7  85979937.846 7     -1927.339          44.000
R17  21927667.273 6 117339271.086 6     -2790.465          36.000    21927657.094 5  91263878.468 5     -2170.355          30.000
R18  19710644.797 5 105216700.934 5      -509.094          31.000    19710658.805 4  81835290.694 4      -395.965          27.000
C12  22329574.453 5 116275954.756 5      1350.914          34.000
C22  24139498.414 8 125700735.200 8      2313.523          49.000
C24  24207856.234 8 126056656.870 8     -2229.742          51.000
E02  24096360.211 6 126627207.011 6      -355.008          40.000
E11  23739507.430 6 124751989.190 6     -1687.051          40.000    23739506.461 7  95589185.848 7     -1293.011          42.000
E25  25587944.891 8 134465530.351 8     -2797.141          51.000    25587948.516 8 103032032.760 8     -2143.249          51.000
E36  23358117.867 7 122747745.741 7       532.039          44.000    23358118.797 7  94053490.501 7       407.657          45.000
> 2020 05 07 15 36  0.0000000  0 16        .000000000000
G10  21974302.242 8 115475757.222 8      2464.438          51.000    21974305.164 8  89981120.618 8      1920.341          51.000
G16  20525703.352 8 107863304.282 8      -686.398          50.000    20525701.773 8  84049332.691 8      -534.856          49.000
G20  20975036.930 8 110224573.630 8       263.531          51.000    20975037.055 8  85889294.741 8       205.352          49.000
G26  21561532.492 7 113306589.706 7     -2672.715          47.000    21561536.578 7  88290855.748 7     -2082.635          46.000
R02  21609188.172 6 115310785.921 6       346.723          40.000    21609185.445 5  89686152.692 5       269.676          35.000
R03  22290586.305 6 119323283.884 6      3500.023          40.000    22290591.617 6  92807017.832 6      2722.240          39.000
R16  20708366.258 7 110620373.446 7     -2514.281          45.000    20708370.828 7  86038067.658 7     -1955.552          45.000
R17  21943337.164 5 117423101.532 5     -2808.066          34.000    21943318.070 4  91329080.374 4     -2184.033          28.000
R18  19713550.594 5 105232198.774 5      -534.098          32.000
C12  22321825.000 5 116235593.824 5      1330.070          30.000    22321824.703 5  89880725.767 5      1029.038          32.000
C22  24126214.188 8 125631562.885 8      2288.285          49.000
C24  24220746.727 8 126123781.358 8     -2254.938          51.000
E02  24098441.242 6 126638141.406 6      -383.480          36.000
E11  23749163.688 6 124802732.482 6     -1705.285          39.000    23749162.734 6  95628067.031 6     -1306.533          41.000
E25  25603946.047 8 134549616.356 8     -2818.344          50.000    25603949.898 8 103096462.237 8     -2159.462          51.000
E36  23355113.211 7 122731955.593 7       510.910          44.000    23355114.039 7  94041391.553 7       391.545          44.000
> 2020 05 07 15 36 30.0000000  0 15        .000000000000
G10  21960234.547 8 115401832.229 8      2461.711          51.000    21960237.648 8  89923516.758 8      1918.219          51.000
G16  20529640.000 8 107883990.552 8      -694.703          51.000    20529638.148 8  84065451.838 8      -541.330          49.000
G20  20973550.750 8 110216763.462 8       255.008          51.000    20973550.883 8  85883208.905 8       198.707          49.000
G26  21576789.156 7 113386770.280 7     -2674.812          46.000    21576794.469 7  88353334.135 7     -2084.266          46.000
R03  22270969.109 6 119218273.211 6      3498.875          40.000    22270974.594 6  92725342.923 6      2721.350          38.000
R16  20722510.344 7 110695930.367 7     -2524.848          44.000    20722515.297 7  86096834.105 7     -1963.773          45.000
R17  21959053.070 5 117507200.040 5     -2800.602          35.000    21959032.852 4  91394490.363 4     -2178.249          28.000
R18  19716547.281 5 105248175.324 5      -532.926          30.000    19716572.711 4  81859845.354 4      -414.492          27.000
C12                                                                  22314138.734 5  89849782.416 5      1032.431          33.000
C22  24113025.188 8 125562885.954 8      2288.176          48.000
C24  24233731.602 8 126191396.939 8     -2254.941          51.000
E02                                                                  24100644.742 5  97043314.520 5      -297.454          32.000
E11  23758872.320 6 124853749.940 6     -1698.160          37.000    23758871.242 6  95667158.296 6     -1301.236          41.000
E25  25620018.750 8 134634080.325 8     -2814.676          50.000    25620022.898 8 103161181.319 8     -2156.682          51.000
E36  23352178.828 7 122716534.948 7       514.910          44.000    23352179.680 7  94029575.729 7       394.622          45.000
> 2020 05 07 15 37  0.0000000  0 15        .000000000000
G10  21946180.766 8 115327981.483 8      2445.004          51.000    21946184.227 8  89865970.774 8      1905.201          51.000
G16  20533622.656 8 107904917.838 8      -717.066          51.000    20533620.578 8  84081758.808 8      -558.753          48.000
G18  22602291.297 5 118775845.218 5     -2923.191          33.000
G20  20972111.812 8 110209201.733 8       232.551          51.000    20972111.531 8  85877316.657 8       181.208          48.000
G26  21592055.992 8 113467000.510 8     -2690.664          48.000    21592061.664 7  88415851.208 7     -2096.621          47.000
R03  22251357.852 7 119113290.304 7      3483.262          42.000    22251362.219 6  92643689.680 6      2709.207          36.000
R16  20736711.805 7 110771792.536 7     -2549.633          45.000    20736716.977 7  86155838.000 7     -1983.048          44.000
C12                                                                  22306423.867 5  89818721.399 5      1025.423          33.000
C19  24199453.445 5 126012840.429 5      -493.266          34.000
C22  24099835.922 7 125494209.795 7      2273.863          46.000
C24  24246714.594 8 126259004.487 8     -2268.605          49.000
E02  24102851.891 5 126661337.476 5      -405.551          32.000    24102861.141 5  97052233.207 5      -310.298          33.000
E11  23768537.359 6 124904539.280 6     -1704.570          37.000    23768536.742 6  95706074.797 6     -1306.243          41.000
E25  25636067.258 8 134718419.041 8     -2824.527          50.000    25636071.758 8 103225804.446 8     -2164.251          51.000
E36  23349219.281 7 122700981.896 7       505.199          44.000    23349220.391 7  94017658.465 7       387.038          46.000
> 2020 05 07 15 37 30.0000000  0 17        .000000000000
G10  21932270.492 8 115254884.407 8      2432.812          51.000    21932273.781 8  89809012.065 8      1895.701          51.000
G16  20537780.008 8 107926763.021 8      -734.613          51.000    20537777.281 7  84098781.034 7      -572.423          47.000
G18  22619000.477 5 118863660.383 5     -2926.320          35.000
G20  20970849.141 8 110202565.721 8       214.656          51.000    20970848.867 8  85872145.745 8       167.265          48.000
G26  21607461.617 8 113547955.307 8     -2701.750          49.000    21607466.625 8  88478932.851 8     -2105.260          49.000
R03  22231881.352 6 119009029.520 6      3472.172          40.000    22231884.477 6  92562598.072 6      2700.584          37.000
R16  20751099.148 7 110848644.625 7     -2569.090          45.000    20751103.922 7  86215611.824 7     -1998.181          44.000
R17  21990477.523 5 117675486.671 5     -2808.406          31.000
R18  19722658.555 5 105280838.042 5      -554.961          30.000
C12                                                                  22298810.008 5  89788061.773 5      1022.079          33.000
C19  24202357.172 5 126027937.575 5      -509.004          32.000
C22  24086776.180 7 125426207.309 7      2264.242          47.000
C24  24259824.008 8 126327272.549 8     -2277.797          48.000
E02                                                                  24105226.391 6  97061757.562 6      -320.792          36.000
E11  23778287.344 5 124955776.900 5     -1706.727          33.000    23778287.688 6  95745334.776 6     -1307.578          40.000
E25  25652220.523 8 134803307.845 8     -2830.043          50.000    25652225.453 8 103290849.069 8     -2168.412          51.000
E36  23346363.070 7 122685972.968 7       500.117          44.000    23346364.805 7  94006158.129 7       383.252          46.000
> 2020 05 07 15 38  0.0000000  0 14        .000000000000
G10  21918415.570 8 115182079.478 8      2419.520          49.000    21918418.812 8  89752281.024 8      1885.343          49.000
G16  20542023.578 8 107949062.232 8      -753.348          51.000    20542020.586 8  84116157.022 8      -587.024          48.000
G18  22635715.414 5 118951508.775 5     -2930.961          33.000    22635716.664 5  92689474.825 5     -2283.866          34.000
G20  20969674.383 8 110196391.771 8       195.617          50.000    20969674.008 7  85867334.878 7       152.429          47.000
G26  21622916.656 8 113629168.786 8     -2713.930          50.000    21622920.656 8  88542216.035 8     -2114.750          50.000
R02  21602332.031 5 115274211.468 5       251.160          35.000
R03  22212450.953 6 118905022.750 6      3460.098          38.000    22212455.328 6  92481703.967 6      2691.187          37.000
R16  20765583.148 7 110926011.753 7     -2589.918          45.000    20765587.352 7  86275786.253 7     -2014.378          44.000
C22  24073758.930 8 125358421.272 8      2253.379          48.000
C24  24272971.875 7 126395739.278 7     -2287.895          46.000
E02  24107642.711 5 126686519.095 5      -432.605          31.000    24107652.812 6  97071525.990 6      -331.381          38.000
E11                                                                  23788034.977 6  95784582.317 6     -1309.928          40.000
E25  25668390.555 8 134888281.186 8     -2836.234          51.000    25668395.664 8 103355958.465 8     -2173.207          51.000
E36  23343522.055 7 122671043.992 7       493.914          45.000    23343524.305 7  93994719.042 7       378.442          45.000
> 2020 05 07 15 38 30.0000000  0 14        .000000000000
G10  21904647.922 8 115109732.996 8      2406.641          49.000    21904651.328 8  89695907.208 8      1875.307          49.000
G16  20546384.492 8 107971978.675 8      -771.426          51.000    20546381.664 8  84134013.952 8      -601.114          48.000
G18  22652467.328 5 119039552.417 5     -2935.516          30.000
G20  20968618.664 8 110190844.016 8       177.199          50.000    20968617.828 7  85863011.946 7       138.074          47.000
G26  21638451.578 8 113710802.759 8     -2725.332          50.000    21638454.516 8  88605826.864 8     -2123.638          50.000
R02  21601005.281 5 115267084.823 5       226.156          35.000
R03  22193099.914 6 118801441.934 6      3448.270          37.000    22193106.047 6  92401141.161 6      2681.990          38.000
R16  20780193.203 7 111004056.799 7     -2610.051          43.000    20780197.531 7  86336487.952 7     -2030.039          42.000
C22  24060814.766 8 125291016.418 8      2243.059          48.000
C24  24286189.188 7 126464564.911 7     -2297.328          47.000
E02                                                                  24110171.898 5  97081671.145 5      -342.192          33.000
E11                                                                  23797809.477 6  95823942.525 6     -1311.903          39.000
E25  25684608.000 8 134973501.378 8     -2842.125          51.000    25684613.094 8 103421257.010 8     -2177.711          51.000
E36  23340727.297 7 122656358.503 7       488.160          45.000    23340729.836 7  93983466.495 7       374.057          45.000
> 2020 05 07 15 39  0.0000000  0 15        .000000000000
G10  21890945.477 8 115037727.079 8      2411.133          51.000    21890948.812 8  89639798.721 8      1878.805          51.000
G16  20550839.859 8 107995391.941 8      -772.109          51.000    20550836.898 8  84152258.042 8      -601.644          48.000
G18  22669236.945 5 119127640.252 5     -2921.445          33.000
G20  20967659.250 8 110185802.366 8       176.254          49.000    20967658.602 7  85859083.400 7       137.341          46.000
G26  21654043.203 8 113792734.849 8     -2719.320          51.000    21654045.531 8  88669669.989 8     -2118.951          51.000
R03  22173808.555 7 118698168.299 7      3454.270          43.000    22173813.852 6  92320817.285 6      2686.654          38.000
R16  20794905.523 6 111082653.849 6     -2612.180          41.000    20794910.469 6  86397618.987 6     -2031.695          41.000
R17  22037762.359 4 117928505.465 4     -2797.484          29.000
C12                                                                  22276097.945 5  89696638.176 5      1023.263          31.000
C19  24211538.617 4 126075813.349 4      -538.996          29.000
C22  24047920.602 7 125223875.774 7      2250.039          46.000
C24  24299453.141 8 126533628.029 8     -2289.547          49.000
E11                                                                  23807588.609 6  95863322.727 6     -1300.562          37.000
E25  25700849.305 8 135058846.436 8     -2830.227          51.000    25700854.219 8 103486651.239 8     -2168.654          51.000
E36  23337955.656 7 122641795.781 7       500.062          45.000    23337958.969 7  93972308.045 7       383.030          46.000
> 2020 05 07 15 39 30.0000000  0 15        .000000000000
G10  21877324.766 8 114966149.441 8      2375.266          51.000    21877328.117 8  89584023.955 8      1850.856          51.000
G16  20555405.758 8 108019386.941 8      -813.051          51.000    20555403.070 8  84170955.436 8      -633.549          49.000
G18  22686036.625 5 119215913.871 5     -2949.023          34.000
G20  20966812.266 8 110181352.164 8       134.938          50.000    20966811.656 7  85855615.734 7       105.146          44.000
G26  21669706.969 8 113875048.323 8     -2753.559          49.000    21669708.984 8  88733810.295 8     -2145.633          49.000
G27  20930463.547 5 109990327.368 5      1603.617          32.000
R03  22154592.602 7 118595293.967 7      3418.848          44.000    22154596.734 6  92240804.060 6      2659.107          36.000
R16  20809737.945 7 111161886.491 7     -2655.301          45.000    20809742.359 6  86459244.328 6     -2065.237          41.000
C12                                                                  22268600.289 5  89666414.106 5      1002.198          32.000
C22  24035093.250 7 125157086.200 7      2216.715          44.000
C24  24312778.914 8 126603010.957 8     -2321.496          49.000
E02  24115419.891 6 126727375.277 6      -479.180          37.000
E11                                                                  23817388.594 6  95902787.838 6     -1319.610          37.000
E25  25717130.078 8 135144400.047 8     -2858.824          51.000    25717134.750 8 103552205.276 8     -2190.534          51.000
E36  23335223.625 7 122627440.828 7       471.602          45.000    23335227.789 7  93961308.817 7       361.246          46.000
> 2020 05 07 15 40  0.0000000  0 17        .000000000000
G10  21863791.430 8 114895031.063 8      2364.199          50.000    21863795.023 8  89528607.060 8      1842.233          50.000
G16  20560087.688 8 108043992.157 8      -829.113          50.000    20560086.094 8  84190128.305 8      -646.062          50.000
G18  22702870.594 5 119304371.136 5     -2950.375          32.000
G20  20966083.453 8 110177522.260 8       118.664          50.000    20966082.516 7  85852631.405 7        92.466          44.000
G21  22893320.266 5 120305214.013 5     -2475.457          31.000
G26  21685447.766 7 113957769.741 7     -2762.883          47.000    21685449.922 7  88798268.500 7     -2152.896          47.000
R02  21597826.641 5 115250167.579 5       147.445          32.000    21597824.562 4  89638998.571 4       114.680          26.000
R03  22135457.523 7 118492852.274 7      3408.781          43.000    22135459.570 5  92161127.262 5      2651.277          31.000
R16  20824695.336 8 111241779.742 8     -2672.750          48.000    20824698.766 7  86521383.436 7     -2078.809          42.000
C12                                                                  22261142.383 5  89636365.933 5       999.914          34.000
C19  24218145.133 5 126110250.287 5      -590.227          30.000
C22  24022340.078 7 125090678.288 7      2208.488          46.000
C24  24326170.375 8 126672739.826 8     -2328.707          48.000
E02  24118184.508 6 126741891.761 6      -490.410          36.000
E11                                                                  23827215.844 6  95942359.293 6     -1319.643          37.000
E25  25733455.250 8 135230189.148 8     -2862.109          51.000    25733459.750 8 103617939.764 8     -2193.042          51.000
E36  23332536.648 7 122613321.880 7       468.105          44.000    23332540.836 7  93950490.430 7       358.720          45.000
> 2020 05 07 15 40 30.0000000  0 14        .000000000000
G10  21850398.305 8 114824650.912 8      2348.473          48.000    21850402.203 8  89473765.440 8      1829.982          48.000
G16  20564938.258 8 108069483.995 8      -849.711          50.000    20564937.508 8  84209992.043 8      -662.112          50.000
G20  20965525.164 8 110174589.254 8        97.629          50.000    20965524.750 7  85850345.988 7        76.078          43.000
G26  21701318.383 7 114041173.632 7     -2776.816          47.000    21701320.969 7  88863258.527 7     -2163.753          47.000
R03  22116456.078 6 118391129.928 6      3393.773          41.000    22116456.367 4  92082009.949 4      2639.599          29.000
R16  20839828.133 7 111322611.447 7     -2694.863          47.000    20839831.211 7  86584252.494 7     -2096.005          42.000
R17  22085267.570 5 118182725.371 5     -2826.836          31.000    22085286.102 5  91919961.163 5     -2198.650          32.000
C12                                                                  22253775.734 5  89606697.900 5       993.616          30.000
C22  24009714.016 8 125024928.593 8      2195.305          48.000
C24  24339678.586 7 126743086.463 7     -2340.422          44.000
E02  24121087.852 6 126757160.774 6      -506.969          36.000
E11                                                                  23837122.734 6  95982248.689 6     -1323.681          37.000
E25  25749877.406 8 135316488.783 8     -2870.422          51.000    25749881.445 8 103684065.433 8     -2199.375          51.000
E36  23329947.062 7 122599715.294 7       459.988          43.000    23329950.711 7  93940064.622 7       352.354          45.000
> 2020 05 07 15 41  0.0000000  0 16        .000000000000
G10  21837006.812 8 114754280.108 8      2336.562          49.000    21837010.797 8  89418931.116 8      1820.701          49.000
G16  20569818.430 8 108095130.308 8      -866.418          50.000    20569818.133 8  84229976.173 8      -675.131          50.000
G20  20964998.531 8 110171822.081 8        80.586          51.000    20964997.758 7  85848189.767 7        62.794          43.000
G26  21717179.930 8 114124526.734 8     -2786.547          48.000    21717182.297 8  88928208.970 8     -2171.335          48.000
G27  20903228.469 5 109847206.144 5      1578.828          32.000
R02  21596537.039 6 115243229.115 6        95.102          38.000    21596511.211 4  89633596.188 4        73.950          27.000
R03  22097449.766 6 118289386.348 6      3382.652          38.000    22097449.461 4  92002876.167 4      2630.955          28.000
R16  20854995.875 7 111403634.443 7     -2712.977          46.000    20854998.781 6  86647270.353 6     -2110.096          41.000
R18  19745914.492 5 105404995.931 5      -624.352          33.000
C19  24225192.492 5 126146952.296 5      -622.648          31.000
C22  23997075.539 8 124959114.636 8      2185.930          48.000
C24  24353163.672 6 126813324.073 6     -2348.105          41.000
E02  24123995.734 5 126772450.785 5      -518.934          35.000
E11  23846969.742 5 125316677.504 5     -1728.379          33.000    23846969.297 6  96021895.190 6     -1324.740          36.000
E25  25766257.562 8 135402566.048 8     -2874.387          51.000    25766260.492 8 103750020.697 8     -2202.488          50.000
E36  23327315.648 7 122585889.496 7       455.617          43.000    23327319.133 7  93929470.799 7       349.067          45.000
> 2020 05 07 15 41 30.0000000  0 14        .000000000000
G10  21823737.617 8 114684549.229 8      2319.238          51.000    21823741.234 8  89364595.383 8      1807.199          51.000
G16  20574847.492 8 108121558.903 8      -888.445          48.000    20574847.523 8  84250569.865 8      -692.295          48.000
G20  20964623.008 8 110169849.082 8        57.965          50.000    20964621.859 7  85846652.383 7        45.167          44.000
G26  21733151.258 8 114208455.129 8     -2801.699          49.000    21733153.062 8  88993607.671 8     -2183.142          49.000
R03  22078560.805 5 118188265.912 5      3365.766          35.000    22078559.453 5  91924226.985 5      2617.821          33.000
R16  20870318.422 7 111485483.818 7     -2736.422          46.000    20870320.609 6  86710930.913 6     -2128.331          41.000
R17  22117010.062 5 118352598.523 5     -2833.828          33.000
C19  24228846.500 4 126165961.338 4      -642.379          27.000
C22  23984544.523 7 124893861.104 7      2171.000          47.000
C24  24366749.711 7 126884072.971 7     -2361.430          44.000
E02  24127027.695 5 126788389.836 5      -536.469          35.000
E11  23856873.805 5 125368730.178 5     -1734.809          31.000    23856874.555 5  96061779.665 5     -1329.059          35.000
E25  25782714.945 8 135489047.489 8     -2883.996          51.000    25782716.492 8 103816285.611 8     -2209.836          49.000
E36  23324762.352 7 122572472.246 7       445.711          42.000    23324765.742 7  93919190.038 7       341.686          46.000
> 2020 05 07 15 42  0.0000000  0 13        .000000000000
G10  21810524.969 8 114615113.806 8      2306.508          51.000    21810528.320 8  89310489.865 8      1797.279          51.000
G16  20579959.258 8 108148422.847 8      -905.840          48.000    20579959.617 8  84271502.797 8      -705.849          48.000
G20  20964332.625 8 110168323.351 8        40.422          50.000    20964331.719 7  85845463.534 7        31.498          43.000
G26  21749165.578 8 114292609.872 8     -2811.949          49.000    21749167.039 8  89059182.746 8     -2191.132          49.000
R02  21595767.109 5 115239165.954 5        41.152          35.000    21595770.141 4  89630474.495 4        32.001          29.000
R16  20885729.117 7 111567803.750 7     -2754.973          47.000    20885731.203 7  86774957.490 7     -2142.757          42.000
R17  22132881.906 5 118437486.331 5     -2835.656          35.000    22132884.062 4  92118081.525 4     -2205.510          27.000
C22  23972055.367 7 124828826.637 7      2161.094          46.000
C24  24380368.953 7 126954987.205 7     -2369.594          47.000
E02  24130118.586 6 126804631.175 6      -549.398          39.000    24130138.414 6  97162053.155 6      -420.836          36.000
E11                                                                  23866772.219 5  96101635.999 5     -1330.466          34.000
E25  25799182.930 8 135575584.629 8     -2888.477          51.000    25799183.711 8 103882593.195 8     -2213.239          49.000
E36  23322220.883 7 122559116.358 7       440.996          43.000    23322224.219 7  93908956.338 7       338.023          46.000
> 2020 05 07 15 42 30.0000000  0 15        .000000000000
G10  21797409.367 8 114546188.076 8      2290.789          51.000    21797412.742 8  89256781.520 8      1785.030          51.000
G16  20585194.516 8 108175933.999 8      -925.941          49.000    20585194.914 8  84292940.046 8      -721.513          49.000
G20  20964167.797 8 110167457.109 8        19.590          49.000    20964166.961 7  85844788.552 7        15.268          43.000
G21  22964254.438 5 120677970.716 5     -2491.738          33.000
G26  21765262.930 8 114377200.828 8     -2825.113          49.000    21765264.758 8  89125097.730 8     -2201.387          49.000
R02  21595622.195 5 115238376.604 5        13.738          35.000    21595622.734 4  89629860.481 4        10.688          28.000
R03  22040984.164 5 117987023.750 5      3338.695          35.000    22040975.398 5  91767687.762 5      2596.766          34.000
R16  20901267.055 7 111650805.601 7     -2776.062          45.000    20901270.070 6  86839514.486 6     -2159.160          41.000
R17  22148766.734 5 118522523.468 5     -2839.172          30.000
C22  23959649.414 8 124764223.662 8      2147.945          48.000
C24  24394059.930 8 127026274.612 8     -2380.543          48.000
E02  24133308.398 6 126821386.509 6      -565.391          41.000    24133317.320 6  97174891.785 6      -433.359          37.000
E11                                                                  23876702.633 5  96141626.158 5     -1333.926          33.000
E25  25815701.359 8 135662387.770 8     -2896.141          51.000    25815702.328 8 103949104.610 8     -2219.148          49.000
E36  23319731.625 7 122546033.534 7       433.301          44.000    23319734.844 7  93898931.839 7       331.989          46.000
> 2020 05 07 15 43  0.0000000  0 14        .000000000000
G10  21784365.570 8 114477640.954 8      2284.156          51.000    21784368.984 8  89203368.186 8      1779.862          51.000
G16  20590527.320 8 108203957.659 8      -937.176          49.000    20590527.609 8  84314776.670 8      -730.267          49.000
G20  20964102.953 8 110167116.948 8         8.090          48.000    20964102.344 7  85844523.504 7         6.307          44.000
G21  22978470.641 5 120752677.604 5     -2486.941          33.000
G26  21781417.734 8 114462092.513 8     -2829.133          51.000    21781420.180 8  89191247.063 8     -2204.519          50.000
R03  22022308.227 5 117887036.437 5      3332.156          34.000    22022298.148 5  91689920.006 5      2591.683          30.000
R16  20916905.961 7 111734350.187 7     -2788.242          45.000    20916910.227 6  86904493.600 6     -2168.633          41.000
R17  22164725.367 5 118607924.369 5     -2834.668          32.000    22164725.133 4  92250588.449 4     -2204.739          27.000
C22  23947301.422 8 124699922.204 8      2143.883          48.000
C24  24407796.359 7 127097800.719 7     -2382.711          47.000
E02  24136570.367 6 126838522.297 6      -572.121          40.000    24136574.758 6  97188021.803 6      -438.381          40.000
E11                                                                  23886641.531 5  96181647.428 5     -1330.287          34.000
E25  25832244.219 8 135749321.860 8     -2894.465          50.000    25832246.258 8 104015716.382 8     -2217.849          50.000
E36  23317269.062 7 122533090.018 7       434.637          45.000    23317272.305 7  93889014.066 7       333.012          46.000
> 2020 05 07 15 43 30.0000000  0 15        .000000000000
G10  21771387.336 8 114409439.062 8      2264.656          51.000    21771390.969 8  89150223.880 8      1764.667          51.000
G16  20595950.906 8 108232457.838 8      -960.797          50.000    20595951.008 8  84336984.610 8      -748.673          50.000
G20  20964131.414 7 110167266.955 7       -16.094          47.000    20964131.266 7  85844640.419 7       -12.541          43.000
G26  21797622.570 8 114547247.101 8     -2845.930          51.000    21797625.750 8  89257601.270 8     -2217.608          51.000
R02  21595744.625 6 115238998.174 6       -36.305          38.000
R16  20932639.352 7 111818397.580 7     -2812.984          46.000    20932643.781 6  86969863.737 6     -2187.877          40.000
R17  22180625.008 5 118693013.213 5     -2842.414          31.000
R18  19764172.414 5 105502455.505 5      -672.969          31.000    19764175.438 4  82057496.061 4      -523.414          29.000
C19  24244384.703 4 126246888.149 4      -705.488          29.000
C22  23935003.859 7 124635888.968 7      2126.855          45.000
C24  24421570.367 7 127169527.912 7     -2397.305          46.000
E02  24139897.328 6 126856002.588 6      -591.277          40.000    24139900.016 6  97201415.795 6      -453.158          40.000
E11                                                                  23896583.031 5  96221672.165 5     -1336.518          34.000
E25  25848804.109 7 135836349.553 7     -2905.617          47.000    25848807.938 8 104082399.892 8     -2226.313          49.000
E36  23314825.891 7 122520249.777 7       423.375          45.000    23314829.383 7  93879175.450 7       324.255          46.000
> 2020 05 07 15 44  0.0000000  0 14        .000000000000
G10  21758537.797 8 114341913.439 8      2235.473          51.000    21758541.609 8  89097606.536 8      1741.927          51.000
G16  20601527.852 8 108261763.313 8      -994.332          50.000    20601527.766 8  84359820.035 8      -774.804          50.000
G20  20964315.547 7 110168235.973 7       -50.004          45.000    20964315.609 7  85845395.473 7       -38.967          43.000
G26  21813939.336 8 114632991.193 8     -2872.043          50.000    21813943.203 8  89324414.834 8     -2237.956          50.000
R03  21985192.992 6 117688441.320 6      3284.094          39.000    21985191.484 4  91535451.199 4      2554.298          27.000
R16  20948529.336 7 111903277.965 7     -2847.223          46.000    20948533.305 6  87035881.758 6     -2214.510          41.000
C19  24248548.867 4 126268493.419 4      -736.633          29.000
C22  23922821.320 8 124572451.951 8      2100.609          48.000
C24  24435444.812 7 127241779.667 7     -2420.957          45.000
E02  24143351.281 6 126874155.938 6      -620.246          38.000    24143352.477 6  97215325.580 6      -475.466          39.000
E09  25974599.789 6 136497435.458 6      2758.867          41.000    25974610.125 7 104588983.223 7      2113.877          43.000
E11                                                                  23906588.859 5  96261951.745 5     -1349.972          35.000
E25  25865443.516 7 135923797.900 7     -2926.020          46.000    25865449.359 8 104149405.758 8     -2241.976          49.000
E36  23312464.594 7 122507841.237 7       402.391          45.000    23312468.422 7  93869667.623 7       308.268          46.000
> 2020 05 07 15 44 30.0000000  0 17        .000000000000
G10  21745745.992 8 114274692.131 8      2234.391          51.000    21745749.914 8  89045226.314 8      1741.084          51.000
G16  20607186.828 8 108291499.172 8      -999.559          51.000    20607186.344 8  84382990.827 8      -778.877          51.000
G20  20964584.367 7 110169649.670 7       -55.504          44.000    20964584.734 7  85846497.038 7       -43.250          43.000
G26  21830296.508 8 114718948.432 8     -2869.910          51.000    21830300.562 8  89391394.477 8     -2236.297          51.000
R02  21596503.039 6 115243075.517 6       -89.348          36.000
R03  21966759.148 6 117589751.517 6      3283.273          36.000    21966756.781 4  91458692.570 4      2553.663          25.000
R16  20964503.297 7 111988607.444 7     -2852.945          47.000    20964507.062 6  87102249.070 6     -2218.961          41.000
R17  22212582.664 5 118864010.873 5     -2848.305          33.000
R18  19771900.000 4 105543701.614 4      -693.379          27.000    19771901.781 4  82089586.170 4      -539.295          29.000
C19  24252769.625 5 126290525.369 5      -739.496          30.000
C22  23910683.172 8 124509242.674 8      2101.949          50.000
C24  24449349.383 7 127314182.943 7     -2417.074          47.000
E02  24146861.570 6 126892608.025 6      -621.312          39.000    24146861.211 6  97229464.236 6      -476.068          40.000
E09  25958780.781 7 136414299.875 7      2772.105          43.000    25958789.266 6 104525282.039 6      2124.024          40.000
E11                                                                  23916586.578 5  96302199.043 5     -1341.984          35.000
E25  25882091.703 7 136011291.028 7     -2918.461          45.000    25882099.047 8 104216445.949 8     -2236.226          49.000
E36  23310114.055 7 122495489.846 7       409.492          45.000    23310118.008 7  93860203.566 7       313.839          46.000
> 2020 05 07 15 45  0.0000000  0 15        .000000000000
G10  21733010.648 8 114207769.221 8      2233.309          51.000    21733014.773 8  88993078.638 8      1740.244          51.000
G16  20612926.125 8 108321656.584 8     -1004.801          51.000    20612925.234 8  84406490.097 8      -782.962          51.000
G20  20964936.445 7 110171500.004 7       -61.422          45.000    20964937.125 7  85847938.839 7       -47.861          43.000
G21  23035536.258 5 121052544.713 5     -2489.168          30.000
G26  21846692.484 8 114805108.592 8     -2867.836          51.000    21846696.320 8  89458532.212 8     -2234.680          51.000
R03  21948379.617 6 117491352.136 6      3283.285          36.000    21948372.641 4  91382180.142 4      2553.666          28.000
R16  20980559.070 7 112074373.735 7     -2858.352          47.000    20980562.336 7  87168956.128 7     -2223.165          42.000
C19  24257058.508 4 126312869.005 4      -740.621          27.000
C22  23898587.266 8 124446255.210 8      2103.418          49.000
C24  24463281.320 7 127386727.394 7     -2412.969          47.000
E02  24150428.500 7 126911350.458 7      -621.941          42.000    24150426.922 6  97243825.313 6      -476.561          41.000
E09  25942935.578 7 136331032.037 7      2785.141          43.000    25942941.914 6 104461479.506 6      2134.452          37.000
E11                                                                  23926574.016 5  96342407.408 5     -1333.953          34.000
E25  25898747.664 7 136098819.174 7     -2910.398          46.000    25898754.820 7 104283512.938 7     -2229.992          47.000
E36  23307772.766 7 122483187.090 7       416.879          45.000    23307776.312 7  93850776.779 7       319.561          45.000
> 2020 05 07 15 45 30.0000000  0 16        .000000000000
G10  21720433.984 8 114141679.388 8      2200.500          51.000    21720437.727 8  88941580.099 8      1714.675          51.000
G16  20618846.594 8 108352767.310 8     -1041.402          51.000    20618845.422 8  84430732.207 8      -811.482          51.000
G20  20965473.039 7 110174319.077 7       -98.582          46.000    20965473.125 7  85850135.510 7       -76.817          43.000
G26  21863228.133 8 114892001.843 8     -2897.129          51.000    21863231.352 8  89526241.173 8     -2257.506          51.000
R02  21597846.344 6 115250176.419 6      -146.375          36.000
R03  21930153.188 5 117393790.423 5      3249.520          31.000    21930147.477 5  91306299.029 5      2527.413          32.000
R16  20996797.266 7 112161114.273 7     -2895.746          46.000    20996800.477 7  87236420.933 7     -2252.250          42.000
R17  22244589.609 5 119035246.193 5     -2858.719          35.000    22244591.594 4  92582997.211 4     -2223.445          28.000
R18  19779841.242 5 105586150.183 5      -717.480          30.000    19779858.773 5  82122588.423 5      -558.037          34.000
C22  23886635.312 8 124384019.342 8      2073.363          48.000
C24  24477340.977 8 127459938.277 8     -2440.020          48.000
E02  24154152.234 6 126930915.402 6      -654.309          41.000    24154150.023 6  97258816.604 6      -501.332          41.000
E09  25927166.586 7 136248166.373 7      2767.008          42.000    25927166.680 5 104397985.293 5      2120.025          34.000
E11                                                                  23936651.258 5  96382976.334 5     -1350.023          32.000
E25  25915512.250 7 136186913.090 7     -2934.402          47.000    25915517.711 7 104351013.405 7     -2248.345          46.000
E36  23305542.234 7 122471465.038 7       392.676          45.000    23305545.359 7  93841794.947 7       300.899          45.000
> 2020 05 07 15 46  0.0000000  0 13        .000000000000
G10  21707914.109 8 114075886.457 8      2182.645          51.000    21707917.625 8  88890312.910 8      1700.762          51.000
G16  20624845.711 8 108384292.432 8     -1063.273          51.000    20624844.289 8  84455297.221 8      -828.525          51.000
G20  20966091.758 7 110177568.462 7      -121.031          47.000    20966091.422 7  85852667.477 7       -94.310          44.000
G26  21879800.164 8 114979087.670 8     -2911.594          51.000    21879803.000 8  89594100.186 8     -2268.777          50.000
R16  21013114.547 7 112248278.011 7     -2918.152          45.000    21013117.977 7  87304214.898 7     -2269.674          42.000
R18  19783904.453 5 105607821.011 5      -730.711          32.000    19783910.367 5  82139453.647 5      -568.328          30.000
C22  23874724.703 7 124322003.664 7      2057.910          47.000
C24  24491425.492 8 127533279.801 8     -2452.371          48.000
E02  24157929.289 7 126950764.215 7      -671.789          43.000    24157927.250 6  97274025.403 6      -514.825          41.000
E09  25911371.688 6 136165166.647 6      2763.277          40.000    25911368.328 5 104334388.209 5      2117.595          35.000
E11                                                                  23946715.328 5  96423501.869 5     -1354.288          30.000
E25  25932281.852 8 136275032.693 8     -2943.223          48.000    25932285.328 7 104418533.522 7     -2255.167          45.000
E36  23303320.039 7 122459784.985 7       383.055          46.000    23303323.039 7  93832845.304 7       293.656          45.000
> 2020 05 07 15 46 30.0000000  0 15        .000000000000
G10  21695473.867 8 114010511.717 8      2177.168          51.000    21695477.352 8  88839371.584 8      1696.498          51.000
G16  20630946.344 8 108416350.589 8     -1072.520          51.000    20630944.859 8  84480277.591 8      -835.730          51.000
G20  20966814.703 7 110181366.942 7      -130.820          47.000    20966814.617 7  85855627.363 7      -101.938          44.000
G26  21896430.664 8 115066482.966 8     -2913.285          49.000    21896433.438 8  89662200.354 8     -2270.095          49.000
R03  21893888.328 5 117199675.851 5      3226.414          33.000    21893881.469 4  91155294.009 4      2509.424          26.000
R16  21029532.789 7 112335982.112 7     -2927.340          45.000    21029536.641 7  87372429.160 7     -2276.823          42.000
R17  22276657.922 5 119206858.988 5     -2856.867          33.000
R18  19788014.117 4 105629762.735 4      -731.160          29.000    19788015.977 4  82156489.902 4      -568.677          29.000
C22  23862880.336 8 124260328.406 8      2055.133          49.000
C24  24505557.094 7 127606867.697 7     -2452.121          47.000
E02  24161782.711 7 126971015.656 7      -676.695          43.000    24161781.617 7  97289542.751 7      -518.630          42.000
E09  25895574.023 6 136082153.973 6      2772.316          40.000    25895572.281 6 104270781.191 6      2124.293          38.000
E11                                                                  23956791.828 4  96464072.785 4     -1349.086          29.000
E25  25949078.422 8 136363295.317 8     -2939.438          48.000    25949080.852 7 104486163.215 7     -2252.269          46.000
E36  23301128.203 7 122448265.650 7       386.215          45.000    23301131.586 7  93824018.830 7       295.943          45.000
> 2020 05 07 15 47  0.0000000  0 13        .000000000000
G10  21683117.953 8 113945580.660 8      2159.219          51.000    21683121.547 8  88788775.987 8      1682.508          51.000
G16  20637152.375 8 108448964.265 8     -1094.051          51.000    20637151.039 8  84505690.821 8      -852.507          50.000
G20  20967646.516 8 110185737.604 8      -153.012          49.000    20967645.953 7  85859033.062 7      -119.233          42.000
G26  21913123.719 7 115154208.812 7     -2927.352          47.000    21913126.891 7  89730558.111 7     -2281.056          47.000
R02  21600979.148 5 115266925.289 5      -221.922          33.000
R16  21046056.109 7 112424246.605 7     -2949.117          46.000    21046060.438 7  87441079.269 7     -2293.761          42.000
R18  19792202.523 5 105652054.327 5      -743.316          31.000    19792178.484 5  82173781.861 5      -578.141          30.000
C22  23851106.094 8 124199018.835 8      2039.738          48.000
C24  24519740.203 7 127680722.738 7     -2464.047          47.000
E02  24165716.836 7 126991692.797 7      -694.043          43.000    24165717.312 7  97305386.255 7      -531.679          42.000
E09  25879778.852 6 135999153.746 6      2768.797          39.000    25879780.234 6 104207183.735 6      2121.459          41.000
E25  25965905.945 7 136451722.597 7     -2947.855          47.000    25965908.375 7 104553919.115 7     -2258.812          46.000
E36  23298970.703 7 122436929.968 7       377.094          44.000    23298974.734 7  93815333.083 7       289.008          45.000
> 2020 05 07 15 47 30.0000000  0 14        .000000000000
G10  21670837.086 8 113881044.965 8      2141.473          51.000    21670840.789 8  88738488.485 8      1668.683          51.000
G16  20643454.211 8 108482082.648 8     -1115.559          51.000    20643452.828 8  84531497.345 8      -869.269          49.000
G20  20968577.609 8 110190629.994 8      -174.887          48.000    20968577.008 7  85862845.324 7      -136.275          43.000
G21  23107239.539 5 121429321.957 5     -2517.195          34.000
G26  21929869.508 7 115242212.505 7     -2941.285          47.000    21929873.453 7  89799132.411 7     -2291.911          47.000
R02  21602301.414 5 115273969.159 5      -251.871          35.000
R16  21062674.008 7 112513015.930 7     -2970.387          45.000    21062678.594 7  87510122.053 7     -2310.301          42.000
R18  19796387.961 5 105674448.653 5      -755.906          32.000    19796389.625 5  82191251.616 5      -587.930          33.000
C22  23839392.648 7 124138027.007 7      2024.652          46.000
C24  24533965.008 7 127754792.626 7     -2475.609          47.000
E02  24169722.203 7 127012744.821 7      -711.102          43.000    24169723.656 6  97321517.042 6      -544.810          41.000
E09  25863977.414 6 135916117.604 6      2765.254          39.000    25863981.383 7 104143558.724 7      2118.840          43.000
E25  25982754.328 7 136540262.378 7     -2956.293          46.000    25982757.680 7 104621761.222 7     -2265.173          47.000
E36  23296838.398 7 122425727.154 7       368.086          44.000    23296842.625 7  93806749.119 7       282.100          44.000
> 2020 05 07 15 48  0.0000000  0 13        .000000000000
G10  21658641.578 8 113816958.102 8      2137.723          51.000    21658645.109 8  88688550.707 8      1665.761          51.000
G16  20649861.578 8 108515755.625 8     -1122.750          51.000    20649860.164 8  84557736.040 8      -874.870          48.000
G20  20969617.781 8 110196095.179 8      -182.738          48.000    20969617.219 6  85867103.928 6      -142.393          41.000
G21  23121599.414 5 121504797.653 5     -2507.762          31.000
G26  21946677.883 8 115330543.203 8     -2940.922          48.000    21946682.469 8  89867961.527 8     -2291.630          48.000
R16  21079394.812 7 112602338.587 7     -2977.613          43.000    21079399.844 6  87579595.228 6     -2315.921          41.000
R18  19800652.492 5 105697220.559 5      -754.355          35.000    19800651.844 5  82208946.968 5      -586.724          35.000
C22  23827750.695 8 124077405.881 8      2023.297          48.000
C24  24548240.703 8 127829125.885 8     -2473.363          48.000
E02  24173808.703 7 127034222.818 7      -714.250          42.000    24173810.906 7  97337974.175 7      -547.103          42.000
E09  25848179.492 6 135833098.959 6      2775.742          38.000    25848185.555 7 104079947.100 7      2126.793          44.000
E25  25999633.438 7 136628964.254 7     -2950.477          46.000    25999637.883 7 104689727.563 7     -2260.827          47.000
E36  23294741.438 7 122414708.191 7       373.164          44.000    23294745.406 7  93798305.994 7       285.961          44.000
> 2020 05 07 15 48 30.0000000  0 12        .000000000000
G10  21646566.797 8 113753506.166 8      2106.312          51.000    21646570.398 8  88639107.658 8      1641.282          51.000
G16  20656409.266 8 108550166.721 8     -1157.398          51.000    20656408.445 8  84584549.850 8      -901.869          48.000
G20  20970801.664 8 110202316.366 8      -218.195          48.000    20970800.242 6  85871951.618 6      -170.019          40.000
G26  21963583.359 8 115419382.572 8     -2967.758          49.000    21963588.375 8  89937186.993 8     -2312.542          48.000
R16  21096254.133 7 112692397.476 7     -3012.199          44.000    21096258.203 6  87649641.011 6     -2342.825          41.000
R18  19804999.055 5 105720435.110 5      -779.699          31.000    19805000.414 5  82227002.744 5      -606.433          34.000
C22  23816216.188 8 124017339.875 8      1994.852          50.000
C24  24562601.617 8 127903902.377 8     -2497.953          50.000
E02  24178011.688 7 127056310.273 7      -744.430          43.000    24178014.297 7  97354898.290 7      -570.557          43.000
E09  25832420.234 6 135750283.744 6      2759.082          40.000    25832428.094 7 104016491.354 7      2114.093          44.000
E25  26016578.586 7 136718010.409 7     -2971.965          47.000    26016583.500 7 104757957.714 7     -2277.313          47.000
E36  23292714.633 7 122404056.617 7       350.742          43.000    23292718.305 7  93790144.372 7       268.894          44.000
> 2020 05 07 15 49  0.0000000  0 12        .000000000000
G10  21634562.117 8 113690423.545 8      2097.094          51.000    21634565.969 8  88589952.387 8      1634.099          51.000
G16  20663046.500 8 108585047.696 8     -1170.027          50.000    20663045.953 8  84611729.804 8      -911.710          48.000
G20  20972078.422 8 110209025.846 8      -231.227          48.000    20972076.711 6  85877179.772 6      -180.177          38.000
G26  21980534.305 8 115508460.722 8     -2972.719          48.000    21980539.711 8  90006598.512 8     -2316.407          48.000
R16  21113200.031 7 112782916.810 7     -3024.445          45.000    21113202.875 6  87720044.840 6     -2352.349          40.000
R18  19809382.836 5 105743847.385 5      -782.816          32.000    19809386.430 5  82245212.350 5      -608.854          32.000
C22  23804737.875 8 123957565.860 8      1988.172          50.000
C24  24576996.008 8 127978854.507 8     -2500.742          51.000
E02  24182279.789 7 127078739.085 7      -752.828          43.000    24182283.000 7  97372083.989 7      -576.806          44.000
E09  25816649.555 6 135667406.436 6      2764.035          40.000    25816658.016 7 103952988.023 7      2117.924          45.000
E25  26033538.539 7 136807131.505 7     -2971.457          47.000    26033543.289 7 104826245.260 7     -2276.888          47.000
E36  23290706.555 7 122393504.285 7       350.715          42.000    23290710.328 7  93782058.870 7       268.643          44.000
> 2020 05 07 15 49 30.0000000  0 13        .000000000000
G10  21622645.961 8 113627805.389 8      2079.762          51.000    21622649.891 8  88541159.091 8      1620.597          51.000
G16  20669790.867 8 108620490.801 8     -1190.453          49.000    20669790.398 8  84639347.798 8      -927.626          48.000
G20  20973465.711 7 110216316.607 7      -252.324          46.000    20973464.703 6  85882860.909 6      -196.616          36.000
G26  21997547.961 8 115597868.489 8     -2985.465          48.000    21997553.906 8  90076266.886 8     -2326.336          48.000
R03  21787140.047 6 116628263.103 6      3126.840          37.000
R16  21130248.852 7 112873987.124 7     -3044.434          44.000    21130251.133 7  87790877.260 7     -2367.893          42.000
R18  19813822.148 6 105767551.175 6      -795.000          37.000    19813825.453 5  82263648.668 5      -618.336          31.000
C22  23793332.758 7 123898178.006 7      1973.414          47.000
C24  24591441.328 8 128054072.194 8     -2511.336          51.000
E02  24186630.031 6 127101602.077 6      -769.023          40.000    24186635.039 7  97389602.401 7      -589.327          45.000
E09  25800885.156 6 135584562.196 6      2761.309          41.000    25800893.562 7 103889510.039 7      2115.718          45.000
E25  26050530.242 7 136896418.901 7     -2978.676          47.000    26050534.891 7 104894660.206 7     -2282.305          46.000
E36  23288735.031 7 122383144.054 7       342.641          44.000    23288738.977 7  93774120.531 7       262.492          44.000
> 2020 05 07 15 50  0.0000000  0 15        .000000000000
G10  21610815.750 8 113565636.756 8      2071.211          51.000    21610819.203 8  88492716.041 8      1613.931          51.000
G16  20676638.828 8 108656478.105 8     -1202.238          48.000    20676638.539 8  84667389.821 8      -936.809          48.000
G20  20974960.273 7 110224171.120 7      -264.652          45.000    20974958.867 5  85888981.328 5      -206.223          32.000
G26  22014620.984 8 115687586.488 8     -2989.234          49.000    22014626.930 8  90146176.998 8     -2329.274          49.000
R02  21611250.266 5 115321746.088 5      -376.777          34.000
R03  21769660.352 6 116534696.007 6      3117.629          40.000    21769658.031 4  90638080.929 4      2424.829          29.000
R16  21147396.258 7 112965586.714 7     -3055.613          44.000    21147399.375 7  87862121.407 7     -2376.588          42.000
R17  22389367.156 5 119810025.232 5     -2875.152          30.000
R18  19818313.602 5 105791528.408 5      -797.320          35.000    19818317.141 5  82282297.600 5      -620.135          31.000
C22  23781999.188 8 123839161.489 8      1967.504          49.000
C24  24605933.875 8 128129536.159 8     -2513.195          51.000
E02  24191059.617 6 127124881.817 6      -776.672          41.000    24191066.141 7  97407440.110 7      -595.025          46.000
E09  25785123.805 7 135501736.042 7      2766.918          42.000    25785132.414 7 103826045.917 7      2119.968          45.000
E25  26067550.117 7 136985853.757 7     -2977.227          47.000    26067554.266 7 104963188.128 7     -2281.272          45.000
E36  23286796.914 7 122372958.451 7       343.199          43.000    23286800.438 7  93766315.978 7       262.752          43.000
> 2020 05 07 15 50 30.0000000  0 14        .000000000000
G10  21599039.750 8 113503751.788 8      2045.297          51.000    21599042.570 8  88444494.014 8      1593.741          51.000
G16  20683558.539 8 108692840.947 8     -1231.082          48.000    20683558.180 8  84695724.469 8      -959.288          48.000
G20  20976530.055 7 110232421.046 7      -294.273          42.000    20976528.852 5  85895409.896 5      -229.301          31.000
G21  23193660.156 6 121883486.250 6     -2533.727          39.000    23193672.242 4  94974209.899 4     -1974.332          26.000
G26  22031721.008 8 115777444.613 8     -3010.371          50.000    22031726.422 8  90216196.280 8     -2345.744          49.000
R03  21752235.938 6 116441428.945 6      3090.723          40.000    21752238.875 5  90565539.987 5      2403.895          34.000
R16  21164610.586 7 113057541.091 7     -3084.102          46.000    21164613.648 7  87933641.438 7     -2398.749          42.000
R18  19822824.727 6 105815608.174 6      -817.703          36.000    19822829.188 5  82301026.263 5      -635.994          33.000
C22  23770706.266 8 123780352.056 8      1944.184          51.000
C24  24620440.977 8 128205077.666 8     -2532.027          50.000
E02  24195537.508 7 127148409.878 7      -801.273          44.000    24195544.688 8  97425468.147 8      -614.002          48.000
E09  25769334.273 7 135418762.152 7      2755.285          43.000    25769343.125 7 103762468.579 7      2111.249          45.000
E25  26084565.812 7 137075266.423 7     -2992.910          47.000    26084568.859 7 105031699.047 7     -2293.200          44.000
E36  23284859.781 7 122362779.216 7       326.191          43.000    23284863.219 7  93758516.275 7       250.056          44.000
> 2020 05 07 15 51  0.0000000  0 15        .000000000000
G10  21587399.789 8 113442581.197 8      2026.250          51.000    21587402.242 8  88396828.658 8      1578.896          51.000
G16  20690631.477 8 108730007.054 8     -1253.031          49.000    20690630.750 8  84724685.056 8      -976.388          48.000
G18  23079753.312 5 121284917.047 5     -3051.941          33.000
G20  20978256.391 7 110241494.614 7      -316.863          42.000    20978256.141 5  85902480.382 5      -246.903          34.000
G21  23208119.477 6 121959484.837 6     -2539.344          36.000
G26  22048928.797 8 115867869.258 8     -3024.422          50.000    22048933.398 8  90286656.980 8     -2356.695          50.000
R03  21734951.031 6 116348903.137 6      3070.980          39.000    21734957.258 6  90493575.500 6      2388.543          36.000
R16  21181972.516 7 113150282.247 7     -3105.238          46.000    21181974.578 6  88005773.367 6     -2415.188          41.000
R18  19827436.734 6 105840225.081 6      -830.273          37.000    19827442.555 5  82320172.758 5      -645.771          35.000
C22  23759535.188 8 123722176.543 8      1927.730          51.000
C24  24635043.664 8 128281119.156 8     -2543.910          50.000
E02  24200144.594 7 127172614.598 7      -818.984          45.000    24200151.898 8  97444014.614 8      -627.444          49.000
E09  25753598.258 7 135336071.300 7      2750.859          42.000    25753607.477 7 103699108.088 7      2107.822          45.000
E25  26101658.422 7 137165083.878 7     -3001.512          45.000    26101659.977 7 105100520.105 7     -2299.725          43.000
E36  23283004.805 7 122353034.597 7       316.723          43.000    23283009.562 7  93751049.633 7       242.699          45.000
> 2020 05 07 15 51 30.0000000  0 15        .000000000000
G10  21575851.117 8 113381890.944 8      2016.715          51.000    21575853.594 8  88349537.597 8      1571.469          51.000
G16  20697812.062 8 108767739.461 8     -1265.320          49.000    20697811.336 8  84754086.924 8      -985.967          49.000
G18  23097164.188 6 121376391.695 6     -3049.488          37.000
G20  20980094.812 6 110251155.581 6      -330.219          41.000    20980094.008 5  85910008.397 5      -257.313          35.000
G21  23222592.883 6 122035554.006 6     -2535.176          39.000
G26  22066198.742 8 115958622.070 8     -3028.828          49.000    22066202.406 8  90357373.380 8     -2360.129          49.000
R03  21717760.711 6 116256882.402 6      3060.641          40.000    21717767.039 5  90422003.827 5      2380.498          33.000
R16  21199435.242 7 113243565.736 7     -3116.855          45.000    21199437.305 6  88078327.147 6     -2424.221          41.000
R18  19832104.781 5 105865138.858 5      -833.801          34.000    19832111.016 6  82339550.138 6      -648.509          36.000
C22  23748440.914 8 123664402.996 8      1920.758          51.000
C24  24649697.156 8 128357424.292 8     -2546.156          50.000
E02  24204835.102 7 127197259.467 7      -827.109          45.000    24204841.656 8  97462898.349 8      -633.768          48.000
E09  25737871.148 6 135253429.507 6      2755.469          41.000    25737880.695 7 103635785.185 7      2111.423          45.000
E25  26118782.727 7 137255068.288 7     -3000.441          44.000    26118782.844 7 105169469.130 7     -2299.204          42.000
E36  23281188.125 7 122343488.251 7       316.656          45.000    23281193.656 7  93743734.908 7       242.624          45.000
> 2020 05 07 15 52  0.0000000  0 16        .000000000000
G10  21564386.453 8 113321642.668 8      1999.934          51.000    21564389.164 8  88302590.919 8      1558.393          51.000
G16  20705092.453 8 108805997.117 8     -1284.762          50.000    20705091.648 8  84783898.061 8     -1001.113          49.000
G18  23114586.336 6 121467941.575 6     -3053.828          37.000
G20  20982036.961 6 110261362.861 6      -350.043          41.000    20982036.328 6  85917962.096 6      -272.761          38.000
G26  22083522.758 8 116049660.356 8     -3040.082          49.000    22083525.734 8  90428312.220 8     -2368.898          49.000
R02  21621060.086 5 115374119.142 5      -491.512          30.000
R03  21700657.602 5 116165329.995 5      3043.109          35.000    21700662.031 5  90350796.432 5      2366.866          30.000
R16  21216990.430 7 113337346.674 7     -3135.227          44.000    21216993.320 6  88151267.816 6     -2438.513          40.000
R18  19836819.781 5 105890308.038 5      -844.148          30.000    19836826.531 5  82359126.129 5      -656.563          34.000
C19  24327457.820 4 126679448.598 4      -987.570          28.000
C22  23737416.258 8 123606993.424 8      1906.777          51.000
C24  24664392.984 8 128433950.666 8     -2555.398          50.000
E02  24209600.930 7 127222303.652 7      -842.195          44.000    24209606.711 7  97482088.039 7      -645.474          47.000
E09  25722146.086 6 135170798.426 6      2753.367          40.000    25722156.000 7 103572470.474 7      2109.771          46.000
E25  26135931.156 7 137345177.559 7     -3006.383          42.000    26135929.125 6 105238513.794 6     -2303.840          41.000
E36  23279401.945 7 122334099.368 7       309.586          45.000    23279406.625 7  93736540.838 7       237.119          44.000
> 2020 05 07 15 52 30.0000000  0 14        .000000000000
G10  21553002.531 8 113261819.575 8      1992.668          51.000    21553005.086 8  88255975.506 8      1552.725          51.000
G16  20712469.109 8 108844760.191 8     -1294.855          51.000    20712468.141 8  84814103.049 8     -1008.978          49.000
G20  20984079.609 6 110272097.197 6      -360.922          41.000    20984079.914 6  85926326.487 6      -281.238          40.000
G21  23251559.172 6 122187749.155 6     -2531.465          39.000
G26  22100896.898 8 116140962.941 8     -3042.145          49.000    22100899.859 8  90499457.029 8     -2370.502          49.000
R03  21683636.133 4 116074230.890 4      3034.426          28.000    21683641.484 5  90279941.666 5      2360.109          31.000
R16  21234634.906 7 113431602.156 7     -3143.898          45.000    21234637.172 6  88224577.549 6     -2445.257          37.000
R18  19841578.477 6 105915712.771 6      -844.941          36.000    19841586.555 5  82378885.406 5      -657.183          33.000
C22  23726457.977 8 123549931.162 8      1901.840          51.000
C24  24679126.719 8 128510677.226 8     -2555.258          48.000
E02  24214439.023 7 127247727.814 7      -848.129          44.000    24214443.219 7  97501568.873 7      -649.754          45.000
E09  25706420.875 6 135088161.330 6      2760.441          41.000    25706430.375 7 103509151.143 7      2115.072          46.000
E25  26153100.250 6 137435391.079 6     -3003.141          38.000    26153094.734 6 105307638.311 6     -2301.048          40.000
E36  23277641.672 7 122324848.755 7       311.746          44.000    23277645.305 7  93729452.701 7       238.894          44.000
> 2020 05 07 15 53  0.0000000  0 17        .000000000000
G10  21541708.188 8 113202469.328 8      1971.402          51.000    21541710.930 8  88209728.596 8      1536.158          51.000
G16  20719950.438 8 108884073.391 8     -1318.621          51.000    20719949.367 8  84844736.721 8     -1027.497          50.000
G20  20986231.188 6 110283403.976 6      -385.266          41.000    20986231.469 6  85935136.968 6      -300.207          41.000
G21  23266053.367 6 122263910.969 6     -2538.383          39.000
G26  22118329.531 8 116232573.312 8     -3057.863          48.000    22118332.922 8  90570841.702 8     -2382.751          48.000
R02  21626843.992 5 115404989.526 5      -539.848          34.000
R03  21666710.617 5 115983635.871 5      3012.445          34.000    21666714.859 4  90209478.905 4      2343.007          29.000
R16  21252376.180 7 113526373.975 7     -3166.594          46.000    21252378.297 6  88298288.872 6     -2462.909          38.000
R17  22486564.648 5 120330142.665 5     -2895.562          31.000    22486568.461 4  93590132.463 4     -2252.104          27.000
R18  19846391.469 5 105941399.372 5      -859.691          35.000    19846399.195 5  82398863.863 5      -668.649          32.000
C19  24339017.211 4 126739648.465 4     -1016.629          27.000
C22  23715575.391 8 123493263.617 8      1883.281          50.000
C24  24693906.977 7 128587646.947 7     -2568.684          47.000
E02  24219358.227 7 127273577.256 7      -867.789          45.000    24219360.805 7  97521375.573 7      -664.878          44.000
E09  25690704.656 6 135005566.006 6      2753.422          41.000    25690712.719 7 103445863.840 7      2109.774          47.000
E25  26170298.648 5 137525752.907 5     -3013.652          34.000    26170288.023 6 105376876.467 6     -2309.123          38.000
E36  23275916.312 7 122315781.830 7       300.125          44.000    23275919.414 7  93722505.321 7       229.912          44.000
> 2020 05 07 15 53 30.0000000  0 17        .000000000000
G10  21530541.062 8 113143788.286 8      1954.965          51.000    21530544.023 8  88164003.141 8      1523.352          51.000
G16  20727572.914 8 108924130.161 8     -1337.504          51.000    20727572.180 8  84875949.767 8     -1042.211          50.000
G20  20988528.703 7 110295477.037 7      -405.418          44.000    20988528.789 7  85944544.479 7      -315.910          43.000
G21  23280594.508 6 122340320.272 6     -2540.762          38.000
G26  22135857.352 8 116324683.554 8     -3068.582          49.000    22135861.391 8  90642615.884 8     -2391.103          48.000
R02  21629999.766 4 115421823.194 4      -567.066          29.000    21629996.992 4  89772535.715 4      -441.064          26.000
R03  21649919.703 6 115893747.448 6      2994.512          38.000    21649921.156 5  90139565.738 5      2329.071          30.000
R16  21270250.938 7 113621856.124 7     -3184.359          47.000    21270253.750 6  88372552.759 6     -2476.724          39.000
R17  22502851.594 5 120417270.575 5     -2898.180          31.000    22502846.875 4  93657894.697 4     -2254.146          26.000
R18  19851294.234 6 105967564.091 6      -870.062          36.000    19851301.539 5  82419214.243 5      -676.712          32.000
C22  23704805.812 8 123437185.285 8      1869.453          48.000
C24  24708771.031 7 128665050.037 7     -2577.305          47.000
E02  24224395.492 7 127300045.864 7      -882.664          45.000    24224396.531 7  97541656.690 7      -676.351          44.000
E09  25675034.750 7 134923208.961 7      2751.141          42.000    25675040.828 7 103382759.165 7      2108.041          47.000
E11  24099717.312 5 126644850.487 5     -1807.312          34.000
E25                                                                  26187546.516 6 105446375.767 6     -2313.041          36.000
E36  23274263.227 7 122307092.611 7       293.242          45.000    23274266.086 7  93715847.342 7       224.773          44.000
> 2020 05 07 15 54  0.0000000  0 17        .000000000000
G10  21519452.070 8 113085516.496 8      1928.879          50.000    21519454.797 8  88118596.537 8      1503.023          50.000
G16  20735286.852 8 108964667.574 8     -1365.836          51.000    20735286.438 8  84907537.317 8     -1064.288          51.000
G18  23184483.141 5 121835284.537 5     -3075.207          31.000
G20  20990922.383 7 110308053.551 7      -434.348          43.000    20990922.586 7  85954344.353 7      -338.453          43.000
G21  23295132.391 6 122416714.237 6     -2552.680          37.000
G26  22153430.125 8 116417029.373 8     -3088.727          48.000    22153434.672 8  90714573.621 8     -2406.800          48.000
R03  21633211.562 6 115804302.845 6      2967.453          38.000    21633212.969 5  90069997.839 5      2308.025          34.000
R16  21288208.148 7 113717778.006 7     -3211.480          46.000    21288211.930 6  88447158.655 6     -2497.818          40.000
R18  19856235.414 6 105993940.666 6      -889.348          38.000    19856241.688 5  82439729.395 5      -691.715          32.000
C12  22066757.000 5 114907395.358 5      1109.391          31.000    22066751.961 5  88853686.307 5       857.906          35.000
C19  24350953.789 4 126801800.793 4     -1059.633          29.000
C22  23694099.281 7 123381438.559 7      1846.191          47.000
C24  24723668.188 7 128742624.538 7     -2595.195          44.000
E02  24229500.305 7 127326871.165 7      -906.742          44.000    24229500.523 7  97562211.116 7      -694.953          44.000
E09  25659361.062 7 134840830.284 7      2739.512          42.000    25659364.891 7 103319637.943 7      2099.106          45.000
E25  26204838.641 5 137707344.532 5     -3034.340          35.000    26204820.102 5 105515934.232 5     -2325.044          34.000
E36  23272632.055 7 122298518.728 7       277.184          43.000    23272634.750 7  93709277.763 7       212.369          43.000
> 2020 05 07 15 54 30.0000000  0 14        .000000000000
G10  21508458.594 8 113027746.739 8      1908.434          51.000    21508461.523 8  88073581.166 8      1487.091          51.000
G16  20743109.484 8 109005775.874 8     -1388.645          51.000    20743109.156 8  84939569.741 8     -1082.064          51.000
G20  20993428.891 7 110321224.302 7      -457.711          45.000    20993428.797 7  85964607.270 7      -356.658          44.000
G26  22171064.617 8 116509699.394 8     -3103.246          48.000    22171069.422 8  90786783.997 8     -2418.114          48.000
R03  21616604.492 6 115715399.043 6      2945.434          38.000    21616607.844 5  90000850.564 5      2290.896          35.000
R16  21306264.000 7 113814228.008 7     -3232.785          46.000    21306268.406 6  88522175.286 6     -2514.388          39.000
R18  19861234.289 6 106020620.970 6      -903.238          37.000    19861239.484 5  82460480.700 5      -702.522          33.000
C12                                                                  22060347.617 6  88827906.308 6       849.548          36.000
C22  23683474.430 7 123326115.507 7      1828.270          47.000
C24  24738614.641 7 128820458.178 7     -2607.461          42.000
E02  24234689.727 7 127354143.588 7      -925.348          43.000    24234690.016 7  97583108.152 7      -709.000          45.000
E09  25643699.609 7 134758523.042 7      2733.566          44.000    25643702.203 7 103256571.467 7      2094.620          44.000
E25  26222146.227 5 137798307.749 5     -3043.016          33.000    26222126.773 5 105585620.098 5     -2331.572          34.000
E36  23271039.188 7 122290150.780 7       266.750          42.000    23271042.070 7  93702865.996 7       204.381          42.000
> 2020 05 07 15 55  0.0000000  0 17        .000000000000
G10  21497522.828 8 112970278.852 8      1924.414          51.000    21497525.727 8  88028801.038 8      1499.546          51.000
G16  20751001.977 8 109047251.677 8     -1374.707          51.000    20751001.578 8  84971888.527 8     -1071.200          50.000
G20  20996010.039 7 110334786.735 7      -444.648          45.000    20996009.383 7  85975175.380 7      -346.479          44.000
G26  22188722.125 8 116602489.179 8     -3081.047          49.000    22188726.703 8  90859087.696 8     -2400.816          49.000
R02  21640280.977 5 115476671.726 5      -628.059          33.000    21640291.625 4  89815206.966 4      -488.484          27.000
R03  21600060.719 6 115626834.266 6      2960.750          40.000    21600064.422 5  89931966.866 5      2302.809          35.000
R16  21324379.367 7 113910996.500 7     -3216.688          44.000    21324382.711 6  88597439.641 6     -2501.868          38.000
R17  22551702.086 5 120678691.122 5     -2887.699          31.000    22551708.695 4  93861227.402 4     -2245.991          29.000
R18  19866251.727 6 106047398.963 6      -879.609          36.000    19866255.930 5  82481307.975 5      -684.144          30.000
C12  22053948.938 4 114840733.469 4      1124.434          29.000    22053944.711 5  88802132.777 5       869.550          33.000
C19  24363274.141 5 126865958.240 5     -1063.199          32.000
C22  23672893.047 7 123271017.875 7      1846.637          47.000
C24  24753571.586 6 128898348.241 6     -2583.191          40.000
E02  24239925.914 7 127381660.509 7      -907.398          44.000    24239926.258 7  97604192.552 7      -695.339          45.000
E09  25628012.602 7 134676087.295 7      2763.789          46.000    25628014.312 6 103193406.507 6      2117.831          41.000
E25  26239444.180 5 137889213.540 5     -3015.801          35.000    26239427.742 5 105655277.249 5     -2310.677          35.000
E36  23269446.953 7 122281786.352 7       292.598          42.000    23269449.102 6  93696456.890 6       224.246          41.000
