     3.02           OBSERVATION DATA    M (MIXED)           RINEX VERSION / TYPE
SAVERINEX           SC600               20200502 045931 LCL PGM / RUN BY / DATE
       G = GPS       R = GLONASS       C = COMPASS          COMMENT
       S = SBAS      J = QZSS          E = GALILEO          COMMENT
BEAN                                                        MARKER NAME
1                                                           MARKER NUMBER
GEODETIC                                                    MARKER TYPE
Unige DICCA         GTER                                    OBSERVER / AGENCY
SC60291900056       SC600               2.12(191226)        REC # / TYPE / VERS
                    HEMA45          NONE                    ANT # / TYPE
  4509407.8091   693652.4678  4442337.6214                  APPROX POSITION XYZ
        0.0000        0.0000        0.0000                  ANTENNA: DELTA H/E/N
G    8 C1C L1C D1C S1C C2Y L2Y D2Y S2Y                      SYS / # / OBS TYPES
R    8 C1C L1C D1C S1C C2P L2P D2P S2P                      SYS / # / OBS TYPES
C    8 C1I L1I D1I S1I C7I L7I D7I S7I                      SYS / # / OBS TYPES
E    8 C1C L1C D1C S1C C7Q L7Q D7Q S7Q                      SYS / # / OBS TYPES
DBHZ                                                        COMMENT
     30.000                                                 INTERVAL
  2020    05    02    02    00    0.0000000     GPS         TIME OF FIRST OBS
  2020    05    02    02    59   30.0000000     GPS         TIME OF LAST OBS
     0                                                      RCV CLOCK OFFS APPL
G L1C  0.00000                                              SYS / PHASE SHIFT
G L2Y  0.00000                                              SYS / PHASE SHIFT
R L1C  0.00000                                              SYS / PHASE SHIFT
R L2P  0.25000                                              SYS / PHASE SHIFT
C L1I  0.00000                                              SYS / PHASE SHIFT
C L7I  0.00000                                              SYS / PHASE SHIFT
E L1C  0.50000                                              SYS / PHASE SHIFT
E L7Q -0.25000                                              SYS / PHASE SHIFT
 13 R01  1 R02 -4 R07  5 R08  6 R09 -2 R10 -5 R11  0 R12 -1 GLONASS SLOT / FRQ #
    R13 -2 R17  4 R18 -3 R22 -3 R23  3                      GLONASS SLOT / FRQ #
 C1C   71.950 C2C   71.950 C2P   71.950                     GLONASS COD/PHS/BIS
    18                                                      LEAP SECONDS
*** Above antenna height is from mark to ANTENNA BOTTOM.    COMMENT
    17     4        0.0000        ANT MEASURE TYPE/HEIGT    COMMENT
    0.0000    0.0000    0.0458    0.0405    0.0000          COMMENT
                    BASE STATION                            COMMENT
                                                            END OF HEADER
> 2020 05 02 02 00  0.0000000  0 18        .000000000000
G04  24008123.219 6 126163499.346 6     -2949.688          36.000
G06  22523865.547 8 118363708.394 8     -2852.168          49.000    22523867.344 8  92231478.184 8     -2222.469          49.000
G07  20815879.828 8 109388189.891 8       465.766          51.000    20815878.656 8  85237532.865 8       362.937          51.000
G09  21325541.508 6 112066472.176 6     -1897.754          41.000    21325542.266 6  87324522.020 6     -1478.769          40.000
G30  21623395.328 8 113631712.605 8      2559.707          50.000    21623396.781 8  88544209.417 8      1994.577          50.000
R02  19473451.836 6 103914033.832 6       560.285          38.000    19473448.102 5  80822023.509 5       435.774          30.000
R11  20917616.906 5 111777390.449 5     -1995.344          31.000    20917618.258 5  86937978.370 5     -1551.943          31.000
R12  19969961.500 8 106675992.793 8      2012.723          50.000    19969965.828 8  82970232.260 8      1565.451          48.000
R17  23156642.977 6 123915840.987 6     -3834.770          40.000    23156644.719 6  96378988.367 6     -2982.599          37.000
C05  39773161.195 5 207109286.270 5       -14.191          35.000    39773160.578 6 160150026.433 6       -10.838          41.000
C14  21911894.812 8 114100981.837 8     -1049.359          49.000    21911893.750 8  88230112.383 8      -811.350          51.000
C24  22487664.320 8 117099131.027 8      1183.059          51.000
C25  25085166.258 6 130625039.782 6      3376.395          38.000
C26  23381361.844 5 121752779.825 5     -1820.488          33.000
E03  23754567.039 6 124831075.963 6       834.359          37.000
E05  24468698.828 5 128583884.576 5     -1359.648          35.000    24468702.070 8  98525404.386 8     -1041.794          51.000
E15  25548289.570 6 134257176.688 6     -1803.570          40.000    25548292.938 5 102872389.974 5     -1382.013          33.000
E25  25861498.594 8 135903125.348 8      2692.047          50.000    25861500.648 8 104133616.842 8      2062.794          50.000
> 2020 05 02 02 00 30.0000000  0 17        .000000000000
G04  24024976.812 6 126252062.420 6     -2955.578          38.000
G06  22540188.242 8 118449485.966 8     -2867.770          49.000    22540189.805 8  92298317.836 8     -2234.626          49.000
G07  20813274.555 8 109374498.935 8       445.312          51.000    20813273.469 8  85226864.576 8       346.997          51.000
G09  21336404.977 7 112123562.242 7     -1909.895          42.000    21336405.859 7  87369007.792 7     -1488.226          42.000
G30  21608825.125 8 113555148.429 8      2542.953          50.000    21608827.117 8  88484549.007 8      1981.519          50.000
R02  19470343.469 6 103897445.102 6       544.180          39.000    19470340.211 4  80809137.157 4       423.245          29.000
R12  19958734.703 8 106616021.332 8      1983.766          50.000    19958739.406 8  82923587.774 8      1542.929          49.000
R17  23178167.078 6 124031029.684 6     -3845.551          37.000    23178168.148 6  96468579.580 6     -2990.984          36.000
C05  39773249.164 5 207109745.096 5       -17.852          35.000    39773248.500 6 160150380.454 6       -13.765          41.000
C14  21917976.203 8 114132648.870 8     -1063.312          50.000    21917975.047 8  88254599.324 8      -822.133          51.000
C24  22480901.352 8 117063917.034 8      1162.973          50.000
C25  25065733.625 6 130523847.509 6      3368.223          39.000
C26  23391902.477 4 121807769.775 4     -1836.551          28.000
E03  23749827.758 6 124806158.075 6       825.414          36.000
E05  24476481.805 6 128624780.435 6     -1368.520          36.000    24476485.617 8  98556744.739 8     -1048.543          51.000
E15  25558626.016 6 134311495.357 6     -1818.906          40.000    25558629.078 5 102914010.665 5     -1393.869          34.000
E25  25846158.062 8 135822511.418 8      2680.664          50.000    25846159.430 8 104071847.744 8      2053.964          49.000
> 2020 05 02 02 01  0.0000000  0 17        .000000000000
G02  22486896.148 5 118169444.651 5      -794.602          34.000
G04  24041820.266 5 126340571.953 5     -2951.090          32.000
G06  22556555.844 8 118535499.399 8     -2872.891          50.000    22556557.695 8  92365341.266 8     -2238.616          49.000
G07  20810742.547 8 109361192.272 8       435.316          51.000    20810741.555 8  85216495.775 8       339.211          51.000
G09  21347292.547 7 112180777.285 7     -1910.766          43.000    21347293.422 7  87413590.928 7     -1488.908          43.000
G30  21594307.344 8 113478858.903 8      2536.574          51.000    21594309.750 8  88425102.609 8      1976.548          50.000
R02  19467281.820 6 103881106.374 6       538.980          37.000    19467279.711 5  80796429.308 5       419.207          30.000
R12  19947626.742 8 106556685.556 8      1965.438          51.000    19947631.695 8  82877437.724 8      1528.671          50.000
R17  23199709.062 6 124146315.300 6     -3846.305          39.000    23199710.602 5  96558246.160 5     -2991.570          35.000
C05  39773316.469 5 207110095.195 5       -11.418          35.000    39773315.875 6 160150651.572 6        -8.841          41.000
C14  21924093.539 8 114164502.780 8     -1066.695          51.000    21924092.055 8  88279230.791 8      -824.900          51.000
C24  22474210.008 8 117029076.149 8      1153.324          50.000
C25  25046304.922 6 130422677.843 6      3370.031          40.000
E03  23745091.344 5 124781297.821 5       826.121          32.000
E05  24484270.211 6 128665712.427 6     -1367.027          38.000    24484275.148 8  98588108.304 8     -1047.250          51.000
E15  25569006.734 6 134366051.352 6     -1824.500          37.000    25569010.727 5 102955813.306 5     -1397.802          35.000
E25  25830838.633 8 135742008.580 8      2679.652          50.000    25830839.898 8 104010163.787 8      2053.204          48.000
> 2020 05 02 02 01 30.0000000  0 17        .000000000000
G02  22491498.367 5 118193635.147 5      -816.508          33.000
G04  24058690.648 5 126429275.433 5     -2957.684          31.000
G06  22573006.766 8 118621949.946 8     -2888.789          50.000    22573009.328 8  92432705.301 8     -2251.004          50.000
G07  20808322.438 8 109348474.036 8       414.203          51.000    20808321.648 8  85206585.496 8       322.756          51.000
G09  21358242.727 7 112238320.778 7     -1923.371          43.000    21358243.523 7  87458430.014 7     -1498.731          43.000
G30  21579881.586 8 113403049.828 8      2518.949          51.000    21579883.727 8  88366030.600 8      1962.818          51.000
R02  19464304.164 5 103865226.582 5       521.875          32.000    19464306.195 5  80784078.411 5       405.906          30.000
R12  19936677.547 8 106498195.436 8      1935.703          51.000    19936682.172 8  82831945.388 8      1505.547          50.000
R17  23221309.102 6 124261901.115 6     -3857.660          39.000    23221310.922 5  96648146.169 5     -3000.402          35.000
C05  39773402.000 6 207110540.404 6       -16.035          36.000    39773401.453 6 160150996.232 6       -12.689          41.000
C14  21930285.727 8 114196746.042 8     -1081.129          51.000    21930283.984 8  88304163.311 8      -836.025          51.000
C24  22467629.602 8 116994811.444 8      1132.672          51.000
C25  25026919.398 6 130321735.091 6      3361.078          41.000
E03  23740409.758 5 124756694.464 5       816.113          32.000    23740405.109 5  95592765.658 5       625.618          33.000
E05  24492103.898 6 128706878.887 6     -1376.121          36.000    24492108.945 8  98619651.520 8     -1054.341          51.000
E15  25579470.344 6 134421047.138 6     -1840.488          37.000    25579478.133 6 102997952.956 6     -1410.128          38.000
E25  25815579.531 8 135661822.982 8      2667.723          50.000    25815580.594 7 103948722.894 7      2044.174          47.000
> 2020 05 02 02 02  0.0000000  0 16        .000000000000
G06  22589531.258 8 118708786.026 8     -2901.812          51.000    22589534.641 8  92500369.750 8     -2261.156          51.000
G07  20806005.195 8 109336295.679 8       396.059          51.000    20806004.398 8  85197095.865 8       308.614          51.000
G09  21369246.195 6 112296143.219 6     -1933.086          41.000    21369246.188 6  87503486.477 6     -1506.301          40.000
G30  21565538.492 8 113327674.122 8      2504.320          51.000    21565540.188 8  88307296.314 8      1951.421          51.000
R02  19461402.984 5 103849781.384 5       507.812          35.000    19461409.023 5  80772046.838 5       394.968          32.000
R12  19925878.062 8 106440504.228 8      1908.695          51.000    19925882.422 8  82787074.457 8      1484.538          51.000
R17  23242956.727 6 124377732.909 6     -3865.988          38.000    23242958.414 6  96738237.534 6     -3006.880          36.000
C05  39773496.625 5 207111033.067 5       -18.230          35.000    39773496.078 6 160151377.166 6       -13.907          41.000
C14  21936543.602 8 114229330.667 8     -1092.785          51.000    21936541.625 8  88329359.787 8      -845.041          51.000
C24  22461151.109 8 116961075.546 8      1114.773          51.000
C25  25007568.414 6 130220973.048 6      3354.750          41.000
C26  23423905.750 5 121974441.097 5     -1877.715          31.000
E03  23735754.352 5 124732230.814 5       809.727          33.000    23735764.664 6  95574053.735 6       620.649          36.000
E05  24499974.297 6 128748231.307 6     -1382.707          36.000    24499977.953 8  98651337.124 8     -1059.318          50.000
E15  25590007.500 6 134476432.451 6     -1853.641          37.000    25590020.445 6 103040391.131 6     -1420.334          39.000
E25  25800371.859 8 135581907.936 8      2658.336          49.000    25800373.055 7 103887489.328 7      2037.003          46.000
> 2020 05 02 02 02 30.0000000  0 16        .000000000000
G06  22606103.836 8 118795874.100 8     -2906.844          51.000    22606107.828 8  92568230.574 8     -2265.073          51.000
G07  20803765.625 8 109324526.275 8       385.641          51.000    20803764.852 8  85187924.913 8       300.499          51.000
G09  21380277.773 6 112354113.242 6     -1934.605          41.000    21380276.984 7  87548657.903 7     -1507.485          42.000
G30  21551253.312 8 113252602.854 8      2497.348          51.000    21551254.625 8  88248799.265 8      1945.988          51.000
R02  19458556.289 6 103834591.706 6       501.848          37.000    19458562.781 5  80760232.717 5       390.326          33.000
R12  19915203.867 8 106383481.285 8      1889.762          51.000    19915207.844 8  82742723.304 8      1469.818          50.000
R17  23264625.555 6 124493672.984 6     -3866.215          36.000    23264626.812 6  96828413.128 6     -3007.056          37.000
C05  39773575.391 5 207111443.175 5       -12.078          35.000    39773574.828 6 160151694.306 6        -9.421          41.000
C14  21942842.172 8 114262127.417 8     -1096.605          51.000    21942839.953 8  88354720.283 8      -848.074          51.000
C24  22454749.766 8 116927739.883 8      1104.637          51.000
C25  24988227.898 6 130120264.270 6      3355.980          40.000
C26  23434741.391 5 122030843.496 5     -1885.301          34.000
E03  23731121.781 5 124707881.468 5       810.445          35.000    23731135.242 6  95555396.456 6       621.125          36.000
E05  24507854.102 6 128789638.872 6     -1381.098          36.000    24507857.508 8  98683065.041 8     -1058.312          50.000
E15  25600594.312 6 134532075.052 6     -1858.656          38.000    25600610.367 6 103083026.421 6     -1424.417          39.000
E25  25785190.742 7 135502134.770 7      2656.711          47.000    25785192.586 7 103826364.481 7      2035.623          46.000
> 2020 05 02 02 03  0.0000000  0 17        .000000000000
G04  24109356.484 5 126695517.394 5     -2955.910          34.000
G06  22622735.352 8 118883270.970 8     -2914.934          51.000    22622739.398 8  92636332.028 8     -2271.377          51.000
G07  20801615.094 8 109313225.350 8       372.203          51.000    20801614.438 8  85179119.015 8       290.028          51.000
G09  21391348.617 6 112412289.761 6     -1939.176          41.000    21391348.445 6  87593990.216 6     -1511.046          41.000
G30  21537037.680 8 113177897.446 8      2487.309          51.000    21537038.680 8  88190587.282 8      1938.163          51.000
R02  19455773.906 6 103819743.303 6       492.562          38.000    19455780.438 5  80748683.903 5       383.101          34.000
R12  19904666.383 8 106327190.010 8      1867.562          51.000    19904670.141 8  82698941.233 8      1452.549          49.000
R17  23286325.688 5 124609777.664 5     -3869.484          32.000    23286326.641 6  96918716.757 6     -3009.599          38.000
C05  39773649.664 5 207111830.516 5        -9.254          35.000    39773649.117 6 160151993.420 6        -7.122          41.000
C14  21949192.789 8 114295195.654 8     -1103.520          51.000    21949190.398 8  88380290.714 8      -853.212          51.000
C24  22448436.727 8 116894864.444 8      1091.375          51.000
C25  24968910.078 6 130019670.014 6      3354.383          39.000
C26  23445647.742 5 122087620.063 5     -1895.715          34.000
E03  23726515.281 5 124683668.400 5       808.656          35.000    23726516.695 5  95536852.641 5       619.716          33.000
E05  24515756.078 6 128831161.451 6     -1382.500          41.000    24515758.898 8  98714881.055 8     -1059.375          49.000
E15  25611242.539 6 134588033.044 6     -1867.234          40.000    25611259.109 6 103125903.321 6     -1430.756          37.000
E25  25770048.172 7 135422565.135 7      2652.211          47.000    25770051.281 8 103765395.585 8      2032.208          48.000
> 2020 05 02 02 03 30.0000000  0 16        .000000000000
G02  22510841.742 6 118295271.739 6      -887.199          37.000
G06  22639431.086 8 118971004.959 8     -2936.691          50.000    22639434.586 8  92704696.186 8     -2288.331          50.000
G07  20799559.648 8 109302423.868 8       345.113          51.000    20799558.984 8  85170702.274 8       268.922          51.000
G09  21402464.383 6 112470703.214 6     -1957.648          40.000    21402464.664 6  87639507.166 6     -1525.440          40.000
G30  21522897.398 8 113103590.780 8      2463.668          50.000    21522898.367 8  88132685.983 8      1919.741          50.000
R02  19453061.844 6 103805268.674 6       469.625          36.000    19453067.484 5  80737425.833 5       365.264          34.000
R12  19894271.891 8 106271664.710 8      1831.363          51.000    19894275.586 8  82655754.929 8      1424.397          48.000
R17  23308061.016 4 124726074.232 4     -3886.461          29.000    23308062.305 6  97009169.670 6     -3022.797          37.000
C05  39773725.320 5 207112225.080 5       -20.262          35.000    39773724.898 6 160152298.534 6       -15.508          41.000
C14  21955601.359 8 114328566.578 8     -1123.902          51.000    21955599.086 8  88406095.211 8      -869.124          51.000
C24  22442217.867 8 116862480.963 8      1064.711          51.000
C25  24949620.078 5 129919223.236 5      3338.918          35.000
E03  23721938.242 5 124659627.000 5       792.648          32.000    23721939.398 5  95518420.603 5       607.315          34.000
E05  24523686.133 6 128872830.251 6     -1398.148          41.000    24523688.141 8  98746809.140 8     -1071.332          48.000
E15  25621957.172 6 134644335.963 6     -1889.023          40.000    25621971.469 5 103169044.513 5     -1447.431          34.000
E25  25754951.500 7 135343232.277 7      2633.879          47.000    25754955.992 8 103704608.093 8      2018.155          50.000
> 2020 05 02 02 04  0.0000000  0 16        .000000000000
G02  22515935.180 6 118322035.622 6      -897.863          38.000
G06  22656207.484 8 119059163.447 8     -2940.875          49.000    22656210.352 8  92773391.126 8     -2291.591          49.000
G07  20797616.125 8 109292211.687 8       335.434          51.000    20797615.547 8  85162744.718 8       261.377          51.000
G09  21413642.008 6 112529443.246 6     -1958.652          37.000    21413641.992 6  87685278.560 6     -1526.223          37.000
G30  21508849.633 8 113029774.816 8      2457.160          48.000    21508851.047 8  88075167.024 8      1914.670          48.000
R02  19450437.500 6 103791261.659 6       464.047          39.000    19450442.406 5  80726531.449 5       360.928          35.000
R12  19884038.156 8 106216999.406 8      1812.746          50.000    19884041.859 7  82613237.519 7      1409.914          47.000
C05  39773819.695 6 207112715.389 6       -13.242          36.000    39773819.344 6 160152678.826 6       -10.037          41.000
C14  21962085.180 8 114362329.771 8     -1127.137          51.000    21962083.062 8  88432203.060 8      -871.613          51.000
C24  22436110.664 8 116830679.705 8      1055.176          51.000
C25  24930375.391 5 129819015.446 5      3340.980          33.000
C26  23467733.945 6 122202670.430 6     -1925.637          36.000
E03  23717409.094 5 124635825.125 5       793.984          33.000    23717412.727 5  95500182.780 5       608.315          35.000
E05  24531661.031 6 128914735.659 6     -1396.008          41.000    24531662.398 7  98778918.506 7     -1069.674          47.000
E15  25632755.258 6 134701072.480 6     -1893.520          41.000    25632764.672 5 103212523.894 5     -1450.690          31.000
E25  25739917.617 7 135264228.415 7      2632.914          47.000    25739922.938 8 103644072.663 8      2017.386          50.000
> 2020 05 02 02 04 30.0000000  0 18        .000000000000
G02  22521097.023 5 118349165.497 5      -911.332          35.000    22521110.867 4  92220183.611 4      -710.129          29.000
G04  24160100.695 5 126962184.757 5     -2962.309          31.000
G06  22673019.227 8 119147509.582 8     -2949.211          48.000    22673021.711 8  92842232.278 8     -2298.086          48.000
G07  20795740.234 8 109282355.070 8       321.426          50.000    20795739.930 8  85155064.237 8       250.462          50.000
G09  21424837.414 6 112588275.051 6     -1963.578          37.000    21424837.094 6  87731121.437 6     -1530.058          36.000
G30  21494851.461 8 112956217.198 8      2446.270          50.000    21494853.086 8  88017849.400 8      1906.184          49.000
R02  19447855.586 6 103777485.477 6       453.785          38.000    19447860.875 5  80715816.560 5       352.941          34.000
R11  21023798.898 4 112344806.180 4     -2202.715          29.000    21023804.383 5  87379316.406 5     -1713.223          30.000
R12  19873921.000 8 106162958.950 8      1789.617          48.000    19873925.117 8  82571206.037 8      1391.924          48.000
C05  39773888.328 6 207113072.725 6       -10.828          36.000    39773888.008 6 160152955.162 6        -8.464          41.000
C14  21968599.766 8 114396253.720 8     -1134.836          51.000    21968597.930 8  88458435.196 8      -877.473          51.000
C24  22430071.141 8 116799229.691 8      1041.141          51.000
C25  24911131.539 5 129718816.941 5      3338.336          33.000
C26  23478855.883 6 122260598.901 6     -1936.445          39.000
E03                                                                  23712890.266 6  95481960.173 6       606.142          36.000
E05  24539636.078 7 128956643.782 7     -1398.312          42.000    24539637.117 7  98811029.938 7     -1071.401          46.000
E15  25643591.430 6 134758007.058 6     -1902.492          41.000    25643595.156 5 103256136.059 5     -1457.389          31.000
E25  25724902.477 8 135185321.648 8      2627.297          49.000    25724907.945 8 103583611.604 8      2013.109          51.000
> 2020 05 02 02 05  0.0000000  0 18        .000000000000
G02  22526358.148 6 118376817.316 6      -930.188          36.000    22526361.695 4  92241656.712 4      -724.821          28.000
G04  24177028.859 5 127051140.996 5     -2965.793          33.000
G06  22689895.523 7 119236197.438 7     -2961.551          47.000    22689897.625 7  92911339.706 7     -2307.699          47.000
G07  20793961.812 8 109273010.495 8       303.211          50.000    20793961.875 8  85147782.763 8       236.268          50.000
G09  21436079.352 6 112647354.790 6     -1972.582          38.000    21436082.383 6  87777157.613 6     -1537.080          38.000
G30  21480933.555 8 112883076.509 8      2431.484          51.000    21480935.148 8  87960856.659 8      1894.663          51.000
R01  22284965.000 4 119125908.665 4     -2891.848          28.000
R02  19445347.016 6 103764100.923 6       439.867          39.000    19445351.547 5  80705406.343 5       342.122          34.000
R12  19863951.203 8 106109705.131 8      1762.293          49.000    19863955.797 8  82529786.359 8      1370.669          48.000
R17  23373487.562 5 125076195.527 5     -3896.016          32.000    23373472.539 5  97281469.377 5     -3030.237          32.000
C05  39773961.078 5 207113451.258 5       -12.926          35.000    39773960.695 6 160153247.849 6        -9.759          41.000
C14  21975175.211 8 114430494.174 8     -1146.328          50.000    21975173.703 8  88484912.086 8      -886.389          51.000
C24  22424128.828 8 116768287.177 8      1023.332          51.000
C25  24891919.797 5 129618785.161 5      3331.762          35.000
C26  23490059.039 5 122318938.641 5     -1950.988          34.000
E05  24547640.898 7 128998711.680 7     -1404.824          42.000    24547642.445 7  98843263.808 7     -1076.271          46.000
E15  25654494.805 7 134815294.945 7     -1915.074          42.000    25654496.469 5 103300031.937 5     -1467.347          34.000
E25  25709936.148 8 135106670.897 8      2617.668          49.000    25709941.375 8 103523346.708 8      2005.722          51.000
> 2020 05 02 02 05 30.0000000  0 16        .000000000000
G02  22531728.797 6 118405039.528 6      -953.336          37.000    22531731.062 5  92263648.066 5      -742.853          33.000
G04  24193980.719 5 127140213.889 5     -2973.844          35.000
G06  22706845.680 7 119325273.686 7     -2978.418          47.000    22706846.758 7  92980749.772 7     -2320.845          47.000
G07  20792290.344 8 109264227.722 8       280.613          50.000    20792290.406 8  85140939.032 8       218.660          50.000
G09  21447377.844 6 112706731.654 6     -1986.742          38.000    21447383.891 6  87823425.253 6     -1548.114          37.000
G30  21467105.055 8 112810403.961 8      2411.832          51.000    21467106.594 8  87904228.732 8      1879.353          51.000
R02  19442921.383 6 103751159.603 6       421.309          40.000    19442926.008 5  80695340.852 5       327.684          35.000
R12  19854139.227 8 106057290.262 8      1730.332          51.000    19854143.961 8  82489019.274 8      1345.817          49.000
R17  23395357.211 5 125193237.296 5     -3908.094          34.000    23395343.812 4  97372501.824 4     -3039.628          28.000
C05  39774047.242 5 207113901.015 5       -18.863          35.000    39774046.852 6 160153594.890 6       -14.562          41.000
C14  21981820.891 8 114465100.490 8     -1162.367          50.000    21981819.688 8  88511671.895 8      -898.798          51.000
C24  22418293.656 8 116737902.114 8      1000.754          51.000
C25  24872751.242 6 129518971.381 6      3320.723          37.000
E05  24555685.805 7 129040988.971 7     -1415.375          43.000    24555687.797 7  98875658.126 7     -1084.544          45.000
E15  25665473.922 7 134872984.129 7     -1932.453          44.000    25665475.906 6 103344235.322 6     -1480.875          36.000
E25  25695028.438 8 135028327.761 8      2603.527          50.000    25695033.031 8 103463317.486 8      1994.958          51.000
> 2020 05 02 02 06  0.0000000  0 16        .000000000000
G02  22537184.148 5 118433703.324 5      -965.297          34.000    22537188.773 5  92285983.450 5      -752.185          33.000
G06  22723845.172 8 119414607.914 8     -2984.820          48.000    22723844.617 8  93050360.830 8     -2325.834          48.000
G07  20790701.570 8 109255878.751 8       268.391          51.000    20790701.531 8  85134433.338 8       209.136          51.000
G09  21458709.055 6 112766277.141 6     -1990.266          41.000    21458713.914 6  87869824.368 6     -1550.856          40.000
G30  21453341.516 8 112738073.655 8      2402.562          51.000    21453343.078 8  87847867.475 8      1872.127          51.000
R02  19440555.133 6 103738533.043 6       412.934          41.000    19440559.688 5  80685520.218 5       321.171          34.000
R12  19844460.820 8 106005587.366 8      1708.777          51.000    19844465.297 8  82448805.932 8      1329.049          50.000
R17  23417246.977 5 125310382.137 5     -3909.715          33.000    23417233.062 4  97463614.441 4     -3040.892          26.000
C05  39774122.680 5 207114292.834 5       -14.738          35.000    39774122.250 6 160153898.636 6       -11.261          41.000
C14  21988512.438 8 114499946.494 8     -1168.234          49.000    21988511.414 8  88538617.049 8      -903.332          51.000
C24  22412541.703 8 116707948.870 8       988.504          51.000
C25  24853601.859 6 129419251.253 6      3319.844          38.000
C26  23512708.688 5 122436845.567 5     -1979.730          35.000
E05  24563746.289 7 129083348.180 7     -1416.246          43.000    24563748.617 7  98908115.241 7     -1085.047          45.000
E15  25676504.703 7 134930945.336 7     -1939.246          46.000    25676508.016 6 103388647.122 6     -1485.886          40.000
E25  25680155.250 8 134950166.608 8      2599.738          50.000    25680159.594 8 103403427.755 8      1991.932          51.000
> 2020 05 02 02 06 30.0000000  0 16        .000000000000
G02  22542738.891 5 118462889.352 5      -979.324          33.000    22542742.578 4  92308725.775 4      -763.116          28.000
G06  22740908.711 7 119504278.733 7     -2992.457          46.000    22740907.133 7  93120234.136 7     -2331.788          46.000
G07  20789210.961 8 109248044.974 8       254.801          51.000    20789210.742 8  85128329.102 8       198.546          51.000
G09  21470088.078 7 112826072.198 7     -1994.961          43.000    21470091.578 6  87916417.907 6     -1554.515          41.000
G30  21439658.453 8 112666168.766 8      2392.000          51.000    21439660.469 8  87791837.713 8      1863.896          51.000
R02  19438263.852 7 103726305.806 7       403.156          42.000    19438266.508 5  80676010.127 5       313.566          33.000
R11  21074361.961 5 112614979.628 5     -2293.488          35.000
R12  19834931.414 8 105954681.533 8      1685.883          51.000    19834935.805 8  82409212.539 8      1311.245          51.000
C05  39774202.922 6 207114710.666 6       -12.242          36.000    39774202.445 6 160154221.744 6        -9.460          41.000
C14  21995265.688 8 114535113.224 8     -1175.262          50.000    21995264.703 8  88565810.204 8      -908.923          51.000
C24  22406888.039 8 116678508.923 8       975.027          51.000
C25  24834486.500 6 129319707.613 6      3317.379          38.000
C26  23524134.883 6 122496384.211 6     -1989.367          39.000
E05  24571838.062 7 129125871.009 7     -1418.113          42.000    24571840.383 7  98940697.682 7     -1086.478          46.000
E15  25687601.977 7 134989258.517 7     -1947.438          46.000    25687606.852 6 103433328.613 6     -1492.237          41.000
E25  25665332.461 8 134872271.022 8      2594.301          51.000    25665336.680 8 103343741.527 8      1987.874          51.000
> 2020 05 02 02 07  0.0000000  0 16        .000000000000
G02  22548383.383 6 118492548.570 6      -996.133          36.000    22548384.891 4  92331836.790 4      -776.226          24.000
G06  22758026.539 7 119594235.718 7     -3002.949          44.000    22758025.859 7  93190330.470 7     -2339.960          44.000
G07  20787809.266 8 109240678.577 8       238.105          51.000    20787808.805 8  85122589.058 8       185.537          51.000
G09  21481505.297 7 112886068.615 7     -2002.527          42.000    21481509.508 7  87963168.356 7     -1560.411          42.000
G30  21426047.273 8 112594643.413 8      2378.254          51.000    21426049.773 8  87736103.687 8      1853.185          51.000
R02  19436038.938 6 103714431.234 6       390.336          41.000    19436039.336 5  80666774.343 5       303.592          34.000
R11  21087307.039 6 112684071.736 6     -2316.348          38.000    21087281.812 4  87643151.357 4     -1801.604          26.000
R12  19825542.359 8 105904526.843 8      1659.703          51.000    19825547.008 8  82370203.354 8      1290.880          51.000
C05  39774278.938 6 207115106.405 6       -12.203          36.000    39774278.430 6 160154527.768 6        -9.608          41.000
C14  22002071.586 8 114570553.827 8     -1185.512          50.000    22002070.680 8  88593215.118 8      -916.643          51.000
C24  22401324.023 8 116649536.007 8       958.391          51.000
C25  24815396.859 6 129220295.545 6      3312.086          40.000
C26  23535632.633 6 122556283.719 6     -2002.254          39.000
E05  24579951.672 7 129168510.007 7     -1422.684          42.000    24579955.016 7  98973369.144 7     -1090.150          47.000
E15  25698756.234 7 135047874.504 7     -1958.445          45.000    25698762.648 7 103478242.140 7     -1500.594          43.000
E25  25650551.914 8 134794595.504 8      2585.906          51.000    25650555.242 8 103284223.953 8      1981.424          51.000
> 2020 05 02 02 07 30.0000000  0 17        .000000000000
G02  22554121.367 6 118522700.742 6     -1011.496          36.000    22554120.922 4  92355356.010 4      -788.179          27.000
G06  22775202.453 7 119684496.526 7     -3012.328          44.000    22775203.891 7  93260663.571 7     -2347.266          44.000
G07  20786500.484 8 109233799.881 8       222.609          51.000    20786499.695 8  85117229.046 8       173.462          51.000
G09  21492964.711 6 112946286.264 6     -2009.316          41.000    21492967.914 6  88010091.189 6     -1565.701          40.000
G30  21412512.609 8 112523519.789 8      2365.523          51.000    21412515.266 8  87680682.672 8      1843.265          51.000
R02  19433884.391 7 103702930.968 7       378.715          45.000    19433882.805 5  80657829.654 5       294.556          34.000
R11  21100379.188 5 112753973.681 5     -2338.023          32.000    21100363.898 4  87697532.666 4     -1818.466          24.000
R12  19816297.766 8 105855146.322 8      1634.602          50.000    19816303.117 8  82331796.270 8      1271.357          51.000
C05  39774354.609 5 207115501.163 5       -11.980          35.000    39774354.102 6 160154832.599 6        -8.917          41.000
C14  22008934.297 8 114606288.940 8     -1194.668          51.000    22008933.367 8  88620847.768 8      -923.730          51.000
C24  22395854.125 8 116621051.244 8       942.820          51.000
C25  24796336.180 6 129121037.472 6      3307.691          41.000
C26  23547207.125 5 122616562.737 5     -2014.164          31.000
E03  23686412.688 6 124472927.537 6       759.102          37.000    23686407.945 6  95375345.203 6       581.607          37.000
E05  24588091.250 7 129211285.911 7     -1426.789          42.000    24588095.703 7  99006145.478 7     -1093.146          47.000
E15  25709970.891 7 135106812.180 7     -1968.387          43.000    25709979.094 7 103523402.181 7     -1508.349          43.000
E25  25635817.719 8 134717162.613 8      2578.453          51.000    25635819.180 8 103224892.297 8      1975.731          51.000
> 2020 05 02 02 08  0.0000000  0 17        .000000000000
G02  22559951.125 4 118553342.918 4     -1027.219          29.000    22559949.430 4  92379216.661 4      -800.430          27.000
G04  24278818.023 5 127586043.284 5     -2973.672          30.000
G06  22792436.141 7 119775058.484 7     -3021.340          45.000    22792439.461 7  93331231.306 7     -2354.291          45.000
G07  20785284.453 8 109227408.670 8       207.395          51.000    20785283.273 8  85112248.883 8       161.606          51.000
G09  21504465.969 6 113006724.668 6     -2015.914          41.000    21504466.227 6  88057186.040 6     -1570.842          39.000
G30  21399054.836 8 112452799.618 8      2353.141          51.000    21399057.156 8  87625576.023 8      1833.616          51.000
R02  19431800.617 7 103691806.530 7       367.051          46.000    19431797.539 5  80649177.334 5       285.487          34.000
R11  21113555.492 5 112824437.660 5     -2358.844          32.000
R12  19807198.617 8 105806542.234 8      1609.660          50.000    19807204.375 8  82293993.056 8      1251.955          50.000
C05  39774430.102 5 207115894.568 5       -11.215          35.000    39774429.562 6 160155136.447 6        -8.418          41.000
C14  22015853.742 8 114642318.840 8     -1203.418          51.000    22015852.461 8  88648708.385 8      -930.653          51.000
C24  22390477.586 8 116593055.435 8       927.465          51.000
C25  24777304.984 6 129021935.585 6      3303.062          41.000
E03  23682100.469 6 124450277.651 6       754.848          37.000    23682099.930 6  95357990.076 6       578.177          38.000
E05  24596257.086 6 129254198.831 6     -1430.078          41.000    24596262.133 7  99039026.848 7     -1095.918          47.000
E15  25721245.797 7 135166069.979 7     -1978.215          42.000    25721255.422 7 103568807.549 7     -1515.661          43.000
E25  25621129.961 8 134639974.474 8      2571.309          51.000    25621129.438 8 103165748.175 8      1970.167          51.000
> 2020 05 02 02 08 30.0000000  0 15        .000000000000
G06  22809731.586 7 119865945.123 7     -3034.246          44.000    22809736.203 7  93402052.066 7     -2364.348          45.000
G07  20784166.148 8 109221531.319 8       188.047          51.000    20784164.906 8  85107669.143 8       146.530          51.000
G09  21516013.820 6 113067409.564 6     -2026.848          38.000    21516013.344 6  88104473.003 6     -1579.362          37.000
G30  21385679.281 8 112382511.025 8      2336.516          51.000    21385680.812 8  87570805.673 8      1820.662          51.000
R02  19429791.992 7 103681086.160 7       351.254          45.000    19429788.180 6  80640839.273 6       273.197          36.000
R12  19798250.969 8 105758743.781 8      1580.566          51.000    19798256.164 8  82256816.451 8      1229.329          49.000
C05                                                                  39774509.836 6 160155468.635 6       -10.717          41.000
C14  22022834.789 8 114678670.071 8     -1216.262          51.000    22022833.125 8  88676817.462 8      -940.488          51.000
C24  22385199.953 8 116565575.550 8       908.055          51.000
C25  24758309.219 7 128923018.212 7      3294.555          42.000
C26  23570557.461 5 122738073.318 5     -2041.781          35.000
E03  23677823.648 5 124427810.676 5       746.617          32.000    23677826.805 6  95340775.158 6       572.170          39.000
E05  24604454.406 6 129297275.550 6     -1437.859          40.000    24604458.891 7  99072033.668 7     -1101.665          47.000
E15  25732586.516 6 135225672.789 6     -1991.617          40.000    25732596.570 7 103614477.290 7     -1526.110          42.000
E25  25606493.680 8 134563059.570 8      2560.082          51.000    25606492.469 8 103106813.407 8      1961.603          51.000
> 2020 05 02 02 09  0.0000000  0 15        .000000000000
G06  22827078.969 7 119957105.627 7     -3042.734          42.000    22827084.656 7  93473086.247 7     -2370.962          43.000
G07  20783136.516 8 109216119.799 8       173.129          51.000    20783135.008 8  85103452.385 8       134.906          51.000
G09  21527599.070 6 113128292.339 6     -2032.199          37.000    21527601.672 6  88151914.123 6     -1583.532          38.000
G30  21372377.320 8 112312607.609 8      2324.113          51.000    21372377.938 8  87516335.490 8      1810.997          51.000
R02  19427849.688 7 103670722.903 7       339.914          45.000    19427847.453 6  80632778.940 6       264.378          38.000
R12  19789445.586 8 105711704.340 8      1555.805          51.000    19789450.062 7  82220230.246 7      1210.070          47.000
C05  39774586.281 5 207116708.167 5       -12.062          35.000    39774586.062 6 160155773.607 6        -9.512          41.000
C14  22029868.195 8 114715295.404 8     -1224.848          50.000    22029866.617 8  88705138.475 8      -947.205          51.000
C24  22380012.852 8 116538564.839 8       892.977          51.000
C25  24739340.125 7 128824239.983 7      3290.500          42.000
C26  23582350.531 6 122799485.608 6     -2052.180          36.000
E03                                                                  23673578.445 6  95323664.120 6       569.033          36.000
E05  24612673.836 7 129340468.129 7     -1441.012          42.000    24612677.195 7  99105129.347 7     -1104.349          46.000
E15  25743984.016 6 135285571.118 6     -2001.129          39.000    25743992.922 6 103660373.392 6     -1533.279          41.000
E25  25591900.180 8 134486372.024 8      2552.930          51.000    25591899.031 8 103048052.821 8      1956.141          50.000
> 2020 05 02 02 09 30.0000000  0 16        .000000000000
G02  22578010.461 5 118648243.070 5     -1078.871          32.000
G06  22844482.281 7 120048560.964 7     -3053.512          42.000    22844488.930 7  93544350.200 7     -2379.357          42.000
G07  20782199.805 8 109211197.255 8       155.973          51.000    20782197.625 8  85099616.638 8       121.537          51.000
G09  21539226.484 6 113189396.480 6     -2040.582          38.000    21539231.492 6  88199527.709 6     -1590.061          37.000
G30  21359153.703 8 112243114.882 8      2309.629          51.000    21359153.938 8  87462185.333 8      1799.711          51.000
R02  19425978.883 7 103660742.232 7       326.387          44.000    19425978.438 6  80625016.197 6       253.856          40.000
R12  19780787.125 8 105665449.950 8      1528.777          51.000    19780790.828 7  82184254.676 7      1189.052          46.000
C05  39774662.031 6 207117105.345 6       -13.148          36.000    39774662.344 6 160156083.715 6       -10.046          41.000
C14  22036958.805 8 114752218.742 8     -1235.660          50.000    22036957.586 8  88733689.905 8      -955.430          51.000
C24  22374920.305 8 116512047.600 8       875.711          51.000
C25  24720402.602 6 128725626.632 6      3284.227          41.000
C26  23594216.617 5 122861273.056 5     -2066.016          33.000
E03                                                                  23669359.203 5  95306675.546 5       564.238          32.000
E05  24620919.586 6 129383800.653 6     -1446.793          38.000    24620923.164 7  99138332.266 7     -1108.384          47.000
E15  25755442.594 6 135345787.112 6     -2012.508          38.000    25755448.297 6 103706512.849 6     -1541.812          39.000
E25  25577354.398 8 134409937.664 8      2543.613          50.000    25577353.633 8 102989486.242 8      1949.008          49.000
> 2020 05 02 02 10  0.0000000  0 15        .000000000000
G02  22584215.523 5 118680845.805 5     -1093.605          34.000
G06  22861942.336 7 120140312.490 7     -3061.840          45.000    22861949.086 7  93615844.910 7     -2385.849          45.000
G07  20781356.898 8 109206767.946 8       140.613          51.000    20781354.656 8  85096165.240 8       109.569          51.000
G09  21550896.906 6 113250725.369 6     -2046.863          37.000    21550899.703 6  88247316.504 6     -1594.958          37.000
G30  21346009.391 8 112174038.616 8      2296.828          51.000    21346009.641 8  87408359.687 8      1789.739          51.000
R02  19424180.617 7 103651149.497 7       314.562          45.000    19424182.188 6  80617555.195 6       244.660          40.000
R11  21167566.844 4 113113057.391 4     -2447.906          28.000
R12  19772276.758 8 105619987.009 8      1503.445          51.000    19772279.703 7  82148894.684 7      1169.346          47.000
C14  22044107.633 8 114789444.426 8     -1244.660          50.000    22044106.469 8  88762475.151 8      -962.417          51.000
C24  22369923.625 8 116486028.649 8       860.199          51.000
C25  24701497.547 6 128627184.442 6      3279.824          39.000
E03                                                                  23665168.984 5  95289828.904 5       561.470          31.000
E05  24629191.062 5 129427271.657 5     -1450.188          32.000    24629197.102 7  99171645.766 7     -1111.320          46.000
E15  25766962.523 6 135406323.250 6     -2021.910          40.000    25766963.586 6 103752897.696 6     -1549.405          38.000
E25  25562857.852 8 134333762.723 8      2536.055          49.000    25562857.914 8 102931118.455 8      1943.109          49.000
> 2020 05 02 02 10 30.0000000  0 16        .000000000000
G02  22590511.102 5 118713925.366 5     -1110.055          32.000
G06  22879453.773 7 120232332.557 7     -3071.840          47.000    22879459.891 7  93687548.850 7     -2393.641          47.000
G07  20780603.070 8 109202806.924 8       124.070          51.000    20780600.875 8  85093078.749 8        96.678          51.000
G09  21562605.352 6 113312253.562 6     -2054.516          40.000    21562607.219 6  88295260.644 6     -1600.921          39.000
G30  21332939.750 8 112105355.600 8      2282.742          51.000    21332940.250 8  87354840.464 8      1778.760          51.000
R02  19422450.656 7 103641921.304 7       301.586          44.000    19422453.992 6  80610377.700 6       234.564          41.000
R12  19763910.211 8 105575292.659 8      1476.918          51.000    19763912.734 8  82114132.462 8      1148.717          48.000
C05  39774813.812 5 207117892.758 5       -12.641          35.000    39774813.250 6 160156692.597 6        -9.729          41.000
C14  22051309.977 8 114826948.170 8     -1254.918          50.000    22051308.586 8  88791475.413 8      -970.249          51.000
C24  22365018.609 8 116460484.102 8       843.496          51.000
C25  24682620.656 6 128528890.959 6      3274.125          38.000
C26  23618158.750 4 122985962.793 4     -2090.711          29.000
E03  23661004.188 5 124339415.263 5       726.707          32.000    23661004.602 5  95273073.561 5       556.705          33.000
E05  24637487.062 6 129470868.319 6     -1455.039          38.000    24637493.281 7  99205050.988 7     -1115.160          45.000
E15  25778538.781 7 135467153.177 7     -2032.426          42.000    25778536.859 6 103799507.591 6     -1557.346          39.000
E25  25548406.148 8 134257824.391 8      2527.449          49.000    25548407.633 8 102872931.955 8      1936.527          49.000
> 2020 05 02 02 11  0.0000000  0 15        .000000000000
G06  22897020.227 7 120324641.296 7     -3082.035          46.000    22897024.969 7  93759477.715 7     -2401.586          46.000
G07  20779942.602 8 109199336.491 8       107.105          51.000    20779940.023 8  85090374.522 8        83.459          51.000
G09  21574356.172 6 113374003.685 6     -2062.625          40.000    21574357.820 6  88343377.545 6     -1607.243          40.000
G30  21319949.477 8 112037090.457 8      2268.137          51.000    21319950.180 8  87301646.852 8      1767.379          51.000
R02  19420793.461 7 103633082.213 7       287.719          44.000    19420797.836 6  80603502.829 6       223.778          40.000
R12  19755692.203 8 105531392.058 8      1449.609          51.000    19755694.602 8  82079987.560 8      1127.474          49.000
C05  39774889.430 5 207118274.554 5       -13.289          35.000    39774887.938 6 160156990.263 6       -10.512          41.000
C14  22058570.078 8 114864753.025 8     -1265.633          50.000    22058568.492 8  88820708.527 8      -978.652          51.000
C24  22360209.055 8 116435437.450 8       826.141          51.000
C25  24663776.766 6 128430771.126 6      3267.449          36.000
C26  23630232.359 5 123048828.165 5     -2102.867          30.000
E03  23656875.438 5 124317718.812 5       720.348          33.000    23656873.336 5  95256429.558 5       552.012          35.000
E05  24645810.617 6 129514607.680 6     -1460.559          37.000    24645815.352 7  99238565.666 7     -1119.354          44.000
E15  25790174.977 7 135528298.252 7     -2043.918          42.000    25790170.406 6 103846359.015 6     -1566.400          37.000
E25  25534004.781 8 134182147.791 8      2517.789          49.000    25534007.406 8 102814945.972 8      1929.257          50.000
> 2020 05 02 02 11 30.0000000  0 15        .000000000000
G06  22914641.414 7 120417237.408 7     -3090.875          46.000    22914644.305 7  93831630.513 7     -2408.474          46.000
G07  20779375.859 8 109196358.139 8        91.488          51.000    20779373.086 8  85088053.728 8        71.290          51.000
G09  21586149.523 7 113435976.505 7     -2069.094          42.000    21586150.086 5  88391668.037 5     -1612.284          35.000
G30  21307039.148 8 111969246.368 8      2254.875          51.000    21307040.141 8  87248781.335 8      1757.045          51.000
R02  19419210.273 7 103624635.138 7       275.363          45.000    19419214.656 6  80596932.888 6       214.171          40.000
R12  19747623.117 8 105488288.791 8      1423.906          51.000    19747625.875 8  82046462.779 8      1107.483          50.000
C05                                                                  39774963.617 6 160157295.637 6        -9.744          41.000
C14  22065888.391 8 114902860.844 8     -1274.969          50.000    22065886.461 8  88850175.893 8      -985.811          51.000
C24  22355495.492 8 116410890.916 8       810.305          51.000
C25  24644968.094 6 128332828.576 6      3262.047          36.000
C26  23642379.367 4 123112072.623 4     -2115.301          28.000
E03  23652776.031 5 124296176.951 5       715.469          30.000    23652776.109 6  95239926.473 6       548.357          36.000
E05  24654163.234 5 129558501.821 5     -1465.246          30.000    24654165.055 7  99272191.185 7     -1122.269          44.000
E15  25801870.352 6 135589758.407 6     -2053.637          40.000    25801865.945 6 103893451.807 6     -1573.356          38.000
E25  25519654.438 8 134106736.459 8      2509.648          50.000    25519658.055 8 102757163.268 8      1923.055          51.000
> 2020 05 02 02 12  0.0000000  0 16        .000000000000
G02  22609945.211 4 118816063.582 4     -1158.816          29.000
G06  22932310.086 7 120510084.103 7     -3099.789          42.000    22932311.336 7  93903978.580 7     -2415.420          42.000
G07  20778896.305 8 109193837.723 8        75.605          51.000    20778893.586 8  85086089.784 8        58.913          51.000
G09  21597978.656 7 113498137.720 7     -2076.160          43.000    21597977.859 5  88440105.241 5     -1617.790          30.000
G30  21294202.609 8 111901790.998 8      2241.215          51.000    21294204.055 8  87196218.733 8      1746.404          51.000
R02  19417694.812 8 103616546.981 8       262.812          48.000    19417698.828 7  80590642.077 7       204.410          42.000
R11  21223513.188 5 113412018.778 5     -2533.629          31.000
R12  19739697.102 8 105445950.531 8      1397.652          51.000    19739700.352 8  82013533.005 8      1087.063          51.000
C05  39775034.703 5 207119043.164 5       -12.480          35.000    39775034.266 6 160157579.956 6        -9.699          41.000
C14  22073258.539 8 114941238.218 8     -1284.566          50.000    22073256.195 8  88879851.721 8      -993.323          51.000
C24  22350871.547 8 116386811.566 8       794.121          51.000
C25  24626188.039 6 128235031.868 6      3256.789          37.000
E03                                                                  23648704.672 6  95223524.717 6       544.553          36.000
E05                                                                  24662536.906 7  99305901.733 7     -1125.696          44.000
E15  25813617.938 6 135651498.051 6     -2063.062          37.000    25813616.000 6 103940758.777 6     -1580.926          38.000
E25  25505349.297 8 134031558.527 8      2501.223          51.000    25505352.727 8 102699559.386 8      1916.515          51.000
> 2020 05 02 02 12 30.0000000  0 15        .000000000000
G06  22950032.133 5 120603213.182 5     -3109.281          35.000    22950032.609 5  93976546.707 5     -2422.814          35.000
G07  20778510.391 8 109191809.426 8        59.473          51.000    20778507.820 8  85084509.296 8        46.342          51.000
G09  21609849.906 6 113560521.339 6     -2083.383          39.000    21609849.367 6  88488715.721 6     -1623.421          39.000
G30  21281446.930 8 111834760.522 8      2227.363          51.000    21281448.477 8  87143987.210 8      1735.608          51.000
R02  19416253.820 7 103608854.827 7       249.863          47.000    19416257.781 7  80584659.296 7       194.338          43.000
R12  19731921.234 8 105404414.058 8      1371.262          51.000    19731924.719 8  81981226.843 8      1066.537          51.000
C05  39775106.750 5 207119418.034 5       -11.770          35.000    39775106.398 6 160157869.856 6        -9.675          41.000
C14  22080687.031 8 114979919.780 8     -1294.371          51.000    22080684.539 8  88909762.728 8     -1000.884          51.000
C24  22346343.859 8 116363234.312 8       777.621          51.000
C25  24607441.852 6 128137417.419 6      3250.762          37.000
E03                                                                  23644663.438 5  95207251.167 5       540.156          34.000
E05                                                                  24670937.750 7  99339723.959 7     -1129.153          44.000
E15  25825424.078 5 135713550.174 5     -2073.609          34.000    25825425.273 6 103988305.198 6     -1588.654          39.000
E24  23547604.695 5 123743499.324 5       -96.270          31.000    23547618.125 6  94816494.321 6       -73.986          37.000
E25  25491095.914 8 133956650.608 8      2492.633          51.000    25491099.031 8 102642162.429 8      1909.844          51.000
> 2020 05 02 02 13  0.0000000  0 16        .000000000000
G02  22623358.047 5 118886558.546 5     -1192.539          33.000    22623359.180 5  92638865.724 5      -929.254          31.000
G06  22967797.586 5 120696602.421 5     -3119.625          30.000    22967808.023 5  94049334.682 5     -2430.880          30.000
G07  20778215.422 8 109190259.067 8        41.715          51.000    20778212.805 8  85083301.228 8        32.505          51.000
G09  21621760.734 6 113623112.757 6     -2091.562          39.000    21621761.430 6  88537488.179 6     -1629.786          38.000
G30  21268769.789 8 111768142.565 8      2211.695          51.000    21268771.141 8  87092077.131 8      1723.399          51.000
R02  19414884.508 8 103601545.333 8       235.164          48.000    19414887.992 7  80578974.149 7       182.905          43.000
R12  19724292.961 8 105363667.126 8      1342.996          51.000    19724296.812 8  81949534.801 8      1044.553          51.000
C05  39775177.148 5 207119785.013 5       -14.555          35.000    39775177.023 6 160158159.747 6       -11.088          41.000
C14  22088171.414 8 115018891.908 8     -1305.867          51.000    22088168.594 8  88939898.438 8     -1009.755          51.000
C24  22341909.820 8 116340145.946 8       759.500          51.000
C25  24588728.625 6 128039973.498 6      3243.316          38.000
E03                                                                  23640648.352 5  95191095.463 5       535.205          32.000
E05                                                                  24679363.367 7  99373647.343 7     -1134.083          44.000
E15  25837288.555 5 135775866.981 5     -2084.863          33.000    25837291.734 6 104036079.063 6     -1597.663          41.000
E24  23548198.742 6 123746608.986 6      -113.066          36.000    23548210.062 6  94818876.410 6       -86.674          37.000
E25  25476891.414 8 133882000.808 8      2482.145          51.000    25476894.344 8 102584963.249 8      1901.831          51.000
> 2020 05 02 02 13 30.0000000  0 15        .000000000000
G02  22630202.094 6 118922525.884 6     -1205.883          37.000    22630202.625 5  92666892.280 5      -939.646          35.000
G06  22985629.297 6 120790284.703 6     -3126.078          38.000    22985638.555 6  94122333.971 6     -2435.902          39.000
G07  20778015.922 8 109189210.841 8        27.727          51.000    20778013.461 8  85082484.435 8        21.605          51.000
G09  21633715.602 6 113685936.573 6     -2097.117          37.000    21633716.062 6  88586441.782 6     -1634.114          38.000
G30  21256176.039 8 111701963.689 8      2199.699          51.000    21256177.375 8  87040509.185 8      1714.051          51.000
R02  19413591.992 8 103594645.757 8       224.430          49.000    19413594.320 7  80573607.830 7       174.559          43.000
R12  19716817.922 8 105323737.002 8      1318.570          51.000    19716821.664 8  81918478.036 8      1025.555          51.000
C05  39775251.539 5 207120171.485 5       -12.031          35.000    39775251.523 6 160158458.996 6        -9.312          41.000
C14  22095716.055 8 115058179.673 8     -1313.703          50.000    22095713.008 8  88970278.236 8     -1015.965          51.000
C24  22337574.617 8 116317571.899 8       745.059          51.000
C25  24570054.328 6 127942727.067 6      3239.293          38.000
E05                                                                  24687817.422 7  99407691.236 7     -1135.864          43.000
E15  25849214.031 5 135838543.328 5     -2093.262          33.000    25849218.227 6 104084098.352 6     -1603.847          41.000
E24  23548881.367 6 123750191.493 6      -126.160          38.000    23548890.633 6  94821621.356 6       -96.647          36.000
E25  25462740.711 8 133807636.157 8      2475.176          51.000    25462743.664 8 102527982.560 8      1896.539          51.000
> 2020 05 02 02 14  0.0000000  0 17        .000000000000
G02  22637131.602 6 118958939.293 6     -1220.215          41.000    22637132.438 6  92695266.364 6      -950.814          37.000
G06  23003503.672 7 120884203.421 7     -3133.738          42.000    23003514.781 7  94195517.407 7     -2441.874          42.000
G07  20777902.734 8 109188616.609 8        13.117          51.000    20777900.695 8  85082021.397 8        10.224          51.000
G09  21645705.484 6 113748943.648 6     -2102.520          40.000    21645706.109 6  88635538.189 6     -1638.327          40.000
G30  21243656.758 8 111636176.986 8      2187.207          51.000    21243658.453 8  86989246.815 8      1704.317          51.000
R02  19412366.969 8 103588107.961 8       212.695          49.000    19412368.992 7  80568522.888 7       165.430          44.000
R12  19709486.812 8 105284576.283 8      1293.363          51.000    19709490.773 8  81888019.707 8      1005.949          51.000
R18  22453327.914 5 119857380.973 5     -2051.965          34.000    22453331.516 4  93222426.921 4     -1595.973          25.000
C05  39775320.414 5 207120530.285 5       -10.480          35.000    39775320.203 6 160158735.684 6        -8.300          41.000
C14  22103312.016 8 115097735.279 8     -1322.066          50.000    22103309.344 8  89000865.128 8     -1022.472          51.000
C24  22333328.977 8 116295464.723 8       729.957          51.000
C25  24551410.461 6 127845632.157 6      3234.949          36.000
C26  23704153.461 5 123433740.097 5     -2171.473          30.000
E05                                                                  24696293.141 7  99441818.672 7     -1138.450          44.000
E15  25861191.578 6 135901482.708 6     -2101.574          36.000    25861196.305 7 104132324.601 7     -1610.285          43.000
E24                                                                  23549655.078 5  94824692.145 5      -107.069          35.000
E25  25448635.016 8 133733510.251 8      2467.520          51.000    25448638.266 8 102471184.799 8      1890.706          51.000
> 2020 05 02 02 14 30.0000000  0 16        .000000000000
G02  22644150.914 6 118995825.085 6     -1237.652          39.000    22644152.086 6  92724008.500 6      -964.407          38.000
G06  23021426.445 7 120978383.302 7     -3143.887          43.000    23021439.477 7  94268904.321 7     -2449.782          43.000
G07  20777881.055 8 109188503.505 8        -4.566          51.000    20777879.273 8  85081933.280 8        -3.558          51.000
G09  21657735.297 6 113812161.137 6     -2111.098          39.000    21657735.969 6  88684798.571 6     -1645.011          39.000
G30  21231217.656 8 111570811.655 8      2171.445          50.000    21231219.758 8  86938312.773 8      1692.035          50.000
R02  19411215.102 8 103581961.557 8       198.090          49.000    19411217.125 7  80563742.359 7       154.070          44.000
R12  19702305.344 8 105246214.852 8      1265.078          51.000    19702309.484 8  81858183.054 8       983.950          50.000
C05  39775388.727 5 207120885.424 5       -12.789          35.000    39775388.562 6 160159011.049 6        -9.488          41.000
C14  22110964.703 8 115137586.469 8     -1333.504          49.000    22110962.844 8  89031680.570 8     -1031.286          51.000
C24  22329178.188 8 116273852.392 8       711.855          51.000
C25  24532803.016 5 127748718.374 5      3227.098          35.000
C26  23716701.344 5 123499117.665 5     -2185.758          32.000
E05  24704795.930 6 129824606.664 6     -1492.094          37.000    24704796.031 7  99476050.963 7     -1143.092          44.000
E15  25873226.648 6 135964718.117 6     -2113.074          40.000    25873230.969 7 104180777.713 7     -1619.133          42.000
E24                                                                  23550504.992 5  94828123.948 5      -119.760          34.000
E25  25434580.125 8 133659652.723 8      2457.070          51.000    25434583.570 8 102414592.670 8      1882.687          51.000
> 2020 05 02 02 15  0.0000000  0 18        .000000000000
G02  22651262.852 6 119033200.193 6     -1253.555          38.000    22651264.023 6  92753131.854 6      -976.799          37.000
G06  23039401.500 7 121072839.747 7     -3152.723          44.000    23039416.852 7  94342506.764 7     -2456.664          44.000
G07  20777954.281 8 109188889.176 8       -20.762          51.000    20777952.703 8  85082233.803 8       -16.178          51.000
G09  21669808.180 6 113875606.776 6     -2118.309          40.000    21669808.852 6  88734236.753 6     -1650.627          39.000
G30  21218862.906 8 111505887.439 8      2157.203          51.000    21218865.008 8  86887722.461 8      1680.937          51.000
R02  19410140.195 8 103576226.628 8       184.676          49.000    19410142.555 7  80559281.857 7       143.637          44.000
R11  21311002.539 5 113879474.538 5     -2658.098          35.000    21310995.328 4  88572958.680 4     -2067.409          25.000
R12  19695277.477 8 105208672.926 8      1238.094          51.000    19695281.406 8  81828983.752 8       962.962          49.000
C05  39775461.352 6 207121255.178 6       -12.531          36.000    39775460.281 6 160159292.310 6        -9.639          41.000
C14  22118677.742 8 115177751.480 8     -1343.648          50.000    22118676.422 8  89062738.691 8     -1038.982          51.000
C24  22325126.289 8 116252753.562 8       695.148          51.000
C25  24514233.000 5 127652005.857 5      3221.059          34.000
C26  23729325.992 4 123564864.477 4     -2198.863          28.000
E03  23624909.797 6 124149734.588 6       678.867          36.000    23624907.453 6  95127706.975 6       520.012          37.000
E05  24713320.992 5 129869438.141 5     -1496.512          35.000    24713327.742 7  99510402.310 7     -1146.600          43.000
E15  25885320.867 6 136028266.243 6     -2123.020          41.000    25885324.422 7 104229470.452 7     -1626.666          43.000
E24  23551445.953 5 123763664.383 5      -171.680          33.000    23551446.391 5  94831904.823 5      -132.056          33.000
E25  25420580.352 8 133586083.856 8      2448.035          51.000    25420583.688 8 102358221.744 8      1875.767          51.000
> 2020 05 02 02 15 30.0000000  0 16        .000000000000
G02  22658465.430 5 119071052.798 5     -1267.281          35.000    22658465.562 5  92782627.353 5      -987.492          35.000
G06  23057426.047 7 121167559.716 7     -3159.777          42.000    23057443.789 6  94416314.587 6     -2462.161          41.000
G07  20778120.461 8 109189763.151 8       -35.340          51.000    20778119.211 8  85082914.831 8       -27.538          51.000
G09  21681921.836 5 113939269.873 5     -2123.199          30.000    21681923.148 5  88783844.337 5     -1654.444          31.000
G30  21206590.695 8 111441395.663 8      2144.559          51.000    21206592.547 8  86837469.133 8      1671.085          51.000
R02  19409140.578 8 103570894.269 8       173.098          49.000    19409143.234 7  80555134.445 7       134.632          45.000
R11  21325982.508 5 113959544.358 5     -2677.602          32.000
R12  19688401.195 8 105171941.767 8      1212.934          51.000    19688405.289 8  81800415.081 8       943.393          49.000
R18  22488475.281 5 120045015.094 5     -2115.711          30.000    22488486.297 4  93368384.512 4     -1645.553          26.000
C14  22126449.266 8 115218220.500 8     -1352.078          49.000    22126448.422 8  89094031.903 8     -1045.455          51.000
C24  22321171.078 8 116232158.704 8       680.113          51.000
C25  24495696.609 6 127555486.833 6      3216.223          39.000
E03  23621049.695 6 124129467.710 6       674.566          37.000    23621052.930 6  95112177.688 6       516.980          38.000
E05  24721878.227 6 129914414.999 6     -1499.406          37.000    24721886.328 7  99544865.095 7     -1149.084          42.000
E15  25897472.266 7 136092115.172 7     -2131.090          43.000    25897475.102 7 104278393.677 7     -1632.988          42.000
E25  25406634.047 8 133512795.479 8      2440.418          51.000    25406637.148 8 102302065.756 8      1869.907          51.000
> 2020 05 02 02 16  0.0000000  0 15        .000000000000
G02  22665756.266 5 119109370.374 5     -1286.125          30.000    22665756.414 5  92812485.299 5     -1002.169          31.000
G06  23075497.711 6 121262529.323 6     -3171.410          41.000    23075515.758 6  94490316.975 6     -2471.226          41.000
G07  20778377.242 8 109191114.024 8       -54.422          51.000    20778376.391 8  85083967.469 8       -42.407          51.000
G09  21694074.469 5 114003151.983 5     -2134.141          35.000    21694077.094 5  88833622.477 5     -1662.967          35.000
G30  21194399.117 8 111377326.855 8      2127.109          51.000    21194400.484 8  86787545.405 8      1657.488          51.000
R02  19408214.766 8 103565954.311 8       156.695          49.000    19408217.898 7  80551292.261 7       121.874          46.000
R12  19681674.977 8 105136011.944 8      1182.871          51.000    19681678.961 7  81772469.694 7       920.014          47.000
C14  22134277.359 8 115258982.861 8     -1364.984          49.000    22134276.836 8  89125551.952 8     -1055.526          51.000
C24  22317310.812 8 116212057.433 8       660.398          51.000
C25  24477193.352 6 127459152.514 6      3206.668          41.000
C26  23754812.492 5 123697531.811 5     -2221.660          30.000
E03  23617220.070 5 124109359.006 5       666.645          35.000    23617226.172 6  95096769.701 6       510.440          38.000
E05  24730463.711 6 129959526.546 6     -1507.414          41.000    24730469.562 6  99579431.054 6     -1154.861          41.000
E15  25909678.227 7 136156252.324 7     -2144.152          44.000    25909680.172 7 104327537.709 7     -1642.886          42.000
E25  25392739.383 8 133439778.573 8      2427.828          51.000    25392742.133 8 102246117.770 8      1860.326          51.000
> 2020 05 02 02 16 30.0000000  0 16        .000000000000
G02  22673137.195 5 119148158.935 5     -1299.652          34.000    22673137.125 5  92842710.228 5     -1012.719          34.000
G06  23093617.789 6 121357752.864 6     -3177.328          40.000    23093629.500 6  94564517.290 6     -2475.837          40.000
G07  20778726.016 8 109192948.657 8       -68.246          50.000    20778725.602 8  85085397.039 8       -53.179          50.000
G09  21706269.078 5 114067233.502 5     -2139.090          34.000    21706272.062 6  88883556.178 6     -1666.820          36.000
G30  21182289.602 8 111313689.595 8      2114.996          51.000    21182290.516 8  86737957.959 8      1648.049          50.000
R02  19407364.109 8 103561415.773 8       145.574          49.000    19407367.570 7  80547762.285 7       113.227          46.000
R12  19675100.266 8 105100892.169 8      1158.129          51.000    19675103.977 7  81745154.346 7       900.767          47.000
C05  39775678.695 5 207122395.319 5       -11.484          35.000    39775678.117 6 160160168.307 6        -9.092          41.000
C14  22142163.094 8 115300045.927 8     -1372.734          48.000    22142162.742 8  89157304.507 8     -1061.531          51.000
C24  22313547.039 8 116192457.323 8       645.957          51.000
C25  24458726.875 7 127363012.005 7      3202.500          42.000
C26  23767647.344 5 123764330.825 5     -2231.109          30.000
E03  23613425.047 6 124089416.277 6       662.801          37.000    23613429.328 6  95081488.834 6       507.974          37.000
E05  24739075.359 6 130004779.989 6     -1509.691          41.000    24739080.352 6  99614105.815 6     -1156.791          41.000
E15  25921939.773 7 136220683.048 7     -2151.582          45.000    25921941.086 6 104376906.649 6     -1648.459          41.000
E25  25378898.227 8 133367042.280 8      2420.797          51.000    25378900.703 8 102190384.806 8      1854.890          51.000
> 2020 05 02 02 17  0.0000000  0 16        .000000000000
G02  22680601.922 6 119187382.505 6     -1313.793          38.000    22680601.242 6  92873274.006 6     -1023.735          36.000
G06  23111779.617 6 121453193.064 6     -3184.047          41.000    23111784.203 6  94638886.296 6     -2481.079          41.000
G07  20779160.062 8 109195232.175 8       -82.691          49.000    20779160.477 8  85087176.416 8       -64.435          49.000
G09  21718497.070 5 114131470.771 5     -2144.527          35.000    21718500.195 5  88933628.246 5     -1671.054          35.000
G30  21170255.273 7 111250451.055 7      2102.148          46.000    21170256.742 7  86688681.190 7      1638.038          46.000
R02  19406582.562 8 103557244.909 8       133.828          49.000    19406585.586 7  80544518.261 7       104.089          45.000
R12  19668671.078 8 105066548.989 8      1132.762          51.000    19668674.711 8  81718443.018 8       881.037          48.000
R18  22524716.281 5 120238464.421 5     -2177.324          35.000
C05                                                                  39775744.984 6 160160437.705 6        -7.684          41.000
C14  22150100.227 8 115341375.763 8     -1381.156          49.000    22150099.711 8  89189263.348 8     -1067.910          51.000
C24  22309873.117 8 116173324.783 8       630.887          51.000
C25  24440291.711 7 127267033.356 7      3197.641          42.000
E03  23609655.273 5 124069575.439 5       659.062          32.000    23609657.945 6  95066309.121 6       505.026          37.000
E05  24747707.469 7 130050141.360 7     -1512.832          43.000    24747713.094 6  99648863.141 6     -1159.015          41.000
E15  25934250.039 7 136285371.265 7     -2159.703          45.000    25934250.109 6 104426472.877 6     -1654.685          40.000
E25  25365104.289 8 133294554.182 8      2413.211          51.000    25365106.297 8 102134841.989 8      1849.042          51.000
> 2020 05 02 02 17 30.0000000  0 16        .000000000000
G02  22688155.570 6 119227071.555 6     -1330.398          40.000    22688154.500 6  92904200.471 6     -1036.674          39.000
G06  23129988.992 6 121548879.151 6     -3193.316          40.000    23129988.914 6  94713446.846 6     -2488.302          40.000
G07  20779685.523 8 109197995.693 8       -99.836          49.000    20779686.617 8  85089329.794 8       -77.794          49.000
G09  21730765.586 5 114195938.982 5     -2151.992          35.000    21730768.242 5  88983863.291 5     -1676.874          35.000
G30  21158302.008 7 111187644.700 7      2086.559          44.000    21158305.453 7  86639741.150 7      1625.890          43.000
R02  19405876.172 8 103553475.926 8       119.207          49.000    19405878.727 7  80541586.845 7        92.717          45.000
R11  21387010.805 5 114285700.571 5     -2758.578          30.000
R12  19662393.734 8 105033016.600 8      1104.492          51.000    19662397.523 8  81692362.314 8       859.053          49.000
C05  39775812.039 5 207123090.575 5       -11.703          35.000    39775812.102 6 160160708.241 6        -8.917          41.000
C14  22158095.125 8 115383004.401 8     -1392.438          49.000    22158094.047 8  89221453.256 8     -1076.658          51.000
C24  22306295.055 8 116154692.112 8       613.027          51.000
C25  24421895.016 6 127171250.475 6      3189.801          41.000
E03  23605916.906 6 124049924.221 6       652.492          37.000    23605918.664 6  95051255.580 6       500.015          37.000
E05  24756366.828 7 130095642.788 7     -1518.738          45.000    24756372.141 6  99683727.867 6     -1163.768          41.000
E15  25946614.875 7 136350347.374 7     -2170.305          44.000    25946613.156 6 104476259.743 6     -1663.030          39.000
E25  25351364.000 8 133222348.401 8      2402.500          51.000    25351365.453 8 102079515.509 8      1840.835          51.000
> 2020 05 02 02 18  0.0000000  0 17        .000000000000
G02  22695795.609 7 119267214.802 7     -1346.086          44.000    22695793.539 6  92935480.913 6     -1048.898          37.000
G06  23148243.617 6 121644798.287 6     -3201.645          39.000    23148240.078 6  94788189.002 6     -2494.788          39.000
G07  20780300.750 8 109201229.387 8      -116.098          48.000    20780301.961 8  85091849.514 8       -90.466          48.000
G09  21743071.062 5 114260609.624 5     -2159.855          32.000    21743073.344 5  89034241.731 5     -1683.004          35.000
G30  21146430.898 8 111125262.030 8      2071.922          48.000    21146434.570 8  86591131.273 8      1614.488          48.000
R02  19405243.398 8 103550099.886 8       105.473          49.000    19405245.562 7  80538961.032 7        82.034          45.000
R11  21402565.000 5 114368817.381 5     -2778.840          31.000
R12  19656266.586 8 105000286.421 8      1077.168          51.000    19656270.352 8  81666905.536 8       837.797          49.000
C05  39775877.773 5 207123433.268 5       -11.707          35.000    39775877.727 6 160160972.462 6        -9.195          41.000
C14  22166145.477 8 115424922.164 8     -1402.438          49.000    22166143.852 8  89253866.723 8     -1084.571          51.000
C24  22302810.906 8 116136549.883 8       596.039          51.000
C25  24403535.781 6 127075655.583 6      3182.777          41.000
E03  23602208.055 6 124030433.326 6       646.777          39.000    23602209.031 6  95036321.042 6       495.268          37.000
E05  24765051.312 7 130141274.652 7     -1523.680          44.000    24765054.461 6  99718692.529 6     -1167.701          40.000
E15  25959031.859 7 136415599.796 7     -2180.258          43.000    25959028.852 6 104526258.275 6     -1670.396          40.000
E24  23558860.547 6 123802646.333 6      -261.945          36.000
E25  25337675.781 8 133150416.950 8      2392.559          51.000    25337676.617 8 102024399.191 8      1833.289          51.000
> 2020 05 02 02 18 30.0000000  0 16        .000000000000
G02  22703525.023 7 119307829.696 7     -1360.664          45.000    22703521.945 6  92967128.874 6     -1060.255          38.000
G06  23166546.156 6 121740966.429 6     -3208.387          39.000    23166539.461 6  94863125.168 6     -2500.042          38.000
G07  20781009.102 8 109204951.517 8      -131.000          49.000    20781010.281 8  85094749.881 8      -102.078          49.000
G09  21755419.883 6 114325493.139 6     -2165.285          39.000    21755421.672 6  89084800.248 6     -1687.232          39.000
G30  21134645.391 8 111063323.278 8      2058.289          51.000    21134647.898 8  86542867.332 8      1603.862          51.000
R02  19404687.969 8 103547137.430 8        92.902          49.000    19404690.312 7  80536656.895 7        72.254          45.000
R12  19650293.500 8 104968378.892 8      1050.957          51.000    19650297.109 8  81642088.586 8       817.411          50.000
C05  39775945.477 5 207123785.645 5       -10.570          34.000    39775945.398 6 160161244.953 6        -8.304          41.000
C14  22174254.570 8 115467148.000 8     -1411.684          49.000    22174252.438 8  89286518.387 8     -1091.467          51.000
C24  22299424.609 8 116118917.205 8       580.383          51.000
C25  24385217.578 6 126980269.491 6      3177.254          39.000
E03  23598532.625 6 124011117.111 6       642.086          39.000    23598532.781 6  95021520.283 6       491.958          36.000
E05  24773763.727 7 130187056.100 7     -1527.516          44.000    24773764.367 6  99753771.773 6     -1170.395          39.000
E15  25971503.984 7 136481145.505 7     -2188.594          42.000    25971501.250 6 104576481.632 6     -1677.049          41.000
E24  23560402.547 6 123810732.435 6      -276.180          38.000
E25  25324043.594 8 133078780.614 8      2383.918          51.000    25324044.898 8 101969509.009 8      1826.716          51.000
> 2020 05 02 02 19  0.0000000  0 16        .000000000000
G02  22711338.883 7 119348888.533 7     -1376.984          45.000    22711335.094 6  92999122.785 6     -1072.978          39.000
G06  23184890.398 6 121837354.559 6     -3217.629          37.000    23184881.055 6  94938232.762 6     -2507.246          38.000
G07  20781805.578 8 109209135.329 8      -148.086          49.000    20781806.492 8  85098009.994 8      -115.392          49.000
G09  21767805.039 6 114390567.572 6     -2173.109          39.000    21767804.758 6  89135507.647 6     -1693.332          39.000
G30  21122939.664 8 111001803.742 8      2042.684          51.000    21122940.953 8  86494930.052 8      1591.702          51.000
R02  19404205.398 8 103544563.337 8        78.387          50.000    19404208.062 7  80534654.798 7        60.967          46.000
R12  19644469.844 8 104937268.745 8      1022.633          51.000    19644473.188 8  81617891.819 8       795.381          50.000
C05  39776010.344 5 207124123.042 5       -11.641          35.000    39776010.109 6 160161505.841 6        -9.149          41.000
C14  22182417.953 8 115509656.182 8     -1422.727          50.000    22182415.375 8  89319388.398 8     -1100.031          51.000
C24  22296131.164 8 116101768.589 8       562.648          51.000
C25  24366934.281 6 126885068.405 6      3169.270          37.000
E03  23594885.477 6 123991949.962 6       635.609          39.000    23594884.672 6  95006833.740 6       486.894          36.000
E05  24782499.594 7 130232961.070 7     -1533.219          45.000    24782498.570 6  99788945.689 6     -1174.789          38.000
E15  25984025.086 6 136546956.672 6     -2199.066          40.000    25984025.516 7 104626908.388 7     -1685.098          44.000
E24  23562023.961 5 123819255.789 5      -292.258          32.000
E25  25310462.820 8 133007415.190 8      2373.367          51.000    25310465.281 8 101914826.435 8      1818.512          51.000
> 2020 05 02 02 19 30.0000000  0 16        .000000000000
G02  22719241.898 7 119390416.101 7     -1391.309          45.000    22719237.398 6  93031481.949 6     -1084.134          40.000
G06  23203280.914 5 121933986.322 5     -3224.703          35.000    23203269.188 5  95013530.212 5     -2512.756          35.000
G07  20782694.922 8 109213806.860 8      -163.105          49.000    20782695.367 8  85101650.162 8      -127.095          49.000
G09  21780229.836 6 114455858.494 6     -2179.340          40.000    21780230.695 6  89186383.678 6     -1698.190          39.000
G30  21111318.688 8 110940731.401 8      2029.086          51.000    21111319.188 8  86447341.242 8      1581.106          51.000
R02  19403801.109 8 103542405.770 8        65.660          51.000    19403803.992 7  80532976.693 7        51.069          46.000
R12  19638800.680 8 104906984.507 8       996.477          51.000    19638803.938 8  81594337.425 8       775.037          51.000
C05  39776077.336 5 207124472.956 5       -11.094          35.000    39776077.141 6 160161775.634 6        -8.612          41.000
C14  22190640.586 8 115552473.177 8     -1431.773          50.000    22190637.938 8  89352497.205 8     -1107.044          51.000
C24  22292935.883 8 116085130.770 8       546.887          51.000
C25  24348689.203 6 126790080.801 6      3163.270          36.000
E03  23591272.422 6 123972958.962 6       630.805          40.000    23591269.641 6  94992282.163 6       483.173          36.000
E05  24791263.938 7 130279016.399 7     -1536.984          44.000    24791262.586 6  99824234.847 6     -1177.848          36.000
E15  25996600.852 6 136613058.149 6     -2207.637          40.000    25996605.430 7 104677557.590 7     -1691.533          45.000
E24  23563733.672 6 123828255.958 6      -306.449          39.000
E25  25296939.164 8 132936349.249 8      2364.629          51.000    25296942.484 8 101860373.296 8      1811.876          51.000
> 2020 05 02 02 20  0.0000000  0 18        .000000000000
G02  22727227.562 7 119432380.051 7     -1404.441          44.000    22727222.656 6  93064181.121 6     -1094.370          39.000
G06  23221711.047 5 122030827.999 5     -3229.504          34.000    23221696.578 5  95088991.211 5     -2516.497          33.000
G07  20783671.172 8 109218935.018 8      -176.953          51.000    20783670.766 8  85105646.135 8      -137.883          51.000
G09  21792689.859 6 114521334.483 6     -2184.004          40.000    21792690.852 6  89237403.909 6     -1701.818          39.000
G30  21099776.484 8 110880076.842 8      2016.391          51.000    21099777.102 8  86400077.956 8      1571.213          51.000
R02  19403469.594 8 103540635.119 8        54.180          51.000    19403472.227 7  80531599.521 7        42.140          46.000
R11  21465853.438 6 114706931.836 6     -2854.051          36.000    21465861.398 4  89216598.594 4     -2219.817          26.000
R12  19633280.680 8 104877495.994 8       971.215          51.000    19633283.820 8  81571401.927 8       755.389          51.000
R18  22600256.008 5 120641652.000 5     -2297.711          31.000
C14  22198916.367 8 115595568.656 8     -1439.602          50.000    22198913.961 8  89385821.349 8     -1113.246          51.000
C24  22289833.008 8 116068973.570 8       532.148          51.000
C25  24330482.508 6 126695278.012 6      3158.305          41.000
C26  23859223.805 5 124241161.914 5     -2308.039          32.000
E03  23587687.727 6 123954113.747 6       627.109          40.000    23587683.453 6  94977842.312 6       480.608          37.000
E05  24800051.188 7 130325191.523 7     -1539.664          42.000    24800050.609 5  99859615.759 5     -1179.554          34.000
E15  26009226.898 6 136679417.387 6     -2214.625          40.000    26009233.898 7 104728404.304 7     -1697.067          46.000
E24  23565526.000 6 123837676.107 6      -319.617          38.000
E25  25283466.852 8 132865553.860 8      2356.848          51.000    25283471.367 8 101806127.502 8      1805.947          51.000
> 2020 05 02 02 20 30.0000000  0 17        .000000000000
G02  22735302.945 6 119474819.138 6     -1422.121          41.000    22735297.797 6  93097250.545 6     -1108.146          40.000
G06  23240187.750 5 122127917.027 5     -3239.254          32.000    23240169.188 3  95164644.847 3     -2524.091          20.000
G07  20784741.828 8 109224559.171 8      -194.953          51.000    20784740.711 8  85110028.606 8      -151.912          51.000
G09  21805192.570 6 114587035.328 6     -2193.020          37.000    21805191.875 6  89288599.313 6     -1708.846          36.000
G30  21088321.023 8 110819881.625 8      1999.691          50.000    21088322.414 8  86353172.592 8      1558.201          50.000
R02  19403218.570 8 103539293.538 8        38.402          51.000    19403221.180 7  80530556.078 7        29.868          46.000
R11  21481943.117 5 114792913.292 5     -2875.379          35.000    21481949.891 4  89283473.073 4     -2236.406          25.000
R12  19627917.242 8 104848845.288 8       941.941          51.000    19627920.445 8  81549118.059 8       732.621          51.000
C14  22207253.477 8 115638982.679 8     -1451.641          50.000    22207251.102 8  89419391.825 8     -1122.516          51.000
C24  22286830.258 8 116053337.247 8       513.285          51.000
C25  24312321.109 7 126600702.065 7      3149.543          43.000
C26  23872562.492 5 124310635.930 5     -2320.961          31.000
E03  23584137.844 6 123935455.105 6       620.016          40.000    23584134.258 6  94963545.476 6       474.900          38.000
E05  24808868.805 7 130371526.861 7     -1546.406          42.000    24808867.461 5  99895029.512 5     -1185.211          30.000
E15  26021910.727 6 136746072.917 6     -2225.906          40.000    26021918.078 7 104779478.002 7     -1705.535          47.000
E24  23567408.492 5 123847569.235 5      -336.820          35.000    23567429.188 6  94896249.925 6      -258.221          36.000
E25  25270054.227 8 132795071.233 8      2344.941          51.000    25270058.945 8 101752121.318 8      1796.809          51.000
> 2020 05 02 02 21  0.0000000  0 17        .000000000000
G02  22743464.656 6 119517714.304 6     -1436.449          41.000    22743461.172 6  93130675.302 6     -1119.314          41.000
G07  20785903.328 8 109230661.093 8      -210.348          51.000    20785901.742 8  85114783.371 8      -163.907          51.000
G09  21817734.367 6 114652942.764 6     -2198.973          39.000    21817731.609 6  89339955.780 6     -1713.485          40.000
G30  21076950.125 8 110760129.624 8      1985.383          51.000    21076952.008 8  86306612.609 8      1547.052          51.000
R02  19403044.781 8 103538364.626 8        25.102          51.000    19403047.398 7  80529833.591 7        19.523          46.000
R11  21498140.102 6 114879472.745 6     -2893.941          36.000
R12  19622707.312 8 104821015.942 8       915.027          50.000    19622710.742 8  81527473.004 8       711.688          51.000
C05  39776276.578 5 207125509.753 5       -10.969          35.000    39776276.242 6 160162580.344 6        -8.313          41.000
C14  22215648.422 8 115682698.089 8     -1461.082          51.000    22215646.219 8  89453195.350 8     -1129.844          51.000
C24  22283924.328 8 116038204.793 8       497.074          51.000
C25  24294201.055 7 126506337.731 7      3143.121          44.000
C26  23885966.375 4 124380494.033 4     -2331.453          29.000
E03  23580617.273 6 123916980.217 6       614.586          40.000    23580619.891 6  94949381.676 6       470.851          39.000
E05  24817713.625 6 130418005.187 6     -1550.824          39.000
E15  26034647.805 6 136813005.457 6     -2234.434          41.000    26034654.672 7 104830763.976 7     -1712.188          46.000
E24  23569377.883 6 123857917.647 6      -351.398          40.000    23569398.203 6  94904179.345 6      -269.544          37.000
E25  25256698.156 8 132724885.770 8      2335.590          51.000    25256702.953 8 101698342.857 8      1789.575          51.000
> 2020 05 02 02 21 30.0000000  0 15        .000000000000
G02  22751710.203 7 119561047.606 7     -1451.926          43.000    22751708.148 6  93164441.479 6     -1131.371          41.000
G07  20787152.508 8 109237223.919 8      -226.609          51.000    20787150.203 8  85119897.271 8      -176.579          51.000
G09  21830311.969 6 114719040.402 6     -2207.289          36.000    21830308.742 5  89391460.390 5     -1719.966          35.000
G30  21065661.141 8 110700805.775 8      1970.102          51.000    21065663.188 8  86260386.257 8      1535.144          51.000
R02  19402945.172 8 103537833.014 8        10.926          51.000    19402947.625 7  80529420.100 7         8.495          46.000
R11  21514442.031 5 114966590.267 5     -2913.488          34.000    21514445.852 4  89418513.807 4     -2266.043          26.000
R12  19617647.312 7 104793992.368 7       887.191          47.000    19617652.023 8  81506454.682 8       690.038          51.000
C14  22224098.344 8 115726698.808 8     -1471.637          51.000    22224096.242 8  89487219.481 8     -1138.044          51.000
C24  22281111.875 8 116023560.308 8       479.805          51.000
C25  24276119.031 7 126412170.896 7      3135.309          43.000
E03  23577128.508 6 123898645.149 6       608.383          40.000    23577131.664 6  94935332.757 6       465.975          39.000
E05  24826582.508 5 130464610.357 5     -1556.055          35.000    24826583.867 5  99966363.322 5     -1191.922          31.000
E15  26047434.695 6 136880196.861 6     -2244.199          41.000    26047440.484 7 104882248.301 7     -1719.692          47.000
E24  23571430.047 6 123868705.054 6      -367.164          40.000    23571445.234 6  94912444.946 6      -281.289          36.000
E25  25243396.219 8 132654983.083 8      2325.098          51.000    25243400.289 8 101644781.031 8      1781.556          51.000
> 2020 05 02 02 22  0.0000000  0 16        .000000000000
G02  22760041.547 7 119604830.599 7     -1466.898          44.000    22760040.219 6  93198558.077 6     -1143.038          37.000
G07  20788491.773 8 109244261.061 8      -242.504          51.000    20788489.203 8  85125380.780 8      -188.964          51.000
G09  21842928.484 5 114785340.824 5     -2213.461          33.000    21842925.758 5  89443123.034 5     -1724.778          30.000
G30  21054456.914 8 110641924.896 8      1955.254          51.000    21054458.812 8  86214505.081 8      1523.574          51.000
R02  19402922.758 8 103537713.621 8        -2.859          51.000    19402924.945 7  80529327.240 7        -2.224          46.000
R11  21530849.602 5 115054275.818 5     -2931.973          31.000    21530847.844 4  89486705.731 4     -2280.420          25.000
R12  19612741.133 8 104767789.536 8       859.707          48.000    19612746.906 8  81486074.654 8       668.658          51.000
R18  22652849.500 4 120922438.058 4     -2379.926          29.000
C14  22232605.609 8 115770998.335 8     -1481.637          51.000    22232603.406 8  89521474.673 8     -1145.699          51.000
C24  22278395.711 8 116009417.411 8       463.078          51.000
C25  24258077.180 7 126318216.980 7      3128.188          42.000
E03  23573671.945 6 123880477.945 6       602.898          41.000    23573673.789 6  94921412.438 6       461.850          38.000
E05                                                                  24835480.133 5 100002181.440 5     -1195.884          34.000
E15  26060273.125 7 136947658.877 7     -2253.172          43.000    26060277.656 7 104933939.934 7     -1726.477          47.000
E24  23573569.227 6 123879944.475 6      -381.973          37.000    23573578.852 6  94921056.981 6      -292.761          36.000
E25  25230150.734 8 132585378.485 8      2315.262          51.000    25230154.750 8 101591447.632 8      1774.074          51.000
> 2020 05 02 02 22 30.0000000  0 15        .000000000000
G02  22768466.062 6 119649103.182 6     -1481.637          41.000    22768462.812 5  93233056.202 5     -1154.522          35.000
G06  23314503.898 5 122518544.747 5     -3269.184          31.000
G07  20789928.844 8 109251812.693 8      -257.930          51.000    20789926.227 8  85131265.191 8      -200.984          51.000
G09  21855591.242 5 114851884.889 5     -2220.098          33.000    21855589.930 5  89494975.504 5     -1729.949          34.000
G30  21043345.195 8 110583529.523 8      1940.750          51.000    21043346.609 8  86169002.227 8      1512.273          51.000
R02  19402985.812 8 103538049.869 8       -16.465          51.000    19402987.875 7  80529588.760 7       -12.809          46.000
R12  19607997.297 8 104742450.220 8       832.746          48.000    19608003.203 8  81466366.266 8       647.691          51.000
C14  22241178.023 8 115815637.696 8     -1491.293          50.000    22241175.578 8  89555992.655 8     -1153.180          51.000
C24  22275783.781 8 115995817.364 8       446.691          51.000
C25  24240082.164 6 126224518.909 6      3121.465          40.000
E03  23570255.438 7 123862520.481 7       597.371          42.000    23570255.109 6  94907652.844 6       457.618          38.000
E05                                                                  24844409.289 6 100038138.992 6     -1199.120          37.000
E15  26073170.461 7 137015430.932 7     -2261.781          42.000    26073173.852 7 104985869.157 7     -1733.110          47.000
E24  23575802.273 6 123891677.149 6      -397.094          39.000    23575809.781 6  94930046.955 6      -304.012          36.000
E25  25216970.102 8 132516115.181 8      2305.426          50.000    25216974.211 8 101538375.747 8      1766.477          51.000
> 2020 05 02 02 23  0.0000000  0 17        .000000000000
G02  22776960.914 6 119693747.790 6     -1496.496          41.000    22776955.352 5  93267844.196 5     -1166.098          35.000
G06  23333182.203 5 122616699.715 5     -3277.086          34.000    23333182.938 5  95545470.882 5     -2553.573          34.000
G07  20791441.727 8 109259763.041 8      -273.969          51.000    20791438.719 8  85137460.265 8      -213.482          51.000
G09  21868278.680 6 114918556.610 6     -2226.328          36.000    21868277.195 6  89546927.516 6     -1734.798          37.000
G30  21032303.953 8 110525505.587 8      1925.594          51.000    21032304.797 8  86123788.788 8      1500.463          51.000
R02  19403112.602 8 103538725.750 8       -30.594          51.000    19403114.469 7  80530114.444 7       -23.795          46.000
R12  19603393.758 8 104717858.210 8       804.883          50.000    19603399.609 8  81447239.140 8       626.020          51.000
C05  39776543.852 5 207126901.365 5       -11.883          35.000    39776543.516 6 160163659.217 6        -8.971          41.000
C14  22249793.617 8 115860502.655 8     -1501.703          49.000    22249791.133 8  89590685.070 8     -1161.073          51.000
C24  22273253.789 8 115982645.990 8       429.602          51.000
C25  24222112.891 6 126130964.411 6      3113.629          40.000
C26  23940214.680 5 124662979.504 5     -2374.855          31.000
E03  23566856.938 6 123844657.766 6       591.621          41.000    23566855.602 6  94893965.820 6       453.434          39.000
E05  24853349.531 6 130605244.336 6     -1569.879          37.000    24853351.766 6 100074147.701 6     -1202.933          40.000
E15  26086104.023 7 137083395.850 7     -2270.988          42.000    26086106.922 7 105037946.147 7     -1740.105          47.000
E24  23578106.422 6 123903787.422 6      -412.344          39.000    23578113.492 6  94939326.249 6      -315.739          36.000
E25  25203832.391 8 132447079.608 8      2294.910          48.000    25203836.531 8 101485478.347 8      1758.521          51.000
> 2020 05 02 02 23 30.0000000  0 16        .000000000000
G02  22785542.477 6 119738847.644 6     -1510.910          41.000    22785537.055 6  93302986.919 6     -1177.333          40.000
G06  23351900.336 5 122715056.149 5     -3282.156          35.000    23351900.461 5  95622112.253 5     -2557.527          34.000
G07  20793046.289 8 109268196.000 8      -289.074          51.000    20793043.227 8  85144031.414 8      -225.253          51.000
G30  21021349.578 8 110467939.116 8      1911.281          51.000    21021349.891 8  86078931.788 8      1489.307          51.000
R02  19403319.516 8 103539829.075 8       -43.914          51.000    19403321.305 7  80530972.592 7       -34.155          47.000
R12  19598946.609 8 104694100.714 8       778.074          50.000    19598952.000 8  81428761.081 8       605.169          50.000
C05  39776606.820 5 207127229.337 5       -10.980          35.000    39776606.758 6 160163913.619 6        -8.714          41.000
C14  22258468.648 8 115905677.343 8     -1510.906          48.000    22258466.289 8  89625616.978 8     -1168.338          51.000
C24  22270822.711 8 115969987.583 8       413.406          51.000
C25  24204189.438 7 126037639.432 7      3107.059          42.000
C26  23953922.398 5 124734364.255 5     -2385.594          32.000
E03  23563492.141 6 123826975.231 6       586.582          41.000    23563491.594 6  94880416.845 6       449.282          40.000
E05  24862320.281 7 130652390.479 7     -1574.102          42.000    24862324.109 7 100110272.691 7     -1206.241          42.000
E15  26099089.438 7 137151636.565 7     -2279.016          42.000    26099092.320 7 105090234.485 7     -1746.426          47.000
E24  23580499.172 5 123916359.777 5      -426.430          35.000    23580507.641 6  94948959.635 6      -327.038          38.000
E25  25190754.273 7 132378358.424 7      2285.453          47.000    25190758.727 8 101432821.896 8      1751.155          50.000
> 2020 05 02 02 24  0.0000000  0 15        .000000000000
G02  22794209.125 7 119784391.386 7     -1524.559          44.000    22794204.703 6  93338475.532 6     -1187.968          40.000
G06  23370657.938 5 122813635.670 5     -3287.891          34.000    23370659.469 5  95698914.984 5     -2561.993          33.000
G07  20794740.625 8 109277100.783 8      -303.648          51.000    20794737.953 8  85150970.220 8      -236.609          51.000
G30  21010480.406 8 110410821.160 8      1897.512          51.000    21010480.477 8  86034424.254 8      1478.581          51.000
R02  19403604.484 8 103541350.304 8       -56.691          51.000    19403605.961 7  80532155.766 7       -44.093          47.000
R12  19594653.945 8 104671168.093 8       751.688          51.000    19594658.727 8  81410924.621 8       584.649          49.000
C14  22267201.508 8 115951151.793 8     -1519.770          49.000    22267199.070 8  89660780.692 8     -1175.128          51.000
C24  22268488.227 8 115957832.190 8       397.801          51.000
C25  24186310.211 7 125944535.926 7      3100.758          44.000
C26  23967692.438 5 124806079.050 5     -2394.801          33.000
E03  23560158.797 6 123809463.092 6       582.027          40.000    23560160.453 7  94866998.430 7       445.912          42.000
E05  24871320.156 6 130699678.396 6     -1577.574          41.000    24871322.312 7 100146506.317 7     -1208.749          43.000
E15  26112125.102 7 137220141.103 7     -2286.715          43.000    26112127.906 7 105142724.979 7     -1752.095          46.000
E24  23582978.570 5 123929383.740 5      -440.668          35.000    23582988.297 6  94958939.069 6      -337.185          38.000
E25  25177734.383 7 132309943.327 7      2276.598          45.000    25177738.398 8 101380399.949 8      1744.376          49.000
> 2020 05 02 02 24 30.0000000  0 17        .000000000000
G02  22802957.172 7 119830360.322 7     -1541.328          46.000    22802953.695 6  93374295.484 6     -1201.035          41.000
G06  23389451.711 5 122912391.783 5     -3296.840          32.000    23389453.602 4  95775863.922 4     -2568.960          29.000
G07  20796521.492 8 109286460.417 8      -321.422          51.000    20796519.086 8  85158263.446 8      -250.459          51.000
G30  20999693.523 8 110354136.484 8      1880.402          51.000    20999693.766 8  85990254.382 8      1465.249          51.000
R02  19403964.969 8 103543274.652 8       -72.781          51.000    19403966.922 8  80533652.474 8       -56.611          48.000
R11  21614432.133 5 115500936.300 5     -3024.863          31.000
R12  19590512.742 8 104649044.685 8       722.039          51.000    19590516.625 7  81393717.574 7       561.586          47.000
C05  39776732.281 5 207127881.544 5       -12.395          35.000    39776731.797 6 160164415.385 6        -9.267          41.000
C14  22275989.055 8 115996909.839 8     -1531.754          49.000    22275986.672 8  89696163.704 8     -1184.443          51.000
C24  22266247.430 8 115946163.780 8       379.012          51.000
C25  24168471.438 7 125851639.672 7      3091.230          45.000
C26  23981521.188 5 124878095.481 5     -2408.074          31.000
E03  23556851.961 6 123792094.520 6       574.258          40.000    23556859.047 7  94853707.485 7       439.926          42.000
E05  24880342.867 6 130747091.956 6     -1584.336          41.000    24880344.445 7 100182836.172 7     -1213.918          44.000
E15  26125207.984 7 137288891.287 7     -2297.480          44.000    26125210.352 7 105195403.719 7     -1760.530          46.000
E24  23585539.133 6 123942842.792 6      -457.758          37.000    23585549.156 6  94969251.859 6      -350.932          36.000
E25  25164769.773 7 132241819.816 7      2264.215          45.000    25164774.266 8 101328201.440 8      1734.855          48.000
> 2020 05 02 02 25  0.0000000  0 14        .000000000000
G02  22811797.234 7 119876811.833 7     -1560.211          45.000    22811794.289 7  93410491.490 7     -1215.749          44.000
G07  20798399.883 8 109296332.987 8      -341.426          51.000    20798397.750 8  85165956.343 8      -266.046          51.000
G09  21919418.352 5 115187320.287 5     -2258.027          30.000
G30  20989000.383 8 110297945.269 8      1861.133          51.000    20989000.867 8  85946469.024 8      1450.233          51.000
R02  19404412.375 8 103545662.572 8       -91.188          51.000    19404414.438 8  80535509.730 8       -70.924          48.000
R12  19586534.305 8 104627791.170 8       690.070          51.000    19586537.359 7  81377187.107 7       536.724          47.000
C14  22284842.141 8 116043009.964 8     -1546.039          49.000    22284839.977 8  89731811.245 8     -1195.577          51.000
C24  22264111.555 8 115935040.917 8       357.926          51.000
C25  24150684.203 8 125759011.088 8      3079.457          48.000
E03  23553590.594 6 123774951.014 6       564.094          40.000    23553596.211 7  94840571.514 7       432.279          43.000
E05  24889400.117 7 130794690.186 7     -1593.566          42.000    24889402.664 7 100219307.544 7     -1220.928          45.000
E15  26138348.773 7 137357944.177 7     -2310.676          45.000    26138350.688 7 105248314.344 7     -1770.410          47.000
E24  23588194.750 5 123956795.491 5      -476.977          35.000    23588204.016 6  94979942.855 6      -365.416          37.000
E25  25151873.859 8 132174048.590 8      2249.328          49.000    25151876.648 7 101276272.836 7      1723.463          47.000
> 2020 05 02 02 25 30.0000000  0 15        .000000000000
G02  22820715.523 7 119923674.364 7     -1567.844          44.000    22820712.977 7  93447007.784 7     -1221.696          43.000
G07  20800362.539 8 109306648.154 8      -350.051          51.000    20800361.023 8  85173994.148 8      -272.767          51.000
G09  21932297.969 6 115254999.558 6     -2257.977          36.000    21932299.484 6  89809104.677 6     -1759.462          36.000
G30  20978388.164 8 110242179.005 8      1853.059          51.000    20978388.812 8  85903014.790 8      1443.942          51.000
R02  19404933.844 8 103548444.771 8       -98.043          51.000    19404935.570 8  80537673.677 8       -76.256          48.000
R11  21648594.648 5 115683524.891 5     -3058.938          31.000
R12  19582705.516 8 104607337.459 8       669.617          51.000    19582707.969 7  81361278.726 7       520.816          47.000
C14  22293747.656 8 116089383.184 8     -1549.145          50.000    22293745.688 8  89767669.958 8     -1197.858          51.000
C24  22262067.219 8 115924394.672 8       348.137          51.000
C25  24132935.484 8 125666583.095 8      3078.777          49.000
E03  23550357.086 7 123757952.365 7       565.152          42.000    23550361.477 7  94827546.569 7       433.150          43.000
E05  24898479.555 7 130842403.578 7     -1591.195          43.000    24898483.453 7 100255867.152 7     -1219.237          46.000
E15  26151533.594 7 137427228.223 7     -2312.160          46.000    26151534.945 7 105301402.105 7     -1771.509          47.000
E24                                                                  23590941.320 6  94990958.451 6      -371.593          38.000
E25  25139033.070 8 132106561.741 8      2245.992          51.000    25139034.180 8 101224562.142 8      1720.910          49.000
> 2020 05 02 02 26  0.0000000  0 15        .000000000000
G02  22829709.266 7 119970935.764 7     -1583.621          44.000    22829707.312 7  93483834.845 7     -1233.990          43.000
G07  20802407.320 8 109317394.976 8      -366.871          50.000    20802406.398 8  85182368.281 8      -285.874          50.000
G09  21945209.320 6 115322845.913 6     -2265.742          37.000    21945211.656 6  89861972.046 6     -1765.510          37.000
G30  20967855.055 8 110186828.625 8      1836.613          51.000    20967856.047 8  85859884.638 8      1431.127          51.000
R02  19405527.508 8 103551612.452 8      -113.527          51.000    19405528.992 8  80540137.429 8       -88.299          48.000
R12  19579024.516 8 104587673.858 8       640.820          51.000    19579026.680 8  81345984.846 8       498.419          48.000
C05                                                                  39776925.734 6 160165195.529 6        -8.557          41.000
C14  22302703.922 8 116136019.396 8     -1560.406          50.000    22302702.164 8  89803732.051 8     -1206.575          51.000
C24  22260112.508 8 115914215.059 8       330.078          51.000
C25  24115223.688 8 125574347.548 8      3069.844          50.000
E03  23547148.969 7 123741088.876 7       558.566          44.000    23547152.680 7  94814625.201 7       427.879          43.000
E05  24907579.227 7 130890222.125 7     -1597.219          42.000    24907583.195 7 100292507.347 7     -1223.786          44.000
E15  26164760.172 7 137496731.327 7     -2321.816          46.000    26164761.234 7 105354657.738 7     -1779.144          47.000
E24                                                                  23593756.305 6  95002290.588 6      -384.179          36.000
E25  25126245.117 8 132039350.874 8      2234.352          51.000    25126245.977 8 101173062.943 8      1712.036          50.000
> 2020 05 02 02 26 30.0000000  0 16        .000000000000
G02  22838790.148 7 120018657.131 7     -1595.199          42.000    22838788.422 7  93521020.320 7     -1243.015          42.000
G07  20804546.109 8 109328635.551 8      -379.684          50.000    20804545.430 8  85191127.160 8      -295.857          50.000
G09  21958162.281 5 115390920.214 5     -2269.090          31.000    21958163.945 5  89915014.597 5     -1768.131          30.000
G30  20957413.336 8 110131958.233 8      1824.316          51.000    20957414.719 8  85817128.495 8      1421.545          51.000
R02  19406205.680 8 103555230.827 8      -124.953          51.000    19406207.109 8  80542951.727 8       -97.186          48.000
R11  21683176.266 5 115868217.328 5     -3092.859          35.000    21683180.719 4  90119786.262 4     -2405.557          29.000
R12  19575503.305 8 104568865.243 8       615.984          51.000    19575505.992 8  81331355.958 8       479.099          49.000
C05  39776990.258 5 207129226.011 5        -8.762          34.000    39776990.039 6 160165454.775 6        -6.600          41.000
C14  22311722.461 8 116182981.130 8     -1567.723          50.000    22311721.273 8  89840045.823 8     -1212.205          51.000
C24  22258259.633 8 115904564.555 8       316.066          51.000
C25  24097560.891 8 125482368.801 8      3064.852          51.000
E03  23543978.484 7 123724424.068 7       555.324          44.000    23543981.430 7  94801856.066 7       425.370          43.000
E05  24916710.539 7 130938208.987 7     -1599.246          43.000    24916715.484 7 100329276.491 7     -1225.331          44.000
E15  26178039.484 7 137566514.639 7     -2327.574          45.000    26178040.344 7 105408128.047 7     -1783.478          47.000
E24                                                                  23596657.992 5  95013987.139 5      -393.497          34.000
E25  25113521.625 8 131972480.730 8      2226.621          51.000    25113522.406 8 101121824.824 8      1706.049          51.000
> 2020 05 02 02 27  0.0000000  0 18        .000000000000
G02  22847948.352 7 120066787.598 7     -1609.898          42.000    22847947.375 7  93558524.554 7     -1254.466          42.000
G06  23483976.789 5 123409113.490 5     -3324.852          31.000
G07  20806769.625 8 109340320.102 8      -395.715          50.000    20806768.961 8  85200231.991 8      -308.349          50.000
G09  21971149.500 5 115459164.994 5     -2276.664          35.000    21971148.742 5  89968192.245 5     -1774.024          35.000
G30  20947054.039 8 110077519.969 8      1808.594          51.000    20947055.617 8  85774709.070 8      1409.294          51.000
R02  19406958.820 8 103559250.780 8      -139.531          51.000    19406960.422 8  80546078.345 8      -108.524          48.000
R11  21700604.414 5 115961412.657 5     -3111.230          35.000    21700592.898 4  90192197.133 4     -2419.846          26.000
R12  19572132.711 8 104550862.024 8       587.844          49.000    19572136.211 8  81317353.477 8       457.215          50.000
C05  39777050.773 5 207129541.625 5        -9.039          35.000    39777050.688 6 160165698.832 6        -6.953          41.000
C14  22320794.227 8 116230219.650 8     -1578.043          51.000    22320793.289 8  89876573.636 8     -1220.222          51.000
C24  22256498.867 8 115895394.576 8       298.820          51.000
C25  24079937.922 8 125390600.183 8      3056.680          51.000
C26  24051573.906 5 125242857.527 5     -2455.629          31.000
E03  23540836.141 7 123707909.296 7       549.285          44.000    23540838.641 7  94789201.876 7       420.740          43.000
E05  24925864.766 7 130986315.101 7     -1604.480          42.000    24925870.070 7 100366137.057 7     -1229.210          42.000
E15  26191361.953 7 137636527.140 7     -2336.348          43.000    26191362.953 7 105461773.968 7     -1790.135          47.000
E24                                                                  23599643.328 5  95026010.276 5      -405.074          35.000
E25  25100853.266 8 131905903.975 8      2215.496          51.000    25100854.516 8 101070811.515 8      1697.591          51.000
> 2020 05 02 02 27 30.0000000  0 16        .000000000000
G02  22857184.906 7 120115328.410 7     -1625.680          42.000    22857184.227 7  93596348.597 7     -1266.763          42.000
G06  23502981.469 5 123508986.076 5     -3331.949          33.000    23502987.555 5  96240803.399 5     -2596.327          33.000
G07  20809078.070 8 109352450.938 8      -412.500          49.000    20809077.422 8  85209684.607 8      -321.429          49.000
G30  20936778.070 8 110023517.821 8      1792.195          51.000    20936779.359 8  85732629.464 8      1396.516          51.000
R02  19407788.148 8 103563676.890 8      -155.059          51.000    19407789.758 8  80549520.877 8      -120.601          48.000
R11  21718077.922 5 116054823.001 5     -3129.727          31.000
R12  19568913.742 8 104533667.943 8       559.027          48.000    19568917.641 8  81303980.254 8       434.796          50.000
C05  39777108.227 5 207129839.807 5       -10.293          35.000    39777108.141 6 160165930.192 6        -8.113          41.000
C14  22329919.828 8 116277738.126 8     -1589.340          51.000    22329918.906 8  89913317.916 8     -1228.912          51.000
C24  22254830.781 8 115886708.236 8       280.785          51.000
C25  24062356.070 8 125299046.738 8      3047.504          51.000
E03  23537722.797 7 123691548.179 7       542.141          45.000    23537725.234 7  94776665.434 7       415.457          44.000
E05  24935041.750 6 131034543.894 6     -1610.508          37.000    24935046.969 6 100403091.570 6     -1233.957          40.000
E15  26204727.859 7 137706770.058 7     -2345.996          42.000    26204729.625 8 105515596.447 8     -1797.540          48.000
E24                                                                  23602712.711 6  95038362.089 6      -417.771          36.000
E25  25088241.141 8 131839625.505 8      2203.535          51.000    25088242.727 8 101020026.751 8      1688.417          51.000
> 2020 05 02 02 28  0.0000000  0 15        .000000000000
G02  22866508.727 7 120164327.289 7     -1640.570          42.000    22866507.820 7  93634529.528 7     -1278.370          42.000
G06  23522027.117 4 123609085.988 4     -3340.672          27.000    23522030.953 4  96318785.519 4     -2603.121          27.000
G07  20811480.719 8 109365076.315 8      -428.699          51.000    20811479.633 8  85219522.559 8      -334.051          51.000
G30  20926594.734 8 109970002.292 8      1776.172          51.000    20926595.680 8  85690929.058 8      1384.030          51.000
R02  19408703.234 8 103568560.717 8      -170.086          51.000    19408704.844 8  80553319.411 8      -132.289          49.000
R12  19565855.398 8 104517333.665 8       530.496          48.000    19565860.102 8  81291275.790 8       412.608          51.000
C05  39777172.055 5 207130172.599 5       -11.367          35.000    39777171.875 6 160166186.755 6        -8.856          41.000
C14  22339108.648 8 116325585.451 8     -1600.066          51.000    22339107.547 8  89950316.480 8     -1237.267          51.000
C24  22253265.000 8 115878554.457 8       263.293          51.000
C25  24044825.422 8 125207759.286 8      3038.820          51.000
E03  23534647.930 7 123675390.515 7       535.516          45.000    23534650.570 7  94764284.918 7       410.309          44.000
E05  24944251.117 6 131082944.808 6     -1616.137          36.000    24944257.531 6 100440177.949 6     -1238.213          37.000
E15  26218147.070 7 137777290.804 7     -2354.605          43.000    26218149.047 8 105569631.828 8     -1804.469          48.000
E24                                                                  23605872.094 5  95051080.040 5      -429.480          35.000
E25  25075695.477 8 131773696.450 8      2192.137          51.000    25075697.320 8 100969509.717 8      1679.686          51.000
> 2020 05 02 02 28 30.0000000  0 14        .000000000000
G02  22875916.492 7 120213765.472 7     -1653.512          43.000    22875914.766 7  93673052.764 7     -1288.451          42.000
G07  20813974.297 8 109378179.171 8      -443.008          51.000    20813972.836 8  85229732.574 8      -345.201          51.000
G30  20916500.820 8 109916958.059 8      1762.078          51.000    20916501.672 8  85649595.903 8      1373.048          51.000
R02  19409701.305 8 103573886.398 8      -183.152          51.000    19409703.336 8  80557461.607 8      -142.452          50.000
R12  19562955.383 8 104501843.035 8       504.070          50.000    19562960.375 8  81279227.506 8       392.055          51.000
R13  21660364.414 6 115665140.428 6      4099.496          38.000    21660361.125 5  89961755.251 5      3188.500          33.000
C05  39777238.953 5 207130520.850 5        -9.984          35.000    39777238.727 6 160166456.033 6        -7.642          41.000
C14  22348357.492 8 116373745.382 8     -1608.742          51.000    22348355.969 8  89987556.787 8     -1243.966          51.000
C24  22251798.375 8 115870917.038 8       247.668          51.000
C25  24027343.125 8 125116723.517 8      3032.039          51.000
E03  23531608.594 7 123659420.450 7       530.961          45.000    23531611.336 7  94752048.140 7       406.831          45.000
E15  26231616.367 7 137848071.154 7     -2361.832          45.000    26231618.094 8 105623866.112 8     -1809.733          48.000
E24                                                                  23609118.297 5  95064151.225 5      -439.911          34.000
E25  25063213.266 8 131708102.189 8      2182.742          49.000    25063214.641 8 100919249.152 8      1672.506          51.000
> 2020 05 02 02 29  0.0000000  0 15        .000000000000
G02  22885395.492 7 120263576.781 7     -1663.723          45.000    22885393.070 7  93711866.732 7     -1296.407          43.000
G07  20816546.234 8 109391694.250 8      -454.559          51.000    20816544.859 8  85240263.829 8      -354.202          51.000
G09  22023480.219 5 115734146.313 5     -2299.727          34.000
G30  20906484.492 8 109864321.768 8      1750.520          51.000    20906485.336 8  85608580.602 8      1364.041          51.000
R02  19410770.109 8 103579590.334 8      -193.508          51.000    19410772.477 8  80561897.983 8      -150.509          50.000
R12  19560201.828 8 104487131.098 8       480.258          51.000    19560206.484 8  81267784.890 8       373.534          51.000
R13  21637367.109 6 115542333.908 6      4091.234          39.000    21637365.625 6  89866239.114 6      3182.074          37.000
C05  39777296.938 5 207130822.892 5        -6.363          35.000    39777296.523 6 160166688.833 6        -5.090          41.000
C14  22357653.547 8 116422154.079 8     -1614.922          49.000    22357652.117 8  90024989.455 8     -1248.872          51.000
C24  22250418.383 8 115863732.117 8       234.723          51.000
C25  24009896.758 8 125025877.551 8      3027.730          49.000
E03  23528592.648 7 123643574.152 7       529.039          45.000    23528595.602 7  94739906.168 7       405.272          46.000
E15  26245122.516 7 137919044.742 7     -2366.266          46.000    26245124.250 8 105678248.470 8     -1813.035          48.000
E24                                                                  23612439.672 5  95077525.997 5      -448.875          34.000
E25  25050781.867 7 131642780.007 7      2175.699          47.000    25050783.977 8 100869197.072 8      1667.079          51.000
> 2020 05 02 02 29 30.0000000  0 15        .000000000000
G02  22894955.969 7 120313817.024 7     -1682.691          45.000    22894953.734 7  93751014.944 7     -1311.191          43.000
G07  20819207.422 8 109405678.159 8      -474.848          51.000    20819205.766 8  85251160.387 8      -370.011          51.000
G30  20896556.961 8 109812152.168 8      1730.156          51.000    20896557.938 8  85567928.959 8      1348.174          51.000
R02  19411920.875 8 103585732.144 8      -212.957          51.000    19411923.125 8  80566674.937 8      -165.633          49.000
R12  19557605.000 8 104473256.979 8       447.598          51.000    19557609.148 8  81256993.925 8       348.132          50.000
R13  21614437.305 6 115419892.534 6      4074.234          39.000    21614437.594 6  89771006.944 6      3168.852          40.000
C05  39777356.602 5 207131133.954 5       -11.160          35.000    39777356.266 6 160166929.392 6        -8.920          41.000
C14  22367008.203 8 116470868.744 8     -1629.922          49.000    22367007.141 8  90062658.722 8     -1260.317          51.000
C24  22249136.461 8 115857056.871 8       213.160          51.000
C25  23992497.375 8 124935280.493 8      3014.707          49.000
E03  23525611.234 7 123627909.784 7       518.086          45.000    23525614.594 7  94727903.590 7       397.002          46.000
E05  24972051.305 5 131229005.368 5     -1629.984          33.000
E15  26258676.148 7 137990267.351 7     -2379.191          47.000    26258678.133 8 105732821.638 8     -1823.035          48.000
E24                                                                  23615846.320 5  95091248.159 5      -463.679          34.000
E25  25038413.688 8 131577789.380 8      2159.805          49.000    25038416.102 8 100819398.996 8      1654.858          51.000
> 2020 05 02 02 30  0.0000000  0 15        .000000000000
G02  22904596.805 7 120364478.976 7     -1696.375          45.000    22904595.312 7  93790491.797 7     -1321.848          44.000
G07  20821956.664 8 109420125.162 8      -489.871          51.000    20821954.680 8  85262417.806 8      -381.715          51.000
G30  20886717.266 8 109760444.949 8      1715.191          51.000    20886718.352 8  85527637.625 8      1336.513          51.000
R02  19413153.070 8 103592307.487 8      -226.992          51.000    19413155.164 8  80571789.094 8      -176.549          49.000
R12  19555164.023 8 104460215.352 8       420.207          51.000    19555167.781 8  81246850.469 8       326.831          49.000
R13  21591575.453 6 115297814.434 6      4062.492          39.000    21591576.961 6  89676057.315 6      3159.716          41.000
C05  39777417.289 5 207131450.001 5       -11.105          35.000    39777417.000 6 160167173.762 6        -8.630          41.000
C14  22376420.930 8 116519884.054 8     -1639.477          50.000    22376419.875 8  90100560.486 8     -1267.696          51.000
C24  22247951.516 8 115850885.986 8       196.664          51.000
C25  23975145.438 8 124844929.006 8      3006.957          50.000
E03  23522663.805 7 123612422.525 7       512.781          46.000    23522667.375 7  94716036.717 7       392.937          46.000
E05  24981371.328 5 131277947.474 5     -1634.738          35.000
E15  26272275.797 7 138061731.741 7     -2386.773          47.000    26272278.078 8 105787580.059 8     -1828.770          48.000
E24  23619356.102 6 124120478.751 6      -619.953          38.000    23619338.406 5  95105313.327 5      -474.873          35.000
E25  25026108.539 8 131513126.610 8      2149.363          51.000    25026110.727 8 100769852.181 8      1646.879          51.000
> 2020 05 02 02 30 30.0000000  0 18        .000000000000
G02  22914302.391 7 120415481.169 7     -1706.148          45.000    22914301.227 7  93830233.762 7     -1329.466          45.000
G06  23617710.883 5 124111891.600 5     -3363.309          34.000    23617717.641 5  96710586.727 5     -2620.763          34.000
G07  20824778.789 8 109434955.141 8      -501.078          51.000    20824776.883 8  85273973.648 8      -390.447          51.000
G09  22063072.906 5 115942252.768 5     -2319.238          34.000    22063073.438 5  90344589.341 5     -1807.196          32.000
G30  20876950.586 8 109709121.894 8      1703.938          51.000    20876951.633 8  85487645.642 8      1327.744          51.000
R02  19414451.820 8 103599236.664 8      -237.258          51.000    19414453.812 8  80577178.463 8      -184.534          50.000
R11  21825263.836 5 116627521.628 5     -3228.121          33.000    21825261.969 4  90710321.797 4     -2510.761          26.000
R12  19552863.688 8 104447925.996 8       396.719          51.000    19552866.836 7  81237292.132 7       308.559          47.000
R13  21568766.797 6 115176023.649 6      4054.539          37.000    21568769.633 7  89581331.147 7      3153.530          42.000
C05  39777463.914 5 207131692.558 5        -7.406          34.000    39777463.594 6 160167361.328 6        -5.667          41.000
C14  22385876.453 8 116569121.573 8     -1645.402          50.000    22385875.227 8  90138634.059 8     -1272.281          51.000
C24  22246848.172 8 115845140.847 8       184.000          51.000
C25  23957826.938 8 124754746.421 8      3002.820          51.000
E03  23519735.383 7 123597033.669 7       510.918          46.000    23519739.078 7  94704245.253 7       391.501          46.000
E05                                                                  24990686.781 5 100627141.168 5     -1252.442          33.000
E15  26285906.016 7 138133356.794 7     -2390.523          47.000    26285908.266 7 105842461.603 7     -1831.781          47.000
E24  23622921.219 5 124139202.932 5      -630.340          34.000    23622902.250 5  95119660.431 5      -483.323          35.000
E25  25013851.648 8 131448714.208 8      2142.570          51.000    25013853.188 8 100720497.234 8      1641.689          50.000
> 2020 05 02 02 31  0.0000000  0 16        .000000000000
G02  22924103.203 7 120466983.231 7     -1730.723          46.000    22924101.648 7  93870365.225 7     -1348.618          45.000
G06  23636957.625 5 124212985.696 5     -3379.703          33.000    23636955.180 5  96789361.309 5     -2633.535          33.000
G07  20827704.297 8 109450328.396 8      -527.219          51.000    20827702.352 8  85285952.824 8      -410.820          51.000
G30  20867287.914 8 109658345.604 8      1677.703          51.000    20867289.008 8  85448079.716 8      1307.301          51.000
R02  19415847.875 8 103606685.579 8      -262.844          51.000    19415849.930 8  80582972.057 8      -204.434          49.000
R12  19550734.828 8 104436553.474 8       357.957          51.000    19550737.516 8  81228446.874 8       278.411          48.000
R13  21546043.102 6 115054688.169 6      4030.859          36.000    21546047.195 7  89486959.071 7      3135.113          42.000
C05  39777527.125 5 207132021.971 5       -17.980          35.000    39777526.789 6 160167616.053 6       -13.964          41.000
C14  22395405.523 8 116618741.356 8     -1666.023          50.000    22395404.164 8  90177003.223 8     -1288.263          51.000
C24  22245857.633 8 115839981.549 8       156.586          51.000
C25  23940572.539 8 124664894.836 8      2983.883          51.000
E03  23516856.734 7 123581905.348 7       494.152          46.000    23516860.570 7  94692653.419 7       378.684          46.000
E05  25000043.812 6 131376106.358 6     -1650.605          38.000    25000059.734 5 100664866.180 5     -1264.669          34.000
E15  26299597.188 7 138205302.202 7     -2409.070          47.000    26299599.062 7 105897588.566 7     -1845.938          47.000
E24  23626556.695 6 124158387.083 6      -656.125          37.000    23626563.820 5  95134383.881 5      -502.919          33.000
E25  25001673.422 8 131384715.482 8      2120.801          51.000    25001674.484 8 100671459.272 8      1624.987          50.000
> 2020 05 02 02 31 30.0000000  0 15        .000000000000
G02  22933983.445 7 120518903.199 7     -1737.590          47.000    22933981.430 7  93910822.311 7     -1353.969          46.000
G07  20830717.781 8 109466164.043 8      -535.566          51.000    20830715.648 8  85298292.293 8      -417.324          51.000
G30  20857714.273 8 109608036.904 8      1669.156          51.000    20857715.445 8  85408878.162 8      1300.641          51.000
R02  19417326.117 8 103614573.786 8      -270.199          51.000    19417328.305 8  80589107.315 8      -210.155          49.000
R12  19548762.375 8 104426016.532 8       337.391          51.000    19548765.250 8  81220251.511 8       262.415          49.000
R13  21523390.734 6 114933730.371 6      4025.953          38.000    21523395.672 7  89392880.761 7      3131.297          42.000
C05  39777591.781 5 207132358.866 5       -12.078          35.000    39777591.453 6 160167876.535 6        -8.732          41.000
C14  22404992.750 8 116668663.927 8     -1669.117          50.000    22404991.211 8  90215606.492 8     -1290.640          51.000
C24  22244964.172 8 115835328.547 8       146.688          51.000
C25  23923366.844 8 124575296.701 8      2982.410          51.000
E03  23514012.461 7 123566957.885 7       495.371          47.000    23514016.336 7  94681200.193 7       379.546          47.000
E05  25009442.625 6 131425487.732 6     -1648.449          38.000    25009465.711 5 100702703.697 5     -1262.960          31.000
E15  26313333.844 8 138277485.828 8     -2410.090          48.000    26313335.195 8 105952898.068 8     -1846.686          48.000
E24  23630306.914 5 124178088.755 5      -664.109          32.000    23630312.742 5  95149479.875 5      -508.737          32.000
E25  24989558.789 8 131321051.969 8      2116.516          51.000    24989559.898 8 100622678.176 8      1621.731          51.000
> 2020 05 02 02 32  0.0000000  0 16        .000000000000
G02  22943934.742 7 120571197.435 7     -1748.922          47.000    22943932.406 7  93951571.046 7     -1362.796          44.000
G07  20833811.211 8 109482419.512 8      -548.445          51.000    20833809.086 8  85310958.900 8      -427.360          51.000
G30  20848222.156 8 109558155.176 8      1656.055          51.000    20848223.148 8  85370009.295 8      1290.435          51.000
R02  19418879.047 8 103622860.318 8      -282.344          51.000    19418880.898 8  80595552.403 8      -219.601          49.000
R12  19546938.328 8 104416272.986 8       312.027          51.000    19546941.562 8  81212673.204 8       242.688          50.000
R13  21500802.734 6 114813112.133 6      4015.559          37.000    21500807.570 6  89299066.586 6      3123.215          41.000
C05  39777649.977 5 207132661.073 5        -9.281          35.000    39777649.656 6 160168111.032 6        -7.107          41.000
C14  22414630.047 8 116718847.991 8     -1676.770          49.000    22414628.008 8  90254411.988 8     -1296.560          51.000
C24  22244159.781 8 115831140.502 8       132.305          51.000
C25  23906201.953 8 124485912.704 8      2976.312          51.000
C26  24195965.383 5 125994722.360 5     -2553.387          32.000
E03  23511194.578 7 123552150.273 7       491.766          46.000    23511198.570 7  94669854.089 7       376.754          47.000
E05  25018858.000 6 131474974.739 6     -1651.039          36.000    25018859.008 5 100740576.536 5     -1264.842          32.000
E15  26327107.508 7 138349864.150 7     -2415.363          47.000    26327108.508 7 106008356.745 7     -1850.754          47.000
E24  23634133.328 5 124198208.344 5      -676.078          35.000    23634141.695 5  95164887.214 5      -518.462          33.000
E25  24977499.906 8 131257683.762 8      2107.578          50.000    24977501.938 8 100574123.338 8      1614.987          51.000
> 2020 05 02 02 32 30.0000000  0 17        .000000000000
G02  22953960.945 7 120623887.331 7     -1762.484          46.000    22953958.852 7  93992628.122 7     -1373.364          45.000
G06  23694828.375 5 124517152.709 5     -3385.438          34.000
G07  20836988.859 8 109499117.629 8      -563.422          51.000    20836986.945 8  85323970.425 8      -439.030          51.000
G30  20838816.047 8 109508724.921 8      1640.652          51.000    20838816.953 8  85331492.229 8      1278.430          51.000
R02  19420511.172 8 103631570.093 8      -296.871          51.000    19420513.203 8  80602326.663 8      -230.900          50.000
R12  19545267.266 8 104407346.966 8       284.469          51.000    19545270.938 8  81205730.762 8       221.253          50.000
R13  21478283.211 6 114692861.046 6      4002.785          38.000    21478288.156 6  89205537.973 6      3113.277          41.000
C05  39777706.195 5 207132954.177 5        -9.070          35.000    39777705.969 6 160168337.673 6        -6.814          41.000
C14  22424321.758 8 116769316.903 8     -1686.480          49.000    22424319.219 8  90293437.736 8     -1304.009          50.000
C24  22243449.398 8 115827440.673 8       115.785          51.000
C25  23889082.469 8 124396768.160 8      2968.059          50.000
C26  24210704.172 4 126071487.888 4     -2562.781          29.000
E03  23508407.938 7 123537506.560 7       485.938          46.000    23508411.984 8  94658633.569 8       372.342          48.000
E05  25028298.914 6 131524590.957 6     -1655.273          36.000    25028306.062 5 100778611.155 5     -1268.374          31.000
E15  26340921.969 7 138422458.806 7     -2422.781          47.000    26340923.188 8 106063981.224 8     -1856.453          49.000
E24  23638038.008 6 124218745.610 6      -691.180          39.000    23638053.102 5  95180623.458 5      -529.713          34.000
E25  24965501.688 8 131194636.069 8      2096.789          51.000    24965505.305 8 100525814.117 8      1606.684          51.000
> 2020 05 02 02 33  0.0000000  0 16        .000000000000
G02  22964060.336 7 120676962.701 7     -1776.570          47.000    22964058.906 7  94033985.553 7     -1384.337          45.000
G06  23714170.227 5 124618804.009 5     -3391.523          35.000    23714183.789 5  97105619.631 5     -2642.749          33.000
G07  20840248.758 8 109516249.126 8      -579.234          51.000    20840247.047 8  85337319.656 8      -451.351          51.000
G30  20829494.523 8 109459738.746 8      1624.469          51.000    20829495.414 8  85293321.210 8      1265.820          51.000
R02  19422221.438 8 103640696.239 8      -312.141          51.000    19422223.656 8  80609424.776 8      -242.776          49.000
R12  19543747.648 8 104399230.226 8       256.141          51.000    19543751.234 8  81199417.734 8       199.220          50.000
R13  21455832.203 6 114572972.897 6      3989.145          38.000    21455836.867 6  89112291.641 6      3102.668          41.000
C05  39777758.898 5 207133228.131 5       -10.172          35.000    39777758.719 6 160168550.282 6        -7.585          41.000
C14  22434066.734 8 116820062.399 8     -1697.070          49.000    22434063.844 8  90332677.369 8     -1312.279          50.000
C24  22242831.016 8 115824220.711 8        98.422          51.000
C25  23872007.195 8 124307856.702 8      2958.922          49.000
E03  23505651.094 7 123523019.019 7       479.285          47.000    23505654.852 8  94647532.709 8       367.304          48.000
E05                                                                  25037776.680 5 100816750.569 5     -1272.648          31.000
E15  26354775.445 7 138495259.589 7     -2431.062          47.000    26354777.492 8 106119763.620 8     -1862.855          50.000
E24                                                                  23642043.156 5  95196681.903 5      -541.356          33.000
E25  24953563.570 8 131131902.376 8      2084.957          51.000    24953567.742 8 100477745.438 8      1597.570          51.000
> 2020 05 02 02 33 30.0000000  0 16        .000000000000
G02  22974241.648 8 120730466.586 8     -1789.867          48.000    22974240.312 7  94075676.878 7     -1394.705          43.000
G06  23733547.141 5 124720627.634 5     -3395.855          35.000    23733553.641 5  97184962.697 5     -2646.115          34.000
G07  20843599.516 8 109533858.016 8      -594.137          51.000    20843597.914 8  85351040.861 8      -462.964          51.000
G30  20820266.312 8 109411242.748 8      1609.219          51.000    20820267.180 8  85255532.137 8      1253.937          51.000
R02  19424018.320 8 103650284.786 8      -326.527          51.000    19424020.617 8  80616882.545 8      -253.966          49.000
R12  19542388.383 8 104391968.595 8       228.574          51.000    19542391.906 8  81193769.790 8       177.780          50.000
R13  21433458.703 6 114453497.418 6      3976.328          39.000    21433463.180 7  89019366.279 7      3092.700          42.000
C05                                                                  39777816.641 6 160168783.480 6        -7.654          41.000
C14  22443873.852 8 116871129.165 8     -1706.711          51.000    22443870.609 8  90372165.381 8     -1319.789          50.000
C24  22242313.320 8 115821525.170 8        81.906          51.000
C25  23854985.750 8 124219224.941 8      2950.480          49.000
E03  23502932.656 7 123508733.298 7       473.598          47.000    23502935.773 8  94636586.493 8       362.928          48.000
E05                                                                  25047275.914 5 100854996.498 5     -1275.947          31.000
E15  26368676.094 7 138568309.655 7     -2438.453          46.000    26368679.273 8 106175737.039 8     -1868.299          50.000
E24  23646101.961 5 124261103.723 5      -721.180          35.000    23646116.289 5  95213114.656 5      -552.122          33.000
E25  24941694.383 8 131069529.455 8      2073.945          51.000    24941698.422 8 100429953.184 8      1589.142          51.000
> 2020 05 02 02 34  0.0000000  0 15        .000000000000
G02  22984500.102 8 120784372.829 8     -1803.297          49.000    22984498.195 7  94117681.717 7     -1405.169          43.000
G06  23752950.781 6 124822600.422 6     -3400.758          36.000    23752954.688 5  97264418.827 5     -2649.947          35.000
G07  20847036.367 8 109551919.594 8      -609.305          50.000    20847035.211 8  85365114.820 8      -474.783          50.000
G30  20811126.758 8 109363213.780 8      1593.551          51.000    20811127.609 8  85218106.988 8      1241.728          51.000
R02  19425897.570 8 103660313.241 8      -341.359          51.000    19425900.047 8  80624682.451 8      -265.502          49.000
R12  19541184.328 8 104385537.607 8       200.910          51.000    19541187.711 8  81188767.931 8       156.263          49.000
R13  21411158.523 6 114334414.016 6      3963.180          38.000    21411163.102 7  88926745.834 7      3082.473          42.000
C05  39777875.414 5 207133835.158 5        -9.602          35.000    39777875.141 6 160169018.927 6        -7.491          41.000
C14  22453738.148 8 116922493.340 8     -1716.801          51.000    22453734.969 8  90411883.362 8     -1327.500          50.000
C24  22241891.859 8 115819330.059 8        65.141          51.000
C25  23838014.172 8 124130850.944 8      2941.668          49.000
E03  23500247.977 7 123494625.873 7       467.453          47.000    23500250.508 7  94625776.910 7       358.271          47.000
E15  26382618.750 7 138641583.029 7     -2445.941          46.000    26382623.336 8 106231881.579 8     -1874.094          49.000
E24  23650264.109 6 124282966.888 6      -735.895          36.000    23650274.625 5  95229866.829 5      -563.517          33.000
E25  24929889.562 8 131007494.877 8      2062.340          51.000    24929893.203 8 100382420.194 8      1580.252          51.000
> 2020 05 02 02 34 30.0000000  0 16        .000000000000
G02  22994830.734 8 120838658.842 8     -1815.883          48.000    22994827.812 7  94159982.472 7     -1414.974          43.000
G06  23772377.336 5 124924685.872 5     -3404.801          34.000    23772378.969 5  97343969.773 5     -2653.088          34.000
G07  20850555.250 8 109570412.035 8      -623.641          50.000    20850554.422 8  85379524.523 8      -485.954          50.000
G09  22170297.891 5 116505675.327 5     -2371.078          32.000    22170296.078 5  90783679.274 5     -1847.590          31.000
G30  20802071.961 8 109315632.110 8      1578.562          51.000    20802072.766 8  85181030.382 8      1230.049          51.000
R02  19427855.734 8 103670761.807 8      -355.320          51.000    19427857.961 8  80632809.129 8      -276.360          49.000
R12  19540131.883 8 104379916.285 8       173.828          51.000    19540135.211 8  81184395.785 8       135.200          48.000
R13  21388928.961 6 114215705.745 6      3950.457          39.000    21388932.539 6  88834417.173 6      3072.578          40.000
C05  39777930.555 5 207134122.328 5        -9.121          34.000    39777930.289 6 160169241.014 6        -7.337          41.000
C14  22463655.742 8 116974134.371 8     -1726.047          51.000    22463652.828 8  90451815.454 8     -1334.662          51.000
C24  22241562.289 8 115817614.717 8        49.129          51.000
C25  23821088.750 8 124042716.128 8      2933.699          48.000
E03  23497593.523 7 123480676.687 7       462.379          47.000    23497595.438 8  94615088.574 8       354.159          48.000
E15  26396599.344 7 138715057.136 7     -2452.473          45.000    26396605.320 8 106288179.928 8     -1879.206          50.000
E24  23654507.164 5 124305273.248 5      -749.770          31.000    23654515.523 5  95246940.336 5      -574.600          32.000
E25  24918145.570 8 130945779.653 8      2051.695          51.000    24918148.367 8 100335131.917 8      1572.078          51.000
> 2020 05 02 02 35  0.0000000  0 15        .000000000000
G02  23005236.484 8 120893340.968 8     -1829.574          48.000    23005232.945 7  94202591.921 7     -1425.642          43.000
G06  23791829.930 6 125026913.602 6     -3410.516          36.000    23791829.312 5  97423627.707 5     -2657.542          34.000
G07  20854159.594 8 109589353.036 8      -639.055          51.000    20854158.719 8  85394283.732 8      -497.965          51.000
G30  20793105.680 8 109268517.201 8      1562.445          50.000    20793106.688 8  85144317.481 8      1217.493          50.000
R02  19429896.305 8 103681650.079 8      -370.602          51.000    19429898.125 8  80641277.785 8      -288.246          49.000
R12  19539234.391 8 104375123.383 8       145.742          50.000    19539237.891 8  81180667.997 8       113.355          48.000
R13  21366774.078 6 114097395.458 6      3936.930          40.000    21366775.359 6  88742398.122 6      3062.059          39.000
C05  39777986.031 5 207134411.707 5       -10.164          35.000    39777985.672 6 160169463.979 6        -7.591          41.000
C14  22473629.938 8 117026070.592 8     -1736.363          51.000    22473627.633 8  90491975.809 8     -1342.690          51.000
C24  22241328.461 8 115816397.361 8        32.094          51.000
C25  23804213.227 7 123954840.760 7      2924.504          47.000
E03  23494972.898 8 123466904.796 8       455.797          48.000    23494974.375 8  94604536.085 8       349.328          48.000
E15  26410621.422 7 138788748.583 7     -2460.266          45.000    26410628.219 8 106344644.774 8     -1885.091          50.000
E24                                                                  23658838.539 5  95264339.724 5      -585.810          32.000
E25  24906466.375 8 130884404.010 8      2039.992          51.000    24906468.422 8 100288103.827 8      1563.108          51.000
> 2020 05 02 02 35 30.0000000  0 15        .000000000000
G02  23015715.797 8 120948410.589 8     -1841.500          49.000    23015712.406 7  94245503.300 7     -1434.935          43.000
G06  23811306.602 6 125129269.022 6     -3413.473          36.000    23811306.078 5  97503385.140 5     -2659.852          34.000
G07  20857847.867 8 109608734.802 8      -652.859          51.000    20857847.070 8  85409386.401 8      -508.722          51.000
G30  20784227.328 8 109221863.366 8      1547.965          51.000    20784228.633 8  85107963.857 8      1206.206          51.000
R02  19432018.344 8 103692973.186 8      -384.164          51.000    19432020.328 8  80650084.646 8      -298.794          50.000
R12  19538490.617 8 104371152.019 8       119.250          50.000    19538493.992 7  81177579.166 7        92.750          47.000
R13  21344693.078 6 113979480.995 6      3924.324          39.000    21344692.352 6  88650686.958 6      3052.255          39.000
C05  39778040.320 5 207134693.797 5        -8.309          34.000    39778040.023 6 160169682.918 6        -6.669          41.000
C14  22483659.266 8 117078295.450 8     -1745.117          50.000    22483657.586 8  90532359.364 8     -1349.369          51.000
C24  22241189.047 8 115815671.291 8        16.527          51.000
C25  23787386.883 8 123867220.238 8      2916.887          48.000
E03  23492384.820 7 123453304.213 7       450.984          47.000    23492386.242 8  94594114.868 8       345.556          48.000
E15  26424683.695 7 138862648.902 7     -2466.418          45.000    26424690.688 8 106401269.661 8     -1889.700          49.000
E24                                                                  23663245.516 5  95282078.729 5      -596.708          34.000
E25  24894850.602 8 130823363.048 8      2029.723          51.000    24894852.656 8 100241332.184 8      1555.254          51.000
> 2020 05 02 02 36  0.0000000  0 16        .000000000000
G02  23026267.836 8 121003861.695 8     -1855.055          50.000    23026264.523 7  94288711.912 7     -1445.497          44.000
G06  23830806.422 6 125231745.306 6     -3418.316          36.000    23830806.508 5  97583236.811 5     -2663.623          34.000
G07  20861619.156 8 109628552.321 8      -668.180          51.000    20861618.211 8  85424828.647 8      -520.659          51.000
G30  20775436.734 8 109175667.486 8      1531.883          51.000    20775438.055 8  85071967.073 8      1193.675          51.000
R02  19434221.117 8 103704727.630 8      -399.355          51.000    19434223.617 8  80659226.982 8      -310.610          50.000
R12  19537899.727 8 104367998.096 8        91.215          49.000    19537903.258 7  81175126.136 7        70.948          47.000
R13  21322685.570 6 113861961.013 6      3910.219          39.000    21322685.281 7  88559282.582 7      3041.281          42.000
C05  39778092.953 5 207134967.926 5        -9.066          34.000    39778092.617 6 160169894.902 6        -7.186          41.000
C14  22493742.945 8 117130804.859 8     -1755.348          49.000    22493741.836 8  90572962.983 8     -1357.331          51.000
C24  22241143.125 8 115815432.324 8         -.512          51.000
C25  23770609.141 8 123779852.464 8      2907.742          48.000
E03  23489828.617 7 123439871.524 7       444.758          47.000    23489830.266 8  94583822.290 8       340.747          49.000
E05  25095135.570 6 131875843.738 6     -1688.223          38.000
E15  26438785.133 7 138936752.110 7     -2473.711          45.000    26438791.602 8 106458050.037 8     -1895.519          48.000
E24                                                                  23667735.164 5  95300142.745 5      -607.926          34.000
E25  24883297.633 8 130762654.392 8      2017.840          50.000    24883300.617 8 100194815.180 8      1546.110          51.000
> 2020 05 02 02 36 30.0000000  0 16        .000000000000
G02  23036898.242 8 121059723.702 8     -1868.453          51.000    23036894.531 7  94332240.730 7     -1455.937          42.000
G06  23850334.797 5 125334371.340 5     -3423.344          34.000    23850336.453 5  97663205.152 5     -2667.541          34.000
G07  20865479.305 8 109648836.799 8      -683.539          51.000    20865477.914 8  85440634.728 8      -532.628          51.000
G30  20766739.664 8 109129962.164 8      1515.766          51.000    20766740.789 8  85036352.554 8      1181.116          51.000
R02  19436511.102 8 103716946.975 8      -414.633          51.000    19436513.633 8  80668730.906 8      -322.492          49.000
R12  19537468.359 8 104365693.698 8        63.148          50.000    19537472.156 8  81173333.844 8        49.115          48.000
R13  21300758.609 6 113744872.632 6      3896.066          36.000    21300759.648 7  88468213.858 7      3030.274          43.000
C05  39778149.844 5 207135263.784 5       -10.008          35.000    39778149.656 6 160170124.437 6        -7.742          41.000
C14  22503887.023 8 117183630.324 8     -1765.672          49.000    22503886.656 8  90613811.004 8     -1365.438          51.000
C24  22241196.688 8 115815711.683 8       -17.559          51.000
C25  23753886.016 8 123692770.819 8      2898.383          48.000
E03  23487310.547 7 123426639.085 7       438.008          47.000    23487312.406 8  94573683.157 8       335.604          49.000
E05                                                                  25104786.570 6 101086545.755 6     -1297.398          37.000
E15  26452931.102 7 139011088.135 7     -2481.316          45.000    26452936.672 8 106515008.786 8     -1901.388          49.000
E24  23672291.023 5 124398727.783 5      -808.238          35.000
E25  24871814.117 8 130702311.510 8      2005.609          49.000    24871817.953 8 100148578.432 8      1536.703          51.000
> 2020 05 02 02 37  0.0000000  0 17        .000000000000
G02  23047600.195 8 121115962.455 8     -1880.082          51.000    23047595.992 7  94376063.138 7     -1464.999          43.000
G06  23869884.922 5 125437111.974 5     -3425.719          34.000    23869888.727 5  97743262.699 5     -2669.394          32.000
G07  20869421.852 8 109669554.907 8      -697.043          51.000    20869420.391 8  85456778.727 8      -543.150          51.000
G30  20758129.875 8 109084716.026 8      1501.469          51.000    20758130.875 8  85001095.846 8      1169.976          51.000
R02  19438882.297 8 103729599.328 8      -428.199          51.000    19438884.578 8  80678571.619 8      -333.044          49.000
R12  19537190.055 8 104364205.795 8        36.781          51.000    19537194.188 8  81172176.605 8        28.608          49.000
R13  21278906.031 5 113628186.669 5      3883.895          35.000    21278909.078 7  88377458.115 7      3020.807          44.000
C05                                                                  39778204.984 6 160170346.929 6        -6.848          41.000
C14  22514085.672 8 117236739.865 8     -1774.211          50.000    22514085.969 8  90654878.677 8     -1372.062          51.000
C24  22241343.727 8 115816477.278 8       -32.816          51.000
C25  23737211.711 8 123605945.279 8      2890.672          48.000
C26  24345725.430 5 126774581.662 5     -2643.289          33.000
E03  23484824.727 8 123413575.290 8       433.359          48.000    23484826.508 8  94563673.228 8       332.049          49.000
E05  25114469.242 6 131977430.801 6     -1696.836          36.000    25114471.766 5 101125522.293 5     -1300.412          34.000
E15  26467115.000 7 139085622.826 7     -2486.918          46.000    26467119.531 8 106572119.763 8     -1905.683          49.000
E24  23676946.609 5 124423189.360 5      -821.492          35.000
E25  24860394.586 8 130642303.800 8      1995.383          50.000    24860399.148 8 100102598.507 8      1528.906          51.000
> 2020 05 02 02 37 30.0000000  0 15        .000000000000
G02  23058370.172 8 121172559.287 8     -1893.258          50.000    23058366.336 7  94420164.557 7     -1475.266          45.000
G07  20873443.562 8 109690688.966 8      -712.199          51.000    20873442.008 8  85473246.831 8      -554.960          51.000
G30  20749604.633 8 109039913.439 8      1485.242          51.000    20749605.531 8  84966184.721 8      1157.332          51.000
R02  19441331.609 8 103742669.639 8      -443.484          51.000    19441333.758 8  80688737.412 8      -344.932          49.000
R12  19537061.445 8 104363517.261 8         8.730          51.000    19537065.375 8  81171641.082 8         6.790          49.000
R13  21257126.125 5 113511890.191 5      3869.395          35.000    21257130.914 7  88287005.266 7      3009.529          44.000
C05  39778255.656 5 207135814.945 5        -9.719          35.000    39778255.320 6 160170549.847 6        -7.059          41.000
C14  22524336.016 8 117290116.982 8     -1784.508          50.000    22524336.383 8  90696153.238 8     -1379.837          51.000
C24  22241580.750 8 115817712.393 8       -49.777          51.000
C25  23720584.055 8 123519361.305 8      2881.344          49.000
C26  24360979.617 5 126854013.225 5     -2652.406          35.000
E03  23482368.055 8 123400664.122 8       427.094          49.000    23482369.688 8  94553780.265 8       327.182          49.000
E05  25124173.391 6 132028412.713 6     -1702.410          37.000
E15  26481332.930 7 139160337.635 7     -2494.145          45.000    26481336.773 8 106629368.758 8     -1911.226          49.000
E25  24849036.375 8 130582616.299 8      1983.520          50.000    24849041.055 8 100056863.922 8      1519.852          51.000
> 2020 05 02 02 38  0.0000000  0 16        .000000000000
G02  23069219.438 8 121229573.825 8     -1906.980          49.000    23069216.094 7  94464591.478 7     -1485.959          46.000
G07  20877555.922 8 109712299.712 8      -727.848          51.000    20877554.125 8  85490086.381 8      -567.154          51.000
G30  20741175.414 8 108995616.941 8      1468.578          51.000    20741176.461 8  84931667.947 8      1144.347          51.000
R02  19443871.258 8 103756221.515 8      -459.336          51.000    19443873.312 8  80699277.758 8      -357.261          50.000
R11  22107371.148 4 118135087.366 4     -3465.188          28.000
R12  19537094.125 8 104363690.656 8       -19.707          51.000    19537097.938 8  81171775.951 8       -15.325          50.000
R13  21235432.367 6 113396050.359 6      3854.152          36.000    21235438.078 7  88196907.625 7      2997.674          43.000
C05  39778313.039 5 207136114.332 5        -9.938          35.000    39778312.578 6 160170780.615 6        -7.808          41.000
C14  22534649.875 8 117343822.810 8     -1795.246          51.000    22534649.438 8  90737682.001 8     -1388.259          51.000
C24  22241919.930 8 115819478.016 8       -67.250          51.000
C25  23704015.078 8 123433081.950 8      2871.305          49.000
C26  24376289.555 6 126933740.527 6     -2662.348          37.000
E03  23479952.195 8 123387967.977 8       419.984          50.000    23479953.820 8  94544052.050 8       321.740          50.000
E15  26495596.422 7 139235292.461 7     -2502.105          45.000    26495599.969 8 106686801.649 8     -1917.186          49.000
E24  23686511.586 5 124473458.262 5      -851.672          33.000
E25  24837751.445 8 130523312.421 8      1970.828          51.000    24837756.312 8 100011423.312 8      1510.073          51.000
> 2020 05 02 02 38 30.0000000  0 18        .000000000000
G02  23080129.125 8 121286904.907 8     -1919.441          50.000    23080125.953 7  94509265.042 7     -1495.669          46.000
G07  20881739.992 8 109734287.348 8      -742.301          51.000    20881737.984 8  85507219.621 8      -578.419          51.000
G09  22279679.398 5 117080510.153 5     -2419.887          35.000
G30  20732823.375 8 108951728.388 8      1452.930          51.000    20732824.805 8  84897469.069 8      1132.153          51.000
R02  19446482.570 8 103770155.536 8      -474.070          51.000    19446484.633 8  80710115.316 8      -368.721          50.000
R11  22126897.367 5 118239358.048 5     -3480.531          32.000
R12  19537269.336 8 104364624.990 8       -47.102          51.000    19537272.961 8  81172502.645 8       -36.635          50.000
R13  21213806.680 5 113280570.225 5      3840.207          35.000    21213812.367 7  88107089.763 7      2986.828          42.000
C05  39778358.469 5 207136350.879 5       -10.070          35.000    39778358.016 6 160170963.524 6        -7.757          41.000
C14  22545008.305 8 117397759.220 8     -1804.777          51.000    22545006.820 8  90779389.059 8     -1395.586          51.000
C24  22242341.727 8 115821675.789 8       -83.586          50.000
C25  23687486.359 8 123347011.031 8      2862.418          49.000
C26  24391637.641 6 127013663.543 6     -2670.309          36.000
E03  23477558.609 8 123375388.464 8       414.285          50.000    23477560.234 8  94534413.197 8       317.448          50.000
E05  25143655.453 6 132130798.647 6     -1711.930          37.000
E15  26509886.328 7 139310386.371 7     -2508.492          46.000    26509889.852 8 106744341.137 8     -1922.064          49.000
E24  23691395.328 6 124499156.525 6      -865.688          36.000
E25  24826521.438 8 130464294.831 8      1959.277          51.000    24826525.578 8  99966202.036 8      1501.285          51.000
> 2020 05 02 02 39  0.0000000  0 19        .000000000000
G02  23091117.750 8 121344649.926 8     -1932.617          51.000    23091114.492 7  94554261.145 7     -1505.932          44.000
G06  23948312.180 5 125849177.179 5     -3443.270          34.000
G07  20886014.594 8 109756750.300 8      -757.648          51.000    20886012.477 8  85524723.222 8      -590.375          51.000
G09  22293505.906 5 117153181.733 5     -2426.695          35.000    22293530.055 5  91288253.395 5     -1890.937          35.000
G30  20724568.133 8 108908348.214 8      1436.551          51.000    20724569.625 8  84863666.328 8      1119.390          51.000
R02  19449184.523 8 103784573.944 8      -489.609          51.000    19449186.797 8  80721329.615 8      -380.807          50.000
R11  22146467.938 5 118343939.053 5     -3494.773          32.000
R12  19537605.805 8 104366421.075 8       -75.207          51.000    19537609.172 8  81173899.613 8       -58.494          50.000
R13  21192268.016 5 113165554.820 5      3825.148          35.000    21192273.258 6  88017633.313 6      2975.115          40.000
C05  39778411.008 5 207136624.484 5       -11.070          35.000    39778410.523 6 160171175.105 6        -8.077          41.000
C14  22555429.609 8 117452024.864 8     -1815.266          51.000    22555427.617 8  90821350.670 8     -1403.679          51.000
C24  22242865.430 8 115824404.104 8      -100.715          51.000
C25  23671016.930 8 123261249.206 8      2852.652          49.000
C26  24407042.117 5 127093879.191 5     -2679.406          32.000
E03  23475206.258 8 123363025.829 8       407.617          50.000    23475207.977 8  94524940.538 8       312.348          51.000
E05  25153441.461 5 132182226.569 5     -1718.250          34.000    25153445.242 5 101282491.823 5     -1315.938          35.000
E15  26524221.273 7 139385717.058 7     -2515.871          46.000    26524225.023 8 106802062.045 8     -1927.709          49.000
E24  23696369.312 5 124525263.913 5      -880.949          31.000
E25  24815365.125 8 130405664.742 8      1946.840          51.000    24815368.859 8  99921277.699 8      1491.800          51.000
> 2020 05 02 02 39 30.0000000  0 18        .000000000000
G02  23102167.773 8 121402717.057 8     -1946.793          51.000    23102164.250 7  94599508.264 7     -1516.982          46.000
G06  23967957.672 6 125952424.049 6     -3448.094          36.000    23967941.484 5  98144727.765 5     -2686.842          33.000
G07  20890362.273 8 109779597.572 8      -773.805          51.000    20890360.273 8  85542526.316 8      -602.965          51.000
G09  22307357.398 5 117225979.411 5     -2434.582          33.000    22307376.305 5  91344978.510 5     -1897.092          33.000
G30  20716392.875 8 108865387.304 8      1419.230          51.000    20716394.203 8  84830190.296 8      1105.894          51.000
R02  19451960.375 8 103799386.680 8      -506.352          51.000    19451962.578 8  80732850.622 8      -393.829          50.000
R11  22166109.492 5 118448897.308 5     -3511.047          35.000
R12  19538086.383 8 104368987.288 8      -104.293          51.000    19538089.555 8  81175895.568 8       -81.117          50.000
R13  21170799.773 5 113050916.697 5      3809.352          35.000    21170804.797 6  87928470.328 6      2962.829          38.000
R18  23181973.695 5 123746862.159 5     -2976.676          33.000
C05  39778453.680 5 207136846.281 5       -12.555          35.000    39778453.102 6 160171346.612 6        -9.400          41.000
C14  22565896.766 8 117506530.554 8     -1826.551          50.000    22565894.570 8  90863497.901 8     -1412.426          51.000
C24  22243474.078 8 115827573.619 8      -118.789          50.000
C25  23654589.602 8 123175709.188 8      2841.855          49.000
E03  23472878.047 8 123350790.777 8       399.816          50.000    23472879.867 8  94515565.624 8       306.359          51.000
E05                                                                  25163246.156 6 101321953.123 6     -1321.017          37.000
E15  26538584.094 7 139461192.705 7     -2523.922          46.000    26538587.742 8 106859894.011 8     -1934.046          49.000
E25  24804265.586 8 130347333.864 8      1933.570          51.000    24804268.461 8  99876582.617 8      1481.597          51.000
> 2020 05 02 02 40  0.0000000  0 18        .000000000000
G02  23113307.320 8 121461255.702 8     -1954.422          50.000    23113304.281 7  94645122.766 7     -1522.926          46.000
G06  23987645.352 6 126055875.875 6     -3447.258          37.000    23987631.227 6  98225339.538 6     -2686.178          37.000
G07  20894811.906 8 109802980.122 8      -783.637          51.000    20894809.766 8  85560746.476 8      -610.626          51.000
G09  22321261.750 5 117299022.525 5     -2437.184          30.000    22321260.781 4  91401820.168 4     -1899.104          26.000
G30  20708326.344 8 108822998.150 8      1408.055          51.000    20708327.742 8  84797159.820 8      1097.185          51.000
R02  19454839.141 8 103814748.664 8      -516.578          51.000    19454841.367 8  80744798.820 8      -401.783          49.000
R11  22185851.414 5 118554383.093 5     -3520.535          35.000
R12  19538739.695 8 104372477.401 8      -126.992          51.000    19538742.852 8  81178610.112 8       -98.772          50.000
R13  21149432.523 6 112936814.730 6      3799.141          36.000    21149436.391 6  87839724.370 6      2954.890          37.000
R18  23198731.805 5 123836307.912 5     -2986.035          34.000
C05  39778515.125 5 207137166.675 5        -7.922          35.000    39778514.664 6 160171594.387 6        -5.960          41.000
C14  22576438.711 8 117561426.562 8     -1831.844          49.000    22576436.469 8  90905946.957 8     -1416.449          51.000
C24  22244196.023 8 115831334.345 8      -130.602          49.000
C25  23638233.836 8 123090543.234 8      2837.289          49.000
E03  23470602.867 8 123338835.641 8       398.504          51.000    23470604.836 8  94506405.193 8       305.305          51.000
E05                                                                  25173086.727 5 101361598.122 5     -1321.499          31.000
E15  26553003.141 7 139536963.150 7     -2525.984          47.000    26553006.227 8 106917951.849 8     -1935.420          48.000
E25  24793252.062 8 130289455.532 8      1926.453          51.000    24793254.352 8  99832234.310 8      1476.086          51.000
> 2020 05 02 02 40 30.0000000  0 17        .000000000000
G02  23124510.570 7 121520130.589 7     -1968.383          47.000    23124508.625 7  94690999.308 7     -1533.805          47.000
G06  24007346.047 6 126159396.836 6     -3452.078          36.000    24007332.422 5  98306005.202 5     -2689.934          32.000
G07  20899337.812 8 109826763.645 8      -799.703          51.000    20899335.594 8  85579279.106 8      -623.145          51.000
G09  22335194.664 5 117372241.260 5     -2443.340          33.000    22335195.664 5  91458873.744 5     -1903.901          34.000
G30  20700343.484 8 108781048.557 8      1390.672          51.000    20700344.828 8  84764471.838 8      1083.640          51.000
R02  19457795.477 8 103830526.151 8      -533.156          51.000    19457798.148 8  80757070.176 8      -414.677          49.000
R11  22205665.711 5 118660257.364 5     -3535.680          34.000
R12  19539540.359 8 104376755.401 8      -155.977          51.000    19539543.492 8  81181937.454 8      -121.315          49.000
R13  21128141.430 6 112823116.658 6      3783.074          38.000    21128144.102 6  87751292.579 6      2942.391          37.000
C05                                                                  39778569.852 6 160171816.702 6        -7.322          41.000
C14  22587030.188 8 117616581.033 8     -1843.094          48.000    22587028.195 8  90948595.871 8     -1425.143          51.000
C24  22245006.453 8 115835554.178 8      -148.648          50.000
C25  23621925.023 8 123005621.401 8      2826.262          49.000
E03  23468355.711 8 123327028.081 8       390.777          51.000    23468357.859 8  94497357.829 8       299.481          51.000
E05                                                                  25182943.586 5 101401313.989 5     -1325.905          35.000
E15  26567452.625 7 139612893.373 7     -2533.973          47.000    26567454.969 8 106976132.130 8     -1941.594          48.000
E25  24782299.438 8 130231898.398 8      1912.891          51.000    24782301.000 8  99788132.093 8      1465.706          51.000
> 2020 05 02 02 41  0.0000000  0 16        .000000000000
G02  23135778.797 8 121579346.777 8     -1977.848          48.000    23135777.781 8  94737141.776 8     -1541.180          48.000
G06  24027060.695 5 126262990.985 5     -3452.504          34.000    24027048.500 5  98386727.917 5     -2690.266          35.000
G07  20903941.203 8 109850954.472 8      -811.543          51.000    20903939.148 8  85598129.115 8      -632.368          51.000
G30  20692445.773 8 108739546.262 8      1377.672          51.000    20692447.039 8  84732132.394 8      1073.511          51.000
R02  19460831.297 8 103846727.134 8      -545.371          51.000    19460834.203 8  80769670.916 8      -424.178          49.000
R11  22225552.727 4 118766523.348 4     -3547.020          29.000
R12  19540489.727 8 104381827.942 8      -180.633          51.000    19540493.102 8  81185882.776 8      -140.489          50.000
R13  21106927.805 6 112709833.538 6      3770.566          38.000    21106929.297 6  87663183.518 6      2932.663          39.000
C05  39778620.672 5 207137715.799 5        -6.605          35.000    39778620.102 6 160172019.012 6        -5.065          41.000
C14  22597672.375 7 117672000.732 7     -1850.078          47.000    22597670.969 8  90991449.914 8     -1430.607          51.000
C24  22245906.242 8 115840239.669 8      -162.188          50.000
C25  23605665.172 8 122920952.461 8      2819.594          49.000
E03  23466138.180 8 123315375.646 8       387.473          51.000    23466140.414 8  94488429.353 8       296.895          51.000
E05                                                                  25192830.914 6 101441128.050 6     -1327.365          38.000
E15  26581933.352 7 139688988.488 7     -2537.586          45.000    26581935.102 8 107034438.747 8     -1944.321          48.000
E25  24771409.398 8 130174670.995 8      1903.645          51.000    24771410.805 8  99744282.522 8      1458.694          51.000
> 2020 05 02 02 41 30.0000000  0 15        .000000000000
G02  23147111.312 8 121638899.487 8     -1992.289          50.000    23147110.289 7  94783546.479 7     -1552.436          47.000
G06  24046788.273 5 126366652.910 5     -3458.445          30.000    24046775.594 5  98467503.447 5     -2694.886          30.000
G07  20908621.305 8 109875548.562 8      -828.098          51.000    20908619.086 8  85617293.346 8      -645.271          51.000
G30  20684632.938 8 108698489.404 8      1359.484          51.000    20684634.281 8  84700140.032 8      1059.338          51.000
R02  19463946.438 8 103863350.397 8      -562.887          51.000    19463949.625 8  80782600.121 8      -437.801          50.000
R12  19541587.406 8 104387692.019 8      -210.379          50.000    19541591.094 8  81190443.719 8      -163.631          50.000
R13  21085791.703 6 112596967.242 6      3753.566          38.000    21085792.758 6  87575398.621 6      2919.441          39.000
C05  39778665.453 5 207137949.168 5        -8.715          35.000    39778664.914 6 160172199.475 6        -6.878          41.000
C14  22608365.477 7 117727683.014 7     -1862.113          47.000    22608363.859 8  91034507.012 8     -1439.898          50.000
C24  22246894.961 8 115845387.851 8      -180.891          51.000
C25  23589454.344 8 122836535.610 8      2808.059          50.000
E03  23463949.859 8 123303876.376 8       379.094          51.000    23463952.094 8  94479618.226 8       290.495          51.000
E05  25202743.281 5 132441319.517 5     -1739.484          34.000    25202741.438 6 101481027.562 6     -1332.612          39.000
E15  26596444.234 7 139765244.051 7     -2546.160          45.000    26596445.680 8 107092868.315 8     -1950.954          48.000
E25  24760581.773 8 130117772.243 8      1889.434          51.000    24760583.188 8  99700684.783 8      1447.769          51.000
> 2020 05 02 02 42  0.0000000  0 16        .000000000000
G02  23158527.969 8 121698894.559 8     -2006.746          51.000    23158526.273 7  94830295.858 7     -1563.698          46.000
G07  20913398.461 8 109900653.118 8      -844.945          51.000    20913396.180 8  85636855.339 8      -658.399          51.000
G30  20676925.648 8 108657986.911 8      1341.117          51.000    20676927.234 8  84668579.658 8      1045.026          51.000
R02  19467161.266 8 103880506.678 8      -580.336          51.000    19467164.414 8  80795943.897 8      -451.372          50.000
R12  19542853.430 8 104394456.780 8      -240.141          51.000    19542857.266 8  81195705.203 8      -186.776          50.000
R13  21064754.898 6 112484631.312 6      3736.008          39.000    21064755.523 6  87488026.234 6      2905.781          39.000
R18  23266512.383 5 124198187.632 5     -3045.383          34.000
C05  39778725.438 5 207138261.837 5       -11.199          35.000    39778724.984 6 160172441.273 6        -8.808          41.000
C14  22619130.039 8 117783735.105 8     -1874.125          49.000    22619128.102 8  91077850.036 8     -1449.207          51.000
C24  22247993.281 8 115851105.629 8      -199.723          51.000
C25  23573313.180 8 122752479.998 8      2796.164          51.000
E03  23461811.539 8 123292639.160 8       370.598          51.000    23461813.594 8  94471007.894 8       283.985          51.000
E05                                                                  25212693.422 5 101521095.679 5     -1337.811          34.000
E15  26611005.695 7 139841766.238 7     -2554.852          46.000    26611006.898 8 107151502.193 8     -1957.617          48.000
E24  23727945.547 5 124691195.263 5      -966.461          32.000
E25  24749837.484 8 130061312.003 8      1875.227          51.000    24749839.477 8  99657423.066 8      1436.835          51.000
> 2020 05 02 02 42 30.0000000  0 15        .000000000000
G02  23170004.094 8 121759201.715 8     -2014.242          50.000    23170001.516 7  94877288.427 7     -1569.539          46.000
G07  20918248.211 8 109926139.412 8      -854.797          51.000    20918246.453 8  85656714.808 8      -666.075          51.000
G09  22391247.602 5 117666800.019 5     -2464.238          32.000
G30  20669299.758 8 108617911.564 8      1329.895          51.000    20669301.195 8  84637352.113 8      1036.281          51.000
R02  19470451.938 8 103898067.053 8      -590.891          51.000    19470455.359 8  80809601.956 8      -459.582          50.000
R12  19544263.867 8 104401991.567 8      -262.836          50.000    19544267.938 8  81201565.599 8      -204.425          50.000
R13  21043794.031 6 112372699.584 6      3725.211          39.000    21043794.016 6  87400968.215 6      2897.386          40.000
R18  23283665.430 5 124289688.570 5     -3054.406          31.000
C05  39778776.391 5 207138527.141 5        -6.484          35.000    39778775.891 6 160172646.430 6        -5.343          41.000
C14  22629941.586 8 117840030.029 8     -1879.426          50.000    22629939.422 8  91121380.793 8     -1453.222          51.000
C24  22249176.484 8 115857265.843 8      -211.527          51.000
C25  23557217.359 8 122668660.671 8      2791.160          51.000
E03  23459698.859 8 123281536.648 8       368.977          51.000    23459700.719 8  94462500.784 8       282.698          51.000
E15  26625593.484 7 139918425.197 7     -2556.422          46.000    26625594.383 7 107210240.873 7     -1958.844          47.000
E25  24739152.516 8 130005163.866 8      1867.562          51.000    24739154.633 8  99614400.497 8      1431.025          51.000
> 2020 05 02 02 43  0.0000000  0 14        .000000000000
G02  23181545.477 8 121819852.225 8     -2028.020          49.000    23181542.414 7  94924548.562 7     -1580.275          47.000
G07  20923176.633 8 109952039.501 8      -870.785          51.000    20923175.125 8  85676896.695 8      -678.534          51.000
G30  20661761.703 8 108578297.398 8      1312.141          51.000    20661762.898 8  84606483.940 8      1022.447          51.000
R02  19473825.227 8 103916066.517 8      -607.883          51.000    19473828.516 8  80823601.556 8      -472.795          50.000
R12  19545824.648 8 104410329.515 8      -291.918          51.000    19545828.586 8  81208050.676 8      -227.047          49.000
R13  21022915.688 6 112261209.533 6      3708.750          37.000    21022916.078 6  87314253.741 6      2884.583          40.000
C05  39778824.594 5 207138778.315 5        -8.504          35.000    39778824.172 6 160172840.662 6        -6.769          41.000
C14  22640806.031 8 117896600.731 8     -1890.918          51.000    22640803.250 8  91165124.829 8     -1462.114          51.000
C24  22250450.688 8 115863901.111 8      -229.719          51.000
C25  23541173.188 8 122585112.497 8      2779.828          51.000
E03  23457618.242 8 123270602.851 8       361.148          51.000    23457619.977 8  94454122.932 8       276.688          51.000
E05  25232655.680 5 132598497.007 5     -1753.043          34.000    25232655.391 6 101601435.985 6     -1343.145          36.000
E15  26640213.477 7 139995252.407 7     -2564.270          45.000    26640214.203 7 107269108.466 7     -1964.785          47.000
E25  24728533.766 8 129949362.715 8      1853.621          51.000    24728535.641 8  99571643.816 8      1420.325          51.000
> 2020 05 02 02 43 30.0000000  0 16        .000000000000
G02  23193139.914 8 121880782.218 8     -2041.730          48.000    23193137.023 8  94972026.478 8     -1590.962          48.000
G07  20928171.797 8 109978290.327 8      -886.734          51.000    20928170.344 8  85697351.875 8      -690.965          51.000
G30  20654299.711 8 108539083.287 8      1294.531          51.000    20654300.766 8  84575927.495 8      1008.726          51.000
R02  19477269.164 8 103934443.269 8      -624.906          51.000    19477272.359 8  80837894.587 8      -486.038          51.000
R11  22326106.008 4 119303885.618 4     -3617.520          29.000    22326119.375 5  92791935.345 5     -2813.629          31.000
R12  19547524.102 8 104419407.151 8      -320.918          51.000    19547527.781 8  81215111.066 8      -249.603          49.000
R13  21002107.031 5 112150102.784 5      3691.316          32.000    21002109.648 6  87227837.352 6      2871.024          40.000
C05  39778858.320 5 207138953.282 5       -10.395          35.000    39778857.922 6 160172976.740 6        -8.134          41.000
C14  22651711.367 8 117953385.864 8     -1902.328          51.000    22651708.094 8  91209034.692 8     -1471.031          51.000
C24  22251804.438 8 115870949.802 8      -247.793          51.000
C25  23525169.164 8 122501776.059 8      2768.539          50.000
E03  23455558.125 8 123259776.598 8       353.113          51.000    23455559.742 8  94445827.491 8       270.513          51.000
E05  25242660.422 5 132651071.756 5     -1759.469          34.000    25242663.039 6 101641720.480 6     -1348.107          36.000
E15  26654853.117 7 140072184.074 7     -2572.059          44.000    26654853.891 7 107328056.095 7     -1970.840          47.000
E24  23744828.297 5 124779874.333 5     -1008.105          34.000
E25  24717969.773 8 129893848.322 8      1839.633          51.000    24717971.133 8  99529106.824 8      1409.649          51.000
> 2020 05 02 02 44  0.0000000  0 16        .000000000000
G02  23204814.516 8 121942133.770 8     -2049.844          48.000    23204811.945 7  95019832.875 7     -1597.281          47.000
G07  20933261.094 8 110005035.373 8      -897.523          51.000    20933259.875 8  85718192.175 8      -699.369          51.000
G30  20646941.398 8 108500414.632 8      1281.980          51.000    20646942.477 8  84545796.092 8       998.946          51.000
R02  19480811.516 8 103953345.621 8      -636.547          51.000    19480814.719 8  80852596.402 8      -495.092          51.000
R11  22346446.766 5 119412560.480 5     -3628.062          34.000    22346456.781 5  92876460.281 5     -2821.823          30.000
R12  19549389.352 8 104429370.705 8      -344.660          51.000    19549393.016 8  81222860.519 8      -268.069          49.000
R13  20981399.586 6 112039529.749 6      3678.797          36.000    20981402.453 6  87141836.086 6      2861.286          39.000
C05  39778905.375 5 207139198.733 5        -7.285          35.000    39778904.812 6 160173165.752 6        -5.443          41.000
C14  22662685.172 8 118010528.638 8     -1908.547          51.000    22662682.031 8  91253221.107 8     -1475.800          51.000
C24  22253264.555 8 115878554.841 8      -260.660          51.000
C25  23509233.289 8 122418796.626 8      2762.066          49.000
C26  24563659.828 5 127909410.511 5     -2756.941          30.000
E03  23453546.156 8 123249203.226 8       350.391          51.000    23453547.664 8  94437725.806 8       268.463          51.000
E05  25252703.039 5 132703850.697 5     -1760.688          33.000
E15  26669539.398 7 140149362.978 7     -2574.547          44.000    26669540.664 7 107387193.175 7     -1972.717          47.000
E25  24707488.117 8 129838766.904 8      1830.965          51.000    24707489.508 8  99486901.591 8      1402.983          51.000
> 2020 05 02 02 44 30.0000000  0 16        .000000000000
G02  23216557.422 8 122003842.622 8     -2064.957          50.000    23216555.047 7  95067917.697 7     -1609.054          47.000
G07  20938432.594 8 110032211.643 8      -915.074          51.000    20938431.188 8  85739368.493 8      -713.042          51.000
G09  22447804.469 5 117964036.030 5     -2490.461          33.000    22447811.273 5  91920017.569 5     -1940.637          32.000
G30  20639674.812 8 108462229.678 8      1262.668          51.000    20639675.867 8  84516041.595 8       983.897          51.000
R02  19484440.953 8 103972711.251 8      -655.258          51.000    19484443.852 8  80867658.553 8      -509.645          51.000
R11  22366856.859 5 119521632.734 5     -3644.125          33.000    22366866.867 4  92961294.257 4     -2834.319          27.000
R12  19551408.602 8 104440156.117 8      -375.203          51.000    19551411.953 8  81231249.179 8      -291.825          49.000
R13  20960782.500 6 111929430.985 6      3659.879          39.000    20960784.688 6  87056203.767 6      2846.576          40.000
C05  39778953.672 5 207139449.892 5       -10.508          35.000    39778953.039 6 160173359.977 6        -8.071          41.000
C14  22673715.492 8 118067967.153 8     -1921.574          50.000    22673713.109 8  91297636.201 8     -1485.862          51.000
C24  22254819.859 8 115886653.992 8      -280.238          51.000
C25  23493354.125 8 122336114.165 8      2749.078          49.000
C26  24579578.328 5 127992279.205 5     -2767.469          32.000
E03  23451570.516 8 123238821.028 8       340.891          51.000    23451571.992 8  94429770.616 8       261.229          51.000
E15  26684260.633 7 140226724.801 7     -2583.660          46.000    26684262.523 7 107446470.410 7     -1979.748          47.000
E25  24697077.180 8 129784057.625 8      1815.496          51.000    24697079.117 8  99444981.512 8      1391.118          51.000
> 2020 05 02 02 45  0.0000000  0 16        .000000000000
G02  23228374.711 8 122065941.482 8     -2074.008          51.000    23228372.328 7  95116306.391 7     -1616.110          46.000
G07  20943692.656 8 110059853.050 8      -926.555          51.000    20943690.992 8  85760907.246 8      -721.991          51.000
G09  22462034.742 5 118038826.742 5     -2493.258          30.000    22462050.438 5  91978330.013 5     -1942.795          32.000
G30  20632507.172 8 108424564.340 8      1249.484          51.000    20632508.188 8  84486691.966 8       973.624          51.000
R02  19488163.914 8 103992576.577 8      -667.977          51.000    19488166.539 8  80883109.354 8      -519.540          51.000
R11  22387351.461 5 119631134.597 5     -3654.453          35.000
R12  19553587.930 8 104451798.044 8      -399.844          51.000    19553591.148 8  81240304.031 8      -310.990          50.000
R13  20940261.789 6 111819845.813 6      3646.652          40.000    20940263.312 6  86970970.910 6      2836.288          41.000
C05  39779009.875 5 207139742.960 5        -7.801          35.000    39779009.367 6 160173586.616 6        -6.138          41.000
C14  22684809.320 8 118125736.138 8     -1928.609          50.000    22684807.695 8  91342306.841 8     -1491.299          51.000
C24  22256476.867 8 115895281.691 8      -293.953          51.000
C25  23477539.797 8 122253765.366 8      2741.828          49.000
C26  24595547.594 4 128075420.760 4     -2773.816          29.000
E03  23449638.055 8 123228665.839 8       337.281          51.000    23449639.555 8  94421989.369 8       258.424          51.000
E15  26699023.164 7 140304302.875 7     -2587.039          45.000    26699025.781 7 107505913.338 7     -1982.217          47.000
E25  24686744.148 8 129729757.179 8      1805.762          51.000    24686746.750 8  99403374.697 8      1383.612          51.000
> 2020 05 02 02 45 30.0000000  0 15        .000000000000
G02  23240241.383 8 122128300.029 8     -2085.762          49.000    23240238.672 7  95164897.453 7     -1625.269          47.000
G07  20949016.695 8 110087830.487 8      -940.953          51.000    20949015.172 8  85782707.852 8      -733.207          51.000
G30  20625414.188 8 108387291.189 8      1233.082          51.000    20625415.281 8  84457647.963 8       960.843          51.000
R02  19491956.305 8 104012812.820 8      -683.555          51.000    19491958.812 8  80898848.644 8      -531.654          51.000
R11  22407900.922 6 119740931.940 6     -3667.613          36.000
R12  19555903.305 8 104464165.608 8      -427.168          51.000    19555906.258 8  81249923.251 8      -332.245          49.000
R13  20919813.039 6 111710647.940 6      3630.570          40.000    20919814.172 6  86886039.270 6      2823.777          40.000
C05  39779049.852 5 207139951.312 5        -8.344          35.000    39779049.312 6 160173747.698 6        -6.364          41.000
C14  22695941.914 8 118183708.682 8     -1938.586          50.000    22695940.727 8  91387134.899 8     -1499.029          51.000
C24  22258210.758 8 115904310.586 8      -310.453          51.000
C25  23461766.156 8 122171625.121 8      2731.785          51.000
C26  24611544.672 4 128158763.425 4     -2782.191          29.000
E03  23447724.625 8 123218610.305 8       330.664          51.000    23447726.047 8  94414284.478 8       253.444          51.000
E15  26713801.961 7 140381967.234 7     -2593.164          43.000    26713805.555 7 107565422.357 7     -1986.829          47.000
E25  24676464.914 8 129675739.104 8      1793.012          51.000    24676467.711 8  99361984.220 8      1373.881          51.000
> 2020 05 02 02 46  0.0000000  0 14        .000000000000
G02  23252179.805 8 122191037.124 8     -2097.949          48.000    23252177.234 7  95213783.475 7     -1634.766          47.000
G07  20954427.477 8 110116263.703 8      -955.812          51.000    20954426.000 8  85804863.616 8      -744.792          51.000
G30  20618419.039 8 108350531.659 8      1216.312          51.000    20618420.086 8  84429004.211 8       947.779          51.000
R02  19495841.266 8 104033543.442 8      -699.750          51.000    19495843.875 8  80914972.443 8      -544.250          51.000
R11  22428527.594 6 119851144.087 6     -3681.078          36.000
R12  19558377.141 8 104477380.546 8      -454.992          51.000    19558380.109 8  81260201.551 8      -353.883          50.000
R13  20899459.781 6 111601964.366 6      3614.043          38.000    20899460.805 6  86801507.609 6      2810.922          39.000
C05  39779096.648 5 207140194.848 5        -9.281          35.000    39779096.070 6 160173936.021 6        -7.002          41.000
C14  22707136.688 8 118242004.343 8     -1948.938          50.000    22707136.094 8  91432212.804 8     -1507.045          51.000
C24  22260044.719 8 115913860.001 8      -327.363          51.000
C25  23446055.805 8 122089815.031 8      2720.977          50.000
E03  23445853.312 8 123208775.940 8       323.770          51.000    23445854.664 8  94406749.061 8       248.083          51.000
E15  26728619.727 7 140459836.786 7     -2599.422          44.000    26728624.055 7 107625088.612 7     -1991.762          47.000
E25  24666262.570 8 129622125.736 8      1779.949          51.000    24666265.516 8  99320903.835 8      1363.914          51.000
> 2020 05 02 02 46 30.0000000  0 16        .000000000000
G02  23264196.945 7 122254188.304 7     -2108.402          47.000    23264194.938 7  95262992.172 7     -1642.911          46.000
G06  24244964.906 5 127408140.399 5     -3483.707          34.000    24244968.508 5  99279087.676 5     -2714.574          32.000
G07  20959931.930 8 110145189.443 8      -968.801          51.000    20959930.250 8  85827403.162 8      -754.910          51.000
G09  22504905.680 5 118264096.731 5     -2511.852          31.000    22504922.242 5  92153858.816 5     -1957.296          30.000
G30  20611529.234 8 108314324.516 8      1201.191          51.000    20611530.039 8  84400790.857 8       935.993          51.000
R02  19499826.297 8 104054808.314 8      -714.137          51.000    19499828.805 8  80931511.776 8      -555.440          50.000
R11  22449237.750 5 119961805.911 5     -3692.996          35.000
R12  19561016.742 8 104491480.756 8      -481.121          51.000    19561019.484 8  81271168.389 8      -374.205          49.000
R13  20879210.586 6 111493837.658 6      3598.574          38.000    20879211.953 6  86717409.065 6      2798.891          39.000
C05                                                                  39779156.844 6 160174180.905 6        -6.262          41.000
C14  22718400.711 8 118300660.717 8     -1957.605          49.000    22718400.797 8  91477569.616 8     -1513.802          51.000
C24  22261985.594 8 115923967.122 8      -342.734          51.000
C25  23430416.430 8 122008374.657 8      2712.039          49.000
E03  23444031.477 8 123199201.532 8       318.309          51.000    23444032.742 8  94399412.828 8       243.866          51.000
E15  26743483.641 7 140537947.684 7     -2604.215          45.000    26743488.055 7 107684939.802 7     -1995.437          47.000
E25  24656144.367 8 129568956.676 8      1768.504          51.000    24656147.844 8  99280163.906 8      1355.069          51.000
> 2020 05 02 02 47  0.0000000  0 17        .000000000000
G02  23276260.438 8 122317582.730 8     -2119.113          48.000    23276258.734 7  95312390.430 7     -1651.257          46.000
G06  24264851.688 5 127512650.138 5     -3485.492          33.000    24264854.680 5  99360523.996 5     -2715.962          33.000
G07  20965497.781 8 110174438.023 8      -982.191          51.000    20965496.062 8  85850194.264 8      -765.344          51.000
G09  22519252.781 6 118339478.657 6     -2516.648          37.000    22519276.164 5  92212612.325 5     -1961.043          31.000
G30  20604712.641 8 108278501.697 8      1185.898          51.000    20604713.344 8  84372876.960 8       924.077          51.000
R02  19503879.578 8 104076437.525 8      -728.965          51.000    19503881.953 8  80948334.477 8      -566.973          50.000
R11  22469998.062 6 120072742.077 6     -3704.668          36.000
R12  19563789.602 8 104506293.870 8      -507.539          51.000    19563792.469 8  81282689.712 8      -394.753          50.000
R13  20859034.492 6 111386100.391 6      3582.750          39.000    20859036.656 6  86633613.437 6      2786.583          41.000
C05                                                                  39779199.648 6 160174353.335 6        -6.011          41.000
C14  22729701.875 8 118359510.578 8     -1966.730          49.000    22729702.234 8  91523076.034 8     -1520.795          51.000
C24  22264001.539 8 115934464.350 8      -358.258          51.000
C25  23414815.906 7 121927138.681 7      2702.598          46.000
E03  23442227.055 8 123189719.041 8       312.715          51.000    23442228.320 8  94392147.026 8       239.565          51.000
E05  25313545.453 5 133023579.735 5     -1789.512          31.000    25313567.391 4 101927237.538 4     -1371.484          29.000
E15  26758361.250 7 140616129.328 7     -2609.012          46.000    26758365.469 8 107744845.222 8     -1999.155          48.000
E25  24646078.727 8 129516064.757 8      1756.582          50.000    24646082.977 8  99239636.323 8      1346.003          51.000
> 2020 05 02 02 47 30.0000000  0 16        .000000000000
G02  23288386.414 8 122381303.519 8     -2126.797          49.000    23288383.930 7  95362042.970 7     -1657.244          45.000
G06  24284757.969 5 127617263.784 5     -3482.809          31.000
G07  20971140.984 8 110204093.679 8      -992.672          51.000    20971139.539 8  85873302.569 8      -773.511          51.000
G09  22533632.992 6 118415038.993 6     -2518.598          36.000    22533655.711 6  92271490.273 6     -1962.550          36.000
G30  20597985.383 8 108243149.082 8      1173.141          51.000    20597986.445 8  84345329.492 8       914.139          51.000
R02  19508017.477 8 104098518.420 8      -740.969          51.000    19508019.742 8  80965508.500 8      -576.309          49.000
R11  22490823.781 5 120184035.756 5     -3712.836          35.000    22490827.766 4  93476572.647 4     -2887.761          25.000
R12  19566712.148 8 104521905.296 8      -531.016          51.000    19566715.016 8  81294831.924 8      -413.012          49.000
R13  20838948.680 6 111278842.415 6      3569.680          39.000    20838951.430 7  86550190.581 7      2776.418          42.000
C14  22741056.773 8 118418638.234 8     -1972.844          49.000    22741056.523 8  91568797.298 8     -1525.570          50.000
C24  22266108.711 8 115945435.732 8      -371.027          51.000
C25  23399270.711 7 121846193.472 7      2695.766          43.000
E03  23440456.477 8 123180414.503 8       309.883          51.000    23440457.852 8  94385017.570 8       237.422          51.000
E05                                                                  25323775.109 6 101968331.601 6     -1372.031          37.000
E15  26773268.328 7 140694465.180 7     -2611.195          45.000    26773272.469 8 107804868.784 8     -2000.783          48.000
E25  24636082.680 8 129463536.761 8      1747.492          51.000    24636087.180 8  99199387.600 8      1338.928          51.000
> 2020 05 02 02 48  0.0000000  0 16        .000000000000
G02  23300571.109 8 122445332.483 8     -2140.801          49.000    23300567.102 7  95411935.644 7     -1668.156          44.000
G07  20976858.438 8 110234139.499 8     -1009.523          51.000    20976857.039 8  85896714.904 8      -786.642          51.000
G30  20591344.734 8 108208251.456 8      1154.098          51.000    20591345.906 8  84318136.556 8       899.297          51.000
R02  19512237.070 8 104121036.065 8      -759.371          51.000    19512239.188 8  80983022.220 8      -590.622          49.000
R11  22511712.148 5 120295667.033 5     -3728.559          35.000    22511720.430 4  93563390.985 4     -2899.990          28.000
R12  19569780.773 8 104538298.162 8      -560.922          51.000    19569783.727 8  81307581.943 8      -436.273          50.000
R13  20818950.234 6 111172051.674 6      3550.324          38.000    20818953.820 7  86467131.120 7      2761.363          44.000
C05  39779277.914 5 207141138.145 5        -7.332          35.000    39779277.359 6 160174667.442 6        -5.615          41.000
C14  22752461.812 8 118478028.023 8     -1985.527          48.000    22752461.289 8  91614721.223 8     -1535.330          51.000
C24  22268303.695 8 115956865.091 8      -390.070          51.000
C25  23383775.508 7 121765525.248 7      2682.957          43.000
E03  23438716.836 8 123171272.815 8       300.504          51.000    23438718.438 8  94378012.896 8       230.247          51.000
E05  25334015.672 6 133131146.611 6     -1798.391          36.000    25334022.414 6 102009593.819 6     -1378.122          39.000
E15  26788201.227 7 140772937.552 7     -2619.402          43.000    26788205.820 8 107864996.942 8     -2007.122          48.000
E24  23799734.547 5 125068449.764 5     -1129.992          34.000    23799728.812 5  95831655.438 5      -865.700          32.000
E25  24626153.641 8 129411358.434 8      1731.859          51.000    24626157.742 8  99159406.786 8      1327.054          51.000
> 2020 05 02 02 48 30.0000000  0 15        .000000000000
G02  23312830.727 8 122509755.120 8     -2152.180          49.000    23312825.352 7  95462135.082 7     -1677.023          44.000
G07  20982666.656 8 110264662.228 8     -1023.492          51.000    20982665.141 8  85920498.840 8      -797.526          51.000
G09  22562493.211 6 118566730.003 6     -2533.246          36.000    22562501.977 5  92389679.115 5     -1973.961          35.000
G30  20584807.328 8 108173897.090 8      1138.090          51.000    20584808.406 8  84291366.913 8       886.823          51.000
R02  19516555.367 8 104144080.413 8      -774.934          51.000    19516557.523 8  81000945.602 8      -602.729          50.000
R11  22532679.766 5 120407721.169 5     -3740.562          32.000    22532689.844 4  93650544.174 4     -2909.329          26.000
R12  19573012.164 8 104555560.236 8      -587.930          51.000    19573015.234 8  81321008.013 8      -457.279          49.000
R13  20799056.320 6 111065820.717 6      3533.414          37.000    20799060.336 7  86384507.034 7      2748.211          44.000
C05  39779326.242 5 207141390.459 5        -7.730          35.000    39779325.828 6 160174862.547 6        -5.781          41.000
C14  22763933.930 8 118537766.559 8     -1995.203          49.000    22763933.234 8  91660914.820 8     -1542.803          51.000
C24  22270603.133 8 115968838.753 8      -406.336          51.000
C25  23368353.250 7 121685222.483 7      2672.473          47.000
E03  23437024.938 8 123162382.337 8       294.027          51.000    23437026.719 8  94371200.704 8       225.351          51.000
E15  26803176.023 7 140851632.155 7     -2625.117          43.000    26803181.758 8 107925295.390 8     -2011.331          48.000
E25  24616308.250 8 129359618.846 8      1719.266          51.000    24616312.094 8  99119762.188 8      1317.323          51.000
> 2020 05 02 02 49  0.0000000  0 16        .000000000000
G02  23325146.258 8 122574473.140 8     -2160.109          48.000    23325140.695 7  95512564.670 7     -1683.205          44.000
G07  20988547.102 8 110295564.754 8     -1034.262          51.000    20988545.852 8  85944578.737 8      -805.915          51.000
G09  22576969.148 5 118642799.651 5     -2535.738          35.000    22576972.156 5  92448954.066 5     -1975.903          35.000
G30  20578354.797 8 108139990.811 8      1124.891          51.000    20578356.328 8  84264946.443 8       876.538          51.000
R02  19520954.500 8 104167555.144 8      -787.473          51.000    19520957.039 8  81019203.706 8      -612.482          50.000
R11  22553707.891 5 120520097.501 5     -3749.691          32.000
R12  19576387.961 8 104573593.304 8      -611.711          51.000    19576390.742 8  81335033.737 8      -475.775          49.000
R13  20779249.805 6 110960056.913 6      3519.688          36.000    20779253.852 7  86302246.296 7      2737.535          43.000
C05  39779368.586 5 207141610.910 5        -5.105          35.000    39779368.070 6 160175033.024 6        -3.613          41.000
C14  22775455.086 8 118597758.883 8     -2001.812          49.000    22775454.203 8  91707304.685 8     -1547.865          51.000
C24  22272988.750 8 115981261.352 8      -419.457          51.000
C25  23352985.469 8 121605192.176 8      2665.148          50.000
C26  24724736.398 5 128748161.574 5     -2830.090          30.000
E03  23435362.750 8 123153648.083 8       290.742          51.000    23435364.648 8  94364508.225 8       222.762          51.000
E15  26818174.641 7 140930451.362 7     -2627.164          45.000    26818181.430 7 107985689.341 7     -2013.028          47.000
E25  24606528.578 8 129308223.821 8      1709.637          51.000    24606531.992 8  99080381.612 8      1309.990          51.000
> 2020 05 02 02 49 30.0000000  0 15        .000000000000
G02  23337520.078 7 122639499.428 7     -2173.102          46.000    23337515.375 7  95563234.493 7     -1693.326          46.000
G07  20994502.477 8 110326860.609 8     -1050.465          51.000    20994501.445 8  85968965.128 8      -818.544          51.000
G30  20571990.672 8 108106548.117 8      1106.359          51.000    20571992.438 8  84238887.201 8       862.098          51.000
R02  19525437.320 8 104191476.366 8      -805.512          51.000    19525440.109 8  81037809.078 8      -626.509          50.000
R11  22574798.156 4 120632877.127 4     -3763.012          29.000
R12  19579910.945 8 104592411.247 8      -641.023          51.000    19579913.727 8  81349669.933 8      -498.574          50.000
R13  20759534.070 6 110854778.612 6      3500.660          36.000    20759538.367 7  86220363.181 7      2722.736          43.000
C05                                                                  39779407.242 6 160175190.491 6        -5.446          41.000
C14  22787027.586 8 118658019.647 8     -2013.824          48.000    22787026.711 8  91753902.119 8     -1557.214          51.000
C24  22275463.242 8 115994147.137 8      -437.840          51.000
C25  23337673.500 8 121525450.928 8      2652.570          50.000
C26  24741066.453 5 128833222.783 5     -2838.590          32.000
E03  23433733.297 8 123145085.690 8       281.844          51.000    23433735.383 8  94357947.427 8       215.913          51.000
E15  26833199.891 7 141009408.259 7     -2634.695          46.000    26833207.141 7 108046188.786 7     -2018.843          47.000
E25  24596817.805 8 129257189.739 8      1694.398          51.000    24596820.805 8  99041277.597 8      1298.272          51.000
> 2020 05 02 02 50  0.0000000  0 16        .000000000000
G02  23349962.953 7 122704890.008 7     -2184.512          44.000    23349959.500 7  95614188.214 7     -1702.217          44.000
G07  21000543.664 8 110358607.490 8     -1064.285          51.000    21000542.375 8  85993702.959 8      -829.313          51.000
G09  22606019.023 5 118795414.454 5     -2549.562          32.000
G30  20565726.125 8 108073627.960 8      1090.012          51.000    20565727.875 8  84213235.119 8       849.360          51.000
R02  19530015.211 8 104215904.672 8      -821.270          51.000    19530017.641 8  81056808.874 8      -638.765          50.000
R12  19583591.688 8 104612072.138 8      -667.941          51.000    19583594.500 8  81364961.743 8      -519.507          50.000
R13  20739921.539 6 110750048.607 6      3483.457          37.000    20739925.516 7  86138906.486 7      2709.355          42.000
R18  23549444.805 5 125708560.809 5     -3243.984          30.000
C05  39779454.891 5 207142059.455 5        -7.059          35.000    39779454.242 6 160175379.876 6        -5.833          41.000
C14  22798662.602 8 118718606.578 8     -2023.598          49.000    22798661.438 8  91800751.755 8     -1564.720          51.000
C24  22278037.609 8 116007553.414 8      -454.121          51.000
C25  23322428.000 8 121446058.415 8      2642.004          50.000
C26  24757445.320 5 128918512.709 5     -2846.492          33.000
E03  23432147.797 8 123136754.245 8       275.344          51.000    23432150.195 8  94351563.584 8       211.020          51.000
E15  26848262.477 7 141088559.306 7     -2640.078          46.000    26848269.453 7 108106836.979 7     -2022.914          46.000
E25  24587187.023 8 129206576.440 8      1681.430          51.000    24587189.492 8  99002495.994 8      1288.362          51.000
> 2020 05 02 02 50 30.0000000  0 15        .000000000000
G02  23362462.852 7 122770577.510 7     -2195.008          47.000    23362460.219 7  95665373.286 7     -1710.396          46.000
G07  21006658.102 8 110390739.096 8     -1078.090          51.000    21006656.758 8  86018740.608 8      -840.070          51.000
G30  20559548.680 8 108041165.733 8      1073.914          51.000    20559550.555 8  84187939.879 8       836.816          51.000
R02  19534675.805 8 104240774.814 8      -837.047          51.000    19534678.641 8  81076152.295 8      -651.036          51.000
R12  19587417.617 8 104632508.670 8      -694.695          51.000    19587420.461 8  81380856.836 8      -540.319          51.000
R13  20720399.906 6 110645804.878 6      3466.098          38.000    20720403.891 6  86057828.038 6      2695.854          41.000
C05  39779497.469 5 207142281.452 5        -7.945          35.000    39779496.898 6 160175551.537 6        -5.941          41.000
C14  22810348.125 8 118779455.059 8     -2033.223          50.000    22810346.516 8  91847803.660 8     -1572.217          51.000
C24  22280699.547 8 116021415.170 8      -470.191          51.000
C25  23307236.688 8 121366951.960 8      2631.406          49.000
C26  24773859.555 5 129003988.137 5     -2852.660          34.000
E03  23430594.086 8 123128589.454 8       268.754          51.000    23430596.602 8  94345307.446 8       205.967          51.000
E05                                                                  25385698.922 5 102217696.597 5     -1396.039          34.000
E15  26863349.398 7 141167837.595 7     -2645.328          46.000    26863355.344 7 108167582.655 7     -2026.946          46.000
E25  24577623.945 8 129156320.342 8      1668.652          51.000    24577626.008 8  98963988.104 8      1278.590          51.000
> 2020 05 02 02 51  0.0000000  0 15        .000000000000
G02  23375025.219 8 122836591.563 8     -2205.258          49.000    23375023.133 7  95716812.794 7     -1718.386          44.000
G07  21012851.680 8 110423286.143 8     -1091.176          51.000    21012850.469 8  86044101.949 8      -850.267          51.000
G30  20553464.625 8 108009194.159 8      1058.246          51.000    20553466.594 8  84163026.976 8       824.607          51.000
R02  19539425.609 8 104266120.382 8      -852.082          51.000    19539428.656 8  81095865.497 8      -662.730          50.000
R12  19591394.336 8 104653752.089 8      -720.891          51.000    19591397.523 8  81397379.513 8      -560.690          51.000
R13  20700976.391 6 110542083.828 6      3448.852          38.000    20700980.133 6  85977156.149 6      2682.443          41.000
C05  39779541.844 5 207142512.606 5        -7.027          35.000    39779541.273 6 160175730.278 6        -5.621          41.000
C14  22822090.055 8 118840596.781 8     -2042.250          50.000    22822088.273 8  91895082.295 8     -1579.212          51.000
C24  22283454.734 8 116035763.601 8      -485.754          51.000
C25  23292106.531 8 121288165.128 8      2621.566          49.000
C26  24790315.398 6 129089679.193 6     -2859.262          36.000
E03  23429078.383 8 123120624.134 8       262.797          51.000    23429080.750 8  94339204.153 8       201.424          51.000
E05  25396107.234 5 133457444.999 5     -1826.258          34.000
E15  26878466.102 7 141247273.347 7     -2649.730          45.000    26878470.281 7 108228448.958 7     -2030.343          45.000
E25  24568135.000 8 129106455.038 8      1656.387          51.000    24568136.211 8  98925779.638 8      1269.194          51.000
> 2020 05 02 02 51 30.0000000  0 15        .000000000000
G02  23387645.539 7 122902910.875 7     -2215.699          47.000    23387644.094 7  95768490.160 7     -1726.519          44.000
G07  21019120.500 8 110456228.690 8     -1104.547          51.000    21019119.133 8  86069771.463 8      -860.683          51.000
G30  20547470.414 8 107977694.419 8      1042.250          51.000    20547472.328 8  84138481.732 8       812.143          51.000
R02  19544261.062 8 104291922.520 8      -867.605          51.000    19544264.000 8  81115933.822 8      -674.804          50.000
R12  19595518.406 8 104675781.595 8      -747.352          51.000    19595521.609 8  81414513.567 8      -581.273          51.000
R13  20681647.102 5 110438869.929 5      3431.703          35.000    20681651.828 6  85896878.712 6      2669.105          41.000
C05  39779584.438 5 207142734.090 5        -7.316          35.000    39779583.781 6 160175901.541 6        -5.627          41.000
C14  22833884.367 8 118902012.450 8     -2051.625          49.000    22833882.383 8  91942572.788 8     -1586.468          51.000
C24  22286299.859 8 116050579.043 8      -501.562          51.000
C25  23277034.539 8 121209680.618 8      2611.133          49.000
C26  24806808.695 6 129175564.939 6     -2865.641          36.000
E03  23427597.070 8 123112839.738 8       256.617          51.000    23427599.320 8  94333239.494 8       196.602          51.000
E05  25406548.352 5 133512310.620 5     -1830.922          35.000
E15  26893608.422 7 141326845.379 7     -2654.531          44.000    26893610.695 7 108289419.679 7     -2034.045          46.000
E25  24558717.023 8 129056962.704 8      1643.641          51.000    24558717.586 8  98887856.944 8      1259.362          51.000
> 2020 05 02 02 52  0.0000000  0 14        .000000000000
G02  23400324.719 7 122969540.702 7     -2225.492          44.000    23400323.844 7  95820409.503 7     -1734.150          44.000
G07  21025465.750 8 110489572.981 8     -1117.559          51.000    21025464.430 8  86095754.031 8      -870.825          51.000
G30  20541567.500 8 107946674.889 8      1026.574          51.000    20541569.336 8  84114310.662 8       799.928          51.000
R02  19549183.758 8 104318190.630 8      -882.812          51.000    19549186.703 8  81136364.572 8      -686.632          50.000
R12  19599790.711 8 104698603.801 8      -773.438          51.000    19599794.023 8  81432264.170 8      -601.562          51.000
R13  20662414.852 5 110336174.364 5      3415.043          35.000    20662420.328 7  85817004.354 7      2656.141          42.000
C05  39779626.609 5 207142953.878 5        -6.367          35.000    39779625.914 6 160176071.531 6        -5.377          41.000
C14  22845732.688 8 118963709.656 8     -2060.699          49.000    22845730.836 8  91990280.987 8     -1593.488          51.000
C24  22289236.016 8 116065868.649 8      -517.027          51.000
C25  23262022.203 8 121131507.908 8      2601.098          49.000
C26  24823340.289 5 129261651.460 5     -2871.918          35.000
E03  23426151.820 8 123105244.880 8       250.465          51.000    23426154.031 8  94327420.045 8       191.927          51.000
E15  26908777.219 7 141406559.651 7     -2658.867          44.000    26908778.594 7 108350499.406 7     -2037.443          46.000
E25  24549371.523 8 129007852.568 8      1631.004          51.000    24549371.633 8  98850227.086 8      1249.796          51.000
> 2020 05 02 02 52 30.0000000  0 15        .000000000000
G02  23413060.719 6 123036470.779 6     -2236.336          41.000    23413060.062 6  95872562.864 6     -1742.596          41.000
G07  21031885.758 8 110523310.152 8     -1131.195          51.000    21031884.578 8  86122042.740 8      -881.448          51.000
G30  20535754.484 8 107916128.017 8      1010.191          51.000    20535756.367 8  84090507.912 8       787.162          51.000
R02  19554192.234 8 104344916.935 8      -898.816          51.000    19554195.617 8  81157151.674 8      -699.079          50.000
R12  19604209.656 8 104722209.178 8      -800.027          51.000    19604213.203 8  81450623.907 8      -622.243          50.000
R13  20643279.945 6 110233992.258 6      3397.430          37.000    20643284.914 7  85737529.354 7      2642.445          43.000
C05  39779667.023 5 207143164.457 5        -7.227          35.000    39779666.312 6 160176234.336 6        -5.446          41.000
C14  22857633.383 8 119025680.294 8     -2070.414          48.000    22857631.961 8  92038200.618 8     -1601.045          51.000
C24  22292261.484 8 116081623.864 8      -533.090          51.000
C25  23247068.672 8 121053640.878 8      2590.371          51.000
C26  24839908.359 6 129347929.058 6     -2879.430          36.000
E03  23424741.227 8 123097832.260 8       243.809          51.000    23424743.344 8  94321740.249 8       186.826          51.000
E05  25427513.898 6 133622474.677 6     -1840.203          38.000    25427519.328 6 102386082.732 6     -1410.181          37.000
E15  26923970.859 7 141486406.258 7     -2663.992          45.000    26923972.406 7 108411680.540 7     -2041.148          47.000
E25  24540097.242 8 128959118.039 8      1617.965          51.000    24540097.383 8  98812885.052 8      1239.718          51.000
> 2020 05 02 02 53  0.0000000  0 15        .000000000000
G02  23425858.789 7 123103727.114 7     -2247.305          43.000    23425857.352 6  95924970.424 6     -1751.147          41.000
G07  21038385.586 8 110557467.156 8     -1145.434          51.000    21038384.375 8  86148658.585 8      -892.546          51.000
G30  20530037.172 8 107886082.649 8       993.324          51.000    20530038.914 8  84067095.948 8       774.019          51.000
R02  19559292.227 8 104372131.564 8      -915.273          51.000    19559295.375 8  81178318.616 8      -711.876          49.000
R12  19608780.227 8 104746625.071 8      -827.312          51.000    19608783.719 8  81469614.051 8      -643.465          51.000
R13  20624247.820 6 110132356.832 6      3378.746          38.000    20624252.297 7  85658479.573 7      2627.914          44.000
C05  39779711.023 5 207143394.146 5        -8.246          35.000    39779710.438 6 160176411.950 6        -6.095          41.000
C14  22869591.859 8 119087952.369 8     -2080.750          48.000    22869590.672 8  92086353.350 8     -1608.941          51.000
C24  22295381.922 8 116097872.262 8      -549.801          51.000
C25  23232179.750 8 120976109.440 8      2578.902          51.000
C26  24856519.016 6 129434424.074 6     -2886.883          36.000
E03  23423370.828 8 123090631.065 8       236.703          51.000    23423372.898 8  94316222.449 8       181.343          51.000
E05  25438035.375 6 133677769.787 6     -1845.766          36.000    25438029.695 6 102428451.950 6     -1414.216          39.000
E15  26939194.805 7 141566411.743 7     -2669.320          46.000    26939196.984 7 108472983.440 7     -2045.377          47.000
E25  24530900.320 8 128910788.961 8      1604.402          51.000    24530900.555 8  98775853.684 8      1229.302          51.000
> 2020 05 02 02 53 30.0000000  0 14        .000000000000
G02  23438729.297 7 123171363.567 7     -2260.594          45.000    23438727.031 7  95977674.116 7     -1761.502          42.000
G07  21044975.828 8 110592099.190 8     -1162.395          51.000    21044974.711 8  86175644.581 8      -905.762          51.000
G30  20524426.047 8 107856595.408 8       973.617          51.000    20524427.547 8  84044118.877 8       758.663          51.000
R02  19564494.398 8 104399892.262 8      -934.465          51.000    19564497.422 8  81199910.290 8      -726.806          50.000
R12  19613513.195 8 104771907.227 8      -857.043          51.000    19613516.594 8  81489277.956 8      -666.589          50.000
R13  20605328.594 6 110031328.495 6      3357.262          37.000    20605333.062 7  85579901.984 7      2611.204          43.000
C05  39779769.594 5 207143698.809 5       -11.391          35.000    39779768.977 6 160176647.537 6        -8.696          41.000
C14  22881619.094 8 119150581.264 8     -2093.496          48.000    22881617.781 8  92134781.986 8     -1618.906          51.000
C24  22298607.359 8 116114668.730 8      -569.020          51.000
C25  23217366.305 8 120898970.890 8      2564.758          51.000
C26  24873182.477 6 129521190.392 6     -2897.285          36.000
E03  23422051.484 8 123083698.139 8       226.578          51.000    23422053.609 8  94310910.201 8       173.630          51.000
E15  26954459.609 7 141646630.347 7     -2677.504          46.000    26954462.312 7 108534449.623 7     -2051.573          46.000
E25  24521791.812 8 128862922.864 8      1587.898          51.000    24521792.289 8  98739177.059 8      1216.692          51.000
> 2020 05 02 02 54  0.0000000  0 15        .000000000000
G02  23451634.047 7 123239178.696 7     -2265.441          45.000    23451631.758 7  96030517.030 7     -1765.282          43.000
G07  21051618.305 8 110627005.868 8     -1170.152          51.000    21051617.453 8  86202844.580 8      -911.807          51.000
G09  22723458.078 5 119412576.334 5     -2591.871          34.000    22723465.359 5  93048780.261 5     -2019.652          33.000
G30  20518883.289 8 107827467.635 8       962.859          51.000    20518884.586 8  84021421.910 8       750.280          51.000
R02  19569761.344 8 104427998.101 8      -944.719          51.000    19569764.586 8  81221770.363 8      -734.781          50.000
R12  19618369.992 8 104797851.750 8      -877.910          51.000    19618373.211 8  81509457.032 8      -682.816          49.000
R13  20586485.422 6 109930708.466 6      3345.090          36.000    20586489.875 6  85501641.956 6      2601.737          41.000
C05                                                                  39779804.062 6 160176788.829 6        -4.697          41.000
C14  22893676.938 8 119213369.620 8     -2097.656          49.000    22893675.555 8  92183333.902 8     -1622.035          50.000
C24  22301900.422 8 116131815.439 8      -579.465          51.000
C25  23202591.000 8 120822029.812 8      2559.348          51.000
C26  24889860.000 6 129608029.039 6     -2897.820          37.000
E03  23420745.500 8 123076835.196 8       225.543          51.000    23420747.695 8  94305651.572 8       172.870          51.000
E15  26969727.141 7 141726861.142 7     -2676.500          46.000    26969729.867 7 108595925.147 7     -2050.861          46.000
E25  24512733.594 8 128815322.089 8      1580.211          51.000    24512734.625 8  98702703.734 8      1210.808          51.000
> 2020 05 02 02 54 30.0000000  0 16        .000000000000
G02  23464599.969 7 123307314.047 7     -2276.023          46.000    23464598.641 7  96083609.490 7     -1773.525          43.000
G07  21058340.156 8 110662329.819 8     -1184.027          51.000    21058339.492 8  86230369.729 8      -922.619          51.000
G09  22738274.125 5 119490427.681 5     -2596.844          35.000    22738274.406 5  93109443.611 5     -2023.515          30.000
G30  20513436.328 8 107798843.387 8       946.250          51.000    20513437.477 8  83999117.304 8       737.338          51.000
R02  19575120.578 8 104456595.176 8      -960.941          51.000    19575123.578 8  81244012.528 8      -747.399          50.000
R12  19623377.719 8 104824603.068 8      -904.719          51.000    19623381.047 8  81530263.622 8      -703.670          48.000
R13  20567747.195 6 109830647.170 6      3326.664          36.000    20567751.148 6  85423816.502 6      2587.405          41.000
C05  39779843.750 5 207144084.825 5        -6.969          35.000    39779843.086 6 160176946.026 6        -5.229          41.000
C14  22905792.773 8 119276459.540 8     -2107.586          50.000    22905790.828 8  92232119.007 8     -1629.710          50.000
C24  22305287.672 8 116149454.016 8      -595.680          51.000
C25  23187881.172 8 120745430.183 8      2548.016          51.000
C26  24906578.234 6 129695080.566 6     -2904.805          37.000
E03  23419480.328 8 123070186.578 8       218.551          51.000    23419482.539 8  94300557.173 8       167.416          51.000
E05  25469754.875 5 133844464.079 5     -1858.672          34.000    25469760.242 6 102556168.443 6     -1424.147          40.000
E15  26985024.227 7 141807245.854 7     -2681.629          46.000    26985026.398 7 108657518.607 7     -2054.638          45.000
E25  24503753.008 8 128768131.601 8      1566.539          51.000    24503754.992 8  98666544.788 8      1200.293          51.000
> 2020 05 02 02 55  0.0000000  0 17        .000000000000
G02  23477598.086 8 123375617.427 8     -2284.004          48.000    23477597.711 7  96136832.924 7     -1779.740          44.000
G07  21065112.789 8 110697920.142 8     -1195.176          51.000    21065112.141 8  86258102.446 8      -931.306          51.000
G30  20508056.781 8 107770573.677 8       931.969          51.000    20508057.883 8  83977088.959 8       726.209          51.000
R02  19580543.570 8 104485533.117 8      -974.832          51.000    19580546.422 8  81266519.807 8      -758.203          50.000
R11  22810957.617 5 121894807.540 5     -3880.754          34.000    22810956.219 4  94807090.327 4     -3018.367          25.000
R12  19628507.961 8 104852007.729 8      -928.930          51.000    19628511.047 8  81551578.377 8      -722.501          48.000
R13  20549085.859 6 109730995.217 6      3310.508          39.000    20549089.852 6  85346309.458 6      2574.839          41.000
C05                                                                  39779857.734 6 160177004.950 6        -3.679          41.000
C14  22917938.203 8 119339702.711 8     -2115.090          50.000    22917935.852 8  92281022.609 8     -1635.504          50.000
C24  22308740.656 8 116167435.705 8      -609.465          51.000
C25  23173208.570 8 120669025.682 8      2539.141          51.000
C26  24923308.180 6 129782195.211 6     -2909.082          37.000
E03  23418227.617 8 123063603.648 8       213.844          51.000    23418229.891 8  94295513.105 8       163.887          51.000
E05  25480355.422 6 133900166.275 6     -1861.395          36.000    25480361.336 6 102598849.446 6     -1426.209          41.000
E15  27000321.641 7 141887633.169 7     -2683.922          44.000    27000323.164 7 108719114.069 7     -2056.568          45.000
E24  23897618.289 6 125582810.480 6     -1315.859          36.000
E25  24494822.406 8 128721203.367 8      1555.445          51.000    24494825.320 8  98630586.797 8      1191.871          51.000
> 2020 05 02 02 55 30.0000000  0 16        .000000000000
G02  23490681.391 8 123444368.397 8     -2296.977          49.000    23490681.445 7  96190405.084 7     -1789.852          43.000
G07  21071989.555 8 110734057.422 8     -1211.434          51.000    21071988.820 8  86286261.368 8      -943.974          51.000
G09  22767977.953 5 119646525.554 5     -2609.145          31.000    22767982.195 5  93231080.289 5     -2033.100          31.000
G30  20502798.266 8 107742940.633 8       912.617          51.000    20502799.148 8  83955556.702 8       711.130          51.000
R02  19586084.258 8 104515098.627 8      -993.793          51.000    19586086.938 8  81289515.191 8      -772.950          50.000
R11  22832785.844 6 122011444.366 6     -3893.523          37.000
R12  19633813.812 8 104880350.453 8      -958.246          51.000    19633816.797 7  81573622.728 7      -745.299          47.000
R13  20530556.273 6 109632043.063 6      3288.773          40.000    20530559.766 6  85269346.689 6      2557.935          41.000
C05  39779902.289 5 207144389.402 5        -8.172          35.000    39779901.594 6 160177181.577 6        -6.089          41.000
C14  22930166.469 8 119403378.169 8     -2127.637          50.000    22930164.398 8  92330260.449 8     -1645.052          51.000
C24  22312313.312 8 116186039.011 8      -628.277          51.000
C25  23158626.789 8 120593097.229 8      2525.094          51.000
C26  24940103.000 6 129869650.451 6     -2918.723          36.000
E03  23417041.219 8 123057368.879 8       204.238          51.000    23417043.500 8  94290735.809 8       156.569          51.000
E15  27015672.320 7 141968302.985 7     -2691.367          43.000    27015673.695 7 108780925.987 7     -2062.315          45.000
E25  24485995.992 8 128674820.515 8      1539.316          51.000    24485999.328 8  98595046.685 8      1179.485          51.000
> 2020 05 02 02 56  0.0000000  0 16        .000000000000
G02  23503826.664 8 123513446.508 8     -2307.344          48.000    23503826.148 7  96244232.138 7     -1797.930          42.000
G07  21078947.742 8 110770622.449 8     -1225.406          51.000    21078946.844 8  86314753.604 8      -954.862          51.000
G30  20497638.508 8 107715826.577 8       895.762          51.000    20497639.297 8  83934428.886 8       697.999          51.000
R02  19591720.297 8 104545173.179 8     -1010.316          51.000    19591723.172 8  81312906.482 8      -785.805          50.000
R11  22854676.703 6 122128417.435 6     -3904.102          39.000
R12  19639272.500 8 104909509.633 8      -984.941          51.000    19639275.414 7  81596302.117 7      -766.066          47.000
R13  20512135.812 6 109533673.977 6      3269.789          41.000    20512138.445 6  85192837.430 6      2543.169          40.000
C05  39779953.047 5 207144654.459 5        -8.379          35.000    39779952.328 6 160177385.796 6        -6.872          41.000
C14  22942455.164 8 119467368.747 8     -2137.730          50.000    22942453.031 8  92379742.021 8     -1652.959          50.000
C24  22315982.492 8 116205146.282 8      -644.699          51.000
C25  23144113.836 8 120517529.561 8      2513.609          50.000
C26  24956939.781 6 129957327.531 6     -2925.750          36.000
E03  23415898.828 8 123051365.032 8       196.938          51.000    23415900.984 8  94286135.459 8       150.915          51.000
E05  25501698.883 6 134012331.620 6     -1874.824          36.000    25501703.102 5 102684793.344 5     -1436.368          35.000
E15  27031053.508 7 142049135.363 7     -2696.445          43.000    27031055.555 7 108842862.475 7     -2066.155          45.000
E25  24477251.414 8 128628866.402 8      1525.285          51.000    24477254.547 8  98559835.095 8      1168.710          51.000
> 2020 05 02 02 56 30.0000000  0 17        .000000000000
G02  23517007.117 7 123582711.152 7     -2314.738          46.000    23517004.891 7  96298204.534 7     -1803.695          42.000
G07  21085960.898 8 110807476.359 8     -1236.230          51.000    21085959.828 8  86343470.933 8      -963.296          51.000
G09  22797828.461 5 119803396.894 5     -2618.395          31.000
G30  20492551.492 8 107689093.898 8       881.727          51.000    20492552.297 8  83913598.262 8       687.060          51.000
R02  19597425.578 8 104575617.153 8     -1024.031          51.000    19597428.422 8  81336585.114 8      -796.469          49.000
R11  22876602.703 6 122245582.652 6     -3912.066          39.000
R12  19644857.359 8 104939343.362 8     -1008.773          51.000    19644860.031 7  81619506.134 7      -784.602          46.000
R13  20493798.445 6 109435751.444 6      3253.605          41.000    20493800.289 6  85116675.511 6      2530.585          39.000
C05  39779984.414 5 207144817.730 5        -6.754          35.000    39779983.625 6 160177512.040 6        -5.204          41.000
C14  22954777.852 8 119531537.463 8     -2144.914          48.000    22954775.727 8  92429361.367 8     -1658.581          51.000
C24  22319722.352 8 116224620.040 8      -658.168          51.000
C25  23129644.742 8 120442187.624 8      2504.766          50.000
C26  24973792.180 5 130045088.007 5     -2928.953          34.000
E03  23414774.266 8 123045454.872 8       192.344          51.000    23414776.180 8  94281606.897 8       147.353          51.000
E05  25512398.914 6 134068543.097 6     -1877.500          36.000    25512397.344 5 102727864.592 5     -1438.442          31.000
E15  27046439.383 7 142129990.473 7     -2698.652          45.000    27046442.281 7 108904816.378 7     -2067.688          47.000
E25  24468562.281 8 128583204.316 8      1514.094          51.000    24468564.938 8  98524847.265 8      1160.147          51.000
> 2020 05 02 02 57  0.0000000  0 17        .000000000000
G02  23530245.578 7 123652282.921 7     -2324.363          44.000    23530241.922 7  96352416.273 7     -1811.192          42.000
G07  21093051.930 8 110844740.170 8     -1249.117          50.000    21093050.867 8  86372507.690 8      -973.338          50.000
G09  22812792.336 5 119882023.512 5     -2623.559          32.000    22812793.523 5  93414550.985 5     -2044.334          32.000
G30  20487560.453 8 107662865.675 8       865.633          51.000    20487561.117 8  83893160.713 8       674.519          51.000
R02  19603223.773 8 104606556.236 8     -1039.754          51.000    19603226.375 8  81360648.845 8      -808.697          50.000
R11  22898587.109 6 122363061.452 6     -3921.211          39.000
R12  19650591.547 8 104969974.746 8     -1034.480          51.000    19650594.625 7  81643330.568 7      -804.593          47.000
R13  20475568.656 6 109338403.912 6      3235.262          41.000    20475569.836 6  85040960.792 6      2516.315          40.000
C05  39780019.766 5 207145001.060 5        -6.453          35.000    39780019.008 6 160177654.575 6        -5.141          41.000
C14  22967157.719 7 119596005.785 7     -2154.102          47.000    22967156.492 8  92479212.356 8     -1665.685          51.000
C24  22323555.797 8 116244581.216 8      -673.688          51.000
C25  23115243.586 8 120367194.786 8      2493.723          51.000
C26  24990683.367 5 130133051.862 5     -2935.418          30.000
E03  23413691.016 8 123039761.873 8       185.969          51.000    23413692.641 8  94277244.724 8       142.540          51.000
E05  25523128.570 6 134124916.372 6     -1882.066          36.000
E15  27061852.906 7 142210989.170 7     -2702.543          46.000    27061856.680 8 108966880.291 8     -2070.762          48.000
E25  24459952.266 8 128537958.312 8      1501.012          51.000    24459954.844 8  98490178.260 8      1150.159          51.000
> 2020 05 02 02 57 30.0000000  0 17        .000000000000
G02  23543544.836 7 123722173.561 7     -2335.754          45.000    23543541.023 7  96406876.508 7     -1820.065          42.000
G07  21100223.438 8 110882426.759 8     -1264.012          51.000    21100222.492 8  86401873.870 8      -984.944          51.000
G09  22827792.719 5 119960864.358 5     -2631.297          34.000    22827794.336 5  93476001.242 5     -2050.361          32.000
G30  20482668.234 8 107637156.204 8       847.410          51.000    20482668.773 8  83873127.373 8       660.323          51.000
R02  19609117.281 8 104638005.336 8     -1057.691          51.000    19609120.336 8  81385109.220 8      -822.652          49.000
R11  22920632.164 6 122480864.339 6     -3932.875          39.000
R12  19656477.438 8 105001416.153 8     -1062.395          51.000    19656480.453 7  81667784.992 7      -826.307          46.000
R13  20457449.516 6 109241649.001 6      3214.438          39.000    20457450.625 6  84965706.956 6      2500.118          41.000
C05                                                                  39780061.156 6 160177824.230 6        -6.751          41.000
C14  22979598.070 7 119660787.178 7     -2165.344          47.000    22979597.398 8  92529305.453 8     -1674.487          51.000
C24  22327485.453 8 116265042.821 8      -691.172          51.000
C25  23100912.695 8 120292566.463 8      2480.676          51.000
C26  25007615.773 4 130221217.571 4     -2943.680          28.000
E03  23412651.891 8 123034300.772 8       177.336          51.000    23412653.258 8  94273060.253 8       135.842          51.000
E05  25533890.773 6 134181465.698 6     -1888.820          37.000
E15  27077296.188 8 142292143.496 8     -2708.637          48.000    27077300.719 8 109029063.464 8     -2075.464          49.000
E25  24451424.570 8 128493143.703 8      1485.820          51.000    24451426.984 8  98455839.815 8      1138.489          51.000
> 2020 05 02 02 58  0.0000000  0 16        .000000000000
G02  23556903.805 7 123792375.377 7     -2342.781          47.000    23556900.266 7  96461579.208 7     -1825.544          43.000
G07  21107474.281 8 110920530.113 8     -1274.566          50.000    21107473.383 8  86431564.797 8      -993.169          51.000
G09  22842825.953 5 120039872.002 5     -2634.688          32.000    22842825.836 5  93537547.347 5     -2053.003          30.000
G30  20477873.836 8 107611960.855 8       833.867          51.000    20477874.383 8  83853494.643 8       649.767          51.000
R02  19615105.898 8 104669960.403 8     -1071.062          51.000    19615108.555 8  81409963.153 8      -833.046          49.000
R11  22942736.484 6 122598982.689 6     -3939.883          39.000
R12  19662513.664 8 105033660.780 8     -1085.570          51.000    19662516.703 7  81692864.172 7      -844.332          47.000
R13  20439440.500 6 109145485.226 6      3198.238          37.000    20439442.156 7  84890912.901 7      2487.519          43.000
C05  39780109.852 5 207145470.392 5        -6.582          35.000    39780109.203 6 160178017.498 6        -4.803          41.000
C14  22992097.922 8 119725876.565 8     -2172.219          48.000    22992097.023 8  92579636.713 8     -1679.746          51.000
C24  22331510.219 8 116285999.242 8      -704.312          51.000
C25  23086651.102 8 120218299.466 8      2471.961          51.000
E03  23411656.031 8 123029067.362 8       173.074          51.000    23411657.227 8  94269050.241 8       132.606          51.000
E05  25544685.242 6 134238186.247 6     -1891.016          38.000
E15  27092767.742 7 142373446.618 7     -2710.141          47.000    27092772.828 8 109091360.646 8     -2076.568          49.000
E25  24442978.219 8 128448756.810 8      1474.953          51.000    24442980.539 8  98421829.104 8      1130.192          51.000
> 2020 05 02 02 58 30.0000000  0 15        .000000000000
G02  23570313.516 8 123862842.262 8     -2351.914          48.000    23570310.414 7  96516488.451 7     -1832.660          44.000
G07  21114795.734 8 110959005.104 8     -1287.320          50.000    21114794.773 8  86461545.312 8     -1003.107          50.000
G30  20473168.758 8 107587236.074 8       817.535          51.000    20473169.367 8  83834228.591 8       637.043          51.000
R02  19621180.742 8 104702376.939 8     -1086.988          51.000    19621183.094 8  81435176.008 8      -845.438          49.000
R11  22964891.336 6 122717368.240 6     -3949.004          38.000
R12  19668691.586 8 105066662.284 8     -1111.379          51.000    19668694.867 7  81718532.025 7      -864.406          47.000
R13  20421534.664 6 109049871.478 6      3179.203          38.000    20421537.008 7  84816546.640 7      2472.714          44.000
C05  39780155.344 5 207145707.691 5        -6.328          35.000    39780154.727 6 160178201.019 6        -4.896          41.000
C14  23004648.875 8 119791230.266 8     -2181.531          49.000    23004647.664 8  92630172.327 8     -1686.892          51.000
C24  22335621.391 8 116307406.250 8      -719.777          51.000
C25  23072450.562 8 120144352.020 8      2460.875          51.000
E03  23410695.289 8 123024018.561 8       166.641          51.000    23410696.383 8  94265181.681 8       127.680          51.000
E05  25555502.891 6 134295034.582 6     -1895.613          36.000    25555502.836 6 102901394.754 6     -1452.420          36.000
E15  27108258.711 7 142454852.747 7     -2713.820          46.000    27108264.227 8 109153736.795 8     -2079.454          49.000
E25  24434605.062 8 128404755.081 8      1461.609          51.000    24434607.148 8  98388113.532 8      1119.916          51.000
> 2020 05 02 02 59  0.0000000  0 15        .000000000000
G02  23583763.164 8 123933518.817 8     -2361.090          48.000    23583760.383 7  96571561.054 7     -1839.813          46.000
G07  21122177.688 8 110997797.802 8     -1300.090          50.000    21122176.617 8  86491773.376 8     -1013.057          50.000
G30  20468543.469 8 107562929.285 8       801.621          51.000    20468543.828 8  83815288.227 8       624.640          51.000
R02  19627332.109 8 104735202.813 8     -1102.719          51.000    19627334.664 8  81460707.224 8      -857.670          50.000
R11  22987085.477 5 122835963.676 5     -3957.859          35.000
R12  19675000.969 8 105100364.974 8     -1136.738          51.000    19675004.070 7  81744745.210 7      -884.130          47.000
R13  20403722.438 6 108954757.403 6      3160.449          38.000    20403725.547 7  84742569.006 7      2458.127          43.000
C05  39780188.609 5 207145880.248 5        -6.762          35.000    39780187.852 6 160178334.441 6        -5.020          41.000
C14  23017240.469 8 119856795.647 8     -2190.664          49.000    23017239.047 8  92680871.617 8     -1693.976          51.000
C24  22339808.555 8 116329210.616 8      -735.074          51.000
C25  23058301.281 8 120070673.371 8      2449.836          51.000
E03  23409759.812 8 123019102.273 8       159.965          51.000    23409760.828 8  94261414.657 8       122.558          51.000
E05  25566334.883 6 134351958.021 6     -1900.711          37.000    25566339.172 6 102945011.379 6     -1456.314          36.000
E15  27123758.672 7 142536307.239 7     -2717.586          46.000    27123764.562 8 109216150.004 8     -2082.387          49.000
E25  24426295.320 8 128361086.914 8      1448.238          51.000    24426296.891 8  98354653.525 8      1109.680          51.000
> 2020 05 02 02 59 30.0000000  0 15        .000000000000
G02  23597266.828 8 124004480.286 8     -2367.691          48.000    23597264.445 7  96626855.669 7     -1844.954          45.000
G07  21129634.547 8 111036984.021 8     -1310.500          50.000    21129633.500 8  86522308.106 8     -1021.166          50.000
G30  20464012.516 8 107539118.240 8       787.789          51.000    20464012.906 8  83796734.174 8       613.862          51.000
R02  19633574.961 8 104768517.330 8     -1116.285          51.000    19633577.695 8  81486618.508 8      -868.222          50.000
R11  23009333.227 5 122954844.242 5     -3964.703          32.000
R12  19681455.734 8 105134845.724 8     -1159.980          51.000    19681459.141 7  81771563.610 7      -902.207          47.000
R13  20386019.484 6 108860225.552 6      3143.805          39.000    20386023.070 7  84669044.233 7      2445.181          43.000
C05  39780224.094 5 207146065.169 5        -4.121          35.000    39780223.312 6 160178477.438 6        -3.229          41.000
C14  23029887.148 8 119922649.225 8     -2197.586          48.000    23029885.422 8  92731793.777 8     -1699.328          51.000
C24  22344086.664 8 116351488.411 8      -748.152          51.000
C25  23044218.008 8 119997341.986 8      2440.961          50.000
E03  23408864.406 8 123014396.753 8       155.570          51.000    23408865.352 8  94257809.137 8       119.158          51.000
E05                                                                  25577198.219 5 102988745.214 5     -1457.915          35.000
E15  27139282.359 7 142617885.709 7     -2719.113          46.000    27139288.273 8 109278658.200 8     -2083.396          48.000
E25  24418064.062 8 128317831.104 8      1437.340          51.000    24418065.164 8  98321509.480 8      1101.302          51.000
