     3.02           OBSERVATION DATA    M (MIXED)           RINEX VERSION / TYPE
SAVERINEX           SC600               20200517 185931 LCL PGM / RUN BY / DATE
       G = GPS       R = GLONASS       C = COMPASS          COMMENT
       S = SBAS      J = QZSS          E = GALILEO          COMMENT
BEAN                                                        MARKER NAME
1                                                           MARKER NUMBER
GEODETIC                                                    MARKER TYPE
Unige DICCA         GTER                                    OBSERVER / AGENCY
SC60291900056       SC600               2.12(191202)        REC # / TYPE / VERS
                    HEMA45          NONE                    ANT # / TYPE
  4509407.8091   693652.4678  4442337.6214                  APPROX POSITION XYZ
        0.0000        0.0000        0.0000                  ANTENNA: DELTA H/E/N
G    8 C1C L1C D1C S1C C2Y L2Y D2Y S2Y                      SYS / # / OBS TYPES
R    8 C1C L1C D1C S1C C2P L2P D2P S2P                      SYS / # / OBS TYPES
C    8 C1I L1I D1I S1I C7I L7I D7I S7I                      SYS / # / OBS TYPES
E    8 C1C L1C D1C S1C C7Q L7Q D7Q S7Q                      SYS / # / OBS TYPES
DBHZ                                                        COMMENT
     30.000                                                 INTERVAL
  2020    05    17    16    00    0.0000000     GPS         TIME OF FIRST OBS
  2020    05    17    16    59   30.0000000     GPS         TIME OF LAST OBS
     0                                                      RCV CLOCK OFFS APPL
G L1C  0.00000                                              SYS / PHASE SHIFT
G L2Y  0.00000                                              SYS / PHASE SHIFT
R L1C  0.00000                                              SYS / PHASE SHIFT
R L2P  0.25000                                              SYS / PHASE SHIFT
C L1I  0.00000                                              SYS / PHASE SHIFT
C L7I  0.00000                                              SYS / PHASE SHIFT
E L1C  0.50000                                              SYS / PHASE SHIFT
E L7Q -0.25000                                              SYS / PHASE SHIFT
 12 R03  5 R04  6 R05  1 R06 -4 R09 -2 R10 -5 R11  0 R16 -1 GLONASS SLOT / FRQ #
    R18 -3 R19  3 R20  2 R21  4                             GLONASS SLOT / FRQ #
 C1C   71.950 C2C   71.950 C2P   71.950                     GLONASS COD/PHS/BIS
    18                                                      LEAP SECONDS
*** Above antenna height is from mark to ANTENNA BOTTOM.    COMMENT
    17     4        0.0000        ANT MEASURE TYPE/HEIGT    COMMENT
    0.0000    0.0000    0.0458    0.0405    0.0000          COMMENT
                    BASE STATION                            COMMENT
                                                            END OF HEADER
> 2020 05 17 16 00  0.0000000  0 17        .000000000000
G10  20930896.125 8 109992576.146 8       228.250          51.000    20930898.953 8  85708546.784 8       177.857          51.000
G16  21866850.758 8 114911061.733 8     -2834.480          50.000    21866848.500 7  89541066.255 7     -2208.689          42.000
G20  21686067.414 5 113961041.552 5     -2064.039          35.000
G21  24137030.641 5 126840913.677 5     -2552.160          33.000
G26  24016802.023 5 126209153.534 5     -3681.070          32.000    24016810.172 5  98344804.978 5     -2868.366          32.000
G27  20284317.273 8 106594797.860 8       151.012          51.000    20284317.977 8  83060893.502 8       117.671          51.000
R04  22745776.500 4 121802569.509 4     -2941.672          28.000
R05  20563059.039 7 109921487.606 7       696.605          42.000    20563068.750 6  85494432.244 6       541.804          38.000
R06  22199680.273 6 118461728.516 6      4163.766          40.000
R10  23396019.500 5 124713948.160 5     -4229.910          30.000
R11  21350632.008 5 114091318.695 5     -1664.637          34.000
C05  39629720.086 5 206362351.478 5       -11.566          35.000
C20  25727150.508 6 133968029.275 6      3461.688          36.000
C30  21556792.195 8 112251876.580 8       235.926          51.000
E02  25035750.609 8 131563774.064 8     -2092.621          49.000    25035753.898 8 100808599.096 8     -1603.476          51.000
E09  24304286.438 6 127719881.515 6      2280.938          36.000
E36  23267798.461 8 122273110.963 8      -249.422          51.000    23267800.875 8  93689810.425 8      -191.118          51.000
> 2020 05 17 16 00 30.0000000  0 16        .000000000000
G10  20929654.789 8 109986053.829 8       203.449          51.000    20929657.820 8  85703464.457 8       158.532          51.000
G16  21883075.508 8 114996322.613 8     -2852.785          49.000    21883074.266 7  89607503.280 7     -2222.953          43.000
G21  24151608.016 5 126917524.722 5     -2557.922          34.000
G26  24037828.109 5 126319651.449 5     -3688.930          34.000    24037834.820 5  98430907.090 5     -2874.491          33.000
G27  20283502.125 8 106590513.743 8       131.402          51.000    20283502.789 8  83057555.231 8       102.391          51.000
R04  22762312.625 5 121891159.273 5     -2967.078          31.000
R05  20559236.562 5 109901042.532 5       663.578          34.000    20559245.086 5  85478530.565 5       516.122          35.000
R06  22176303.367 6 118336983.585 6      4149.629          38.000
R11  21360057.703 5 114141678.507 5     -1694.734          31.000    21360063.148 4  88776878.492 4     -1318.136          29.000
C05  39629794.867 5 206362740.269 5       -17.066          35.000
C20  25707216.453 6 133864232.666 6      3454.457          37.000
C27  23668151.297 5 123246248.985 5     -2173.828          34.000
C30  21555464.734 8 112244963.655 8       221.793          51.000
E02  25047735.430 8 131626754.035 8     -2108.992          50.000    25047739.672 8 100856856.455 8     -1615.966          51.000
E09  24291296.727 6 127651618.617 6      2266.910          36.000
E36  23269244.789 8 122280712.202 8      -260.266          51.000    23269247.461 8  93695634.749 8      -199.391          51.000
> 2020 05 17 16 01  0.0000000  0 15        .000000000000
G10  20928529.078 8 109980139.086 8       189.078          51.000    20928532.062 8  85698855.554 8       147.334          51.000
G16  21899379.336 8 115081999.046 8     -2860.793          50.000    21899378.852 7  89674264.129 7     -2229.189          45.000
G21  24166195.141 5 126994184.684 5     -2554.336          33.000
G26  24058873.852 5 126430249.393 5     -3686.582          33.000    24058878.438 5  98517087.178 5     -2872.670          32.000
G27  20282773.000 8 106586681.948 8       122.031          51.000    20282773.648 8  83054569.420 8        95.089          51.000
R04  22778970.258 5 121980343.409 5     -2981.141          34.000
R05  20555574.203 6 109881454.679 6       640.410          39.000    20555579.883 5  85463295.603 5       498.094          35.000
R06  22152979.055 5 118212528.774 5      4144.844          31.000
R11  21369625.969 5 114192789.050 5     -1714.133          34.000    21369622.133 4  88816631.215 4     -1333.205          26.000
C05  39629876.359 5 206363165.713 5       -12.992          35.000
C20  25687299.633 6 133760521.276 6      3457.824          37.000
C30  21554192.945 8 112238340.703 8       217.914          51.000
E02  25059788.508 8 131690090.863 8     -2115.230          50.000    25059793.070 8 100905387.251 8     -1620.776          51.000
E09  24278361.344 5 127583635.180 5      2263.715          35.000
E36  23270727.852 8 122288506.518 8      -261.078          51.000    23270730.914 8  93701607.017 8      -199.999          51.000
> 2020 05 17 16 01 30.0000000  0 15        .000000000000
G10  20927506.141 8 109974763.757 8       170.137          51.000    20927509.109 8  85694666.994 8       132.574          51.000
G16  21915748.938 8 115168020.287 8     -2873.180          50.000    21915748.578 7  89741293.647 7     -2238.841          45.000
G21  24180780.320 5 127070824.763 5     -2554.254          30.000
G26  24079925.414 5 126540876.742 5     -3687.734          35.000    24079928.773 5  98603290.239 5     -2873.562          35.000
G27  20282117.133 8 106583235.242 8       108.574          51.000    20282117.766 8  83051883.666 8        84.603          51.000
R04  22795725.516 6 122070055.781 6     -2999.109          36.000
R05  20552061.734 5 109862544.696 5       613.633          34.000    20552060.539 5  85448650.361 5       477.270          32.000
R06  22129694.359 5 118088299.781 5      4136.750          35.000
C05  39629951.781 5 206363557.773 5       -12.652          35.000
C20  25667387.148 6 133656829.998 6      3455.773          39.000
C27  23693220.578 6 123376755.282 6     -2179.824          37.000
C30  21552964.039 8 112231940.873 8       209.504          51.000
E02  25071896.508 8 131753714.786 8     -2125.633          50.000    25071900.484 8 100954138.030 8     -1628.726          51.000
E09  24265466.688 5 127515887.201 5      2255.250          33.000
E36  23272234.695 8 122296425.654 8      -266.133          51.000    23272238.133 8  93707674.916 8      -203.923          51.000
> 2020 05 17 16 02  0.0000000  0 15        .000000000000
G10  20926592.344 8 109969961.650 8       150.551          51.000    20926595.133 8  85690925.097 8       117.312          51.000
G16  21932190.250 8 115254417.853 8     -2886.254          51.000    21932189.523 7  89808616.400 7     -2249.029          46.000
G21  24195368.398 5 127147513.071 5     -2556.199          31.000
G26  24100988.414 5 126651565.055 5     -3691.195          34.000    24100992.555 5  98689540.749 5     -2876.265          35.000
G27  20281541.148 8 106580208.362 8        93.875          51.000    20281541.805 8  83049525.046 8        73.146          51.000
R04  22812584.328 6 122160327.093 6     -3018.191          37.000    22812577.516 4  95013586.578 4     -2347.482          27.000
R05  20548702.859 6 109844570.645 6       585.590          36.000    20548697.719 5  85434670.428 5       455.453          30.000
R06  22106462.555 6 117964335.029 6      4127.680          40.000
C05  39630027.625 5 206363951.649 5       -13.078          35.000
C20  25647485.312 6 133553194.537 6      3453.637          37.000
C27  23705797.906 5 123442243.899 5     -2184.812          30.000
C30  21551784.617 8 112225798.295 8       200.418          51.000
E02  25084064.508 8 131817658.158 8     -2136.898          48.000    25084067.555 8 101003133.563 8     -1637.322          51.000
E09  24252620.125 5 127448373.289 5      2246.492          33.000    24252612.203 5  97655218.445 5      1721.389          32.000
E36  23273771.719 8 122304503.347 8      -272.035          51.000    23273775.445 8  93713864.307 8      -208.413          51.000
> 2020 05 17 16 02 30.0000000  0 14        .000000000000
G10  20925782.367 8 109965704.656 8       131.430          51.000    20925784.742 8  85687607.956 8       102.413          51.000
G16  21948697.289 8 115341161.510 8     -2898.613          50.000    21948696.227 7  89876208.822 7     -2258.660          46.000
G21  24209951.992 5 127224172.654 5     -2555.762          32.000
G26  24122057.367 6 126762283.769 6     -3692.559          36.000    24122061.859 5  98775814.924 5     -2877.318          35.000
G27  20281039.852 8 106577574.124 8        79.770          51.000    20281040.602 8  83047472.397 8        62.158          51.000
R04  22829540.820 5 122251125.395 5     -3036.457          31.000    22829533.047 4  95084207.418 4     -2361.689          27.000
R05  20545484.805 6 109827393.562 6       557.809          39.000    20545488.641 5  85421310.680 5       433.854          30.000
R06  22083277.109 7 117840610.051 7      4118.957          42.000
C05  39630098.367 5 206364321.133 5       -13.238          35.000
C20  25627588.430 5 133449589.481 5      3451.754          34.000
C27  23718394.391 5 123507886.901 5     -2190.789          32.000
C30  21550649.430 8 112219885.842 8       191.820          51.000
E02  25096286.461 7 131881891.265 7     -2147.180          45.000    25096289.375 8 101052351.146 8     -1645.316          50.000
E36  23275333.648 8 122312711.445 8      -277.188          51.000    23275337.445 8  93720153.620 8      -212.343          51.000
> 2020 05 17 16 03  0.0000000  0 14        .000000000000
G10  20925092.711 8 109962079.862 8       112.414          51.000    20925094.711 8  85684783.465 8        87.595          51.000
G16  21965285.750 8 115428335.410 8     -2910.703          48.000    21965284.828 7  89944136.508 7     -2268.080          45.000
G21  24224547.891 5 127300882.906 5     -2556.375          30.000
G26  24143148.672 6 126873117.622 6     -3694.113          37.000    24143151.320 6  98862178.869 6     -2878.530          37.000
G27  20280630.016 8 106575420.625 8        65.926          51.000    20280630.734 8  83045794.340 8        51.371          51.000
R05  20542436.602 6 109811103.580 6       530.145          36.000    20542439.117 5  85408633.546 5       412.335          30.000
R06  22060154.477 7 117717218.591 7      4109.527          44.000
R11  21409191.258 5 114404199.292 5     -1809.598          32.000
C05  39630180.773 5 206364750.259 5       -13.047          35.000
C20  25607713.758 5 133346103.480 5      3449.703          31.000
C27  23731032.148 4 123573716.424 4     -2196.277          28.000
C30  21549575.102 8 112214290.565 8       183.305          51.000
E02  25108579.383 7 131946499.840 7     -2157.770          45.000    25108583.320 8 101101856.438 8     -1653.341          51.000
E36  23276936.945 8 122321137.037 8      -282.367          51.000    23276940.781 8  93726609.589 8      -216.365          51.000
> 2020 05 17 16 03 30.0000000  0 13        .000000000000
G10  20924509.758 8 109959015.824 8        92.074          51.000    20924511.516 8  85682395.922 8        71.746          51.000
G16  21981941.758 7 115515866.308 7     -2924.438          47.000    21981941.352 7  90012342.391 7     -2278.782          44.000
G26  24164247.961 5 126983992.866 5     -3697.133          34.000    24164248.969 5  98948575.101 5     -2880.883          34.000
G27  20280298.273 8 106573677.333 8        50.535          51.000    20280298.828 8  83044435.943 8        39.378          51.000
R04  22863772.805 5 122434494.096 5     -3074.273          32.000    22863774.320 4  95226803.503 4     -2391.108          27.000
R05  20539541.273 6 109795629.156 6       501.613          40.000    20539544.531 4  85396597.887 4       390.135          28.000
R06  22037081.641 7 117594092.778 7      4099.109          43.000
C05  39630261.164 5 206365168.396 5       -14.312          35.000
C20  25587850.617 4 133242649.072 4      3446.281          29.000
C30  21548547.961 8 112208942.361 8       173.441          51.000
E02  25120931.742 8 132011410.920 8     -2169.301          49.000    25120935.734 8 101151593.501 8     -1662.251          51.000
E09  24214363.172 5 127247336.144 5      2220.027          32.000    24214360.562 5  97501195.983 5      1701.078          33.000
E36  23278567.945 8 122329708.673 8      -288.781          51.000    23278571.898 8  93733177.464 8      -221.283          51.000
> 2020 05 17 16 04  0.0000000  0 13        .000000000000
G10  20924035.164 8 109956521.312 8        75.336          51.000    20924036.547 8  85680452.180 8        58.703          51.000
G16  21998666.898 7 115603760.682 7     -2934.105          46.000    21998666.984 7  90080831.507 7     -2286.319          44.000
G26  24185356.211 5 127094916.076 5     -3696.453          35.000    24185358.016 6  99035008.593 6     -2880.359          36.000
G27  20280046.336 8 106572354.137 8        38.648          51.000    20280046.828 8  83043404.883 8        30.116          51.000
R04  22881042.273 5 122526981.216 5     -3089.828          31.000    22881047.070 4  95298737.885 4     -2403.203          28.000
R05  20536800.906 6 109780980.039 6       476.438          37.000    20536803.227 5  85385195.064 5       370.569          35.000
R06  22014061.000 7 117471245.887 7      4091.891          43.000
C05  39630341.328 5 206365586.503 5       -12.012          35.000
C20  25568001.570 4 133139292.141 4      3446.152          29.000
C30  21547570.016 8 112203850.729 8       167.082          51.000
E02  25133343.867 8 132076631.951 8     -2177.461          51.000    25133347.508 8 101201568.026 8     -1668.462          51.000
E09  24201710.070 5 127180847.557 5      2213.227          35.000    24201703.727 5  97450237.148 5      1696.295          31.000
E36  23280228.438 8 122338435.175 8      -291.816          51.000    23280232.375 8  93739863.998 8      -223.561          51.000
> 2020 05 17 16 04 30.0000000  0 15        .000000000000
G10  20923640.195 8 109954445.298 8        56.203          51.000    20923641.125 8  85678834.525 8        43.798          51.000
G16  22015432.742 8 115691865.319 8     -2946.312          48.000    22015432.508 7  90149484.445 7     -2295.828          43.000
G20  21795519.383 6 114536203.608 6     -2193.238          39.000
G26  24206444.883 5 127205733.825 5     -3698.020          33.000    24206445.758 5  99121359.998 5     -2881.577          33.000
G27  20279845.695 8 106571300.969 8        24.574          51.000    20279846.359 8  83042584.229 8        19.149          51.000
R04  22898389.969 5 122619852.293 5     -3108.711          30.000    22898390.766 4  95370970.923 4     -2417.886          29.000
R05  20534186.211 6 109767004.137 6       448.988          36.000    20534192.344 5  85374324.939 5       349.216          34.000
R06  21991063.703 6 117348528.895 6      4082.223          40.000
C05  39630392.789 5 206365854.191 5       -11.668          35.000
C27  23769113.750 4 123772025.160 4     -2210.922          29.000
C30  21546612.836 8 112198866.781 8       158.414          51.000
E02  25145786.062 8 132142010.335 8     -2187.805          51.000    25145789.305 8 101251663.123 8     -1676.400          51.000
E09  24189075.336 5 127114447.901 5      2204.973          31.000    24189065.922 5  97399343.750 5      1689.788          30.000
E11  25175697.789 5 132299184.553 5     -2038.965          33.000
E36  23281889.797 8 122347165.544 8      -297.047          51.000    23281893.477 8  93746553.510 8      -227.616          51.000
> 2020 05 17 16 05  0.0000000  0 14        .000000000000
G10  20923386.047 8 109953109.480 8        35.902          51.000    20923387.109 8  85677793.660 8        27.976          51.000
G16  22032299.875 8 115780499.503 8     -2959.645          50.000    22032298.922 7  90218549.983 7     -2306.220          43.000
G20  21808090.359 6 114602269.617 6     -2207.973          36.000
G26  24227573.680 5 127316765.670 5     -3700.852          33.000    24227573.656 5  99207878.245 5     -2883.774          32.000
G27  20279757.742 8 106570840.566 8         9.094          51.000    20279758.805 8  83042225.457 8         7.086          51.000
R05  20531760.203 6 109754029.510 6       419.527          36.000    20531763.781 6  85364233.392 6       326.296          36.000
R06  21968152.023 6 117226273.616 6      4071.195          41.000
R11  21450833.469 5 114626764.851 5     -1901.395          35.000    21450835.852 4  89154135.325 4     -1478.865          29.000
C05  39630476.562 5 206366290.526 5       -13.625          34.000
C27  23781882.133 5 123838493.409 5     -2216.902          31.000
C30  21545737.922 8 112194310.119 8       148.453          51.000
E02  25158318.664 8 132207866.406 8     -2199.473          50.000    25158321.461 8 101302124.245 8     -1685.316          51.000
E09                                                                  24176527.500 5  97348829.824 5      1682.329          32.000
E36  23283613.320 8 122356221.615 8      -303.656          51.000    23283616.539 8  93753492.579 8      -232.696          51.000
> 2020 05 17 16 05 30.0000000  0 14        .000000000000
G10  20923274.008 8 109952520.957 8        10.375          51.000    20923275.086 8  85677335.088 8         8.084          51.000
G16  22049268.602 8 115869667.886 8     -2977.895          50.000    22049267.281 7  90288031.794 7     -2320.437          44.000
G26  24248743.797 5 127428016.473 5     -3708.945          34.000    24248742.750 5  99294567.058 5     -2890.096          34.000
G27  20279784.305 8 106570981.067 8       -11.500          51.000    20279785.617 8  83042334.930 8        -8.964          51.000
R05  20529521.758 6 109742064.175 6       385.348          36.000    20529525.969 6  85354927.051 6       299.709          38.000
R06  21945329.898 7 117104491.405 7      4054.734          42.000
R11  21461612.406 5 114684365.175 5     -1930.867          33.000    21461619.070 4  89198961.666 4     -1501.792          27.000
C05  39630594.094 5 206366901.789 5       -19.992          35.000
C20  25508542.555 5 132829692.195 5      3431.465          32.000
C27  23794714.023 5 123905302.876 5     -2229.914          30.000
C30  21544946.758 8 112190188.629 8       133.273          51.000
E02  25170942.711 8 132274205.804 8     -2216.133          49.000    25170945.078 8 101352955.717 8     -1698.121          51.000
E09  24164053.523 5 126982953.296 5      2179.754          33.000    24164064.836 4  97298674.811 4      1669.986          28.000
E36  23285400.172 8 122365610.580 8      -315.309          51.000    23285403.000 8  93760686.719 8      -241.597          51.000
> 2020 05 17 16 06  0.0000000  0 12        .000000000000
G10  20923233.844 8 109952310.484 8        -2.805          51.000    20923235.000 8  85677171.111 8        -2.185          51.000
G16  22066267.805 8 115958999.163 8     -2983.980          48.000    22066267.016 7  90357640.561 7     -2325.180          45.000
G26  24269885.203 5 127539114.830 5     -3704.309          31.000    24269884.586 4  99381137.146 4     -2886.474          29.000
G27  20279855.227 8 106571354.274 8       -19.809          51.000    20279856.633 8  83042625.739 8       -15.435          51.000
R06  21922527.898 7 116982812.492 7      4050.695          44.000
R11  21472478.273 5 114742455.681 5     -1948.324          32.000    21472497.039 4  89244161.170 4     -1515.366          27.000
C05  39630675.117 5 206367324.404 5       -14.805          34.000
C20  25488736.664 6 132726596.935 6      3434.738          36.000
C27  23807530.961 4 123972063.547 4     -2229.090          29.000
C30  21544169.000 8 112186137.287 8       130.352          51.000
E02  25183588.125 8 132340657.999 8     -2220.496          51.000    25183590.148 8 101403873.581 8     -1701.413          51.000
E36  23287180.062 8 122374963.365 8      -314.641          51.000    23287182.633 8  93767853.131 8      -241.076          51.000
> 2020 05 17 16 06 30.0000000  0 15        .000000000000
G10  20923309.336 8 109952707.231 8       -24.059          51.000    20923310.539 8  85677480.283 8       -18.747          51.000
G16  22083340.727 7 116048720.387 7     -2998.035          46.000    22083341.172 7  90427553.212 7     -2336.128          46.000
G20  21846282.352 6 114803016.059 6     -2252.387          36.000
G26  24291040.781 5 127650287.779 5     -3707.668          31.000    24291040.562 5  99467765.228 5     -2889.098          30.000
G27  20280014.250 8 106572190.446 8       -36.441          51.000    20280015.789 8  83043277.275 8       -28.396          51.000
R05  20525461.164 5 109720352.138 5       333.672          35.000    20525450.609 6  85338016.248 6       259.510          41.000
R06  21899789.586 7 116861473.571 7      4038.082          44.000
R21  20211998.805 5 108158448.522 5      1500.992          32.000
C05  39630763.508 5 206367784.832 5       -16.855          34.000
C20  25468956.195 6 132623613.433 6      3430.363          37.000
C27  23820395.820 6 124039034.528 6     -2236.590          36.000
C30  21543448.320 8 112182384.033 8       119.398          51.000
E02  25196298.711 8 132407450.698 8     -2232.773          51.000    25196300.258 8 101455052.353 8     -1710.883          51.000
E09  24139202.219 5 126852376.377 5      2165.754          34.000    24139213.914 5  97198600.766 5      1659.698          32.000
E36  23288996.719 8 122384509.240 8      -322.113          51.000    23288999.078 8  93775167.507 8      -246.847          51.000
> 2020 05 17 16 07  0.0000000  0 14        .000000000000
G10  20923483.938 8 109953625.172 8       -38.605          51.000    20923485.031 8  85678195.583 8       -30.082          51.000
G16  22100470.969 7 116138743.122 7     -3005.094          47.000    22100472.547 7  90497700.815 7     -2341.631          47.000
G20  21859163.562 5 114870704.708 5     -2261.531          35.000
G26  24312194.000 5 127761447.098 5     -3704.426          34.000    24312193.258 3  99554382.817 3     -2886.559          21.000
G27  20280245.203 8 106573404.616 8       -46.145          51.000    20280246.766 8  83044223.369 8       -35.957          51.000
R05  20523634.281 5 109710673.822 5       309.652          33.000    20523637.680 6  85330488.628 6       240.850          41.000
R06  21877099.688 7 116740392.845 7      4032.223          44.000
R11  21494609.188 5 114860635.995 5     -1991.117          35.000
C20  25449183.469 6 132520659.045 6      3431.828          39.000
C27  23833280.406 6 124106114.724 6     -2237.520          37.000
C30  21542768.602 8 112178844.557 8       114.980          51.000
E02  25209057.508 8 132474496.570 8     -2238.473          51.000    25209058.961 8 101506425.115 8     -1715.121          51.000
E09  24126846.711 5 126787451.723 5      2161.438          33.000    24126858.984 6  97148853.364 6      1655.852          38.000
E36  23290833.711 8 122394162.419 8      -322.938          51.000    23290836.000 8  93782564.099 8      -247.422          51.000
> 2020 05 17 16 07 30.0000000  0 13        .000000000000
G10  20923742.633 8 109954984.827 8       -57.488          51.000    20923743.672 8  85679255.063 8       -44.796          51.000
G16  22117643.648 8 116228985.609 8     -3016.688          50.000    22117645.367 7  90568019.654 7     -2350.666          47.000
G26  24333334.359 5 127872539.130 5     -3705.484          32.000
G27  20280533.211 8 106574918.410 8       -60.262          51.000    20280534.711 8  83045402.923 8       -46.957          51.000
R05  20521950.102 6 109701698.192 6       282.477          36.000    20521960.172 7  85323507.517 7       219.707          42.000
R06  21854443.461 7 116619494.340 7      4021.902          44.000
R11  21505843.062 6 114920621.585 6     -2013.238          36.000
C20  25429402.398 6 132417657.554 6      3429.523          39.000
C27  23846167.430 6 124173225.683 6     -2242.281          36.000
C30  21542114.914 8 112175440.991 8       106.367          51.000
E02  25221848.227 8 132541714.711 8     -2248.355          50.000    25221850.406 8 101557929.913 8     -1722.769          51.000
E09  24114517.359 6 126722668.415 6      2152.613          37.000    24114529.273 6  97099214.238 6      1649.067          38.000
E36  23292675.953 8 122403843.606 8      -328.105          51.000    23292678.266 8  93789982.158 8      -251.388          51.000
> 2020 05 17 16 08  0.0000000  0 12        .000000000000
G10  20924141.992 8 109957084.319 8      -100.961          51.000    20924143.570 8  85680891.067 8       -78.671          51.000
G16  22134914.953 8 116319743.961 8     -3052.574          51.000    22134916.094 7  90638740.436 7     -2378.629          46.000
G27  20280935.266 8 106577031.080 8       -99.008          51.000    20280936.859 8  83047049.150 8       -77.149          51.000
R05  20520457.633 6 109693729.553 6       229.875          40.000    20520468.547 7  85317309.654 7       178.786          42.000
R06  21831879.188 7 116499085.120 7      3986.441          45.000
C05  39630986.453 5 206368945.792 5       -36.355          35.000
C20  25409670.445 6 132314907.155 6      3402.172          38.000
C27  23859117.703 6 124240663.004 6     -2271.766          36.000
C30  21541544.188 8 112172469.764 8        73.281          51.000
E02  25234727.867 8 132609401.996 8     -2282.734          50.000    25234730.758 8 101609794.186 8     -1749.114          51.000
E09  24102272.469 5 126658326.918 5      2118.824          35.000    24102283.203 6  97049913.575 6      1623.449          38.000
E36  23294580.133 8 122413851.225 8      -357.723          51.000    23294582.680 8  93797650.333 8      -274.081          51.000
> 2020 05 17 16 08 30.0000000  0 14        .000000000000
G10  20924671.133 8 109959865.542 8       -81.012          51.000    20924672.828 8  85683058.257 8       -63.126          51.000
G16  22152273.023 8 116410957.978 8     -3024.980          51.000    22152273.266 7  90709816.261 7     -2357.128          46.000
G20  21898283.555 5 115076250.291 5     -2287.551          34.000
G27  20281440.508 8 106579685.620 8       -74.473          51.000    20281442.172 8  83049117.594 8       -58.034          51.000
R05  20519144.125 6 109686709.461 6       241.730          38.000    20519156.133 6  85311849.658 6       188.010          40.000
R06  21809397.008 7 116379111.193 7      4015.039          46.000
R11  21528750.984 5 115043116.845 5     -2043.648          35.000
C05  39631096.195 5 206369517.521 5         1.969          35.000
C20  25389976.062 6 132212352.748 6      3437.816          37.000
C27  23872119.648 5 124308369.279 5     -2237.781          30.000
C30  21541045.648 8 112169874.173 8       103.125          51.000
E02  25247686.086 8 132677498.926 8     -2253.602          51.000    25247688.805 8 101661972.339 8     -1726.834          50.000
E09  24090101.773 5 126594339.299 5      2148.621          34.000    24090112.164 6  97000908.618 6      1646.238          40.000
E36  23296535.430 8 122424127.334 8      -323.891          51.000    23296538.227 8  93805524.240 8      -248.224          51.000
> 2020 05 17 16 09  0.0000000  0 15        .000000000000
G10  20925226.555 8 109962784.988 8      -112.941          51.000    20925228.195 8  85685333.157 8       -88.006          51.000
G16  22169613.789 8 116502082.002 8     -3049.371          51.000    22169613.273 7  90780821.936 7     -2376.133          45.000
G21  24399801.141 5 128221815.119 5     -2556.828          31.000
G26  24396840.141 5 128206267.052 5     -3707.117          31.000
G27  20281945.750 8 106582339.646 8      -101.879          51.000    20281947.133 8  83051185.657 8       -79.386          51.000
R04  23059154.570 5 123480687.768 5     -3262.164          35.000    23059160.727 4  96040583.393 4     -2537.239          27.000
R05  20517904.141 5 109680086.455 5       200.789          35.000    20517917.484 6  85306698.234 6       156.163          39.000
R06  21786893.289 7 116259025.430 7      3991.152          45.000
R11  21540330.617 5 115104961.606 5     -2078.527          35.000
C05  39631124.453 5 206369663.426 5       -10.977          35.000
C20  25370216.711 6 132109458.552 6      3422.121          36.000
C30  21540516.039 8 112167116.698 8        81.336          51.000
E02  25260619.211 8 132745460.783 8     -2276.379          51.000    25260621.281 8 101714046.972 8     -1744.244          51.000
E09  24077901.695 6 126530228.211 6      2126.422          36.000    24077911.641 6  96951784.629 6      1629.411          39.000
E36  23298438.523 8 122434128.791 8      -342.090          51.000    23298441.508 8  93813187.692 8      -262.106          51.000
> 2020 05 17 16 09 30.0000000  0 13        .000000000000
G10  20925958.695 8 109966632.880 8      -135.465          51.000    20925960.875 8  85688331.518 8      -105.557          51.000
G16  22187087.188 8 116593904.178 8     -3064.105          51.000    22187086.219 7  90852371.630 7     -2387.618          45.000
G21  24414433.000 4 128298707.516 4     -2560.844          29.000
G27  20282601.469 8 106585784.530 8      -119.812          51.000    20282602.578 8  83053869.978 8       -93.360          51.000
R04  23077507.914 5 123578978.602 5     -3282.531          33.000    23077516.414 4  96117031.869 4     -2553.080          27.000
R05  20516905.422 6 109674580.522 6       169.227          39.000    20516901.930 6  85302468.274 6       131.612          36.000
R06  21764518.812 6 116139634.878 6      3976.375          41.000
C05  39631221.500 5 206370168.906 5       -14.191          35.000
C20  25350542.992 5 132007010.160 5      3415.586          34.000
C30  21540105.883 8 112164981.342 8        68.969          51.000
E02  25273676.945 8 132814076.433 8     -2289.867          51.000    25273678.664 8 101766622.568 8     -1754.568          50.000
E09  24065823.836 6 126466754.387 6      2113.488          40.000    24065832.031 6  96903148.837 6      1619.369          37.000
E36  23300439.852 8 122444646.085 8      -350.949          51.000    23300442.930 8  93821246.398 8      -268.936          51.000
> 2020 05 17 16 10  0.0000000  0 13        .000000000000
G10  20926781.328 8 109970955.609 8      -152.953          51.000    20926783.578 8  85691699.884 8      -119.184          51.000
G16  22204606.453 8 116685968.556 8     -3073.988          50.000    22204605.195 7  90924110.052 7     -2395.316          45.000
G21  24429048.945 5 128375509.980 5     -2559.422          32.000
G27  20283321.602 8 106589567.888 8      -132.844          51.000    20283322.594 8  83056818.049 8      -103.515          51.000
R04  23095936.352 5 123677672.975 5     -3297.301          30.000    23095947.961 4  96193803.182 4     -2564.570          25.000
R05  20516031.805 5 109669899.941 5       142.723          33.000    20516028.016 5  85298827.580 5       110.994          35.000
R06  21742187.625 5 116020484.410 5      3966.598          35.000
C05  39631301.312 5 206370585.215 5       -13.805          35.000
C20  25330868.656 5 131904561.052 5      3413.824          33.000
C30  21539729.141 8 112163019.714 8        61.473          51.000
E02  25286772.367 8 132882891.035 8     -2298.289          51.000    25286774.125 8 101819350.621 8     -1760.994          51.000
E09  24053781.727 6 126403466.445 6      2105.383          39.000    24053786.812 6  96854655.516 6      1613.281          37.000
E36  23302453.156 8 122455225.995 8      -354.824          51.000    23302456.258 8  93829353.082 8      -271.890          51.000
> 2020 05 17 16 10 30.0000000  0 13        .000000000000
G10  20927712.945 8 109975851.395 8      -173.012          51.000    20927715.039 8  85695514.781 8      -134.814          51.000
G16  22222189.711 8 116778371.255 8     -3085.969          48.000    22222188.461 7  90996112.109 7     -2404.651          44.000
G21  24443665.742 5 128452321.161 5     -2560.477          32.000
G27  20284124.969 8 106593789.026 8      -148.305          51.000    20284125.984 8  83060107.242 8      -115.562          51.000
R05  20515310.992 6 109666062.529 6       113.613          40.000    20515310.539 5  85295837.447 5        88.360          35.000
R06  21719920.914 6 115901678.012 6      3953.824          37.000
R11  21575954.984 5 115295374.935 5     -2148.090          34.000    21575956.195 4  89674183.975 4     -1670.737          27.000
C05  39631382.602 5 206371008.016 5       -14.797          34.000
C27  23924268.977 5 124580076.050 5     -2276.047          33.000
C30  21539404.734 8 112161330.146 8        51.555          51.000
E02  25299923.656 8 132952001.513 8     -2308.828          51.000    25299925.586 8 101872305.388 8     -1769.051          50.000
E09  24041793.453 6 126340464.844 6      2094.848          39.000    24041796.344 6  96806381.648 6      1605.329          39.000
E36  23304497.078 8 122465967.062 8      -361.043          51.000    23304500.156 8  93837583.243 8      -276.631          51.000
> 2020 05 17 16 11  0.0000000  0 12        .000000000000
G10  20928800.148 8 109981564.463 8      -194.961          51.000    20928802.422 8  85699966.536 8      -151.918          51.000
G16  22239883.078 7 116871354.304 7     -3099.859          47.000    22239882.227 7  91068566.417 7     -2415.475          45.000
G27  20285058.312 8 106598693.399 8      -165.691          51.000    20285059.359 8  83063928.829 8      -129.110          51.000
R05  20514797.914 5 109663314.171 5        83.566          31.000    20514794.188 6  85293699.706 6        64.999          36.000
R06  21697768.461 6 115783469.088 6      3939.520          40.000
R11  21588119.898 6 115360384.169 6     -2172.770          38.000
C05  39631511.805 5 206371680.894 5       -17.703          35.000
C27  23937433.391 5 124648658.945 5     -2283.688          35.000
C30  21539179.281 8 112160155.738 8        39.605          51.000
E02  25313177.234 8 133021650.878 8     -2321.285          51.000    25313179.258 8 101925673.070 8     -1778.647          50.000
E09  24029906.539 6 126277996.243 6      2082.660          40.000    24029907.531 6  96758516.138 6      1595.894          40.000
E36  23306618.227 8 122477113.898 8      -368.977          51.000    23306621.242 8  93846124.317 8      -282.758          51.000
> 2020 05 17 16 11 30.0000000  0 12        .000000000000
G10  20929939.656 8 109987552.786 8      -207.750          51.000    20929942.039 8  85704632.776 8      -161.883          51.000
G16  22257583.406 7 116964373.900 7     -3104.809          47.000    22257583.016 7  91141049.193 7     -2419.331          45.000
G27  20286018.695 8 106603740.152 8      -174.078          51.000    20286019.586 8  83067861.374 8      -135.645          51.000
R05  20514377.969 6 109661106.181 6        61.035          40.000    20514380.680 6  85291982.406 6        47.466          37.000
R06  21675626.438 7 115665311.663 7      3934.141          42.000
R11  21600356.109 5 115425746.838 5     -2188.730          30.000    21600377.430 3  89775605.917 3     -1702.349          23.000
C05  39631586.047 5 206372067.297 5       -11.672          35.000
C27  23950577.320 5 124717109.826 5     -2283.621          34.000
C30  21538949.797 8 112158960.470 8        36.727          51.000
E02  25326429.625 8 133091295.886 8     -2324.895          51.000    25326432.070 8 101979037.397 8     -1781.380          50.000
E09  24018017.734 6 126215520.977 6      2079.195          39.000    24018017.852 6  96710645.481 6      1593.099          39.000
E36  23308713.508 8 122488124.917 8      -368.289          51.000    23308716.562 8  93854561.313 8      -282.213          51.000
> 2020 05 17 16 12  0.0000000  0 12        .000000000000
G10  20931185.695 8 109994100.827 8      -218.055          51.000    20931187.969 8  85709735.147 8      -169.913          51.000
G16  22275344.898 7 117057712.223 7     -3107.184          47.000    22275344.562 7  91213780.344 7     -2421.182          43.000
G27  20287060.492 8 106609215.003 8      -180.223          51.000    20287061.195 8  83072127.498 8      -140.433          51.000
R05  20514118.594 5 109659722.429 5        41.410          35.000    20514120.492 6  85290901.904 6        32.211          37.000
R06  21653549.312 7 115547499.839 7      3930.727          44.000
R11  21612718.148 6 115491821.923 6     -2201.129          36.000
C05  39631659.453 5 206372449.685 5        -3.180          35.000    39631662.242 5 159580280.031 5        -2.453          35.000
C27  23963752.570 4 124785711.023 4     -2279.109          28.000
C30  21538770.680 8 112158027.315 8        36.129          51.000
E02  25339735.008 8 133161219.742 8     -2325.875          50.000    25339737.914 8 102032615.385 8     -1782.194          50.000
E09  24006181.484 6 126153325.748 6      2078.047          37.000    24006182.539 6  96662989.451 6      1592.371          40.000
E36  23310837.141 8 122499284.954 8      -364.973          51.000    23310840.453 8  93863112.505 8      -279.636          51.000
> 2020 05 17 16 12 30.0000000  0 15        .000000000000
G10  20932533.336 8 110001182.522 8      -247.824          51.000    20932535.594 8  85715253.362 8      -193.110          51.000
G16  22293162.062 8 117151341.426 8     -3128.805          48.000    22293161.797 7  91286738.129 7     -2438.030          44.000
G20  22005866.328 5 115641607.840 5     -2408.367          30.000
G21  24502150.438 4 128759672.782 4     -2561.344          29.000
G27  20288178.992 8 106615093.007 8      -205.512          51.000    20288179.812 8  83076707.776 8      -160.139          51.000
R04  23189485.117 5 124178564.679 5     -3378.629          32.000
R06  21631533.227 7 115430012.101 7      3907.910          46.000
R11  21625170.250 6 115558435.323 6     -2233.512          38.000    21625180.320 4  89878734.303 4     -1737.170          28.000
C05  39631727.266 5 206372802.950 5       -14.234          35.000    39631729.844 5 159580552.203 5       -10.919          35.000
C20  25232801.375 5 131393799.271 5      3396.988          33.000
C27  23976950.531 4 124854271.900 4     -2295.434          27.000
C30  21538637.211 8 112157331.563 8        16.336          51.000
E02  25353088.445 8 133231395.168 8     -2346.277          49.000    25353091.305 8 102086386.154 8     -1797.734          49.000
E09  23994394.477 6 126091387.014 6      2057.320          39.000    23994397.320 6  96615529.932 6      1576.640          40.000
E36  23312984.203 8 122510568.434 8      -381.082          51.000    23312987.992 8  93871758.286 8      -291.986          51.000
> 2020 05 17 16 13  0.0000000  0 14        .000000000000
G10  20934011.125 8 110008948.556 8      -267.352          51.000    20934013.391 8  85721304.824 8      -208.326          51.000
G16  22311063.023 8 117245409.879 8     -3140.027          49.000    22311062.836 7  91360038.186 7     -2446.778          44.000
G21  24516780.586 5 128836550.813 5     -2562.090          32.000
G27  20289403.086 8 106621526.215 8      -220.938          51.000    20289404.258 8  83081720.665 8      -172.159          51.000
R04  23208466.531 5 124280214.247 5     -3395.234          34.000    23208468.125 4  96662447.056 4     -2640.744          26.000
R05  20514085.086 5 109659534.882 5       -25.344          32.000    20514087.227 6  85290760.092 6       -19.709          38.000
R06  21609607.359 7 115313006.431 7      3894.961          46.000
R11  21637769.211 5 115625809.464 5     -2256.191          32.000    21637792.281 5  89931136.441 5     -1754.812          31.000
C05  39631818.266 5 206373276.862 5       -15.004          35.000    39631820.727 5 159580917.655 5       -11.617          35.000
C20  25213250.711 5 131291992.040 5      3392.496          33.000
C30  21538578.125 8 112157023.770 8         6.594          51.000
E02  25366518.430 8 133301971.706 8     -2356.371          49.000    25366521.008 8 102140464.276 8     -1805.480          49.000
E09  23982684.586 6 126029857.777 6      2046.977          36.000    23982689.758 6  96568384.224 6      1568.436          40.000
E36  23315183.602 8 122522126.546 8      -387.074          51.000    23315187.703 8  93880614.500 8      -296.553          51.000
> 2020 05 17 16 13 30.0000000  0 14        .000000000000
G10  20935585.797 8 110017223.304 8      -285.480          51.000    20935587.844 8  85727752.676 8      -222.452          51.000
G16  22329013.930 8 117339740.028 8     -3149.898          51.000    22329013.617 7  91433542.165 7     -2454.466          44.000
G21  24531400.930 5 128913377.794 5     -2561.262          34.000
G27  20290699.586 8 106628340.148 8      -234.633          51.000    20290701.070 8  83087030.224 8      -182.831          51.000
R04  23227524.406 5 124382278.784 5     -3410.105          32.000    23227527.031 4  96741827.541 4     -2652.304          26.000
R05  20514301.289 5 109660701.039 5       -53.184          31.000    20514303.906 6  85291667.146 6       -41.365          37.000
R06  21587738.969 7 115196309.822 7      3883.469          45.000
R21  20098668.672 5 107551999.995 5      1383.047          32.000    20098664.328 4  83651561.943 4      1075.703          28.000
C05  39631899.188 5 206373698.096 5       -14.500          35.000    39631901.516 5 159581243.376 5       -11.149          35.000
C20  25193708.508 5 131190237.014 5      3389.602          33.000
C30  21538560.367 8 112156930.975 8        -1.801          51.000
E02  25379991.461 8 133372772.544 8     -2365.094          49.000    25379993.805 8 102194714.258 8     -1812.146          49.000
E09  23971019.055 5 125968564.860 5      2038.062          33.000    23971026.898 6  96521419.568 6      1561.402          41.000
E36  23317402.047 8 122533784.111 8      -391.422          51.000    23317406.055 8  93889546.928 8      -299.954          51.000
> 2020 05 17 16 14  0.0000000  0 13        .000000000000
G10  20937275.648 8 110026103.452 8      -305.676          51.000    20937277.648 8  85734672.285 8      -238.189          51.000
G16  22347032.703 8 117434426.753 8     -3161.695          50.000    22347032.312 7  91507323.994 7     -2463.659          44.000
G21  24546030.219 5 128990250.408 5     -2563.203          33.000
G27  20292087.172 8 106635632.785 8      -250.676          51.000    20292088.703 8  83092712.812 8      -195.332          51.000
R05  20514683.289 6 109662746.951 6       -82.508          39.000    20514688.461 6  85293258.477 6       -64.176          39.000
R06  21565947.461 7 115080024.769 7      3869.805          45.000
C05  39631988.516 5 206374163.121 5       -15.711          35.000    39631990.773 5 159581602.977 5       -12.375          35.000
C20  25174196.648 5 131088633.029 5      3384.992          33.000
C27  24016796.211 5 125061756.387 5     -2313.340          32.000
C30  21538602.656 8 112157150.227 8       -12.051          51.000
E02  25393526.016 8 133443893.181 8     -2375.488          49.000    25393527.727 8 102249209.293 8     -1820.182          50.000
E09  23959417.812 5 125907591.389 5      2026.516          35.000    23959427.078 6  96474711.901 6      1553.219          40.000
E36  23319657.992 8 122545638.408 8      -397.953          51.000    23319661.688 8  93898630.083 8      -304.856          51.000
> 2020 05 17 16 14 30.0000000  0 12        .000000000000
G10  20939078.641 8 110035578.176 8      -339.641          51.000    20939080.539 8  85742055.199 8      -264.655          51.000
G16  22365116.664 8 117529456.993 8     -3187.297          49.000    22365116.250 7  91581373.492 7     -2483.611          45.000
G27  20293564.070 8 106643394.539 8      -280.492          51.000    20293565.367 8  83098760.948 8      -218.562          51.000
R05  20515229.781 6 109665662.047 6      -125.859          41.000    20515234.352 6  85295525.856 6       -97.888          38.000
R06  21544231.938 7 114964145.462 7      3841.664          45.000
R11  21676297.508 6 115831589.939 6     -2334.883          37.000    21676317.234 5  90091277.120 5     -1816.017          31.000
C05  39632084.359 5 206374661.935 5       -30.789          35.000    39632086.508 5 159581988.180 5       -23.856          35.000
C20  25154711.984 5 130987172.224 5      3365.543          34.000
C30  21538702.883 8 112157672.047 8       -36.211          51.000
E02  25407119.227 8 133515321.730 8     -2399.926          48.000    25407120.641 8 102303940.239 8     -1838.925          50.000
E09  23947880.922 6 125846961.050 6      2001.551          38.000    23947889.992 6  96428254.853 6      1533.799          40.000
E36  23321949.430 8 122557679.160 8      -418.324          51.000    23321952.969 8  93907856.119 8      -320.537          51.000
> 2020 05 17 16 15  0.0000000  0 15        .000000000000
G10  20940965.133 8 110045491.654 8      -338.887          51.000    20940967.070 8  85749779.995 8      -264.068          51.000
G16  22383235.602 7 117624672.809 7     -3178.023          47.000    22383235.500 7  91655567.622 7     -2476.385          45.000
G27  20295100.789 8 106651470.916 8      -275.719          51.000    20295102.008 8  83105054.224 8      -214.849          51.000
G32  24666145.617 7 129621467.436 7      3013.094          43.000    24666147.906 7 101003753.567 7      2347.868          43.000
R05  20515908.703 6 109669288.713 6      -134.000          40.000    20515911.328 6  85298346.525 6      -104.222          38.000
R06  21522563.680 7 114848518.986 7      3848.711          44.000
R11  21689351.078 4 115901378.189 4     -2335.594          29.000    21689369.539 5  90145556.957 5     -1816.570          33.000
C05                                                                  39632159.227 5 159582280.660 5        -9.385          35.000
C20  25135225.055 5 130885703.079 5      3381.520          34.000
C27  24043497.812 5 125200792.028 5     -2318.688          35.000
C30  21538831.602 8 112158343.219 8       -26.031          50.000
E02  25420740.789 8 133586901.217 8     -2389.523          49.000    25420742.281 8 102358786.836 8     -1831.017          51.000
E09  23936377.500 6 125786504.343 6      2011.070          38.000    23936386.477 7  96381930.888 7      1540.923          42.000
E11  25422532.172 5 133596268.410 5     -2073.406          35.000
E36  23324246.750 8 122569751.090 8      -404.086          51.000    23324250.344 8  93917106.036 8      -309.576          51.000
> 2020 05 17 16 15 30.0000000  0 15        .000000000000
G10  20943023.367 8 110056307.477 8      -361.742          51.000    20943025.477 8  85758207.927 8      -281.874          51.000
G16  22401477.289 7 117720536.208 7     -3192.426          46.000    22401478.055 7  91730266.360 7     -2487.605          44.000
G27  20296785.922 8 106660326.756 8      -294.289          51.000    20296787.352 8  83111954.868 8      -229.316          51.000
G32  24649018.711 7 129531465.028 7      3007.371          43.000    24649020.070 7 100933621.939 7      2343.409          42.000
R05  20516809.461 6 109674098.857 6      -165.887          40.000    20516812.875 6  85302087.813 6      -129.023          36.000
R06  21501032.094 7 114733621.120 7      3831.777          44.000
R11  21702598.086 5 115972071.180 5     -2359.992          33.000    21702606.508 5  90200542.542 5     -1835.549          30.000
C05  39632295.016 5 206375760.357 5       -15.984          35.000    39632297.273 5 159582837.159 5       -12.321          35.000
C20  25115824.336 5 130784687.995 5      3373.406          35.000
C27  24056937.789 5 125270802.883 5     -2327.762          30.000
C30  21539077.297 8 112159624.378 8       -39.113          50.000
E02  25434479.258 8 133659094.106 8     -2402.727          50.000    25434480.719 8 102414103.436 8     -1841.062          51.000
E09  23924995.641 6 125726687.239 6      1996.918          37.000    23925004.961 6  96336097.102 6      1530.175          41.000
E11                                                                  25434446.648 5 102413976.203 5     -1592.802          33.000
E36  23326638.336 8 122582318.384 8      -413.285          51.000    23326642.023 8  93926735.527 8      -316.679          51.000
> 2020 05 17 16 16  0.0000000  0 14        .000000000000
G10  20945125.242 8 110067352.368 8      -379.211          51.000    20945127.375 8  85766814.350 8      -295.489          51.000
G16  22419713.578 7 117816371.774 7     -3201.316          46.000    22419715.352 7  91804943.389 7     -2494.532          44.000
G27  20298491.672 8 106669290.081 8      -307.758          51.000    20298493.234 8  83118939.269 8      -239.811          51.000
G32  24631836.703 7 129441172.421 7      3007.398          43.000    24631838.539 7 100863264.207 7      2343.433          43.000
R05  20517803.180 7 109679408.217 7      -192.578          42.000    20517805.070 5  85306217.325 5      -149.786          32.000
R06  21479509.703 7 114618773.298 7      3820.195          43.000
R11  21715893.812 6 116043107.566 6     -2379.922          39.000
C05  39632370.438 5 206376151.631 5       -14.832          35.000    39632372.672 5 159583140.401 5       -11.614          35.000
C20  25096382.914 5 130683462.719 5      3370.895          35.000
C30  21539312.375 8 112160849.639 8       -47.070          50.000
E02  25448206.125 8 133731226.022 8     -2410.523          51.000    25448207.820 8 102469373.302 8     -1847.004          51.000
E09  23913607.898 6 125666839.187 6      1988.266          36.000    23913617.742 6  96290239.488 6      1523.665          38.000
E11                                                                  25446302.656 5 102461721.340 5     -1593.213          30.000
E36  23328996.180 8 122594708.405 8      -417.098          51.000    23328999.906 8  93936229.172 8      -319.645          51.000
> 2020 05 17 16 16 30.0000000  0 13        .000000000000
G10  20947343.289 8 110079008.234 8      -398.996          51.000    20947345.414 8  85775896.857 8      -310.906          51.000
G16  22438017.266 7 117912559.676 7     -3212.293          47.000    22438019.031 7  91879894.973 7     -2503.085          43.000
G27  20300290.781 8 106678744.113 8      -323.438          51.000    20300292.320 8  83126306.023 8      -252.029          51.000
G32  24614672.945 7 129350975.251 7      3004.590          45.000    24614676.250 7 100792980.813 7      2341.242          44.000
R05  20518963.016 5 109685605.830 5      -222.098          35.000    20518966.188 4  85311037.788 4      -172.727          27.000
R06  21458069.641 7 114504368.297 7      3805.867          43.000
R11  21729312.359 6 116114809.794 6     -2401.266          38.000    21729334.266 5  90311589.723 5     -1867.648          31.000
C05  39632455.867 5 206376597.475 5       -16.719          35.000    39632458.141 6 159583484.106 6       -12.402          36.000
C20  25076975.289 5 130582408.756 5      3365.836          35.000
C30  21539609.688 8 112162398.708 8       -57.320          49.000
E02  25461993.609 8 133803677.781 8     -2420.645          51.000    25461995.562 8 102524888.237 8     -1854.783          51.000
E09  23902286.961 6 125607344.511 6      1976.770          37.000    23902297.234 4  96244645.523 4      1515.458          29.000
E36  23331393.070 8 122607303.707 8      -423.508          51.000    23331396.703 8  93945880.113 8      -324.497          51.000
> 2020 05 17 16 17  0.0000000  0 13        .000000000000
G10  20949666.328 8 110091215.689 8      -416.188          51.000    20949668.375 8  85785409.180 8      -324.302          51.000
G16  22456376.648 7 118009038.845 7     -3220.816          47.000    22456377.828 7  91955073.522 7     -2509.730          43.000
G27  20302172.281 8 106688630.811 8      -336.898          51.000    20302173.438 8  83134009.929 8      -262.518          51.000
G32  24597516.914 7 129260817.844 7      3004.371          45.000    24597521.344 7 100722728.367 7      2341.068          45.000
R05  20520277.211 7 109692632.011 7      -248.145          42.000
R06  21436702.336 7 114390351.055 7      3794.156          44.000
R11  21742844.672 6 116187114.275 6     -2420.316          38.000    21742865.969 5  90367826.546 5     -1882.465          32.000
C05  39632540.453 5 206377037.184 5       -15.070          35.000    39632542.672 6 159583824.921 6       -11.288          36.000
C20  25057590.242 5 130481470.210 5      3362.715          35.000
C30  21539958.117 8 112164214.100 8       -65.062          49.000
E02  25475830.016 8 133876388.953 8     -2428.129          50.000    25475832.219 8 102580601.961 8     -1860.526          51.000
E09  23891021.734 5 125548146.370 5      1967.465          34.000
E36  23333817.766 8 122620045.582 8      -427.348          51.000    23333821.289 8  93955643.372 8      -327.439          51.000
> 2020 05 17 16 17 30.0000000  0 13        .000000000000
G10  20952096.242 8 110103984.771 8      -434.848          51.000    20952098.383 8  85795359.124 8      -338.842          51.000
G16  22474793.211 8 118105817.036 8     -3230.797          48.000    22474793.922 7  92030485.076 7     -2517.507          43.000
G27  20304138.266 8 106698961.456 8      -351.672          51.000    20304138.742 8  83142059.775 8      -274.030          51.000
G32  24580370.812 7 129170713.979 7      3002.609          44.000    24580376.102 7 100652517.639 7      2339.699          44.000
R05  20521748.898 5 109700497.247 5      -275.938          33.000    20521759.781 5  85322625.661 5      -214.615          30.000
R06  21415410.242 7 114276736.878 7      3780.391          43.000
R11  21756491.539 6 116260028.256 6     -2440.211          37.000    21756505.742 5  90424537.479 5     -1897.939          33.000
C05  39632626.188 5 206377483.557 5       -15.047          35.000    39632628.336 6 159584170.094 6       -11.424          36.000
C20  25038229.844 5 130380660.051 5      3358.426          34.000
C30  21540360.039 8 112166307.033 8       -74.312          49.000
E02  25489716.273 7 133949368.461 7     -2436.871          47.000    25489719.805 8 102636521.299 8     -1867.225          51.000
E09  23879814.734 5 125489273.007 5      1958.234          32.000
E36  23336272.383 8 122632944.734 8      -432.477          51.000    23336275.672 8  93965527.137 8      -331.345          51.000
> 2020 05 17 16 18  0.0000000  0 13        .000000000000
G10  20954635.227 8 110117327.132 8      -453.789          51.000    20954637.172 8  85805755.782 8      -353.602          51.000
G16  22493268.672 8 118202903.711 8     -3240.820          49.000    22493268.773 7  92106136.980 7     -2525.318          42.000
G27  20306191.172 8 106709749.151 8      -366.750          51.000    20306191.273 8  83150465.755 8      -285.779          51.000
G32  24563237.578 7 129080679.154 7      3000.449          44.000    24563243.430 7 100582360.691 7      2338.015          43.000
R06  21394197.172 7 114163542.684 7      3766.508          43.000
R11  21770252.516 6 116333560.900 6     -2460.746          36.000    21770262.242 5  90481729.550 5     -1913.917          30.000
C05  39632715.492 5 206377948.958 5       -15.539          35.000    39632717.586 6 159584529.204 6       -11.850          36.000
C20  25018897.078 5 130279992.946 5      3353.598          32.000
C27  24124322.219 5 125621670.650 5     -2352.016          30.000
C30  21540817.789 8 112168690.464 8       -83.867          49.000
E02  25503655.219 8 134022626.963 8     -2446.090          48.000    25503660.461 8 102692654.429 8     -1874.342          51.000
E09  23868669.953 5 125430705.967 5      1947.207          35.000
E36  23338759.281 8 122646013.566 8      -438.062          51.000    23338762.242 8  93975540.914 8      -335.670          51.000
> 2020 05 17 16 18 30.0000000  0 12        .000000000000
G10  20957287.797 8 110131266.365 8      -483.953          51.000    20957289.578 8  85816617.518 8      -377.106          51.000
G16  22511807.008 8 118300320.807 8     -3262.184          49.000    22511806.180 6  92182046.367 6     -2541.961          41.000
G27  20308335.734 8 106721018.741 8      -393.129          51.000    20308335.930 8  83159247.228 8      -306.334          51.000
G32  24546122.508 7 128990740.697 7      2986.914          42.000    24546128.742 7 100512278.822 7      2327.469          43.000
R06  21373068.539 7 114050797.533 7      3741.023          44.000
R11  21784117.477 5 116407726.040 5     -2492.797          33.000    21784138.625 5  90539393.072 5     -1938.842          30.000
C05  39632812.820 5 206378455.581 5       -26.469          35.000    39632814.914 6 159584920.998 6       -20.658          36.000
C20  24999598.578 5 130179495.227 5      3337.594          30.000
C30  21541336.164 8 112171389.072 8      -104.512          50.000
E02  25517652.742 8 134096186.983 8     -2466.305          49.000    25517658.219 8 102749018.596 8     -1889.787          51.000
E09  23857592.305 6 125372489.245 6      1925.250          36.000
E36  23341283.086 8 122659276.354 8      -454.598          51.000    23341285.844 8  93985703.308 8      -348.331          51.000
> 2020 05 17 16 19  0.0000000  0 11        .000000000000
G10  20960044.664 8 110145753.838 8      -488.137          51.000    20960046.484 8  85827906.474 8      -380.366          51.000
G16  22530398.383 8 118398017.923 8     -3257.348          48.000    22530396.844 7  92258173.932 7     -2538.193          42.000
G27  20310563.094 8 106732722.999 8      -393.555          51.000    20310563.555 8  83168367.414 8      -306.666          51.000
G32  24529017.250 7 128900853.821 7      2999.172          43.000    24529023.414 7 100442237.159 7      2337.017          43.000
R06  21352016.102 7 113938457.557 7      3742.016          42.000
R11  21798109.961 5 116482485.120 5     -2497.930          35.000    21798121.281 5  90597539.224 5     -1942.831          33.000
C05  39632909.258 5 206378958.183 5       -12.617          35.000    39632911.242 6 159585308.851 6        -9.642          36.000
C30  21541906.141 8 112174356.095 8       -99.461          50.000
E02  25531699.055 8 134169998.977 8     -2460.648          50.000    25531703.453 8 102805575.805 8     -1885.492          51.000
E09  23846573.383 6 125314575.813 6      1929.395          38.000    23846580.078 5  96020288.164 5      1478.280          33.000
E36  23343834.672 8 122672685.295 8      -445.500          51.000    23343837.391 8  93995977.682 8      -341.345          51.000
> 2020 05 17 16 19 30.0000000  0 13        .000000000000
G10  20962898.453 8 110160750.537 8      -511.844          51.000    20962899.883 8  85839592.222 8      -398.836          51.000
G16  22549035.023 8 118495954.354 8     -3271.879          48.000    22549033.125 6  92334487.966 6     -2549.519          41.000
G27  20312866.055 8 106744824.268 8      -413.371          51.000    20312866.633 8  83177796.948 8      -322.107          51.000
G32  24511915.586 7 128810983.310 7      2991.801          44.000    24511920.719 7 100372208.249 7      2331.276          44.000
R05  20529218.492 5 109740451.423 5      -390.457          33.000    20529221.094 5  85353687.844 5      -303.695          34.000
R06  21331033.016 7 113826488.098 7      3722.742          42.000
R11  21812207.492 5 116557789.072 5     -2523.270          35.000    21812215.008 6  90656108.989 6     -1962.549          36.000
C05  39632997.328 5 206379416.966 5       -17.801          35.000    39632999.320 6 159585663.614 6       -13.768          36.000
C20  24961077.398 4 129978873.047 4      3337.461          29.000
C30  21542520.406 8 112177554.280 8      -113.848          50.000
E02  25545785.906 8 134244022.888 8     -2474.328          51.000    25545788.719 8 102862295.383 8     -1895.926          51.000
E09  23835604.688 6 125256929.188 6      1913.715          37.000    23835607.375 5  95976117.412 5      1466.224          35.000
E36  23346406.766 8 122686202.152 8      -455.770          51.000    23346409.461 8  94006334.748 8      -349.232          51.000
> 2020 05 17 16 20  0.0000000  0 13        .000000000000
G10  20965851.023 8 110176266.517 8      -527.910          51.000    20965852.461 8  85851682.613 8      -411.359          51.000
G16  22567718.562 8 118594138.310 8     -3279.020          48.000    22567716.812 7  92410994.895 7     -2555.080          43.000
G27  20315246.781 8 106757333.964 8      -425.898          51.000    20315247.219 8  83187544.770 8      -331.869          51.000
G32  24494819.703 7 128721143.116 7      2991.848          46.000    24494823.734 7 100302203.015 7      2331.313          45.000
R05  20531464.938 5 109752453.863 5      -415.418          32.000    20531466.094 5  85363017.797 5      -323.103          34.000
R06  21310121.688 6 113714904.355 6      3710.797          41.000
R11  21826404.656 5 116633644.711 5     -2540.215          34.000    21826410.586 5  90715107.799 5     -1975.726          34.000
C05  39633079.422 5 206379843.761 5       -16.137          35.000    39633081.297 6 159585993.632 6       -12.076          36.000
C20  24941826.148 4 129878641.260 4      3335.395          29.000
C30  21543181.109 8 112180994.988 8      -120.766          50.000
E02  25559914.867 8 134318267.753 8     -2480.527          51.000    25559916.273 8 102919184.263 8     -1900.634          51.000
E09  23824688.656 5 125199561.972 5      1905.797          35.000    23824692.281 6  95932160.693 6      1460.181          37.000
E36  23349001.492 8 122699837.756 8      -458.660          51.000    23349004.086 8  94016782.798 8      -351.420          51.000
> 2020 05 17 16 20 30.0000000  0 12        .000000000000
G10  20968894.273 8 110192258.965 8      -537.992          51.000    20968895.898 8  85864144.273 8      -419.215          51.000
G16  22586440.867 8 118692525.196 8     -3279.949          49.000    22586439.523 7  92487659.969 7     -2555.805          44.000
G21  24736198.820 5 129989601.915 5     -2553.422          33.000    24736200.078 4 101290603.377 4     -1989.679          29.000
G27  20317697.242 8 106770210.690 8      -432.387          51.000    20317697.570 8  83197578.584 8      -336.925          51.000
G32  24477722.227 7 128631294.364 7      2998.027          46.000    24477724.773 7 100232191.107 7      2336.131          46.000
R06  21289275.844 7 113603668.061 7      3705.137          43.000
C05  39633147.258 5 206380197.514 5        -7.195          35.000    39633149.227 6 159586266.785 6        -5.739          36.000
C20  24922598.695 5 129778508.993 5      3338.484          32.000
C30  21543880.469 8 112184637.255 8      -121.680          51.000
E02  25574077.305 8 134392689.819 8     -2480.703          50.000    25574078.008 8 102976208.928 8     -1900.813          51.000
E09  23813817.734 5 125142455.971 5      1903.035          32.000    23813821.828 6  95888387.342 6      1458.400          38.000
E36  23351610.859 8 122713550.122 8      -455.480          51.000    23351613.367 8  94027289.674 8      -348.993          51.000
> 2020 05 17 16 21  0.0000000  0 14        .000000000000
G10  20972065.102 8 110208922.061 8      -565.391          51.000    20972066.617 8  85877128.518 8      -440.564          51.000
G16  22605238.602 8 118791307.120 8     -3298.016          50.000    22605237.609 7  92564632.867 7     -2569.882          45.000
G21  24750823.289 5 130066456.552 5     -2563.012          34.000    24750825.523 5 101350497.923 5     -1997.152          34.000
G27  20320254.727 8 106783650.002 8      -456.121          51.000    20320255.031 8  83208050.777 8      -355.419          51.000
G32  24460660.781 7 128541635.058 7      2986.887          46.000    24460662.125 7 100162326.823 7      2327.450          46.000
R05  20536418.266 5 109778927.749 5      -471.086          32.000    20536423.688 6  85383622.973 6      -366.400          36.000
R06  21268533.492 7 113492981.867 7      3681.547          44.000
C05  39633237.984 5 206380670.226 5       -16.277          35.000    39633240.172 5 159586632.717 5       -12.714          35.000
C20  24903422.336 6 129678646.647 6      3325.734          36.000
C27  24206188.758 4 126048017.564 4     -2383.750          28.000
C30  21544655.852 8 112188674.948 8      -139.879          51.000
E02  25588309.648 8 134467482.299 8     -2497.957          49.000    25588310.680 8 103033517.437 8     -1914.073          51.000
E09                                                                  23803033.219 5  95844948.151 5      1443.192          35.000
E36  23354271.969 8 122727534.302 8      -469.418          51.000    23354274.422 8  94038004.831 8      -359.702          51.000
> 2020 05 17 16 21 30.0000000  0 11        .000000000000
G10  20975336.273 8 110226112.211 8      -582.516          51.000    20975337.969 8  85890523.444 8      -453.908          51.000
G16  22624084.094 8 118890339.062 8     -3306.012          50.000    22624083.031 7  92641800.570 7     -2576.113          46.000
G27  20322892.242 8 106797509.696 8      -469.746          51.000    20322892.570 8  83218850.529 8      -366.036          51.000
G32  24443609.023 7 128452025.611 7      2985.418          47.000    24443609.117 7 100092501.393 7      2326.303          46.000
R06  21247867.945 7 113382705.356 7      3668.141          45.000
C05  39633324.586 5 206381121.002 5       -15.047          35.000    39633326.953 6 159586983.073 6       -11.862          36.000
C20  24884267.328 6 129578903.313 6      3321.711          36.000
C30  21545480.250 8 112192967.250 8      -148.082          51.000
E02  25602584.555 8 134542500.648 8     -2505.078          49.000    25602586.812 8 103090999.009 8     -1919.496          51.000
E09  23792296.586 5 125029357.391 5      1874.215          34.000
E36  23356957.656 8 122741647.549 8      -473.301          51.000    23356960.055 8  94048818.884 8      -362.665          51.000
> 2020 05 17 16 22  0.0000000  0 13        .000000000000
G10  20978713.359 8 110243859.113 8      -599.508          51.000    20978715.328 8  85904352.213 8      -467.149          51.000
G16  22642982.414 8 118989648.832 8     -3313.695          50.000    22642981.141 7  92719184.767 7     -2582.103          45.000
G21  24780071.500 6 130220155.603 6     -2560.984          37.000
G27  20325615.633 8 106811820.805 8      -483.297          51.000    20325616.109 8  83230002.038 8      -376.595          51.000
G32  24426573.320 8 128362499.680 8      2983.895          48.000    24426571.727 7 100022741.039 7      2325.116          46.000
R05  20542027.078 6 109808910.744 6      -523.922          36.000    20542007.125 5  85406844.884 5      -407.504          35.000
R06  21227285.914 7 113272873.653 7      3654.848          46.000
C05  39633413.125 5 206381581.812 5       -14.266          35.000    39633415.414 5 159587339.416 5       -11.336          35.000
C20  24865141.750 6 129479311.569 6      3318.121          36.000
C30  21546359.422 8 112197545.105 8      -156.168          51.000
E02  25616908.289 8 134617773.691 8     -2512.176          49.000    25616911.586 8 103148675.741 8     -1924.863          51.000
E11  25589437.953 5 134473371.513 5     -2097.871          33.000
E36  23359673.812 8 122755920.510 8      -477.160          51.000    23359676.148 8  94059755.318 8      -365.649          51.000
> 2020 05 17 16 22 30.0000000  0 15        .000000000000
G10  20982206.766 8 110262217.317 8      -619.512          51.000    20982208.797 8  85918657.309 8      -482.736          51.000
G16  22661943.352 8 119089289.403 8     -3324.113          49.000    22661942.047 7  92796826.728 7     -2590.218          46.000
G21  24794707.164 6 130297065.978 6     -2562.352          36.000    24794710.625 5 101530196.471 5     -1996.647          30.000
G27  20328435.562 8 106826639.450 8      -499.703          51.000    20328436.086 8  83241549.033 8      -389.379          51.000
G32  24409564.648 8 128273115.694 8      2979.789          48.000    24409561.406 7  99953091.314 7      2321.917          45.000
R06  21206798.797 7 113163547.393 7      3638.531          47.000
R11  21899037.594 6 117021805.769 6     -2635.449          38.000
C05  39633513.867 5 206382106.594 5       -15.648          35.000    39633516.188 5 159587745.181 5       -12.188          35.000
C20  24846056.383 6 129379928.728 6      3311.758          37.000
C27  24247509.586 5 126263148.960 5     -2398.184          34.000
C30  21547304.102 8 112202464.000 8      -166.941          51.000
E02  25631291.156 8 134693354.975 8     -2521.730          50.000    25631294.594 8 103206588.661 8     -1932.214          51.000
E09  23771026.727 4 124917587.731 4      1852.898          29.000
E11  25601439.852 5 134536471.054 5     -2101.246          32.000
E36  23362430.859 8 122770408.582 8      -483.754          51.000    23362433.211 8  94070856.571 8      -370.666          51.000
> 2020 05 17 16 23  0.0000000  0 14        .000000000000
G10  20985796.031 8 110281079.179 8      -638.309          51.000    20985798.242 8  85933354.868 8      -497.383          51.000
G16  22680945.930 8 119189151.063 8     -3333.641          48.000    22680944.914 7  92874640.992 7     -2597.642          45.000
G21  24809334.156 6 130373930.245 6     -2562.762          36.000    24809339.172 5 101590090.817 5     -1996.939          32.000
G27  20331331.766 8 106841859.388 8      -515.227          51.000    20331332.141 8  83253408.716 8      -401.475          51.000
G32  24392563.344 8 128183770.163 8      2976.156          48.000    24392559.289 7  99883471.542 7      2319.089          46.000
R04  23605477.266 5 126406249.327 5     -3682.652          30.000
R06  21186386.891 8 113054622.575 8      3622.898          48.000
R11  21913877.172 6 117101144.012 6     -2654.770          39.000    21913865.844 4  91078599.450 4     -2064.824          25.000
C05  39633606.609 5 206382588.807 5       -16.793          35.000    39633608.867 6 159588118.844 6       -12.982          36.000
C20  24826991.328 6 129280651.283 6      3305.910          36.000
C27  24261340.164 5 126335184.651 5     -2404.156          33.000
C30  21548294.164 8 112207618.875 8      -177.062          51.000
E02  25645712.094 8 134769136.074 8     -2530.645          51.000    25645714.766 8 103264654.660 8     -1939.035          50.000
E36  23365208.492 8 122785005.141 8      -489.688          51.000    23365211.047 8  94082040.940 8      -375.167          51.000
> 2020 05 17 16 23 30.0000000  0 12        .000000000000
G10  20989493.703 8 110300511.364 8      -657.117          51.000    20989496.211 8  85948496.836 8      -512.039          51.000
G16  22700002.844 8 119289298.760 8     -3342.879          48.000    22700002.398 7  92952678.145 7     -2604.841          44.000
G21  24823964.844 5 130450816.079 5     -2562.832          35.000    24823970.336 5 101650008.652 5     -1997.027          32.000
G27  20334317.281 8 106857548.674 8      -530.742          51.000    20334317.656 8  83265634.126 8      -413.565          51.000
G32  24375582.633 7 128094533.728 7      2972.848          47.000    24375579.055 7  99813936.786 7      2316.511          47.000
R06  21166063.836 8 112946172.138 8      3607.125          48.000
R11  21928825.617 6 117181065.210 6     -2673.570          37.000    21928820.797 4  91140753.320 4     -2079.447          27.000
C05  39633704.461 5 206383098.531 5       -17.223          35.000    39633706.477 5 159588512.232 5       -13.565          35.000
C20  24807960.828 5 129181548.531 5      3300.703          34.000
C30  21549342.477 8 112213077.298 8      -186.980          51.000
E02  25660183.539 8 134845182.726 8     -2539.195          51.000    25660185.008 8 103322924.142 8     -1945.614          49.000
E36  23368019.586 8 122799777.741 8      -495.270          51.000    23368022.414 8  94093360.213 8      -379.438          51.000
> 2020 05 17 16 24  0.0000000  0 13        .000000000000
G10  20993288.992 8 110320455.914 8      -675.223          51.000    20993291.266 8  85964038.024 8      -526.148          51.000
G16  22719103.320 8 119389673.001 8     -3351.371          49.000    22719103.250 7  93030891.811 7     -2611.458          43.000
G21  24838589.180 5 130527666.046 5     -2562.707          34.000
G27  20337381.383 8 106873650.764 8      -545.422          51.000    20337381.742 8  83278181.197 8      -425.004          51.000
G32  24358612.211 7 128005352.343 7      2969.781          43.000    24358609.797 7  99744444.913 7      2314.121          42.000
R06  21145819.109 7 112838142.617 7      3592.062          46.000
C05  39633796.266 5 206383577.355 5       -17.391          35.000    39633798.203 6 159588880.714 6       -13.511          36.000
C20  24788954.305 5 129082566.362 5      3295.059          32.000
C27  24289093.031 5 126479679.209 5     -2414.398          34.000
C30  21550438.328 8 112218783.360 8      -196.160          51.000
E02  25674694.367 8 134921436.054 8     -2547.234          51.000    25674695.141 8 103381352.003 8     -1951.900          49.000
E09  23739592.578 5 124752400.032 5      1818.148          34.000    23739596.906 6  95589518.322 6      1393.492          41.000
E36  23370853.398 8 122814669.403 8      -500.277          51.000    23370856.422 8  94104770.719 8      -383.401          51.000
> 2020 05 17 16 24 30.0000000  0 13        .000000000000
G10  20997244.547 8 110341242.926 8      -692.543          51.000    20997246.789 8  85980235.695 8      -539.644          51.000
G16  22738309.688 8 119490602.275 8     -3359.020          49.000    22738309.805 7  93109537.977 7     -2617.418          43.000
G21  24853269.789 5 130604812.422 5     -2562.441          35.000
G27  20340587.188 8 106890497.274 8      -559.582          51.000    20340587.430 8  83291308.342 8      -436.038          51.000
G32  24341715.711 5 127916560.303 5      2968.035          35.000    24341714.508 5  99675256.394 5      2312.755          33.000
R06  21125716.648 7 112730874.615 7      3577.387          44.000
C05  39633945.078 5 206384352.429 5       -16.457          35.000    39633947.094 6 159589480.520 6       -12.644          36.000
C20  24770034.695 5 128984035.224 5      3291.312          32.000
C27  24303070.812 5 126552452.044 5     -2419.137          30.000
C30  21551644.523 8 112225065.843 8      -204.785          51.000
E02  25689306.977 8 134998225.368 8     -2554.203          51.000    25689307.875 8 103440190.532 8     -1957.051          49.000
E09  23729288.633 5 124698263.178 5      1808.895          34.000    23729295.148 7  95548036.982 7      1385.827          42.000
E36  23373772.875 8 122830011.273 8      -504.512          51.000    23373776.023 8  94116526.186 8      -386.553          51.000
> 2020 05 17 16 25  0.0000000  0 12        .000000000000
G10  21001243.109 8 110362255.665 8      -699.547          51.000    21001245.484 8  85996609.266 8      -545.101          51.000
G16  22757504.141 8 119591468.208 8     -3356.539          49.000    22757503.969 7  93188134.766 7     -2615.485          42.000
G21  24867889.023 5 130681637.810 5     -2550.527          32.000
G27  20343817.562 8 106907472.888 8      -563.488          51.000    20343817.883 8  83304536.087 8      -439.082          51.000
G32  24324773.594 4 127827548.254 4      2975.641          27.000    24324776.281 4  99605889.944 4      2318.672          27.000
R06  21105640.195 7 112623746.817 7      3573.230          44.000
C05  39634033.867 6 206384813.752 6        -5.332          36.000    39634035.945 6 159589837.543 6        -4.325          36.000
C20  24751082.375 5 128885347.263 5      3297.012          31.000
C30  21552844.125 8 112231315.173 8      -203.215          51.000
E02  25703903.930 8 135074933.102 8     -2550.941          51.000    25703904.930 8 103498966.552 8     -1954.495          49.000
E09  23718985.039 6 124644126.742 6      1808.559          39.000    23718992.328 6  95506565.036 6      1385.677          40.000
E36  23376660.781 8 122845187.662 8      -498.484          51.000    23376664.102 8  94128154.853 8      -381.923          51.000
> 2020 05 17 16 25 30.0000000  0 12        .000000000000
G10  21005335.438 8 110383760.697 8      -727.043          51.000    21005337.445 8  86013366.428 8      -566.527          51.000
G16  22776736.953 8 119692535.816 8     -3374.234          50.000    22776736.141 6  93266888.696 6     -2629.277          41.000
G27  20347123.328 8 106924845.623 8      -587.637          51.000    20347123.742 8  83318073.275 8      -457.899          51.000
G32  24307842.484 6 127738575.551 6      2962.316          37.000    24307846.719 6  99536564.326 6      2308.295          37.000
R06  21085642.398 7 112517035.593 7      3548.035          44.000
R11  21989695.070 5 117506222.343 5     -2743.742          32.000    21989714.531 4  91393769.332 4     -2134.025          26.000
C05  39634113.578 5 206385228.597 5       -14.867          35.000    39634115.633 6 159590158.319 6       -11.656          36.000
C20  24732149.500 4 128786793.786 4      3281.965          28.000
C30  21554088.641 8 112237797.040 8      -221.930          51.000
E02  25718536.086 8 135151824.930 8     -2568.043          51.000    25718536.797 8 103557883.657 8     -1967.724          48.000
E09  23708737.617 5 124590283.848 5      1788.238          34.000    23708744.594 6  95465308.783 6      1370.173          41.000
E36  23379568.070 8 122860466.152 8      -512.961          51.000    23379571.617 8  94139861.748 8      -393.039          51.000
> 2020 05 17 16 26  0.0000000  0 11        .000000000000
G10  21009540.453 8 110405858.290 8      -746.508          51.000    21009542.547 8  86030585.348 8      -581.694          51.000
G16  22796026.977 8 119793903.675 8     -3383.980          51.000    22796025.328 6  93345876.574 6     -2636.871          39.000
G27  20350524.016 8 106942717.275 8      -604.012          51.000    20350524.508 8  83331999.229 8      -470.658          51.000
G32  24290942.289 7 127649759.273 7      2957.859          42.000    24290946.070 7  99467356.939 7      2304.829          42.000
R06  21065742.500 6 112410848.014 6      3530.816          41.000
R11  22005157.039 5 117588824.686 5     -2763.730          33.000    22005152.891 4  91458007.796 4     -2149.571          27.000
C05  39634203.508 5 206385697.482 5       -16.242          35.000    39634205.375 6 159590520.140 6       -12.859          36.000
C30  21555397.297 8 112244612.502 8      -232.852          51.000
E02  25733222.070 8 135229000.368 8     -2577.242          50.000    25733223.031 8 103617018.042 8     -1974.743          48.000
E09  23698563.891 6 124536825.409 6      1775.441          39.000    23698572.641 6  95424347.257 6      1360.433          41.000
E36  23382514.023 8 122875948.104 8      -519.473          51.000    23382517.820 8  94151724.539 8      -398.026          51.000
> 2020 05 17 16 26 30.0000000  0 15        .000000000000
G01  24161807.547 6 126971164.858 6      3138.168          37.000
G10  21013859.469 8 110428554.339 8      -766.020          51.000    21013861.484 8  86048270.583 8      -596.898          51.000
G16  22815374.969 8 119895575.915 8     -3393.617          49.000    22815372.609 6  93425101.608 6     -2644.380          39.000
G27  20354021.070 8 106961095.155 8      -620.539          51.000    20354021.609 8  83346319.664 8      -483.537          51.000
G32  24274072.609 7 127561104.923 7      2952.750          44.000    24274076.391 7  99398275.693 7      2300.844          44.000
R05  20574907.852 6 109984632.814 6      -775.438          37.000    20574901.945 5  85543606.648 5      -603.124          32.000
R06  21045942.328 6 112305195.200 6      3513.145          40.000
R11  22020731.117 5 117672082.838 5     -2782.504          30.000    22020721.609 5  91522701.349 5     -2164.170          30.000
C05  39634305.016 5 206386226.365 5       -18.715          35.000    39634306.734 6 159590928.305 6       -14.185          36.000
C20  24694414.688 5 128590290.761 5      3268.223          32.000
C27  24359016.883 5 126843771.923 5     -2440.234          33.000
C30  21556771.492 8 112251769.018 8      -243.801          51.000
E02  25747962.805 8 135306464.474 8     -2586.551          50.000    25747964.250 8 103676373.624 8     -1981.873          48.000
E09  23688465.734 5 124483760.348 5      1762.906          33.000    23688474.859 6  95383687.008 6      1350.328          39.000
E36  23385500.062 8 122891640.485 8      -526.082          51.000    23385503.953 8  94163748.563 8      -403.141          51.000
> 2020 05 17 16 27  0.0000000  0 15        .000000000000
G01  24143872.766 6 126876933.484 6      3139.258          36.000
G10  21018255.219 8 110451654.146 8      -778.547          51.000    21018256.922 8  86066270.433 8      -606.657          51.000
G16  22834743.133 7 119997356.096 7     -3396.289          46.000    22834741.148 6  93504410.770 6     -2646.459          40.000
G27  20357577.656 8 106979786.077 8      -630.172          51.000    20357578.242 8  83360884.010 8      -491.046          51.000
G32  24257197.141 7 127472421.817 7      2954.691          47.000    24257201.227 7  99329172.004 7      2302.357          46.000
R05  20579301.977 5 110008154.346 5      -797.027          35.000    20579304.023 5  85561901.280 5      -619.910          35.000
R06  21026206.359 7 112199885.102 7      3502.492          42.000
R11  22036369.266 5 117755681.047 5     -2794.555          32.000    22036367.289 5  91587731.538 5     -2173.543          34.000
C05  39634381.039 5 206386621.415 5       -12.871          35.000    39634382.773 6 159591234.558 6        -9.862          36.000
C20  24675576.016 5 128492181.874 5      3267.516          34.000
C27  24373063.797 5 126916902.315 5     -2439.730          32.000
C30  21558174.625 8 112259075.310 8      -247.863          51.000
E02  25762721.109 8 135384021.726 8     -2588.695          48.000    25762722.852 7 103735800.607 7     -1983.471          47.000
E09                                                                  23678413.859 6  95343180.819 6      1346.282          38.000
E36  23388489.328 8 122907349.715 8      -525.777          51.000    23388493.195 8  94175785.492 8      -402.862          51.000
> 2020 05 17 16 27 30.0000000  0 14        .000000000000
G01  24125988.977 5 126782958.934 5      3130.395          35.000
G10  21022777.508 8 110475418.982 8      -801.676          51.000    21022779.359 8  86084788.514 8      -624.682          51.000
G16  22854180.359 7 120099504.053 7     -3409.492          44.000    22854179.984 6  93584006.583 6     -2656.744          41.000
G27  20361243.930 8 106999052.828 8      -650.285          51.000    20361244.766 8  83375897.045 8      -506.716          51.000
G32  24240366.641 7 127383975.591 7      2945.695          47.000    24240370.820 7  99260252.948 7      2295.350          47.000
R05  20583876.742 5 110032624.936 5      -829.438          35.000    20583880.789 5  85580933.933 5      -645.118          35.000
R06  21006586.883 7 112095188.402 7      3481.141          46.000
R11  22052136.164 6 117839925.829 6     -2817.414          37.000    22052133.062 6  91653255.217 6     -2191.322          36.000
C05  39634481.680 5 206387145.790 5       -17.895          35.000    39634483.422 6 159591640.091 6       -14.006          36.000
C20  24656792.336 5 128394368.060 5      3257.312          35.000
C30  21559656.680 8 112266791.977 8      -262.555          51.000
E02  25777546.688 8 135461932.687 8     -2601.273          48.000    25777548.477 7 103795498.608 7     -1993.193          47.000
E09                                                                  23668441.938 6  95303031.164 6      1333.711          37.000
E36  23391531.648 8 122923338.202 8      -536.062          51.000    23391535.664 8  94188036.406 8      -410.716          51.000
> 2020 05 17 16 28  0.0000000  0 14        .000000000000
G01  24108136.078 5 126689092.659 5      3128.242          32.000
G10  21027402.109 8 110499721.424 8      -816.547          51.000    21027403.703 8  86103725.481 8      -636.270          51.000
G16  22873662.484 7 120201891.055 7     -3414.258          43.000    22873664.047 6  93663788.694 6     -2660.458          41.000
G27  20364995.969 8 107018769.413 8      -662.180          51.000    20364997.055 8  83391260.610 8      -515.984          51.000
G32  24223557.422 8 127295642.868 8      2945.074          48.000    24223561.742 8  99191422.334 8      2294.866          48.000
R05  20588607.117 6 110057914.929 6      -853.770          38.000    20588614.172 5  85600603.945 5      -664.043          35.000
R06  20987059.484 7 111990980.634 7      3468.016          47.000
R11  22068002.555 5 117924693.702 5     -2831.895          34.000    22067998.055 6  91719185.671 6     -2202.588          37.000
C05  39634583.000 5 206387673.447 5       -15.469          35.000    39634584.859 6 159592047.101 6       -11.931          36.000
C20  24638040.312 6 128296726.481 6      3254.035          38.000
C30  21561193.617 8 112274794.398 8      -269.023          50.000
E02  25792415.406 7 135540069.196 7     -2605.742          47.000    25792416.906 7 103855369.373 7     -1996.545          46.000
E09  23658535.781 6 124326435.489 6      1732.215          41.000    23658534.141 6  95263142.446 6      1326.946          36.000
E36  23394603.078 8 122939479.641 8      -538.090          51.000    23394607.250 8  94200404.510 8      -412.312          51.000
> 2020 05 17 16 28 30.0000000  0 12        .000000000000
G10  21032124.141 8 110524536.474 8      -852.270          51.000    21032125.516 8  86123061.897 8      -664.106          51.000
G16  22893186.000 7 120304490.178 7     -3439.938          44.000    22893188.180 7  93743736.080 7     -2680.471          42.000
G27  20368829.156 8 107038912.421 8      -695.066          51.000    20368830.234 8  83406956.452 8      -541.610          51.000
G32  24206765.797 7 127207403.055 7      2923.395          47.000    24206769.914 7  99122664.118 7      2277.973          47.000
R05  20593486.734 5 110083998.674 5      -899.352          33.000    20593490.586 4  85620891.254 4      -699.499          29.000
R06  20967619.820 7 111887242.049 7      3433.348          46.000
C05  39634680.469 5 206388180.779 5       -32.992          35.000    39634682.367 6 159592440.389 6       -25.442          36.000
C20  24619317.664 6 128199235.794 6      3230.789          41.000
C30  21562780.750 8 112283059.569 8      -296.211          51.000
E02  25807322.672 8 135618405.501 8     -2631.059          48.000    25807323.773 7 103915393.227 7     -2015.895          46.000
E09  23648689.781 7 124274695.447 7      1702.914          43.000    23648686.742 5  95223497.527 5      1305.004          35.000
E36  23397699.320 8 122955750.265 8      -561.039          51.000    23397703.320 8  94212871.598 8      -429.851          51.000
> 2020 05 17 16 29  0.0000000  0 14        .000000000000
G10  21036961.594 8 110549957.831 8      -845.445          51.000    21036963.320 8  86142870.755 8      -658.786          51.000
G16  22912768.156 7 120407393.836 7     -3423.188          45.000    22912770.273 6  93823920.739 6     -2667.419          40.000
G27  20372761.469 8 107059577.003 8      -685.477          51.000    20372762.539 8  83423058.718 8      -534.138          51.000
G32  24190010.414 7 127119353.935 7      2943.871          47.000    24190013.883 7  99054054.480 7      2293.929          47.000
R05  20598532.117 6 110110971.295 6      -901.426          37.000    20598536.289 5  85641869.988 5      -701.109          32.000
R06  20948286.562 7 111784073.371 7      3441.730          45.000
R11  22100010.531 6 118095778.606 6     -2859.008          36.000    22100018.375 6  91852284.821 6     -2223.670          37.000
C05  39634791.844 5 206388761.396 5        -8.906          35.000    39634794.117 6 159592891.207 6        -6.361          36.000
C20  24600641.961 7 128101992.299 7      3249.355          42.000
C27  24429632.492 5 127211491.053 5     -2454.805          31.000
C30  21564436.539 8 112291682.018 8      -281.422          51.000
E02  25822286.000 7 135697034.511 7     -2613.738          47.000    25822287.109 7 103975641.372 7     -2002.732          46.000
E09  23638921.531 6 124223370.039 6      1715.969          41.000    23638919.680 6  95184170.355 6      1314.734          37.000
E36  23400838.305 8 122972244.915 8      -541.477          51.000    23400841.953 8  94225510.350 8      -414.862          51.000
> 2020 05 17 16 29 30.0000000  0 14        .000000000000
G10  21041879.273 8 110575801.275 8      -873.402          51.000    21041881.250 8  86163008.519 8      -680.570          51.000
G16  22932373.133 7 120510416.112 7     -3440.984          46.000    22932374.406 6  93904197.823 6     -2681.290          39.000
G27  20376758.258 8 107080580.500 8      -710.645          51.000    20376759.391 8  83439425.077 8      -553.749          51.000
G32  24173257.133 8 127031315.636 8      2929.477          48.000    24173259.859 8  98985453.282 8      2282.712          48.000
R05  20603710.664 4 110138645.713 4      -939.445          27.000    20603714.703 4  85663394.492 4      -730.680          29.000
R06  20929025.477 7 111681292.815 7      3414.473          45.000
R11  22116150.930 5 118182025.089 5     -2887.141          34.000    22116155.773 5  91919365.387 5     -2245.554          35.000
C05  39634882.797 5 206389234.469 5       -18.867          35.000    39634885.148 6 159593256.922 6       -14.544          36.000
C20  24581978.047 7 128004816.882 7      3233.094          42.000
C27  24443823.914 5 127285428.908 5     -2469.844          33.000
C30  21566126.367 8 112300480.977 8      -301.098          51.000
E02  25837269.500 7 135775771.334 7     -2631.352          46.000    25837271.531 7 104035972.147 7     -2016.251          46.000
E09  23629198.375 6 124172277.977 6      1693.988          41.000    23629198.375 6  95145021.910 6      1298.006          39.000
E36  23403985.070 8 122988780.621 8      -556.848          51.000    23403988.562 8  94238180.564 8      -426.669          51.000
> 2020 05 17 16 30  0.0000000  0 14        .000000000000
G10  21046910.117 8 110602238.704 8      -889.777          51.000    21046911.922 8  86183609.111 8      -693.333          51.000
G16  22952033.406 7 120613727.607 7     -3447.207          47.000    22952032.625 5  93984700.245 5     -2686.138          35.000
G27  20380852.539 8 107102096.327 8      -724.453          51.000    20380853.984 8  83456190.651 8      -564.509          51.000
G32  24156539.375 8 126943464.311 8      2926.574          49.000    24156541.828 8  98916997.780 8      2280.447          49.000
R05  20609053.938 6 110167192.209 6      -964.852          37.000    20609057.227 5  85685601.500 5      -750.443          30.000
R06  20909870.797 7 111579079.779 7      3399.008          47.000
R11  22132395.383 4 118268840.283 4     -2901.980          28.000    22132397.133 5  91986888.272 5     -2257.102          31.000
C05  39634985.984 5 206389772.711 5       -18.281          35.000    39634988.492 6 159593672.720 6       -13.719          36.000
C20  24563360.078 7 127907883.331 7      3228.324          42.000
C27  24458058.148 5 127359576.000 5     -2473.660          32.000
C30  21567883.117 8 112309628.512 8      -309.449          51.000
E02  25852305.234 7 135854787.166 7     -2637.207          44.000    25852308.898 7 104096516.731 7     -2020.609          45.000
E09  23619552.664 6 124121593.837 6      1684.227          36.000    23619554.664 6  95106186.030 6      1290.278          37.000
E36  23407172.633 8 123005530.513 8      -560.676          51.000    23407176.078 8  94251014.891 8      -429.570          51.000
> 2020 05 17 16 30 30.0000000  0 14        .000000000000
G10  21052037.891 8 110629185.268 8      -907.234          51.000    21052039.828 8  86204606.440 8      -706.936          51.000
G16  22971732.391 7 120717241.740 7     -3454.488          47.000    22971728.688 5  94065360.514 5     -2691.812          34.000
G27  20385028.453 8 107124041.116 8      -739.250          51.000    20385030.227 8  83473290.479 8      -576.039          51.000
G32  24139841.844 8 126855719.426 8      2922.418          49.000    24139844.305 8  98848625.204 8      2277.212          49.000
R05  20614540.820 5 110196557.473 5      -992.027          33.000    20614545.898 4  85708427.717 4      -771.571          29.000
R06  20890807.125 7 111477353.984 7      3381.969          46.000
R11  22148730.359 5 118356123.931 5     -2918.551          32.000    22148730.656 5  92054739.971 5     -2269.984          30.000
C05  39635085.703 5 206390291.141 5       -17.324          35.000    39635088.234 6 159594075.041 6       -13.677          36.000
C20  24544773.672 6 127811111.043 6      3222.434          41.000
C27  24472319.289 5 127433849.244 5     -2478.633          31.000
C30  21569691.062 8 112319042.279 8      -318.875          51.000
E02  25867377.461 7 135933996.400 7     -2644.012          43.000    25867382.992 7 104157209.553 7     -2026.012          44.000
E09  23609969.570 5 124071224.412 5      1672.512          34.000    23609972.094 6  95067599.754 6      1281.667          37.000
E36  23410385.078 8 123022410.957 8      -565.590          51.000    23410388.359 8  94263949.259 8      -433.341          51.000
> 2020 05 17 16 31  0.0000000  0 14        .000000000000
G10  21057265.188 8 110656654.832 8      -923.707          51.000    21057266.805 8  86226011.311 8      -719.772          51.000
G16  22991472.336 7 120820970.847 7     -3460.621          47.000    22991467.469 5  94146188.272 5     -2696.594          34.000
G20  22560784.453 5 118557721.853 5     -2826.133          30.000
G27  20389288.898 8 107146430.287 8      -753.148          51.000    20389290.844 8  83490736.592 8      -586.869          51.000
G32  24123167.938 8 126768099.213 8      2919.184          48.000    24123170.953 8  98780349.779 8      2274.692          48.000
R05  20620179.547 5 110226701.627 5     -1016.969          32.000    20620191.125 4  85731873.111 4      -790.976          28.000
R06  20871838.008 7 111376134.918 7      3366.113          45.000
R11  22165158.891 6 118443909.293 6     -2933.711          38.000    22165161.164 5  92123017.367 5     -2281.775          34.000
C05  39635184.711 5 206390806.510 5       -16.430          35.000    39635187.117 6 159594473.559 6       -12.825          37.000
C20  24526221.695 6 127714517.260 6      3217.250          39.000
C30  21571553.023 8 112328737.863 8      -327.422          51.000
E02  25882489.453 7 136013412.364 7     -2650.121          45.000    25882496.156 7 104218060.707 7     -2030.469          43.000
E09  23600453.102 6 124021208.732 6      1662.180          37.000    23600454.438 5  95029276.008 5      1273.259          34.000
E36  23413625.195 8 123039437.141 8      -569.395          51.000    23413628.328 8  94276995.298 8      -436.292          51.000
> 2020 05 17 16 31 30.0000000  0 13        .000000000000
G10  21062590.977 8 110684641.742 8      -941.371          51.000    21062592.102 8  86247819.287 8      -733.533          51.000
G16  23011251.781 7 120924908.012 7     -3468.141          45.000    23011247.570 6  94227178.189 6     -2702.450          36.000
G20  22576951.414 5 118642696.803 5     -2837.262          33.000
G27  20393633.188 8 107169259.721 8      -768.363          51.000    20393635.203 8  83508525.759 8      -598.725          51.000
G32  24106517.320 7 126680602.336 7      2914.379          47.000    24106521.203 8  98712170.459 8      2270.948          48.000
R06  20852964.273 7 111275422.063 7      3348.648          46.000
R11  22181679.969 6 118532176.701 6     -2950.379          37.000    22181684.445 6  92191669.627 6     -2294.745          37.000
C05  39635282.219 5 206391314.882 5       -16.762          35.000    39635284.422 6 159594865.878 6       -13.043          37.000
C20  24507702.883 6 127618099.862 6      3211.078          39.000
C30  21573468.438 8 112338711.353 8      -337.062          51.000
E02  25897639.969 7 136093028.643 7     -2657.133          45.000    25897646.469 6 104279065.350 6     -2036.152          41.000
E09  23590998.438 5 123971534.739 5      1650.512          35.000    23591001.195 5  94991212.452 5      1264.112          34.000
E36  23416892.117 8 123056604.659 8      -574.594          51.000    23416895.297 8  94290149.627 8      -440.273          51.000
> 2020 05 17 16 32  0.0000000  0 15        .000000000000
G01  23966138.562 5 125942907.434 5      3099.418          32.000
G08  20734929.344 5 108962782.296 5      1435.473          35.000    20734919.203 5  84906014.173 5      1118.547          32.000
G10  21068004.734 8 110713091.532 8      -951.750          51.000    21068006.430 8  86269987.988 8      -741.623          51.000
G16  23031059.758 7 121028997.666 7     -3467.703          43.000    23031056.766 6  94308286.968 6     -2702.106          38.000
G27  20398051.312 8 107192476.540 8      -776.105          51.000    20398053.523 8  83526616.761 8      -604.761          51.000
G32  24089880.711 7 126593178.727 7      2917.102          47.000    24089885.039 7  98644048.228 7      2273.066          47.000
R05  20631895.586 4 110289286.848 4     -1064.926          27.000
R06  20834176.531 7 111175165.526 7      3338.707          47.000
R11  22198287.805 5 118620867.819 5     -2958.352          31.000    22198284.078 6  92260651.476 6     -2300.946          39.000
C05  39635367.984 5 206391761.679 5        -9.875          35.000    39635370.266 6 159595210.870 6        -7.539          37.000
C20  24489209.078 7 127521808.355 7      3211.852          42.000
C30  21575427.258 8 112348910.696 8      -339.430          51.000
E02  25912818.367 7 136172790.197 7     -2656.875          45.000    25912823.789 7 104340181.290 7     -2035.868          42.000
E09  23581597.906 5 123922146.700 5      1645.363          35.000    23581604.047 4  94953346.683 4      1260.475          29.000
E36  23420175.820 8 123073860.405 8      -572.363          51.000    23420179.180 8  94303371.550 8      -438.576          51.000
> 2020 05 17 16 32 30.0000000  0 14        .000000000000
G10  21073529.219 8 110742122.690 8      -979.008          51.000    21073531.109 8  86292609.662 8      -762.866          51.000
G16  23050918.047 6 121133356.374 6     -3484.863          40.000    23050916.688 6  94389605.438 6     -2715.475          39.000
G27  20402566.125 8 107216200.700 8      -800.852          51.000    20402568.289 8  83545103.107 8      -624.040          51.000
G32  24073281.555 7 126505951.248 7      2902.715          47.000    24073285.711 8  98576078.824 8      2261.859          48.000
R06  20815497.930 7 111075491.141 7      3311.020          47.000
R11  22214996.891 5 118710100.503 5     -2985.090          32.000    22214983.156 6  92330054.437 6     -2321.749          41.000
R21  19841985.547 4 106178497.690 4      1017.688          29.000    19842008.680 4  82583347.270 4       791.532          25.000
C05  39635465.023 5 206392266.697 5       -19.230          35.000    39635467.234 6 159595600.887 6       -14.997          37.000
C20  24470764.469 7 127425763.593 7      3195.828          45.000
C27  24529633.180 4 127732241.854 4     -2499.520          29.000
C30  21577452.453 8 112359455.077 8      -358.836          51.000
E02  25928047.219 7 136252814.791 7     -2673.457          44.000    25928051.781 7 104401498.790 7     -2048.550          44.000
E09  23572277.055 6 123873167.929 6      1624.199          38.000
E36  23423499.109 8 123091324.145 8      -587.215          51.000    23423502.500 8  94316752.847 8      -449.944          51.000
> 2020 05 17 16 33  0.0000000  0 14        .000000000000
G10  21079160.414 8 110771715.147 8      -992.875          50.000    21079162.289 8  86315668.732 8      -773.666          50.000
G16  23070822.828 6 121237962.648 6     -3488.164          37.000    23070823.211 6  94471116.790 6     -2718.050          37.000
G27  20407174.039 8 107240413.748 8      -812.520          51.000    20407175.984 8  83563970.400 8      -633.132          51.000
G32  24056717.102 8 126418904.261 8      2901.297          48.000    24056719.844 8  98508250.065 8      2260.754          48.000
R05  20644224.992 5 110355234.627 5     -1124.027          30.000
R06  20796925.203 7 110976384.178 7      3296.875          45.000
R11  22231791.641 6 118799850.787 6     -2997.480          36.000    22231778.992 6  92399860.057 6     -2331.377          41.000
C05  39635569.688 5 206392811.395 5       -15.773          35.000    39635571.898 6 159596022.096 6       -12.384          37.000
C20  24452365.195 7 127329949.329 7      3192.605          46.000
C27  24544042.898 5 127807270.348 5     -2500.914          32.000
C30  21579540.617 8 112370326.463 8      -365.199          51.000
E02  25943322.195 7 136333081.796 7     -2676.867          44.000    25943326.562 7 104463002.039 7     -2051.121          45.000
E09  23563031.938 6 123824581.175 6      1615.594          36.000    23563038.266 5  94878577.988 5      1238.386          35.000
E36  23426858.406 8 123108977.220 8      -588.906          51.000    23426861.680 8  94330279.226 8      -451.267          51.000
> 2020 05 17 16 33 30.0000000  0 15        .000000000000
G10  21084880.547 8 110801774.556 8     -1017.590          50.000    21084882.742 8  86339091.653 8      -792.930          50.000
G16  23090756.586 6 121342720.954 6     -3502.254          37.000    23090758.398 6  94552746.605 6     -2729.032          37.000
G27  20411857.227 8 107265022.856 8      -834.770          51.000    20411858.781 8  83583146.312 8      -650.470          51.000
G32  24040169.945 8 126331947.768 8      2889.094          48.000    24040171.094 8  98440491.834 8      2251.245          48.000
R05  20650616.195 6 110389368.734 6     -1158.051          36.000    20650615.438 4  85858407.424 4      -900.712          27.000
R06  20778440.734 7 110877753.556 7      3271.629          42.000
R11  22248664.406 6 118890020.019 6     -3020.488          39.000    22248653.062 6  92469991.611 6     -2349.272          41.000
R21  19830686.648 5 106117995.563 5       993.156          33.000    19830668.719 4  82536174.277 4       772.449          26.000
C05  39635664.195 5 206393303.683 5       -23.375          35.000    39635666.297 6 159596402.747 6       -18.199          37.000
C20  24433993.234 7 127234275.551 7      3179.012          47.000
C27  24558465.805 5 127882379.251 5     -2514.102          33.000
C30  21581673.688 8 112381433.157 8      -381.891          51.000
E02  25958625.102 7 136413496.191 7     -2690.758          44.000    25958629.547 7 104524618.236 7     -2061.708          46.000
E09  23553843.602 6 123776294.843 6      1596.668          40.000    23553848.570 6  94841579.438 6      1223.574          39.000
E36  23430235.953 8 123126726.582 8      -601.129          51.000    23430239.234 8  94343879.375 8      -460.545          51.000
> 2020 05 17 16 34  0.0000000  0 16        .000000000000
G08  20702887.352 5 108794408.779 5      1376.715          31.000    20702890.773 5  84774872.541 5      1072.768          30.000
G10  21090718.203 8 110832451.182 8     -1030.203          50.000    21090720.383 8  86362995.516 8      -802.756          50.000
G16  23110748.312 6 121447780.059 6     -3504.238          37.000    23110750.852 5  94634610.823 5     -2730.578          34.000
G27  20416644.570 8 107290179.837 8      -844.988          51.000    20416645.789 8  83602749.146 8      -658.432          51.000
G32  24023669.445 8 126245236.478 8      2888.953          48.000    24023670.172 8  98372924.669 8      2251.135          48.000
R05  20657167.883 5 110424400.548 5     -1179.777          33.000    20657173.625 4  85885668.012 4      -917.605          29.000
R06  20760074.906 6 110779757.805 6      3258.727          41.000
R11  22265644.352 6 118980758.295 6     -3031.223          40.000    22265633.070 6  92540565.787 6     -2357.618          41.000
R21  19825109.430 4 106088233.727 4       987.977          29.000    19825111.977 4  82513026.122 4       768.420          29.000
C05  39635777.500 5 206393893.809 5       -18.426          35.000    39635779.633 6 159596859.089 6       -14.623          36.000
C20  24415677.117 7 127138894.777 7      3177.254          46.000
C27  24572935.359 5 127957728.526 5     -2512.012          32.000
C30  21583880.859 8 112392925.952 8      -386.801          51.000
E02  25973984.461 6 136494207.655 6     -2692.660          41.000    25973988.844 7 104586462.100 7     -2063.252          45.000
E09  23544742.641 7 123728462.211 7      1589.266          42.000    23544748.617 6  94804928.491 6      1217.827          41.000
E36  23433660.625 8 123144723.952 8      -601.410          51.000    23433664.094 8  94357669.567 8      -460.794          51.000
> 2020 05 17 16 34 30.0000000  0 14        .000000000000
G10  21096641.648 8 110863578.430 8     -1045.109          50.000    21096643.500 8  86387250.524 8      -814.371          49.000
G16  23130766.031 6 121552972.210 6     -3508.551          39.000    23130767.477 5  94716578.679 5     -2733.945          33.000
G27  20421504.766 8 107315719.687 8      -857.785          51.000    20421505.914 8  83622650.328 8      -668.404          51.000
G32  24007184.633 8 126158608.306 8      2886.055          48.000    24007185.742 7  98305422.260 7      2248.877          47.000
R05  20663864.094 6 110460161.245 6     -1204.145          39.000    20663856.023 4  85913453.648 4      -936.566          28.000
R06  20741797.977 7 110682232.835 7      3242.664          42.000
R11  22282697.164 6 119071893.220 6     -3044.191          39.000    22282687.602 6  92611448.493 6     -2367.704          41.000
C05  39635878.242 5 206394418.156 5       -16.426          35.000    39635880.281 6 159597264.527 6       -12.638          37.000
C20  24397385.805 7 127043645.511 7      3172.699          46.000
C27  24587420.422 5 128033146.617 5     -2515.031          31.000
C30  21586130.859 8 112404641.697 8      -394.316          51.000
E02  25989367.383 5 136575049.019 5     -2696.809          35.000    25989372.438 7 104648405.499 7     -2066.464          44.000
E09  23535696.352 6 123680919.415 6      1579.883          41.000    23535700.102 6  94768499.597 6      1210.299          38.000
E36  23437101.023 8 123162804.123 8      -604.035          51.000    23437104.719 8  94371523.204 8      -462.868          51.000
> 2020 05 17 16 35  0.0000000  0 14        .000000000000
G10  21102666.109 8 110895236.652 8     -1063.531          51.000    21102668.133 8  86411919.281 8      -828.726          51.000
G11  21953217.281 5 115364931.631 5      2779.867          35.000
G16  23150824.383 6 121658376.059 6     -3516.461          39.000    23150822.852 5  94798711.442 5     -2740.102          32.000
G27  20426453.281 8 107341724.317 8      -874.047          51.000    20426454.562 8  83642913.660 8      -681.075          51.000
G32  23990731.500 7 126072148.054 7      2879.723          47.000    23990733.367 7  98238050.701 7      2243.940          46.000
R06  20723626.562 7 110585266.156 7      3223.461          44.000
R11  22299835.469 6 119163503.593 6     -3060.812          39.000    22299830.562 6  92682700.995 6     -2380.632          41.000
C05  39635981.852 5 206394957.815 5       -17.688          35.000    39635983.867 6 159597681.820 6       -13.508          37.000
C20  24379135.336 7 126948610.958 7      3164.777          46.000
C27  24601935.789 5 128108735.938 5     -2521.492          30.000
C30  21588439.148 8 112416661.882 8      -405.258          51.000
E02                                                                  26004794.742 7 104710509.576 7     -2072.252          42.000
E09  23526720.312 6 123633749.594 6      1566.598          41.000    23526720.000 6  94732356.504 6      1200.311          37.000
E36  23440572.844 8 123181048.885 8      -610.320          51.000    23440576.578 8  94385502.949 8      -467.672          51.000
> 2020 05 17 16 35 30.0000000  0 16        .000000000000
G08  20679630.188 5 108672189.468 5      1340.008          31.000
G10  21108780.453 8 110927367.243 8     -1079.055          49.000    21108782.547 8  86436956.102 8      -840.819          49.000
G11  21937366.844 5 115281630.000 5      2774.449          33.000
G16  23170911.859 6 121763931.499 6     -3521.305          38.000    23170906.070 5  94880962.276 5     -2743.880          33.000
G27  20431479.297 8 107368136.662 8      -887.496          51.000    20431480.609 8  83663494.702 8      -691.555          51.000
G32  23974299.859 7 125985801.561 7      2875.980          46.000    23974302.633 7  98170767.793 7      2241.024          46.000
R05  20677679.047 6 110534037.919 6     -1256.543          38.000    20677683.469 5  85970967.035 5      -977.320          31.000
R06  20705549.555 7 110488803.012 7      3206.707          44.000
R11  22317049.406 5 119255527.088 5     -3074.234          35.000    22317050.609 6  92754274.719 6     -2391.077          41.000
C05  39636077.406 5 206395455.119 5       -16.398          35.000    39636079.492 6 159598067.133 6       -12.390          36.000
C20  24360915.383 7 126853736.615 7      3159.469          46.000
C27  24616470.438 4 128184420.535 4     -2524.738          29.000
C30  21590794.938 8 112428930.273 8      -413.402          51.000
E02  26020240.477 6 136737282.577 6     -2709.500          40.000    26020244.133 6 104772728.947 6     -2075.958          41.000
E09  23517805.086 6 123586897.083 6      1556.180          41.000    23517804.469 6  94696456.548 6      1192.347          37.000
E36  23444065.031 8 123199401.031 8      -613.809          51.000    23444068.789 8  94399564.968 8      -470.309          51.000
> 2020 05 17 16 36  0.0000000  0 15        .000000000000
G01  23825787.891 5 125205365.369 5      3050.809          32.000
G10  21115018.250 8 110960146.899 8     -1101.328          49.000    21115019.945 8  86462498.718 8      -858.178          49.000
G16  23191061.492 5 121869814.523 5     -3532.961          35.000    23191053.219 5  94963468.515 5     -2752.947          35.000
G27  20436616.867 8 107395135.056 8      -907.730          51.000    20436618.273 8  83684532.411 8      -707.325          51.000
G32  23957924.422 7 125899750.088 7      2865.406          45.000    23957927.562 7  98103714.757 7      2232.787          45.000
R05  20684836.328 6 110572286.776 6     -1288.258          37.000    20684837.117 5  86000716.008 5     -1001.981          34.000
R06  20687601.961 7 110393028.381 7      3183.078          44.000
R11  22334375.938 6 119348140.430 6     -3094.867          39.000    22334380.094 6  92826307.257 6     -2407.119          38.000
C05                                                                  39636201.211 6 159598556.994 6       -16.438          36.000
C20  24342760.633 7 126759201.186 7      3147.387          47.000
C27  24631058.312 5 128260381.824 5     -2534.242          30.000
C30  21593232.477 8 112441623.977 8      -428.160          51.000
E02  26035757.062 7 136818810.898 7     -2720.957          44.000    26035754.977 6 104835198.674 6     -2084.934          40.000
E09  23508983.844 5 123540543.500 5      1538.637          31.000    23508985.094 6  94660937.364 6      1179.291          36.000
E36  23447611.531 8 123218038.789 8      -624.023          51.000    23447615.297 8  94413845.833 8      -478.142          51.000
> 2020 05 17 16 36 30.0000000  0 18        .000000000000
G01  23808359.406 5 125113772.323 5      3059.715          31.000
G10  21121321.719 8 110993271.512 8     -1104.809          48.000    21121323.516 8  86488310.091 8      -860.890          48.000
G11  21905776.633 6 115115606.686 6      2770.332          37.000    21905783.664 3  89700521.017 3      2158.700          20.000
G16  23211214.008 4 121975753.247 4     -3525.656          27.000    23211206.094 3  95045991.559 3     -2747.259          22.000
G20  22741631.273 5 119508076.561 5     -2921.188          33.000
G27  20441808.352 8 107422416.911 8      -909.160          51.000    20441809.930 8  83705790.992 8      -708.436          51.000
G32  23941548.570 7 125813694.009 7      2873.664          47.000    23941551.281 7  98036658.143 7      2239.222          46.000
R05  20692107.930 5 110611155.017 5     -1300.281          33.000    20692113.859 5  86030946.978 5     -1011.324          35.000
R06  20669726.367 7 110297639.396 7      3178.152          44.000
R11  22351756.961 6 119441031.576 6     -3095.855          40.000    22351762.469 6  92898555.867 6     -2407.894          39.000
C05  39636289.133 5 206396558.379 5        -8.180          35.000    39636291.211 6 159598919.462 6        -5.960          36.000
C20  24324614.281 8 126664706.907 8      3154.012          48.000
C27  24645640.828 4 128336321.266 4     -2525.012          29.000
C30  21595694.148 8 112454443.492 8      -424.363          50.000
E02  26051278.086 7 136900361.248 7     -2713.539          46.000    26051271.508 6 104897685.253 6     -2079.346          39.000
E04  26916480.672 6 141447056.532 6     -1051.172          41.000    26916480.047 5 108381515.177 5      -805.327          33.000
E09                                                                  23500200.531 5  94625568.056 5      1180.551          34.000
E36  23451154.883 8 123236659.464 8      -615.344          51.000    23451158.625 8  94428113.617 8      -471.464          51.000
> 2020 05 17 16 37  0.0000000  0 14        .000000000000
G10  21127720.648 7 111026898.877 7     -1135.480          46.000    21127723.164 7  86514513.266 7      -884.790          46.000
G11  21890026.500 5 115032826.114 5      2750.391          32.000
G27  20447084.047 8 107450141.652 8      -937.691          51.000    20447085.820 8  83727394.658 8      -730.669          51.000
G32  23925203.094 7 125727795.690 7      2854.633          47.000    23925205.102 7  97969724.455 7      2224.392          47.000
R05  20699524.453 6 110650802.629 6     -1340.879          37.000    20699526.789 5  86061783.957 5     -1042.909          34.000
R06  20651953.758 7 110202800.914 7      3145.773          43.000
R11  22369219.922 7 119534357.764 7     -3124.234          42.000    22369226.680 6  92971142.866 6     -2429.960          39.000
C05  39636377.828 5 206397019.842 5       -20.730          35.000    39636379.891 6 159599276.729 6       -16.513          37.000
C20  24306506.391 7 126570413.883 7      3133.695          46.000
C30  21598210.180 8 112467547.225 8      -447.539          50.000
E02  26066832.859 7 136982090.954 7     -2733.203          45.000    26066824.273 6 104960309.243 6     -2094.323          39.000
E04  26922561.805 6 141479015.657 6     -1077.879          39.000    26922559.617 5 108405992.335 5      -825.850          31.000
E09                                                                  23491483.844 6  94590471.734 6      1160.817          36.000
E36  23454725.438 8 123255422.409 8      -633.848          51.000    23454729.086 8  94442490.419 8      -485.634          51.000
> 2020 05 17 16 37 30.0000000  0 15        .000000000000
G10  21134244.797 7 111061183.724 7     -1154.875          46.000    21134247.195 7  86541228.737 7      -899.903          46.000
G11  21874344.203 5 114950448.083 5      2740.664          31.000
G16  23251664.398 6 122188315.523 6     -3553.531          36.000    23251644.461 5  95211595.916 5     -2768.985          30.000
G27  20452473.875 8 107478465.554 8      -955.027          51.000    20452475.711 8  83749465.213 8      -744.177          51.000
G32  23908917.797 8 125642214.343 8      2846.312          48.000    23908919.812 8  97903037.787 8      2217.909          48.000
R05  20707116.305 6 110691386.536 6     -1369.582          36.000    20707119.266 5  86093349.212 5     -1065.230          35.000
R06  20634314.922 7 110108675.750 7      3124.504          43.000
R11  22386794.000 7 119628273.859 7     -3141.293          44.000    22386801.555 6  93044188.675 6     -2443.231          40.000
C05  39636495.109 5 206397630.386 5       -24.289          35.000    39636497.102 6 159599748.404 6       -18.320          36.000
C20  24288466.555 7 126476479.021 7      3124.172          45.000
C30  21600810.672 8 112481090.328 8      -459.730          51.000
E02  26082450.156 7 137064154.199 7     -2741.887          43.000    26082441.977 6 105023188.813 6     -2101.145          39.000
E04  26928746.414 5 141511521.184 5     -1093.559          34.000
E09                                                                  23482867.109 6  94555769.131 6      1149.309          38.000
E36  23458352.805 8 123274483.839 8      -641.422          51.000    23458356.297 8  94457095.926 8      -491.473          51.000
> 2020 05 17 16 38  0.0000000  0 14        .000000000000
G10  21140860.023 7 111095947.587 7     -1175.492          46.000    21140862.445 7  86568317.476 7      -915.968          46.000
G16  23271939.336 6 122294834.638 6     -3563.785          39.000    23271926.992 5  95294640.937 5     -2776.982          31.000
G27  20457944.039 8 107507211.750 8      -974.086          51.000    20457945.805 8  83771864.825 8      -759.028          51.000
G32  23892659.656 8 125556776.090 8      2836.750          48.000    23892661.711 8  97836462.591 8      2210.455          48.000
R05  20714848.406 6 110732724.471 6     -1399.621          37.000    20714853.383 6  86125501.053 6     -1088.594          36.000
R06  20616776.805 7 110015088.717 7      3101.480          44.000
R11  22404444.406 7 119722595.323 7     -3159.664          44.000    22404452.766 6  93117549.771 6     -2457.520          40.000
C05  39636607.125 5 206398213.111 5       -27.922          35.000    39636609.078 6 159600198.021 6       -21.325          37.000
C20  24270461.492 7 126382729.236 7      3113.090          44.000
C30  21603462.359 8 112494898.002 8      -473.434          51.000
E02  26098095.695 7 137146371.998 7     -2751.910          42.000    26098089.094 6 105086186.829 6     -2108.837          38.000
E05  27099867.922 6 142410763.297 6      3016.855          41.000    27099868.625 6 109119937.171 6      2311.410          37.000
E09                                                                  23474314.266 6  94521325.669 6      1136.959          38.000
E36  23462003.328 8 123293666.845 8      -650.320          51.000    23462006.758 8  94471794.588 8      -498.309          51.000
> 2020 05 17 16 38 30.0000000  0 15        .000000000000
G10  21147569.992 7 111131208.773 7     -1187.535          46.000    21147572.773 7  86595793.714 7      -925.352          46.000
G16  23292246.898 6 122401570.800 6     -3564.242          40.000    23292240.906 4  95377811.893 4     -2777.332          28.000
G27  20463498.375 8 107536400.101 8      -984.090          51.000    20463500.078 8  83794608.970 8      -766.823          51.000
G32  23876433.039 8 125471503.776 8      2835.898          49.000    23876435.320 8  97770016.681 8      2209.791          49.000
R05  20722726.305 6 110774834.928 6     -1420.219          37.000    20722730.445 5  86158253.630 5     -1104.615          35.000
R06  20599344.734 8 109922062.831 8      3087.531          48.000
R11  22422174.172 7 119817337.729 7     -3168.906          44.000    22422182.180 6  93191238.279 6     -2464.705          40.000
C05  39636717.602 5 206398789.213 5       -22.617          35.000    39636719.461 6 159600642.748 6       -17.495          36.000
C20  24252496.734 7 126289186.141 7      3110.992          45.000
C27  24704320.109 5 128641878.172 5     -2559.555          31.000
C30  21606168.805 8 112508990.275 8      -478.258          51.000
E02  26113773.141 6 137228762.137 6     -2753.023          40.000    26113768.031 6 105149316.889 6     -2109.394          37.000
E05  27082601.266 6 142320024.900 6      3020.246          40.000    27082602.727 6 109050410.451 6      2314.182          38.000
E09  23465829.836 6 123313761.064 6      1476.578          38.000    23465827.352 6  94487157.526 6      1131.470          38.000
E36  23465680.758 8 123312991.199 8      -650.281          51.000    23465684.172 8  94486601.552 8      -498.238          51.000
> 2020 05 17 16 39  0.0000000  0 17        .000000000000
G08  20627968.430 5 108400703.900 5      1251.078          30.000    20627969.070 5  84468076.061 5       974.869          30.000
G10  21154357.945 7 111166880.238 7     -1196.375          45.000    21154360.367 7  86623589.664 7      -932.240          45.000
G16  23312570.914 6 122508387.966 6     -3562.195          40.000    23312568.234 5  95461046.024 5     -2775.737          34.000
G27  20469120.539 8 107565945.183 8      -991.234          51.000    20469122.391 8  83817631.096 8      -772.390          51.000
G32  23860222.039 8 125386315.030 8      2837.648          48.000    23860225.156 8  97703635.904 8      2211.155          48.000
R05  20730731.664 6 110817628.705 6     -1438.398          36.000    20730736.078 6  86191537.667 6     -1118.754          36.000
R06  20582002.664 8 109829515.673 8      3076.438          49.000
R11  22439966.406 7 119912410.197 7     -3175.062          43.000    22439973.727 6  93265183.452 6     -2469.496          40.000
C05  39636810.375 5 206399272.039 5       -15.410          35.000    39636812.148 6 159601016.082 6       -11.844          37.000
C20  24234556.758 8 126195767.289 8      3111.406          48.000
C27  24719030.094 5 128718529.342 5     -2556.992          31.000
C30  21608913.516 8 112523282.983 8      -480.258          51.000
E02  26129466.398 6 137311237.155 6     -2750.828          38.000    26129462.156 6 105212511.985 6     -2107.724          37.000
E04  26947715.438 6 141611196.544 6     -1124.391          36.000    26947720.570 5 108507302.204 5      -861.402          32.000
E05  27065325.305 6 142229238.879 6      3026.520          39.000    27065326.867 6 108980847.278 6      2319.069          38.000
E09                                                                  23457393.578 6  94453200.338 6      1127.962          37.000
E36  23469368.805 8 123332371.534 8      -647.414          51.000    23469372.203 8  94501451.415 8      -496.079          51.000
> 2020 05 17 16 39 30.0000000  0 17        .000000000000
G08  20620908.492 5 108363596.512 5      1229.773          34.000    20620908.859 5  84439161.080 5       958.268          34.000
G10  21161271.102 7 111203208.832 7     -1219.285          46.000    21161273.211 7  86651897.645 7      -950.092          46.000
G16  23332958.328 6 122615531.673 6     -3574.566          40.000    23332957.648 5  95544534.585 5     -2785.376          32.000
G27  20474857.750 8 107596095.433 8     -1012.598          51.000    20474859.812 8  83841124.783 8      -789.037          51.000
G32  23844074.672 7 125301461.249 7      2825.336          47.000    23844078.297 8  97637516.124 8      2201.564          48.000
R05  20738911.898 6 110861356.359 6     -1470.441          38.000    20738917.094 6  86225548.109 6     -1143.677          36.000
R06  20564797.711 7 109737703.466 7      3050.633          47.000
R11  22457866.914 7 120008060.663 7     -3195.430          44.000    22457872.602 6  93339578.233 6     -2485.331          39.000
C05  39636932.445 5 206399907.717 5       -21.523          35.000    39636934.344 6 159601508.395 6       -16.538          36.000
C20  24216688.883 8 126102720.926 8      3097.766          50.000
C27  24733801.828 4 128795473.308 4     -2567.578          29.000
C30  21611744.070 8 112538022.680 8      -496.309          51.000
E02  26145221.172 5 137394043.469 5     -2763.469          33.000    26145218.820 6 105275960.908 6     -2117.029          37.000
E04  26954207.547 5 141645316.594 5     -1143.844          34.000    26954213.141 5 108533446.054 5      -876.143          31.000
E05  27048087.789 6 142138655.616 6      3018.348          38.000    27048089.891 6 108911439.425 6      2312.889          39.000
E09                                                                  23449058.891 5  94419645.391 5      1113.841          33.000
E36  23473114.758 8 123352056.235 8      -658.707          51.000    23473118.062 8  94516534.490 8      -504.706          51.000
> 2020 05 17 16 40  0.0000000  0 17        .000000000000
G01  23687162.898 6 124476875.634 6      3019.352          36.000
G08  20613897.531 5 108326753.137 5      1222.750          35.000    20613897.133 6  84410451.971 6       952.798          36.000
G10  21168253.664 7 111239901.871 7     -1230.254          46.000    21168256.156 7  86680489.627 7      -958.639          46.000
G16  23353352.469 6 122722707.947 6     -3574.168          39.000    23353353.336 5  95628048.519 5     -2785.069          30.000
G27  20480654.734 8 107626559.746 8     -1021.777          51.000    20480657.008 8  83864863.213 8      -796.190          51.000
G32  23827936.039 7 125216654.409 7      2824.797          47.000    23827940.219 7  97571432.916 7      2201.140          47.000
R05  20747210.836 6 110905719.404 6     -1490.473          41.000    20747215.727 5  86260052.736 5     -1159.260          35.000
R06  20547674.562 7 109646334.197 7      3037.184          45.000
R11  22475819.180 7 120103988.626 7     -3203.266          43.000    22475824.727 6  93414188.806 6     -2491.432          41.000
R21  19762782.703 4 105754640.385 4       865.707          29.000    19762788.703 5  82253631.011 5       673.334          32.000
C05  39637028.859 5 206400409.854 5       -15.711          34.000    39637030.695 6 159601896.648 6       -11.832          37.000
C20  24198837.789 8 126009760.751 8      3096.129          51.000
C30  21614605.391 8 112552921.370 8      -500.355          51.000
E02                                                                  26160982.914 6 105339439.079 6     -2117.475          37.000
E05  27030833.898 6 142047985.888 6      3022.738          38.000    27030836.430 6 108841965.344 6      2315.989          39.000
E09  23440769.008 5 123182083.131 5      1446.691          33.000    23440768.359 5  94386261.662 5      1108.734          32.000
E36  23476863.203 8 123371754.248 8      -657.895          51.000    23476866.492 8  94531627.774 8      -504.110          51.000
> 2020 05 17 16 40 30.0000000  0 16        .000000000000
G10  21175333.539 7 111277106.375 7     -1248.480          47.000    21175335.867 7  86709480.120 7      -972.845          47.000
G16  23373780.789 6 122830062.497 6     -3581.242          38.000    23373781.680 5  95711701.383 5     -2790.575          31.000
G27  20486539.750 8 107657486.718 8     -1038.441          51.000    20486542.359 8  83888962.146 8      -809.175          51.000
G32  23811835.305 7 125132046.136 7      2817.043          47.000    23811840.070 7  97505504.442 7      2195.101          47.000
R05  20755657.359 6 110950867.081 6     -1517.781          39.000    20755661.211 5  86295167.520 5     -1180.493          35.000
R06  20530663.250 7 109555562.451 7      3015.734          45.000
R11  22493851.133 7 120200340.925 7     -3218.570          45.000    22493855.820 6  93489129.461 6     -2503.332          40.000
R21  19757975.336 5 105728911.134 5       853.355          30.000    19757972.578 5  82233595.098 5       663.724          30.000
C05  39637127.656 5 206400925.111 5       -17.250          35.000    39637129.453 6 159602293.717 6       -13.420          36.000
C20  24181031.719 8 125917036.124 8      3087.070          51.000
C30  21617525.602 8 112568126.719 8      -511.832          51.000
E02  26176799.320 5 137560011.494 5     -2770.727          35.000    26176783.070 6 105403058.756 6     -2123.003          36.000
E04  26967363.203 5 141714448.081 5     -1166.105          34.000
E05  27013592.570 5 141957380.291 5      3019.031          34.000    27013595.133 6 108772540.349 6      2313.496          38.000
E09  23432551.070 5 123138891.330 5      1432.766          34.000    23432553.711 5  94353180.978 5      1098.022          33.000
E36  23480642.469 8 123391614.192 8      -664.570          51.000    23480645.836 8  94546845.122 8      -509.210          51.000
> 2020 05 17 16 41  0.0000000  0 19        .000000000000
G08  20600113.508 5 108254341.579 5      1193.344          34.000    20600116.102 5  84354037.883 5       929.884          34.000
G10  21182514.953 8 111314844.584 8     -1265.562          48.000    21182517.102 8  86738886.498 8      -986.153          48.000
G11  21765511.672 5 114378517.640 5      2700.625          35.000
G16  23394247.516 6 122937616.549 6     -3586.902          36.000    23394248.164 5  95795509.661 5     -2794.980          34.000
G27  20492517.500 8 107688900.232 8     -1053.824          51.000    20492520.102 8  83913440.213 8      -821.159          51.000
G32  23795777.953 8 125047663.353 8      2810.289          49.000    23795783.023 8  97439751.706 8      2189.839          49.000
R05  20764254.289 6 110996821.208 6     -1543.891          41.000    20764258.086 5  86330909.672 5     -1200.807          34.000
R06  20513769.734 7 109465415.558 7      2995.762          46.000
R11  22511966.133 7 120297137.262 7     -3232.559          46.000    22511969.844 6  93564415.417 6     -2514.215          41.000
R21  19753227.383 5 105703505.812 5       842.047          32.000    19753227.844 4  82213835.344 4       654.925          29.000
C05  39637233.445 5 206401474.721 5       -17.754          35.000    39637235.336 6 159602719.878 6       -13.559          37.000
C20  24163275.398 8 125824572.874 8      3079.012          51.000
C27  24778233.055 5 129026742.938 5     -2577.230          33.000
C30  21620509.266 8 112583662.846 8      -521.996          51.000
E02  26192637.328 6 137643247.214 6     -2776.680          37.000    26192623.398 6 105466836.719 6     -2127.472          37.000
E04  26974061.414 5 141749650.088 5     -1178.906          35.000
E05                                                                  26996370.844 6 108703184.199 6      2311.874          38.000
E09  23424414.062 6 123096123.847 6      1419.781          38.000    23424418.547 6  94320415.691 6      1087.929          36.000
E36  23484457.156 8 123411659.963 8      -669.902          51.000    23484460.438 8  94562204.860 8      -513.251          51.000
> 2020 05 17 16 41 30.0000000  0 19        .000000000000
G08  20593344.875 5 108218737.230 5      1178.043          33.000    20593343.766 5  84326287.347 5       917.956          33.000
G10  21189790.289 8 111353076.393 8     -1283.602          49.000    21189792.305 8  86768677.527 8     -1000.209          49.000
G11  21750120.086 5 114297627.903 5      2692.223          33.000
G16  23414744.766 5 123045328.769 5     -3594.191          31.000
G27  20498580.695 8 107720761.822 8     -1070.684          51.000    20498583.188 8  83938267.420 8      -834.299          51.000
G32  23779756.992 8 124963470.641 8      2802.090          50.000    23779762.039 8  97374147.061 8      2183.447          49.000
R05  20772994.125 6 111043540.551 6     -1571.234          40.000    20772996.148 5  86367246.864 5     -1222.074          34.000
R06  20496987.336 7 109375859.307 7      2974.152          46.000
R11  22530155.883 7 120394333.789 7     -3247.617          46.000    22530158.648 6  93640012.674 6     -2525.924          41.000
R21  19748533.148 5 105678407.002 5       829.574          32.000    19748535.133 4  82194318.984 4       645.224          25.000
C05  39637339.008 5 206402025.123 5       -19.379          34.000    39637340.766 6 159603144.699 6       -14.879          37.000
C20  24145561.805 8 125732334.997 8      3069.848          50.000
C27  24793103.055 5 129104152.525 5     -2583.738          33.000
C30  21623549.391 8 112599492.046 8      -533.648          51.000
E02  26208507.898 6 137726649.002 6     -2783.910          39.000    26208495.852 6 105530741.914 6     -2133.057          37.000
E04  26980834.414 5 141785240.388 5     -1194.184          33.000
E05                                                                  26979156.672 6 108633868.914 6      2308.950          37.000
E09  23416349.836 6 123053735.466 6      1405.777          39.000    23416354.875 6  94287936.281 6      1077.325          38.000
E36  23488299.891 8 123431853.140 8      -676.570          51.000    23488302.945 8  94577677.555 8      -518.408          51.000
> 2020 05 17 16 42  0.0000000  0 16        .000000000000
G10  21197163.125 8 111391820.497 8     -1300.254          48.000    21197164.961 8  86798867.699 8     -1013.185          48.000
G11  21734769.383 5 114216963.927 5      2685.109          34.000
G27  20504733.039 8 107753091.655 8     -1085.746          51.000    20504735.391 8  83963459.474 8      -846.036          51.000
G32  23763776.422 8 124879491.302 8      2795.320          48.000    23763781.398 8  97308708.649 8      2178.172          48.000
R05  20781880.445 6 111091043.350 6     -1596.785          40.000    20781884.242 5  86404193.548 5     -1241.944          35.000
R06  20480319.758 7 109286917.229 7      2954.281          45.000
R11  22548422.469 7 120491947.143 7     -3260.871          46.000    22548425.984 7  93715934.129 7     -2536.236          42.000
R21  19743911.023 6 105653664.857 6       818.883          38.000
C05  39637448.148 5 206402592.859 5       -19.461          35.000    39637449.812 6 159603583.693 6       -14.949          36.000
C20  24127895.719 8 125640344.651 8      3061.902          50.000
C30  21626649.688 8 112615634.814 8      -543.574          51.000
E02  26224413.203 6 137810235.040 6     -2789.383          39.000    26224403.484 6 105594788.289 6     -2137.786          37.000
E04  26987685.281 5 141821237.081 5     -1206.840          34.000
E05  26961954.383 5 141686031.744 5      3011.535          34.000    26961956.344 6 108564611.463 6      2307.435          36.000
E09  23408359.930 6 123011741.531 6      1393.133          38.000    23408364.648 6  94255759.221 6      1067.265          36.000
E36  23492174.430 8 123452213.983 8      -681.703          51.000    23492177.297 8  94593278.721 8      -522.341          51.000
> 2020 05 17 16 42 30.0000000  0 16        .000000000000
G08  20580039.008 5 108148818.442 5      1149.773          31.000    20580040.508 5  84271805.490 5       895.924          30.000
G10  21204632.195 8 111431070.986 8     -1318.020          49.000    21204634.180 8  86829452.510 8     -1027.028          49.000
G27  20510973.719 8 107785885.576 8     -1102.164          51.000    20510976.094 8  83989013.148 8      -858.832          51.000
G32  23747835.523 7 124795724.177 7      2787.414          45.000    23747841.133 7  97243435.594 7      2172.011          45.000
R05  20790912.422 6 111139322.825 6     -1623.820          41.000    20790914.883 5  86441744.241 5     -1262.974          32.000
R06  20463766.250 7 109198589.599 7      2932.750          44.000
R11  22566765.492 7 120589968.244 7     -3275.500          47.000    22566770.242 7  93792172.712 7     -2547.614          43.000
R21  19739353.469 5 105629262.227 5       806.555          35.000
C05  39637559.852 5 206403175.315 5       -20.953          35.000    39637561.344 6 159604033.686 6       -16.042          36.000
C20  24110277.258 8 125548599.872 8      3052.754          51.000
C30  21629809.219 8 112632087.505 8      -554.863          51.000
E02  26240352.070 6 137893999.168 6     -2796.297          41.000    26240344.859 6 105658971.069 6     -2142.521          37.000
E04  26994612.531 5 141857636.266 5     -1221.605          34.000
E05  26944766.070 6 141595718.178 6      3008.328          36.000    26944769.398 5 108495410.198 5      2304.768          35.000
E09  23400443.742 6 122970139.232 6      1378.938          40.000    23400446.305 5  94223899.254 5      1056.205          32.000
E36  23496080.000 8 123472738.427 8      -688.160          51.000    23496082.773 8  94609005.237 8      -527.259          51.000
> 2020 05 17 16 43  0.0000000  0 17        .000000000000
G08  20573511.492 5 108114510.655 5      1129.438          32.000    20573512.227 5  84245072.170 5       880.084          32.000
G10  21212199.047 8 111470834.985 8     -1340.770          50.000    21212200.852 8  86860437.430 8     -1044.752          50.000
G16  23476441.617 5 123369509.693 5     -3617.801          34.000    23476443.922 4  96132111.430 4     -2819.066          29.000
G27  20517304.250 8 107819152.152 8     -1123.477          51.000    20517306.633 8  84014935.123 8      -875.436          51.000
G32  23731936.883 7 124712181.008 7      2774.262          45.000    23731943.492 7  97178337.054 7      2161.765          45.000
R05  20800090.766 6 111188385.607 6     -1655.102          40.000    20800091.289 5  86479904.122 5     -1287.304          33.000
R06  20447330.180 7 109110888.107 7      2906.035          45.000
R11  22585186.328 7 120688401.727 7     -3294.824          47.000    22585190.664 6  93868732.029 6     -2562.641          41.000
R21  19734858.719 5 105605209.159 5       789.254          34.000    19734864.633 4  82137410.506 4       613.864          26.000
C05  39637676.008 5 206403779.645 5       -27.062          35.000    39637677.336 6 159604501.426 6       -21.310          36.000
C20  24092708.219 8 125457111.353 8      3038.668          51.000
C30  21633030.008 8 112648859.116 8      -571.051          51.000
E02  26256326.023 7 137977947.939 7     -2808.094          42.000    26256321.039 6 105723295.407 6     -2151.566          37.000
E04  27001617.523 6 141894445.575 6     -1240.797          37.000
E05  26927594.906 6 141505488.583 6      2999.637          36.000    26927599.164 6 108426273.236 6      2298.189          36.000
E09  23392604.289 6 122928938.561 6      1359.871          40.000
E36  23500018.367 8 123493435.130 8      -699.578          51.000    23500021.000 8  94624863.754 8      -536.010          51.000
> 2020 05 17 16 43 30.0000000  0 18        .000000000000
G08  20567052.242 6 108080567.088 6      1121.676          37.000    20567052.602 6  84218622.651 6       874.036          37.000
G10  21219850.078 8 111511040.922 8     -1351.332          49.000    21219851.539 8  86891766.750 8     -1052.983          49.000
G11  21688965.008 5 113976237.257 5      2661.512          35.000
G16  23497057.016 5 123477843.360 5     -3616.746          33.000
G27  20523711.312 8 107852821.551 8     -1132.840          51.000    20523713.797 8  84041170.997 8      -882.732          51.000
G32  23716069.125 7 124628795.040 7      2772.969          47.000    23716075.875 7  97113360.974 7      2160.755          47.000
R05  20809401.055 6 111238158.110 6     -1674.840          37.000    20809404.203 5  86518616.199 5     -1302.647          33.000
R06  20430999.125 7 109023745.438 7      2891.594          44.000
R11  22603670.148 7 120787171.866 7     -3301.852          47.000    22603673.922 7  93945553.183 7     -2568.113          42.000
R21  19730415.578 5 105581435.746 5       783.973          33.000    19730421.242 5  82118920.029 5       609.757          30.000
C05  39637783.258 5 206404338.174 5       -21.543          35.000    39637784.523 6 159604933.291 6       -16.885          36.000
C20  24075175.430 8 125365811.994 8      3036.375          51.000
C30  21636298.695 8 112665880.881 8      -575.328          51.000
E02  26272321.938 6 138062009.665 6     -2807.867          41.000    26272317.594 5 105787706.243 5     -2151.315          35.000
E04  27008687.133 6 141931594.276 6     -1247.949          38.000
E05  26910427.430 6 141415275.017 6      3003.105          38.000    26910432.523 5 108357148.536 5      2301.144          35.000
E09  23384827.383 6 122888070.814 6      1352.891          39.000    23384830.047 5  94161020.647 5      1036.642          34.000
E36  23503976.250 8 123514234.360 8      -698.906          51.000    23503978.797 8  94640800.832 8      -535.514          51.000
> 2020 05 17 16 44  0.0000000  0 18        .000000000000
G08  20560672.570 6 108047041.745 6      1111.312          37.000    20560673.945 6  84192498.974 6       865.955          38.000
G10  21227594.859 8 111551740.004 8     -1364.211          48.000    21227596.562 8  86923480.334 8     -1063.018          48.000
G11  21673777.961 6 113896413.260 6      2657.898          36.000
G16  23517702.125 6 123586329.408 6     -3617.742          36.000
G27  20530204.961 8 107886946.489 8     -1144.379          51.000    20530207.562 8  84067761.838 8      -891.727          51.000
G32  23700242.352 7 124545622.051 7      2769.570          47.000    23700248.688 8  97048550.881 8      2158.110          48.000
R05  20818854.430 7 111288691.971 7     -1696.367          43.000    20818855.453 5  86557920.175 5     -1319.403          31.000
R06  20414783.312 7 108937219.236 7      2874.664          45.000
R11  22622225.773 7 120886327.962 7     -3310.852          46.000    22622229.508 7  94022674.487 7     -2575.110          42.000
R21  19726035.750 5 105557996.956 5       776.309          33.000    19726038.766 5  82100689.800 5       603.799          31.000
C05  39637891.766 5 206404902.872 5       -19.164          35.000    39637892.672 6 159605367.897 6       -14.163          36.000
C20  24057689.016 8 125274756.280 8      3031.855          51.000
C30  21639625.867 8 112683205.599 8      -581.848          51.000
E02  26288349.656 6 138146235.054 6     -2809.562          37.000    26288344.141 5 105852242.529 5     -2152.839          32.000
E04  27015831.422 6 141969134.225 6     -1257.324          37.000
E05  26893273.258 6 141325132.209 6      3004.297          38.000    26893280.422 5 108288078.094 5      2302.042          33.000
E09  23377124.578 7 122847590.170 7      1343.484          42.000    23377121.352 5  94130003.151 5      1029.426          34.000
E36  23507963.664 8 123535188.984 8      -700.340          51.000    23507966.164 8  94656856.974 8      -536.645          51.000
> 2020 05 17 16 44 30.0000000  0 18        .000000000000
G08  20554370.164 6 108013923.070 6      1096.789          37.000    20554372.992 6  84166692.187 6       854.638          37.000
G10  21235430.648 8 111592916.964 8     -1380.840          50.000    21235432.227 7  86955566.309 7     -1075.979          47.000
G11  21658629.961 5 113816795.999 5      2650.059          32.000
G16  23538372.555 5 123694951.053 5     -3622.836          32.000    23538369.562 4  96385699.896 4     -2823.016          29.000
G27  20536782.609 8 107921513.345 8     -1159.969          51.000    20536785.289 8  84094697.038 8      -903.872          51.000
G32  23684454.102 8 124462651.592 8      2762.012          48.000    23684459.781 8  96983898.641 8      2152.217          48.000
R05  20828447.398 5 111339970.451 5     -1722.074          34.000    20828449.734 5  86597803.486 5     -1339.382          33.000
R06  20398682.039 7 108851299.545 7      2853.418          47.000
R11  22640850.117 8 120985851.818 8     -3323.703          48.000    22640853.875 7  94100081.878 7     -2585.102          42.000
R21  19721716.453 5 105534880.122 5       764.496          34.000    19721717.016 5  82082710.003 5       594.608          32.000
C05  39637998.922 5 206405461.100 5       -18.113          35.000    39637999.578 6 159605798.875 6       -14.580          36.000
C20  24040247.016 8 125183932.882 8      3023.262          50.000
C30  21643008.891 8 112700820.229 8      -592.383          51.000
E02  26304405.352 6 138230608.464 6     -2815.051          38.000    26304398.414 5 105916912.313 5     -2156.963          32.000
E04  27023046.938 6 142007050.896 6     -1270.270          36.000    27023053.984 5 108810641.408 5      -973.440          35.000
E05  26876130.625 6 141235048.595 6      3001.602          40.000
E09  23369493.109 6 122807484.278 6      1330.293          39.000    23369487.750 5  94099272.786 5      1019.315          34.000
E36  23511978.062 8 123556285.531 8      -705.906          51.000    23511980.594 8  94673021.848 8      -540.901          51.000
> 2020 05 17 16 45  0.0000000  0 18        .000000000000
G08  20548161.078 5 107981294.908 5      1083.566          35.000    20548164.016 5  84141267.584 5       844.331          34.000
G10  21243372.633 8 111634652.517 8     -1396.125          48.000    21243374.312 7  86988087.539 7     -1087.890          46.000
G16  23559083.750 5 123803819.176 5     -3627.613          33.000    23559082.086 5  96470508.107 5     -2826.709          30.000
G27  20543460.078 8 107956604.378 8     -1174.027          51.000    20543462.836 8  84122040.681 8      -914.827          51.000
G32  23668720.312 7 124379969.167 7      2755.566          47.000    23668725.242 7  96919470.829 7      2147.195          47.000
R05  20838193.391 6 111392075.248 6     -1746.031          40.000    20838196.742 5  86638329.398 5     -1358.030          32.000
R06  20382711.594 8 108766073.027 8      2833.617          48.000
R11  22659558.727 8 121085822.807 8     -3335.316          48.000    22659562.641 7  94177837.037 7     -2594.138          43.000
R21  19717472.742 6 105512170.185 6       754.750          36.000    19717472.531 5  82065046.741 5       587.028          30.000
C05  39638120.430 5 206406093.800 5       -17.859          35.000    39638120.891 6 159606287.325 6       -13.910          36.000
C20  24022865.367 8 125093425.604 8      3015.902          48.000
C27  24897952.812 5 129650170.326 5     -2613.855          30.000
C30  21646463.164 8 112718806.851 8      -601.480          51.000
E02  26320504.305 5 138315210.350 5     -2819.461          35.000    26320497.289 5 105981740.057 5     -2160.510          33.000
E04  27030349.391 6 142045425.788 6     -1282.590          37.000    27030355.508 6 108840045.489 6      -982.581          37.000
E05  26859015.602 7 141145108.540 7      2999.852          43.000
E09  23361948.461 6 122767836.596 6      1318.367          37.000    23361941.617 5  94068893.475 5      1010.148          34.000
E36  23516035.242 8 123577606.439 8      -710.133          51.000    23516037.719 8  94689358.649 8      -544.152          51.000
> 2020 05 17 16 45 30.0000000  0 17        .000000000000
G08  20542023.570 6 107949042.634 6      1068.629          38.000    20542025.414 6  84116136.014 6       832.701          39.000
G10  21251398.422 8 111676829.116 8     -1413.461          48.000    21251400.508 7  87020952.474 7     -1101.398          45.000
G16  23579813.742 5 123912752.857 5     -3632.879          35.000    23579811.039 4  96555387.466 4     -2830.806          29.000
G27  20550215.398 8 107992103.780 8     -1190.414          51.000    20550218.188 8  84149702.540 8      -927.595          51.000
G32  23653019.352 7 124297461.959 7      2746.918          45.000    23653023.773 7  96855179.563 7      2140.456          45.000
R05  20848073.688 6 111444885.906 6     -1772.414          36.000    20848074.961 5  86679404.287 5     -1378.547          31.000
R06  20366849.781 8 108681426.049 8      2811.594          49.000
R11  22678328.164 8 121186118.524 8     -3348.824          48.000    22678332.359 7  94255844.724 7     -2604.644          43.000
R21  19713282.016 5 105489750.935 5       742.086          34.000    19713279.188 4  82047576.508 4       577.175          26.000
C05  39638233.977 6 206406685.106 6       -19.078          36.000    39638234.594 6 159606744.565 6       -14.843          36.000
C20  24005522.508 8 125003121.771 8      3006.484          48.000
C30  21649966.805 8 112737051.191 8      -612.738          51.000
E02  26336623.758 5 138399922.802 5     -2825.695          34.000    26336618.180 5 106046649.604 5     -2165.179          34.000
E04  27037716.648 6 142084142.010 6     -1296.590          37.000    27037722.539 6 108869711.146 6      -993.344          39.000
E05  26841906.406 7 141055198.214 7      2996.215          43.000    26841914.539 6 108081266.422 6      2295.852          38.000
E09  23354470.836 6 122728532.703 6      1304.074          37.000    23354461.227 5  94038777.558 5       999.268          33.000
E36  23520113.211 8 123599036.002 8      -716.422          51.000    23520115.547 8  94705778.692 8      -548.905          51.000
> 2020 05 17 16 46  0.0000000  0 17        .000000000000
G08  20535962.086 6 107917188.631 6      1054.215          39.000    20535962.836 6  84091314.694 6       821.469          39.000
G10  21259511.672 7 111719465.303 7     -1429.660          46.000    21259513.555 7  87054175.504 7     -1114.018          45.000
G16  23600565.328 6 124021801.050 6     -3637.309          37.000    23600559.812 5  96640346.939 5     -2834.276          30.000
G27  20557052.312 8 108028031.480 8     -1205.477          51.000    20557055.039 8  84177698.134 8      -939.332          51.000
G32  23637356.031 7 124215153.244 7      2739.336          45.000    23637360.000 7  96791042.948 7      2134.551          45.000
R05  20858088.805 5 111498420.421 5     -1798.023          34.000    20858089.453 5  86721042.231 5     -1398.463          31.000
R06  20351100.945 8 108597382.897 8      2790.586          49.000
R11  22697161.188 8 121286754.947 8     -3360.988          48.000    22697164.898 7  94334117.434 7     -2614.105          42.000
R21  19709149.969 6 105467643.685 6       731.051          38.000    19709142.594 3  82030359.016 3       568.595          23.000
C05  39638343.562 6 206407256.156 6       -19.816          36.000    39638344.203 6 159607186.119 6       -14.934          37.000
C20  23988223.453 8 124913043.512 8      2998.074          49.000
C30  21653523.789 8 112755573.670 8      -622.859          51.000
E02  26352768.266 5 138484764.064 5     -2831.223          34.000    26352762.047 5 106111657.749 5     -2169.112          32.000
E04                                                                  27045158.250 6 108899653.137 6     -1003.299          39.000
E05  26824806.766 7 140965339.755 7      2993.602          43.000    26824813.922 7 108012413.896 7      2293.712          42.000
E09  23347063.727 5 122689594.062 5      1291.227          33.000    23347052.555 5  94008941.381 5       989.193          35.000
E36  23524215.797 8 123620594.485 8      -721.641          51.000    23524218.000 8  94722297.519 8      -552.907          51.000
> 2020 05 17 16 46 30.0000000  0 17        .000000000000
G08  20529977.602 6 107885741.323 6      1039.086          36.000    20529978.445 6  84066810.293 6       809.677          36.000
G10  21267713.484 7 111762566.819 7     -1446.316          45.000    21267715.586 7  87087761.153 7     -1126.997          45.000
G16  23621339.203 6 124130968.443 6     -3642.742          39.000
G27  20563972.203 8 108064394.958 8     -1221.379          51.000    20563974.805 8  84206033.304 8      -951.724          51.000
G32  23621732.984 7 124133053.571 7      2731.285          46.000    23621736.406 7  96727069.220 7      2128.277          46.000
R05  20868239.523 5 111552683.532 5     -1822.930          33.000    20868241.086 5  86763246.983 5     -1417.828          32.000
R06  20335466.500 7 108513954.123 7      2768.625          46.000
R11  22716058.578 8 121387735.432 8     -3373.723          48.000    22716061.836 7  94412657.730 7     -2624.010          44.000
R21  19705077.719 5 105445857.483 5       719.324          33.000
C05  39638450.789 6 206407814.380 6       -20.492          36.000    39638451.453 6 159607617.789 6       -15.619          37.000
C20  23970970.055 8 124823200.348 8      2988.922          49.000
C30  21657135.852 8 112774382.160 8      -633.699          51.000
E02  26368939.422 5 138569709.585 5     -2836.766          35.000
E04  27052658.156 5 142162677.815 5     -1322.801          34.000    27052663.453 6 108929876.435 6     -1013.682          39.000
E05  26807718.398 7 140875542.692 7      2990.066          42.000    26807725.344 7 107943608.403 7      2291.225          45.000
E09                                                                  23339715.844 6  93979391.692 6       978.543          36.000
E36  23528344.312 8 123642289.509 8      -727.426          51.000    23528346.523 8  94738920.967 8      -557.360          51.000
> 2020 05 17 16 47  0.0000000  0 17        .000000000000
G08  20524079.469 6 107854748.307 6      1026.551          37.000    20524080.672 6  84042659.841 6       799.910          38.000
G10  21276012.430 7 111806177.773 7     -1461.082          44.000    21276014.414 7  87121743.737 7     -1138.502          44.000
G16  23642143.891 6 124240298.150 6     -3645.957          39.000
G27  20570983.695 8 108101239.854 8     -1235.195          51.000    20570986.117 8  84234743.598 8      -962.490          51.000
G32  23606159.367 7 124051211.787 7      2724.547          46.000    23606162.227 7  96663296.474 7      2123.027          46.000
R05  20878534.070 6 111607719.723 6     -1846.488          39.000    20878537.281 5  86806052.907 5     -1436.164          31.000
R06  20319955.555 7 108431190.184 7      2748.805          42.000
R11  22735028.234 7 121489101.964 7     -3384.238          47.000    22735031.531 7  94491498.311 7     -2632.188          45.000
R21  19701074.695 5 105424440.458 5       708.621          35.000    19701080.219 4  81996788.516 4       551.153          26.000
C05  39638564.383 5 206408405.206 5       -19.461          35.000    39638564.898 6 159608074.675 6       -15.130          36.000
C20  23953771.047 8 124733639.802 8      2981.574          48.000
C30  21660811.516 8 112793522.467 8      -642.570          51.000
E02  26385144.836 6 138654863.219 6     -2840.516          38.000
E04  27060242.555 5 142202533.754 5     -1334.473          34.000    27060247.547 6 108960415.394 6     -1022.431          39.000
E05  26790650.578 6 140785854.724 6      2988.621          41.000    26790657.734 7 107874886.494 7      2290.102          46.000
E09                                                                  23332458.055 6  93950164.369 6       969.744          37.000
E36  23532507.570 8 123664166.932 8      -731.211          51.000    23532509.852 8  94755684.180 8      -560.326          51.000
> 2020 05 17 16 47 30.0000000  0 18        .000000000000
G08  20518255.953 6 107824148.815 6      1011.594          36.000    20518257.734 6  84018816.037 6       788.252          36.000
G10  21284395.984 7 111850233.766 7     -1477.773          45.000    21284396.844 7  87156073.112 7     -1151.512          45.000
G16  23662966.727 6 124349724.528 6     -3650.922          40.000    23662964.234 4  96895854.579 4     -2844.868          29.000
G20  23121437.109 5 121503967.260 5     -3110.496          34.000
G27  20578074.711 8 108138503.405 8     -1250.984          51.000    20578077.305 8  84263780.130 8      -974.793          51.000
G32  23590623.500 7 123969568.299 7      2716.133          46.000    23590626.250 7  96599678.271 7      2116.470          46.000
R05  20888962.922 5 111663462.493 5     -1871.004          32.000    20888964.773 5  86849408.283 5     -1455.225          30.000
R06  20304557.562 6 108349030.973 6      2726.512          41.000
R11  22754057.305 7 121590786.447 7     -3396.605          47.000    22754060.492 7  94570586.188 7     -2641.804          44.000
R21  19697129.172 5 105403329.702 5       696.566          35.000    19697135.398 4  81980368.987 4       541.771          26.000
C05  39638672.250 6 206408967.700 6       -20.480          36.000    39638672.680 6 159608508.840 6       -15.529          37.000
C20  23936614.469 8 124644301.918 8      2972.305          48.000
C30  21664538.906 8 112812932.942 8      -653.441          51.000
E02  26401371.906 6 138740130.229 6     -2846.125          39.000
E04                                                                  27067898.414 6 108991221.235 6     -1032.760          39.000
E05  26773591.617 6 140696215.186 6      2985.449          39.000    26773599.258 7 107806201.698 7      2287.384          47.000
E09  23325268.727 5 122575111.693 5      1251.730          35.000    23325268.797 6  93921212.475 6       958.924          37.000
E36  23536693.695 8 123686164.231 8      -737.074          51.000    23536695.992 8  94772539.234 8      -564.816          51.000
> 2020 05 17 16 48  0.0000000  0 19        .000000000000
G08  20512521.117 6 107794013.519 6       998.238          39.000    20512522.578 6  83995333.980 6       777.845          38.000
G10  21292877.219 7 111894802.445 7     -1492.906          46.000    21292877.914 7  87190801.939 7     -1163.304          46.000
G16  23683820.570 6 124459314.547 6     -3654.383          40.000    23683817.312 3  96981249.366 3     -2847.553          20.000
G20  23139217.188 5 121597405.637 5     -3117.371          35.000
G22  24088646.539 6 126586702.581 6      3510.719          38.000
G27  20585258.508 8 108176254.792 8     -1265.266          51.000    20585261.133 8  84293196.803 8      -985.921          51.000
G32  23575139.055 7 123888195.540 7      2709.277          46.000    23575141.484 7  96536270.992 7      2111.128          46.000
R05  20899532.766 6 111719949.412 6     -1895.301          37.000    20899536.734 5  86893311.966 5     -1474.123          31.000
R06  20289287.641 7 108267550.274 7      2706.008          43.000
R11  22773158.289 7 121692854.681 7     -3407.320          47.000    22773161.414 7  94649972.555 7     -2650.141          45.000
R21  19693250.867 5 105382566.084 5       686.000          33.000    19693250.922 4  81964217.137 4       533.562          25.000
C05  39638787.664 6 206409568.503 6       -19.770          36.000    39638788.180 6 159608973.414 6       -14.810          36.000
C20  23919514.266 8 124555257.477 8      2964.457          49.000
C30  21668331.617 8 112832682.726 8      -662.688          51.000
E02  26417632.977 6 138825578.045 6     -2850.043          41.000
E04  27075622.398 5 142283355.899 5     -1359.852          33.000    27075628.328 6 109022346.345 6     -1041.818          38.000
E05  26756554.844 6 140606695.449 6      2983.289          36.000    26756563.680 7 107737608.694 7      2285.846          47.000
E09  23318159.703 6 122537756.761 6      1239.312          39.000    23318161.172 6  93892589.947 6       949.409          36.000
E36  23540915.789 8 123708350.870 8      -741.430          51.000    23540918.039 8  94789539.366 8      -568.108          51.000
> 2020 05 17 16 48 30.0000000  0 18        .000000000000
G08  20506862.648 6 107764276.172 6       981.102          40.000    20506863.484 6  83972162.063 6       764.495          40.000
G10  21301442.711 7 111939814.169 7     -1511.344          45.000    21301443.945 7  87225876.003 7     -1177.670          45.000
G16  23704692.164 6 124568997.162 6     -3661.250          39.000
G20  23157031.852 5 121691031.024 5     -3127.637          34.000
G22  24068618.906 6 126481453.547 6      3502.887          40.000    24068620.227 4  98556968.415 4      2729.522          26.000
G27  20592522.203 8 108214426.082 8     -1282.910          51.000    20592524.734 8  84322940.661 8      -999.670          51.000
G32  23559693.516 7 123807028.769 7      2698.535          45.000    23559695.750 7  96473024.238 7      2102.755          44.000
R06  20274133.766 7 108186682.878 7      2681.660          46.000
R11  22792317.016 7 121795233.482 7     -3421.391          47.000    22792320.094 7  94729600.425 7     -2661.085          45.000
R21  19689438.648 5 105362161.026 5       672.074          34.000    19689438.219 4  81948341.799 4       522.724          29.000
C05  39638897.883 6 206410141.521 6       -21.582          36.000    39638898.172 6 159609416.540 6       -17.148          36.000
C20  23902457.984 8 124466441.392 8      2953.129          48.000
C30  21672176.625 8 112852705.080 8      -675.426          51.000
E02  26433914.984 7 138911136.742 7     -2857.281          42.000    26433923.789 5 106438456.276 5     -2189.432          33.000
E04                                                                  27083424.297 6 109053737.939 6     -1053.413          36.000
E05                                                                  26739538.320 7 107669057.024 7      2281.584          47.000
E09  23311121.320 7 122500765.022 7      1223.609          42.000    23311121.539 5  93864245.726 5       937.415          33.000
E36  23545160.914 8 123730659.129 8      -749.176          51.000    23545163.125 8  94806632.702 8      -574.041          51.000
> 2020 05 17 16 49  0.0000000  0 17        .000000000000
G08  20501281.883 6 107734947.421 6       972.758          40.000    20501282.992 6  83949308.471 6       757.993          41.000
G10  21310093.945 7 111985276.435 7     -1520.949          44.000    21310095.070 7  87261301.152 7     -1185.155          44.000
G16  23725582.312 6 124678779.182 6     -3659.109          37.000
G22  24048618.164 6 126376347.326 6      3503.023          40.000    24048618.953 5  98475067.575 5      2729.650          31.000
G27  20599867.695 8 108253026.306 8     -1291.934          51.000    20599870.000 8  84353018.746 8     -1006.705          51.000
G32  23544289.406 7 123726080.256 7      2696.551          45.000    23544291.383 7  96409947.507 7      2101.205          46.000
R06  20259097.383 7 108106441.272 7      2666.230          47.000
R11  22811534.805 7 121897927.596 7     -3426.414          47.000    22811537.516 7  94809473.569 7     -2664.989          44.000
R21  19685685.914 5 105342060.197 5       666.195          34.000    19685686.266 5  81932707.811 5       518.152          30.000
C05  39639004.633 5 206410696.041 5       -16.062          35.000    39639004.719 6 159609845.334 6       -12.650          36.000
C20  23885447.562 7 124377864.910 7      2950.352          47.000
C30  21676075.961 8 112873009.492 8      -679.605          51.000
E02  26450219.188 7 138996813.568 7     -2855.910          42.000    26450225.891 5 106504104.804 5     -2188.762          34.000
E04  27091285.672 5 142365668.214 5     -1381.570          33.000    27091287.422 5 109085402.320 5     -1058.669          34.000
E05                                                                  26722525.508 8 107600555.273 8      2283.981          48.000
E09  23304154.125 7 122464146.852 7      1216.312          43.000    23304152.398 5  93836187.663 5       931.947          35.000
E36  23549430.930 8 123753098.339 8      -748.297          51.000    23549433.078 8  94823826.382 8      -573.382          51.000
> 2020 05 17 16 49 30.0000000  0 20        .000000000000
G08  20495783.461 6 107706052.768 6       954.137          40.000    20495785.000 6  83926793.175 6       743.483          40.000
G10  21318835.273 7 112031211.652 7     -1540.801          42.000    21318836.234 7  87297094.844 7     -1200.624          42.000
G14  24715700.250 7 129881877.588 7      2990.859          42.000
G16  23746495.812 6 124788682.021 6     -3667.223          37.000
G22  24028650.078 6 126271409.980 6      3493.348          40.000    24028652.625 5  98393298.174 5      2722.089          31.000
G27  20607299.375 8 108292079.584 8     -1311.152          51.000    20607301.414 8  84383449.824 8     -1021.677          51.000
G32  23528932.148 7 123645377.247 7      2684.160          45.000    23528934.266 7  96347062.091 7      2091.556          45.000
R05  20932058.586 5 111893848.759 5     -1968.922          31.000
R06  20244183.391 7 108026853.644 7      2640.227          47.000
R11  22830815.039 7 122000957.149 7     -3441.781          47.000    22830818.375 7  94889607.640 7     -2676.941          44.000
R21  19681998.359 6 105322306.316 6       650.656          36.000    19681996.125 5  81917343.722 5       506.075          32.000
C05  39639112.219 6 206411258.077 6       -20.504          36.000    39639112.266 6 159610278.391 6       -15.921          36.000
C20  23868488.055 7 124289554.100 7      2937.453          46.000
C27  25034571.711 5 130361577.555 5     -2656.801          30.000
C30  21680034.219 8 112893620.463 8      -693.934          51.000
E02  26466549.945 6 139082630.732 6     -2864.555          41.000    26466554.539 6 106569860.787 6     -2195.209          36.000
E04  27099219.953 5 142407361.077 5     -1397.996          30.000    27099221.906 5 109117357.126 5     -1071.350          32.000
E05  26705530.344 6 140338505.112 6      2973.637          37.000    26705530.125 7 107532123.544 7      2278.486          47.000
E09  23297261.867 7 122427927.554 7      1198.832          42.000    23297260.594 6  93808435.271 6       918.684          37.000
E36  23553730.406 8 123775692.867 8      -757.527          51.000    23553732.688 8  94841139.068 8      -580.455          51.000
> 2020 05 17 16 50  0.0000000  0 22        .000000000000
G01  23348466.031 5 122697028.121 5      2921.004          31.000
G08  20490369.367 6 107677601.826 6       946.562          41.000    20490370.664 6  83904623.602 6       737.578          40.000
G10  21327667.344 7 112077625.732 7     -1549.336          43.000    21327669.250 7  87333261.665 7     -1207.275          43.000
G14  24698619.328 7 129792113.345 7      2997.234          42.000    24698617.633 4 101136710.458 4      2335.507          29.000
G16  23767433.852 6 124898710.591 6     -3664.004          37.000
G20  23210714.953 5 121973121.708 5     -3139.582          32.000
G22  24008715.945 6 126166651.161 6      3494.762          39.000    24008717.961 5  98311668.050 5      2723.188          32.000
G27  20614818.633 8 108331593.199 8     -1319.113          51.000    20614820.188 8  84414239.636 8     -1027.880          51.000
G32  23513623.836 7 123564930.419 7      2683.000          44.000    23513625.820 7  96284376.279 7      2090.649          44.000
R05  20943196.680 5 111953348.357 5     -1986.484          32.000    20943168.844 5  87074779.895 5     -1545.043          33.000
R06  20229393.562 7 107947930.925 7      2625.402          47.000
R11  22850158.953 7 122104325.323 7     -3445.434          47.000    22850163.312 7  94970005.043 7     -2679.785          45.000
R21  19678374.828 5 105302908.347 5       646.586          35.000    19678372.164 5  81902256.465 5       502.903          30.000
C05  39639222.367 6 206411831.237 6       -13.637          36.000    39639222.344 6 159610721.608 6       -10.675          37.000
C20  23851581.680 7 124201518.657 7      2935.406          47.000
C27  25049882.562 5 130441294.370 5     -2654.648          33.000
C30  21684052.828 8 112914545.923 8      -697.105          51.000
E02  26482907.922 6 139168593.873 6     -2862.211          39.000    26482909.797 5 106635728.601 5     -2192.817          35.000
E04                                                                  27107230.422 5 109149607.631 5     -1075.801          33.000
E05  26688553.609 6 140249296.795 6      2977.570          40.000    26688553.906 7 107463769.163 7      2281.542          47.000
E09  23290446.922 6 122392115.955 6      1192.547          41.000    23290447.125 6  93780995.277 6       913.638          36.000
E36  23558060.820 8 123798450.434 8      -755.621          51.000    23558063.328 8  94858576.684 8      -578.976          51.000
> 2020 05 17 16 50 30.0000000  0 20        .000000000000
G08  20485058.477 7 107649693.780 7       923.773          42.000    20485059.945 7  83882877.090 7       719.827          42.000
G10  21336609.016 7 112124614.596 7     -1573.027          42.000    21336611.062 7  87369876.328 7     -1225.736          42.000
G14  24681563.352 7 129702479.665 7      2988.098          42.000    24681561.375 5 101066866.146 5      2328.391          33.000
G16  23788414.359 6 125008959.996 6     -3675.410          38.000
G20  23228711.930 5 122067694.223 5     -3155.434          34.000
G22  23988834.547 6 126062170.417 6      3481.227          37.000    23988834.359 5  98230254.571 5      2712.650          31.000
G27  20622443.953 8 108371664.772 8     -1342.434          51.000    20622445.008 8  84445464.208 8     -1046.055          51.000
G32  23498383.281 7 123484840.607 7      2666.273          44.000    23498385.406 7  96221968.657 7      2077.619          44.000
R06  20214746.727 7 107869775.583 7      2595.008          45.000
R11  22869584.258 7 122208127.254 7     -3464.449          47.000    22869588.883 7  95050739.806 7     -2694.572          44.000
R21  19674834.984 5 105283967.405 5       626.961          34.000    19674829.336 4  81887524.609 4       487.636          25.000
C05  39639353.664 6 206412514.392 6       -22.188          36.000    39639353.539 6 159611249.854 6       -17.024          37.000
C20  23834747.500 7 124113857.399 7      2918.477          47.000
C27  25065237.039 5 130521252.421 5     -2666.797          35.000
C30  21688150.281 8 112935883.121 8      -715.414          51.000
E02  26499311.234 6 139254798.668 6     -2874.867          37.000    26499311.523 5 106701781.645 5     -2202.772          34.000
E04                                                                  27115332.516 5 109182227.792 5     -1091.572          35.000
E05  26671613.820 6 140160289.131 6      2966.227          41.000    26671616.047 7 107395568.560 7      2272.808          47.000
E09  23283728.523 6 122356810.853 6      1171.211          39.000    23283727.180 5  93753943.232 5       897.239          35.000
E36  23562440.953 8 123821468.906 8      -768.871          51.000    23562443.625 8  94876214.211 8      -589.189          51.000
> 2020 05 17 16 51  0.0000000  0 20        .000000000000
G08  20479809.836 7 107622113.006 7       913.184          42.000    20479811.633 7  83861385.580 7       711.572          42.000
G10  21345618.500 6 112171959.566 6     -1584.758          37.000    21345620.625 6  87406768.511 6     -1234.873          38.000
G14  24664491.234 7 129612762.954 7      2991.102          42.000    24664489.906 5 100996957.146 5      2330.732          34.000
G16  23809395.133 6 125119210.712 6     -3675.758          36.000
G20  23246728.102 5 122162364.231 5     -3157.461          33.000
G22  23968965.109 6 125957752.719 6      3478.816          37.000    23968962.930 5  98148890.291 5      2710.778          32.000
G27  20630134.086 8 108412077.239 8     -1353.500          51.000    20630135.055 8  84476954.408 8     -1054.675          51.000
G32  23483169.836 7 123404893.997 7      2661.781          43.000    23483172.211 7  96159672.620 7      2074.118          42.000
R06  20200202.531 7 107792171.528 7      2576.840          44.000
R11  22889048.578 7 122312138.002 7     -3471.129          46.000    22889052.859 7  95131637.024 7     -2699.770          42.000
R21  19671330.359 5 105265280.563 5       618.758          32.000    19671340.477 4  81873012.367 4       481.265          28.000
C05  39639464.805 6 206413094.804 6       -17.992          36.000    39639464.609 6 159611697.120 6       -14.185          37.000
C20  23817944.547 8 124026357.664 8      2913.273          49.000
C27  25080596.555 4 130601247.617 4     -2666.875          29.000
C30  21692285.641 8 112957417.653 8      -721.723          51.000
E02  26515718.219 5 139341026.302 5     -2875.016          33.000    26515719.406 5 106767852.186 5     -2203.021          34.000
E04  27123480.656 5 142534852.379 5     -1432.441          30.000    27123486.016 6 109215050.744 6     -1097.938          36.000
E05  26654671.695 7 140071267.309 7      2967.168          42.000    26654675.523 7 107327357.116 7      2273.431          45.000
E09  23277065.359 6 122321796.637 6      1162.020          36.000    23277065.266 6  93727114.128 6       890.070          39.000
E36  23566829.711 8 123844531.622 8      -770.148          51.000    23566832.273 8  94893885.627 8      -590.129          51.000
> 2020 05 17 16 51 30.0000000  0 20        .000000000000
G01  23298684.102 5 122435417.539 5      2897.512          33.000
G08  20474656.750 7 107595034.811 7       895.422          42.000    20474658.211 7  83840285.662 7       697.728          42.000
G10  21354728.242 7 112219832.208 7     -1603.340          43.000    21354731.000 7  87444071.934 7     -1249.359          43.000
G14  24647436.180 7 129523138.848 7      2987.082          42.000    24647434.531 4 100927120.296 4      2327.596          28.000
G16  23830408.398 6 125229633.507 6     -3682.652          38.000
G20  23264795.203 5 122257303.126 5     -3168.320          32.000
G22  23949141.141 5 125853573.837 5      3469.902          35.000    23949137.414 4  98067711.913 4      2703.829          29.000
G27  20637921.953 8 108453003.786 8     -1371.703          51.000    20637923.234 8  84508845.198 8     -1068.860          51.000
G32  23468017.180 7 123325267.175 7      2649.953          43.000    23468019.625 7  96097625.771 7      2064.902          43.000
R06  20185795.664 7 107715297.486 7      2551.309          44.000
R11  22908583.047 7 122416529.123 7     -3484.824          43.000    22908587.844 7  95212830.055 7     -2710.422          42.000
R21  19667924.773 5 105246977.992 5       603.637          32.000    19667933.562 4  81858786.045 4       469.495          29.000
C05  39639588.797 6 206413739.398 6       -21.465          36.000    39639588.688 6 159612196.314 6       -16.716          37.000
C20  23801206.094 8 123939193.311 8      2900.980          50.000
C30  21696491.922 8 112979321.760 8      -735.176          51.000
E02                                                                  26532165.227 5 106834071.567 5     -2208.860          34.000
E04                                                                  27131722.156 6 109248208.540 6     -1110.171          37.000
E05  26637760.336 7 139982406.791 7      2960.559          42.000    26637765.695 7 107259269.254 7      2268.402          43.000
E09  23270488.672 5 122287243.824 5      1144.918          31.000    23270493.211 6  93700641.616 6       877.257          39.000
E36  23571259.922 8 123867812.114 8      -778.535          51.000    23571262.320 8  94911723.930 8      -596.564          51.000
> 2020 05 17 16 52  0.0000000  0 20        .000000000000
G01  23282122.672 5 122348390.357 5      2887.117          31.000
G08  20469552.312 7 107568211.689 7       875.777          43.000    20469553.547 7  83819384.556 7       682.424          43.000
G10  21363890.898 6 112267982.266 6     -1623.773          38.000    21363893.234 6  87481591.400 6     -1265.278          37.000
G14  24630351.945 7 129433361.819 7      2981.121          43.000    24630350.000 5 100857164.280 5      2322.958          32.000
G16  23851406.578 6 125339976.884 6     -3690.945          36.000    23851407.562 5  97667521.971 5     -2876.049          33.000
G20  23282865.734 5 122352259.798 5     -3178.926          31.000    23282863.086 5  95339430.781 5     -2477.085          31.000
G22  23929316.055 5 125749386.891 5      3459.020          33.000
G27  20645760.312 8 108494195.477 8     -1391.367          51.000    20645761.531 8  84540942.607 8     -1084.179          51.000
G32  23452878.719 7 123245714.318 7      2636.582          43.000    23452880.391 7  96035636.566 7      2054.483          43.000
R06  20171479.188 7 107638904.596 7      2524.164          42.000
R11  22928140.609 6 122521043.496 6     -3499.828          41.000    22928145.828 6  95294118.912 6     -2722.092          41.000
C05                                                                  39639678.195 6 159612556.941 6       -20.283          37.000
C20  23784485.188 8 123852119.996 8      2887.109          51.000
C27  25111385.977 5 130761557.076 5     -2683.816          33.000
C30  21700721.984 8 113001349.442 8      -750.102          51.000
E02                                                                  26548600.859 5 106900247.695 5     -2216.062          33.000
E04                                                                  27139993.492 6 109281509.752 6     -1122.963          37.000
E05  26620832.906 7 139893460.813 7      2952.320          43.000    26620840.000 6 107191115.903 6      2262.305          41.000
E09  23263954.422 5 122252897.526 5      1126.867          35.000    23263960.797 6  93674335.869 6       863.366          36.000
E36  23575684.188 8 123891061.823 8      -788.410          51.000    23575686.680 8  94929538.640 8      -604.100          51.000
> 2020 05 17 16 52 30.0000000  0 17        .000000000000
G01  23265646.914 5 122261815.572 5      2888.207          33.000
G08  20464583.328 7 107542099.184 7       867.648          44.000    20464584.820 7  83799037.122 7       676.090          44.000
G10  21373191.867 5 112316880.233 5     -1632.391          35.000    21373195.000 6  87519659.071 6     -1271.993          37.000
G14  24613325.383 7 129343888.587 7      2986.484          43.000    24613322.922 5 100787444.919 5      2327.131          31.000
G16  23872474.938 5 125450691.896 5     -3687.293          33.000
G27  20653735.680 8 108536105.873 8     -1400.000          51.000    20653736.766 8  84573600.057 8     -1090.909          51.000
G32  23437841.109 7 123166692.405 7      2634.270          42.000    23437842.484 7  95974061.104 7      2052.678          42.000
R06  20157340.156 7 107563456.435 7      2508.480          44.000
R11  22947807.352 6 122626138.122 6     -3503.473          41.000    22947812.812 6  95375859.106 6     -2724.926          41.000
C05  39639819.711 5 206414942.726 5       -19.727          35.000    39639819.766 6 159613126.817 6       -15.683          37.000
C20  23767868.336 8 123765589.477 8      2884.258          51.000
C30  21705062.281 8 113023950.758 8      -753.949          51.000
E02  26565112.305 6 139600610.151 6     -2889.812          36.000    26565111.820 5 106966726.710 5     -2214.496          32.000
E04  27148379.914 6 142665693.959 6     -1471.516          36.000    27148385.875 6 109315301.299 6     -1127.366          36.000
E05  26603976.430 7 139804885.227 7      2955.434          44.000    26603984.953 6 107123246.377 6      2264.406          36.000
E09  23257550.883 6 122219238.836 6      1120.102          38.000    23257554.383 6  93648545.419 6       858.188          37.000
E36  23580189.062 8 123914734.708 8      -787.008          51.000    23580191.828 8  94947677.594 8      -603.038          51.000
> 2020 05 17 16 53  0.0000000  0 18        .000000000000
G08  20459667.812 7 107516266.697 7       853.965          46.000    20459668.938 7  83778907.911 7       665.427          45.000
G10  21382549.992 5 112366055.295 5     -1647.250          31.000    21382552.875 5  87557977.203 5     -1283.571          33.000
G14  24596274.781 6 129254290.458 6      2986.090          41.000    24596271.859 5 100717628.303 5      2326.829          32.000
G16  23893531.398 5 125561344.122 5     -3690.188          33.000
G27  20661765.664 8 108578303.071 8     -1413.871          51.000    20661766.812 8  84606480.978 8     -1101.718          51.000
G32  23422823.227 7 123087772.749 7      2626.711          42.000    23422824.242 6  95912565.284 6      2046.788          41.000
R06  20143297.438 7 107488518.405 7      2486.742          46.000
R11  22967499.914 6 122731369.258 6     -3512.332          41.000    22967505.633 6  95457705.415 6     -2731.814          41.000
R21  19658020.758 5 105194022.620 5       571.168          31.000
C05  39639930.945 6 206415521.609 6       -19.141          36.000    39639931.172 6 159613575.223 6       -14.761          37.000
C20  23751273.609 8 123679176.086 8      2876.031          51.000
C27  25142303.922 5 130922609.068 5     -2685.152          31.000
C30  21709430.898 8 113046698.397 8      -763.098          51.000
E02  26581612.234 6 139687332.711 6     -2892.578          37.000
E04  27156813.828 6 142710002.034 6     -1482.867          38.000    27156816.164 5 109349251.615 5     -1136.256          34.000
E05  26587109.148 7 139716250.376 7      2953.098          43.000    26587104.000 5 107055258.613 5      2262.362          32.000
E09  23251191.703 6 122185822.083 6      1107.410          37.000    23251196.461 6  93622940.469 6       848.508          37.000
E36  23584692.328 8 123938399.270 8      -791.121          51.000    23584695.336 8  94965810.168 8      -606.190          51.000
> 2020 05 17 16 53 30.0000000  0 18        .000000000000
G08  20454844.461 7 107490918.030 7       838.508          47.000    20454845.141 7  83759155.713 7       653.383          47.000
G10  21392003.555 6 112415748.711 6     -1662.332          38.000    21392003.586 6  87596670.580 6     -1295.327          38.000
G14  24579238.812 6 129164772.171 6      2984.164          36.000    24579236.781 5 100647873.833 5      2325.320          35.000
G16  23914613.383 5 125672133.025 5     -3694.113          34.000
G27  20669888.477 8 108620988.688 8     -1429.324          51.000    20669889.734 8  84639742.482 8     -1113.759          51.000
G32  23407863.398 7 123009160.254 7      2616.648          43.000    23407864.844 7  95851308.852 7      2038.950          43.000
R06  20129389.562 7 107414298.929 7      2463.621          47.000
R11  22987256.180 7 122836937.980 7     -3522.793          43.000    22987261.414 6  95539814.350 6     -2739.950          40.000
R21  19654866.055 5 105177107.389 5       558.801          33.000    19654873.742 3  81804462.169 3       434.626          23.000
C05  39640050.562 6 206416144.503 6       -19.383          36.000    39640050.812 6 159614056.897 6       -15.616          37.000
C20  23734740.125 8 123593081.925 8      2866.004          51.000
C27  25157792.211 5 131003283.181 5     -2690.711          31.000
C30  21713866.211 8 113069792.814 8      -774.121          51.000
E02  26598143.633 6 139774216.886 6     -2897.336          40.000
E04  27165324.234 6 142754718.070 6     -1495.988          40.000    27165323.789 5 109383514.522 5     -1146.088          34.000
E05  26570269.617 7 139627760.092 7      2948.859          43.000    26570267.383 5 106987447.500 5      2259.492          35.000
E09  23244917.844 6 122152850.246 6      1093.168          38.000    23244923.867 6  93597676.476 6       837.655          36.000
E36  23589232.445 8 123962257.510 8      -796.988          51.000    23589235.453 8  94984091.156 8      -610.703          51.000
> 2020 05 17 16 54  0.0000000  0 18        .000000000000
G08  20450103.633 7 107466003.225 7       822.434          47.000    20450104.117 7  83739741.573 7       640.854          46.000
G10  21401539.977 6 112465862.310 6     -1678.656          40.000    21401539.961 6  87635720.098 6     -1308.044          40.000
G14  24562208.016 5 129075285.729 5      2982.188          33.000    24562208.203 5 100578144.158 5      2323.776          31.000
G16  23935711.016 5 125783004.938 5     -3697.379          35.000    23935711.914 5  98012730.425 5     -2881.074          30.000
G27  20678094.477 8 108664111.396 8     -1445.465          51.000    20678096.055 8  84673344.572 8     -1126.336          51.000
G32  23392953.305 7 122930807.008 7      2606.742          44.000    23392954.648 7  95790254.465 7      2031.231          44.000
R06  20115607.227 7 107340748.938 7      2439.754          47.000
R11  23007065.242 7 122942787.763 7     -3533.703          45.000    23007069.438 6  95622141.913 6     -2748.439          40.000
R21  19651770.945 5 105160536.436 5       546.031          35.000
C05  39640168.703 5 206416759.949 5       -20.574          35.000    39640169.031 6 159614532.785 6       -16.290          36.000
C20  23718258.484 8 123507258.495 8      2855.637          50.000
C27  25173304.453 5 131084077.816 5     -2696.012          30.000
C30  21718358.422 8 113093183.834 8      -785.375          51.000
E02  26614696.438 6 139861209.636 6     -2902.176          38.000
E04  27173901.633 6 142799789.963 6     -1509.059          41.000    27173900.086 5 109418050.111 5     -1156.277          35.000
E05  26553449.344 7 139539365.397 7      2944.160          44.000    26553451.867 6 106919716.559 6      2256.106          40.000
E09  23238718.461 5 122120273.363 5      1078.273          32.000
E36  23593799.867 8 123986258.594 8      -803.164          51.000    23593802.734 8  95002481.587 8      -615.396          51.000
> 2020 05 17 16 54 30.0000000  0 19        .000000000000
G08  20445449.859 7 107441546.880 7       808.574          47.000    20445450.516 7  83720684.701 7       630.058          47.000
G10  21411163.617 7 112516439.522 7     -1692.535          42.000    21411165.281 7  87675130.968 7     -1318.856          42.000
G14  24545188.242 5 128985856.821 5      2980.691          35.000    24545190.516 6 100508459.427 6      2322.626          36.000
G16  23956828.844 6 125893979.841 6     -3700.180          37.000
G22  23830841.758 5 125231895.223 5      3435.664          35.000
G27  20686387.781 8 108707693.566 8     -1459.512          51.000    20686389.828 8  84707304.696 8     -1137.279          51.000
G32  23378097.312 7 122852738.755 7      2598.445          43.000    23378098.109 7  95729422.158 7      2024.766          43.000
R05  21049267.461 6 112520362.646 6     -2205.352          36.000
R06  20101954.766 7 107267894.735 7      2417.879          47.000
R11  23026930.211 7 123048937.461 7     -3542.422          46.000    23026933.414 6  95704702.736 6     -2755.220          40.000
R21  19648742.672 5 105144334.553 5       534.895          33.000    19648758.766 4  81779038.315 4       416.035          25.000
C05  39640289.766 6 206417389.506 6       -20.098          36.000    39640290.156 6 159615020.350 6       -15.245          36.000
C20  23701833.039 8 123421730.347 8      2846.961          48.000
C27  25188846.086 5 131165014.929 5     -2698.715          32.000
C30  21722911.906 8 113116894.323 8      -794.715          51.000
E02  26631274.438 6 139948331.630 6     -2905.184          38.000
E04  27182550.078 6 142845239.328 6     -1520.348          41.000    27182549.266 6 109452874.911 6     -1164.813          36.000
E05  26536652.555 7 139451090.895 7      2941.520          46.000    26536657.961 7 106852077.742 7      2253.790          43.000
E36  23598398.789 8 124010425.335 8      -807.320          51.000    23598401.680 8  95020998.948 8      -618.539          51.000
> 2020 05 17 16 55  0.0000000  0 20        .000000000000
G01  23183590.820 5 121830591.539 5      2862.684          32.000
G08  20440873.008 7 107417496.294 7       794.652          47.000    20440874.016 7  83701943.970 7       619.210          47.000
G10  21420865.492 7 112567424.613 7     -1706.590          43.000    21420867.734 7  87714859.574 7     -1329.810          44.000
G14  24528171.406 6 128896433.938 6      2980.480          39.000    24528174.844 6 100438779.258 6      2322.452          38.000
G16  23977956.273 6 126005010.239 6     -3701.930          36.000
G22  23811244.578 6 125128909.727 6      3430.219          36.000    23811241.914 5  97503047.638 5      2672.898          34.000
G27  20694758.039 8 108751680.837 8     -1473.305          50.000    20694760.320 8  84741580.484 8     -1148.033          50.000
G32  23363285.570 6 122774904.401 6      2590.141          41.000    23363287.031 6  95668772.079 6      2018.294          41.000
R05  21061699.570 6 112586772.186 6     -2227.113          37.000    21061679.797 4  87567468.592 4     -1732.205          29.000
R06  20088422.625 7 107195684.366 7      2395.961          47.000
R11  23046839.992 7 123155327.203 7     -3550.562          45.000    23046842.875 6  95787450.210 6     -2761.552          41.000
R21  19645774.227 6 105128447.833 6       523.902          36.000
C05  39640403.492 6 206417982.618 6       -19.277          36.000    39640403.812 6 159615478.209 6       -14.749          37.000
C20  23685453.453 7 123336445.892 7      2838.270          46.000
C27  25204410.594 5 131245973.819 5     -2702.664          32.000
C30  21727516.531 8 113140871.094 8      -803.949          51.000
E02  26647866.523 6 140035526.765 6     -2907.824          36.000
E04  27191259.383 6 142891010.905 6     -1531.398          38.000    27191260.195 6 109487946.623 6     -1173.209          36.000
E05  26519868.578 7 139362884.525 7      2938.773          47.000    26519875.086 7 106784491.113 7      2251.719          44.000
E36  23603018.906 8 124034703.842 8      -811.395          51.000    23603021.875 8  95039601.947 8      -621.697          51.000
> 2020 05 17 16 55 30.0000000  0 19        .000000000000
G08  20436386.891 7 107393922.551 7       778.090          47.000    20436388.266 7  83683574.808 7       606.301          47.000
G10  21430657.828 6 112618885.651 6     -1723.000          41.000    21430659.938 6  87754959.051 6     -1342.597          41.000
G14  24511170.727 6 128807090.168 6      2977.328          41.000    24511174.461 6 100369160.792 6      2319.999          40.000
G16  23999104.859 5 126116148.969 5     -3706.684          34.000
G22  23791687.633 6 125026140.824 6      3422.770          37.000
G27  20703218.758 8 108796142.964 8     -1489.789          51.000    20703221.125 8  84776226.289 8     -1160.875          51.000
G32  23348532.008 6 122697377.034 6      2579.203          41.000    23348535.531 6  95608361.171 6      2009.769          40.000
R06  20075025.109 7 107124192.419 7      2371.406          47.000
R11  23066807.422 7 123262024.216 7     -3561.383          45.000    23066810.555 7  95870436.667 7     -2769.967          42.000
R21  19642877.227 5 105112948.792 5       510.324          32.000
C05  39640523.266 6 206418605.867 6       -21.078          36.000    39640523.547 6 159615960.147 6       -16.163          37.000
C20  23669134.445 7 123251476.685 7      2827.230          46.000
C27  25220002.758 4 131327157.306 4     -2708.465          29.000
C30  21732185.398 8 113165183.965 8      -815.727          51.000
E02  26664484.945 5 140122814.113 5     -2912.934          32.000
E04  27200042.156 5 142937173.687 5     -1544.957          35.000    27200046.148 6 109523318.082 6     -1183.885          37.000
E05  26503110.914 8 139274818.374 8      2933.422          48.000    26503117.609 7 106717011.922 7      2247.615          46.000
E09                                                                  23220593.914 6  93499700.759 6       795.722          38.000
E36  23607673.586 8 124059164.352 8      -818.156          51.000    23607676.594 8  95058344.401 8      -626.860          51.000
> 2020 05 17 16 56  0.0000000  0 18        .000000000000
G08  20431986.766 8 107370799.651 8       763.305          49.000    20431988.336 8  83665556.966 8       594.783          49.000
G10  21440535.312 6 112670792.879 6     -1737.676          41.000    21440537.383 6  87795406.298 6     -1354.033          41.000
G14  24494180.469 7 128717800.652 7      2975.398          43.000    24494183.531 6 100299584.627 6      2318.492          39.000
G16  24020269.812 5 126227366.224 5     -3708.383          34.000
G22  23772166.500 5 124923562.888 5      3416.074          35.000
G27  20711764.812 8 108841051.827 8     -1504.383          51.000    20711767.070 8  84811220.183 8     -1172.246          51.000
G32  23333832.672 7 122620131.887 7      2570.414          42.000    23333837.344 7  95548170.179 7      2002.920          42.000
R05  21086935.781 4 112721714.105 4     -2275.262          27.000
R06  20061757.266 7 107053393.332 7      2348.391          46.000
R11  23086825.586 7 123368995.272 7     -3570.168          42.000    23086829.648 6  95953636.329 6     -2776.797          41.000
R21  19640047.758 5 105097810.712 5       498.781          32.000
C05  39640643.789 6 206419233.815 6       -20.945          36.000    39640643.945 6 159616444.938 6       -16.187          36.000
C20  23652872.500 8 123166797.099 8      2817.887          48.000
C30  21736913.523 8 113189805.806 8      -825.859          51.000
E04                                                                  27208900.664 5 109558967.175 5     -1192.945          35.000
E05  26486374.781 8 139186866.691 8      2929.738          50.000    26486380.688 7 106649620.441 7      2244.843          46.000
E09  23214695.578 6 121994039.518 6      1024.633          37.000    23214699.508 5  93475988.758 5       785.258          35.000
E36  23612357.586 8 124083779.248 8      -823.156          51.000    23612360.625 8  95077205.158 8      -630.730          51.000
> 2020 05 17 16 56 30.0000000  0 16        .000000000000
G08  20427668.203 8 107348105.798 8       748.914          48.000    20427670.180 8  83647873.430 8       583.566          48.000
G10  21450493.016 7 112723121.319 7     -1751.762          44.000    21450495.344 7  87836181.653 7     -1365.009          44.000
G14  24477196.477 7 128628545.019 7      2974.188          43.000    24477198.688 6 100230034.873 6      2317.552          41.000
G16  24041444.336 5 126338640.517 5     -3711.191          30.000
G22  23752678.000 5 124821154.456 5      3410.980          34.000
G27  20720391.336 8 108886383.790 8     -1518.512          51.000    20720393.477 8  84846543.732 8     -1183.259          51.000
G32  23319183.766 7 122543148.697 7      2561.273          43.000    23319188.672 7  95488183.321 7      1995.801          43.000
R06  20048614.812 7 106983266.714 7      2325.906          45.000
R11  23106889.195 7 123476212.395 7     -3578.426          43.000    23106894.320 6  96037027.408 6     -2783.220          40.000
C05  39640760.586 6 206419841.395 6       -20.453          36.000    39640760.492 6 159616914.760 6       -15.613          36.000
C20  23636662.836 8 123082386.083 8      2808.902          48.000
C27  25251256.930 5 131489915.241 5     -2715.977          30.000
C30  21741696.633 8 113214713.869 8      -835.438          51.000
E05  26469656.055 8 139099008.107 8      2926.652          49.000    26469660.492 7 106582300.282 7      2242.488          47.000
E09  23208878.805 6 121963480.884 6      1011.906          36.000    23208883.008 6  93452573.732 6       775.144          40.000
E36  23617066.586 8 124108525.372 8      -827.469          51.000    23617069.641 8  95096166.458 8      -634.037          51.000
> 2020 05 17 16 57  0.0000000  0 17        .000000000000
G08  20423440.898 8 107325891.350 8       734.090          49.000    20423443.141 8  83630563.450 8       572.015          49.000
G10  21460539.820 6 112775918.104 6     -1766.027          40.000    21460541.906 6  87877322.003 6     -1376.122          40.000
G14  24460228.633 7 128539375.460 7      2972.473          43.000    24460230.031 6 100160552.162 6      2316.216          39.000
G16  24062645.469 4 126450016.009 4     -3712.906          29.000
G22  23733232.344 6 124718966.858 6      3404.367          38.000    23733240.023 5  97183627.884 5      2652.757          35.000
G27  20729107.742 8 108932187.731 8     -1533.148          51.000    20729109.680 8  84882235.083 8     -1194.661          51.000
G32  23304594.617 7 122466479.677 7      2551.770          43.000    23304599.539 7  95428441.302 7      1988.395          43.000
R05  21112741.227 5 112859700.843 5     -2318.789          32.000
R06  20035608.047 7 106913865.845 7      2302.812          45.000
R11  23127008.078 7 123583721.344 7     -3586.766          45.000    23127013.109 6  96120645.411 6     -2789.710          39.000
R21  19634584.172 6 105068623.832 6       475.359          36.000    19634588.719 4  81720053.279 4       369.727          25.000
C05  39640882.945 6 206420479.457 6       -20.070          36.000    39640882.852 6 159617407.376 6       -15.526          36.000
C20  23620514.484 8 122998294.478 8      2799.297          49.000
C30  21746544.062 8 113239957.345 8      -845.453          51.000
E05  26452964.508 8 139011293.929 8      2923.027          48.000    26452967.883 8 106515090.776 8      2239.680          48.000
E09  23203147.680 6 121933360.000 6       998.395          39.000    23203152.438 7  93429494.165 7       765.048          42.000
E36  23621809.812 8 124133452.153 8      -832.215          51.000    23621812.922 8  95115266.180 8      -637.662          51.000
> 2020 05 17 16 57 30.0000000  0 15        .000000000000
G08  20419295.047 8 107304104.473 8       718.895          49.000    20419297.172 8  83613586.655 8       560.178          50.000
G10  21470665.438 7 112829127.847 7     -1780.906          44.000    21470667.281 7  87918784.125 7     -1387.725          44.000
G14  24443267.375 7 128450241.493 7      2970.164          43.000    24443268.391 6 100091097.211 6      2314.417          39.000
G22  23713819.859 6 124616947.996 6      3397.676          39.000    23713826.008 6  97104132.676 6      2647.546          36.000
G27  20737903.539 8 108978409.651 8     -1547.953          51.000    20737905.609 8  84918252.157 8     -1206.194          51.000
G32  23290055.391 6 122390074.294 6      2542.133          41.000    23290060.281 6  95368904.706 6      1980.883          41.000
R06  20022728.289 7 106845139.079 7      2279.344          47.000
R11  23147171.180 7 123691463.064 7     -3595.570          43.000    23147174.992 6  96204444.446 6     -2796.558          39.000
R21  19631952.383 5 105054550.197 5       462.996          35.000    19631957.570 4  81709107.151 4       360.108          27.000
C05  39641001.047 5 206421093.042 5       -20.316          35.000    39641000.578 6 159617881.825 6       -15.653          37.000
C20  23604417.383 8 122914471.209 8      2789.312          49.000
C30  21751445.719 8 113265483.480 8      -855.789          51.000
E05  26436290.055 7 138923672.555 7      2918.688          47.000    26436293.297 8 106447952.376 8      2236.469          49.000
E09  23197489.281 6 121903624.295 6       984.395          38.000    23197494.055 6  93406709.646 6       754.270          40.000
E36  23626577.195 8 124158506.161 8      -837.512          51.000    23626580.312 8  95134463.396 8      -641.808          51.000
> 2020 05 17 16 58  0.0000000  0 16        .000000000000
G08  20415235.938 8 107282773.976 8       703.168          49.000    20415237.922 8  83596965.495 8       547.923          49.000
G10  21480874.461 7 112882776.584 7     -1795.965          42.000    21480876.898 6  87960588.293 6     -1399.453          41.000
G14  24426318.336 7 128361173.933 7      2967.641          43.000    24426319.430 6 100021694.024 6      2312.453          38.000
G16  24105058.203 4 126672935.583 4     -3718.469          29.000
G22  23694445.664 7 124515127.768 7      3390.477          42.000    23694451.102 5  97024792.289 5      2641.930          33.000
G27  20746783.852 8 109025077.142 8     -1563.328          50.000    20746786.609 8  84954616.416 8     -1218.178          50.000
G32  23275570.852 6 122313963.550 6      2532.023          36.000    23275576.641 6  95309597.636 6      1973.005          36.000
R06  20009981.266 7 106777117.621 7      2255.367          47.000
R11  23167382.273 7 123799461.322 7     -3604.387          42.000    23167384.883 6  96288443.017 6     -2803.415          38.000
R21  19629390.906 5 105040842.793 5       450.297          32.000    19629396.438 5  81698445.824 5       350.234          30.000
C05  39641119.695 6 206421710.865 6       -20.688          36.000    39641119.164 6 159618359.597 6       -16.075          37.000
C20  23588377.062 8 122830945.985 8      2779.031          49.000
C30  21756407.148 8 113291320.380 8      -866.625          51.000
E05  26419638.164 7 138836173.887 7      2914.531          44.000    26419642.203 8 106380907.988 8      2233.119          49.000
E09  23191908.055 5 121874302.547 5       970.453          35.000    23191914.414 6  93384242.319 6       743.579          40.000
E36  23631374.312 8 124183715.543 8      -843.078          51.000    23631377.250 8  95153779.651 8      -646.001          51.000
> 2020 05 17 16 58 30.0000000  0 17        .000000000000
G08  20411256.312 8 107261861.942 8       689.516          49.000    20411258.336 8  83580670.398 8       537.282          49.000
G10  21491158.969 7 112936822.366 7     -1808.723          43.000    21491161.586 7  88002701.867 7     -1409.394          43.000
G14  24409374.766 7 128272135.683 7      2966.688          43.000    24409376.148 6  99952313.640 6      2311.708          39.000
G22  23675102.242 7 124413468.106 7      3385.332          42.000    23675104.000 5  96945577.050 5      2637.921          33.000
G27  20755741.367 8 109072149.907 8     -1576.434          50.000    20755744.445 8  84991296.487 8     -1228.390          50.000
G32  23261134.742 6 122238110.600 6      2523.473          37.000    23261142.070 6  95250491.432 6      1966.339          37.000
R05  21152369.102 5 113071476.031 5     -2385.180          35.000
R06  19997359.320 7 106709763.799 7      2233.355          45.000
R11  23187632.273 7 123907671.414 7     -3610.961          42.000    23187634.516 6  96372606.311 6     -2808.528          37.000
R21  19626895.984 5 105027467.411 5       440.246          30.000    19626896.141 5  81688044.784 5       342.414          31.000
C05  39641231.555 6 206422293.527 6       -19.223          36.000    39641231.133 6 159618810.162 6       -15.248          37.000
C20  23572386.789 8 122747681.323 8      2770.641          50.000
C27  25314048.211 5 131816881.773 5     -2731.812          31.000
C30  21761421.102 8 113317428.806 8      -875.379          51.000
E05  26403000.742 7 138748760.134 7      2911.789          42.000    26403007.516 8 106313928.597 8      2231.111          49.000
E09  23186399.148 6 121845355.841 6       958.047          37.000    23186406.664 6  93362062.417 6       734.136          36.000
E36  23636193.578 8 124209040.573 8      -846.707          51.000    23636196.164 8  95173184.532 8      -648.808          51.000
> 2020 05 17 16 59  0.0000000  0 16        .000000000000
G08  20407376.867 8 107241475.158 8       673.270          50.000    20407378.984 8  83564784.572 8       524.629          50.000
G10  21501538.859 7 112991369.131 7     -1824.020          42.000    21501540.898 7  88045205.752 7     -1421.317          42.000
G14  24392457.445 7 128183235.322 7      2963.414          43.000    24392459.484 6  99883040.687 6      2309.157          40.000
G22  23655810.242 7 124312076.620 7      3377.867          42.000    23655808.812 4  96866570.872 4      2632.113          27.000
G27  20764796.227 8 109119733.242 8     -1592.227          51.000    20764798.867 8  85028374.412 8     -1240.696          51.000
G32  23246770.508 6 122162624.012 6      2512.375          41.000    23246776.391 6  95191670.772 6      1957.701          40.000
R05  21165831.984 4 113143459.790 4     -2408.133          29.000
R06  19984883.133 7 106643188.318 7      2208.527          44.000
R11  23207940.922 7 124016196.252 7     -3620.266          42.000    23207943.773 6  96457014.378 6     -2815.765          37.000
R21  19624476.500 6 105014522.793 6       426.887          36.000    19624474.742 5  81677976.762 5       332.026          30.000
C05  39641356.680 5 206422945.922 5       -20.586          35.000    39641356.484 6 159619314.602 6       -16.015          37.000
C20  23556467.570 8 122664783.836 8      2759.539          51.000
C30  21766507.367 8 113343913.896 8      -886.617          51.000
E05  26386400.836 7 138661538.900 7      2906.582          44.000    26386409.742 8 106247096.726 8      2227.055          48.000
E09  23180982.539 6 121816890.897 6       943.094          36.000    23180989.805 6  93340251.409 6       722.843          36.000
E36  23641055.000 8 124234587.140 8      -852.898          51.000    23641057.102 8  95192759.153 8      -653.526          50.000
> 2020 05 17 16 59 30.0000000  0 17        .000000000000
G08  20403580.102 8 107221521.922 8       657.246          51.000    20403582.094 8  83549236.611 8       512.143          51.000
G10  21511995.586 6 113046321.861 6     -1838.523          37.000    21511998.312 6  88088026.029 6     -1432.613          37.000
G11  21224706.930 5 111536586.953 5      2410.289          32.000
G14  24375549.359 7 128094383.270 7      2960.434          44.000    24375551.922 6  99813805.363 6      2306.831          40.000
G16  24168780.406 5 127007808.559 5     -3724.715          32.000
G22  23636552.125 6 124210862.364 6      3370.414          41.000    23636547.219 4  96787702.666 4      2626.297          24.000
G27  20773930.727 8 109167733.835 8     -1607.531          51.000    20773932.711 8  85065777.467 8     -1252.622          51.000
G32  23232459.688 6 122087413.787 6      2502.090          39.000    23232463.336 6  95133065.512 6      1949.683          40.000
R06  19972535.609 7 106577299.111 7      2184.340          44.000
R11  23228289.383 7 124124936.613 7     -3628.973          42.000    23228293.945 6  96541590.105 6     -2822.537          37.000
R21  19622117.953 5 105001920.749 5       413.629          35.000    19622120.391 5  81668175.166 5       321.708          32.000
C05  39641477.586 5 206423575.922 5       -21.156          35.000    39641477.781 6 159619801.752 6       -16.236          37.000
C20  23540601.867 8 122582163.473 8      2748.863          51.000
C30  21771648.289 8 113370683.924 8      -897.562          51.000
E05  26369822.445 7 138574419.211 7      2901.719          47.000    26369831.516 8 106180342.696 8      2223.479          48.000
E09  23175640.016 5 121788815.493 5       928.734          35.000    23175650.258 6  93318739.133 6       711.756          41.000
E36  23645940.984 8 124260262.497 8      -858.477          51.000    23645942.797 8  95212432.462 8      -657.818          50.000
