     3.02           OBSERVATION DATA    M (MIXED)           RINEX VERSION / TYPE
SAVERINEX           SC600               20200514 085931 LCL PGM / RUN BY / DATE
       G = GPS       R = GLONASS       C = COMPASS          COMMENT
       S = SBAS      J = QZSS          E = GALILEO          COMMENT
BEAN                                                        MARKER NAME
1                                                           MARKER NUMBER
GEODETIC                                                    MARKER TYPE
Unige DICCA         GTER                                    OBSERVER / AGENCY
SC60291900056       SC600               2.12(191226)        REC # / TYPE / VERS
                    HEMA45          NONE                    ANT # / TYPE
  4509407.8091   693652.4678  4442337.6214                  APPROX POSITION XYZ
        0.0000        0.0000        0.0000                  ANTENNA: DELTA H/E/N
G    8 C1C L1C D1C S1C C2Y L2Y D2Y S2Y                      SYS / # / OBS TYPES
R    8 C1C L1C D1C S1C C2P L2P D2P S2P                      SYS / # / OBS TYPES
C    8 C1I L1I D1I S1I C7I L7I D7I S7I                      SYS / # / OBS TYPES
E    8 C1C L1C D1C S1C C7Q L7Q D7Q S7Q                      SYS / # / OBS TYPES
DBHZ                                                        COMMENT
     30.000                                                 INTERVAL
  2020    05    14    06    00    0.0000000     GPS         TIME OF FIRST OBS
  2020    05    14    06    59   30.0000000     GPS         TIME OF LAST OBS
     0                                                      RCV CLOCK OFFS APPL
G L1C  0.00000                                              SYS / PHASE SHIFT
G L2Y  0.00000                                              SYS / PHASE SHIFT
R L1C  0.00000                                              SYS / PHASE SHIFT
R L2P  0.25000                                              SYS / PHASE SHIFT
C L1I  0.00000                                              SYS / PHASE SHIFT
C L7I  0.00000                                              SYS / PHASE SHIFT
E L1C  0.50000                                              SYS / PHASE SHIFT
E L7Q -0.25000                                              SYS / PHASE SHIFT
 14 R01  1 R05  1 R06 -4 R07  5 R08  6 R09 -2 R10 -7 R11  0 GLONASS SLOT / FRQ #
    R12 -1 R16 -1 R19  3 R20  2 R21  4 R22 -3               GLONASS SLOT / FRQ #
 C1C   71.950 C2C   71.950 C2P   71.950                     GLONASS COD/PHS/BIS
    18                                                      LEAP SECONDS
*** Above antenna height is from mark to ANTENNA BOTTOM.    COMMENT
    17     4        0.0000        ANT MEASURE TYPE/HEIGT    COMMENT
    0.0000    0.0000    0.0458    0.0405    0.0000          COMMENT
                    BASE STATION                            COMMENT
                                                            END OF HEADER
> 2020 05 14 06 00  0.0000000  0 13        .000000000000
G13  21143680.852 8 111110785.960 8     -2265.387          51.000    21143679.312 7  86579805.564 7     -1765.239          47.000
G15  20450175.766 8 107466395.389 8      -934.145          51.000    20450174.508 8  83740047.294 8      -727.905          51.000
G19  22807157.672 8 119852402.512 8      2737.105          49.000    22807153.039 6  93391480.537 6      2132.812          39.000
R08  20472655.344 8 109630187.912 8     -3108.988          49.000    20472656.328 7  85267894.877 7     -2418.105          44.000
R09  22625529.820 4 120819001.606 4     -3320.277          27.000    22625540.422 4  93970438.048 4     -2582.444          27.000
R10  20051691.891 5 106886799.719 5     -1904.898          32.000
R11  20304551.797 6 108501343.381 6      1712.809          36.000
C05                                                                  39773313.758 5 160150651.712 5        20.467          33.000
C19  23038767.469 8 119968943.461 8     -2226.332          48.000
E01  23810356.867 8 125124251.056 8       862.301          51.000    23810358.367 8  95874496.929 8       660.685          51.000
E19  25402019.266 8 133488495.854 8     -2383.723          49.000    25402019.969 7 102283385.444 7     -1826.420          45.000
E21  24375181.859 8 128092452.036 8     -1621.719          51.000    24375183.977 8  98148759.072 8     -1242.622          51.000
E31  27279888.797 7 143356787.820 7      2539.562          46.000    27279893.602 7 109844815.056 7      1945.911          47.000
> 2020 05 14 06 00 30.0000000  0 12        .000000000000
G13  21156659.516 8 111178989.551 8     -2277.551          51.000    21156658.352 8  86632951.181 8     -1774.715          48.000
G15  20455567.344 8 107494729.147 8      -950.762          51.000    20455566.469 8  83762125.533 8      -740.853          51.000
G19  22791575.672 7 119770517.723 7      2726.117          47.000    22791571.367 6  93327674.260 6      2124.247          40.000
G28  22811027.867 5 119872725.291 5     -2806.344          35.000    22811029.875 4  93407361.047 4     -2186.761          29.000
R08  20490134.281 8 109723785.644 8     -3126.660          49.000    20490135.148 7  85340693.078 7     -2431.850          44.000
R09  22644194.094 5 120918674.752 5     -3319.211          31.000    22644195.383 4  94047900.320 4     -2581.609          25.000
R10  20062447.328 5 106944130.936 5     -1913.082          34.000
C19  23051636.852 7 120035956.840 7     -2237.105          47.000
E01  23805467.844 8 125098557.709 8       854.609          51.000    23805469.406 8  95854809.822 8       654.750          51.000
E19  25415659.781 8 133560176.367 8     -2391.035          48.000    25415659.000 7 102338309.440 7     -1832.185          44.000
E21  24384464.258 8 128141231.339 8     -1626.289          51.000    24384466.508 8  98186135.404 8     -1246.148          51.000
E31  27265410.359 7 143280701.652 7      2536.836          46.000    27265414.859 7 109786515.293 7      1943.761          47.000
> 2020 05 14 06 01  0.0000000  0 13        .000000000000
G13  21169668.461 8 111247353.209 8     -2292.297          51.000    21169668.031 8  86686221.553 8     -1786.202          49.000
G15  20461015.156 8 107523357.585 8      -970.121          51.000    20461014.555 8  83784433.402 8      -755.939          51.000
G19  22776017.281 7 119688761.685 7      2712.027          42.000    22776013.914 6  93263968.273 6      2113.268          40.000
G28  22827037.430 5 119956859.028 5     -2813.777          34.000    22827043.766 4  93472927.292 4     -2192.554          29.000
R08  20507673.320 8 109817706.969 8     -3147.246          49.000    20507674.680 7  85413742.983 7     -2447.858          45.000
R09  22662821.523 5 121018120.929 5     -3323.230          31.000
R10  20073211.117 5 107001506.310 5     -1923.273          31.000
C05                                                                  39772970.203 5 160149268.806 5        21.162          34.000
C19  23064529.844 8 120103092.851 8     -2250.738          48.000
E01  23800583.328 8 125072889.265 8       844.293          51.000    23800584.641 8  95835141.773 8       646.947          51.000
E19  25429302.625 8 133631871.465 8     -2400.961          48.000    25429300.820 7 102393244.606 7     -1839.658          45.000
E21  24393733.211 8 128189940.093 8     -1633.336          51.000    24393735.648 8  98223457.675 8     -1251.487          51.000
E31  27250908.539 7 143204492.101 7      2531.527          45.000    27250912.789 7 109728120.964 7      1939.745          47.000
> 2020 05 14 06 01 30.0000000  0 13        .000000000000
G13  21182830.805 8 111316522.156 8     -2312.328          51.000    21182830.727 8  86740119.465 8     -1801.814          48.000
G15  20466642.039 8 107552926.317 8      -994.500          51.000    20466641.531 8  83807473.967 8      -774.935          51.000
G19  22760605.859 6 119607783.695 6      2692.793          37.000    22760604.141 5  93200868.608 5      2098.280          35.000
G28  22843158.883 5 120041579.604 5     -2827.734          30.000
R08  20525395.086 8 109912606.275 8     -3172.645          49.000    20525396.602 7  85487553.518 7     -2467.612          44.000
R09  22681527.883 5 121118007.918 5     -3330.035          31.000
R10  20084106.703 5 107059586.377 5     -1940.148          32.000
C05                                                                  39772849.586 5 160148782.479 5        16.785          33.000
C19  23077569.688 8 120170989.682 8     -2269.117          50.000
E01  23795826.062 8 125047891.490 8       828.879          51.000    23795827.195 8  95815987.628 8       635.133          51.000
E19  25443071.000 7 133704225.944 7     -2416.047          47.000    25443068.930 7 102448685.047 7     -1851.119          46.000
E21  24403111.445 8 128239223.268 8     -1645.527          51.000    24403113.969 8  98261220.100 8     -1260.838          51.000
E31  27236506.102 7 143128805.717 7      2520.898          46.000    27236510.438 7 109670127.500 7      1931.654          47.000
> 2020 05 14 06 02  0.0000000  0 13        .000000000000
G13  21196045.648 8 111385965.959 8     -2322.066          51.000    21196045.734 8  86794231.533 8     -1809.399          48.000
G15  20472347.125 8 107582905.674 8     -1008.844          51.000    20472346.453 8  83830834.498 8      -786.112          51.000
G17  22499353.664 5 118234902.471 5       843.387          33.000    22499353.219 5  92131085.471 5       657.178          33.000
G19  22745242.914 6 119527057.883 6      2684.441          37.000    22745243.023 6  93137965.378 6      2091.769          37.000
R08  20543198.617 8 110007941.002 8     -3187.758          49.000    20543199.953 7  85561702.689 7     -2479.367          44.000
R10  20095031.336 6 107117818.366 6     -1946.410          36.000
R11  20266656.438 4 108298885.099 4      1661.324          27.000
C05                                                                  39772703.453 5 160148194.696 5        19.329          34.000
C19  23090654.961 8 120239120.990 8     -2277.602          51.000
E01  23791095.766 8 125023034.806 8       823.508          51.000    23791096.664 8  95796941.605 8       630.976          51.000
E19  25456864.016 7 133776709.675 7     -2420.938          46.000    25456862.859 7 102504224.519 7     -1855.061          47.000
E21  24412498.094 8 128288550.474 8     -1647.691          51.000    24412500.438 8  98299016.273 8     -1262.535          51.000
E31  27222102.352 7 143053113.648 7      2520.535          47.000    27222106.875 7 109612129.693 7      1931.217          47.000
> 2020 05 14 06 02 30.0000000  0 12        .000000000000
G13  21209337.906 8 111455816.211 8     -2336.074          51.000    21209338.102 8  86848660.297 8     -1820.315          48.000
G15  20478155.586 8 107613428.108 8     -1027.473          51.000    20478154.711 8  83854618.207 8      -800.628          51.000
G19  22729954.422 6 119446720.637 6      2670.051          38.000    22729955.680 6  93075364.817 6      2080.553          37.000
R08  20561108.227 8 110103842.552 8     -3207.188          49.000    20561108.266 7  85636292.769 7     -2494.479          42.000
R10  20106010.898 6 107176342.406 6     -1956.754          37.000
R11  20257362.422 5 108249220.679 5      1647.180          31.000
C05                                                                  39772557.039 5 160147604.737 5        18.930          33.000
C19  23103809.758 8 120307616.509 8     -2290.332          50.000
E01  23786417.836 8 124998451.850 8       813.773          51.000    23786418.422 8  95778105.318 8       623.577          51.000
E19  25470706.414 7 133849454.233 7     -2430.234          46.000    25470706.812 7 102559963.832 7     -1862.080          47.000
E21  24421918.180 8 128338053.547 8     -1654.090          51.000    24421920.289 8  98336947.183 8     -1267.414          51.000
E31  27207722.891 7 142977549.369 7      2515.551          47.000    27207727.312 7 109554229.789 7      1927.476          46.000
> 2020 05 14 06 03  0.0000000  0 11        .000000000000
G13  21222699.688 8 111526032.379 8     -2347.305          51.000    21222699.922 7  86903374.175 7     -1829.069          47.000
G15  20484059.508 8 107644452.988 8     -1043.156          51.000    20484058.500 8  83878793.410 8      -812.849          51.000
G19  22714733.984 7 119366734.877 7      2659.773          43.000    22714735.914 6  93013038.218 6      2072.551          40.000
R08  20579115.500 8 110200267.274 8     -3223.508          49.000    20579114.227 7  85711289.763 7     -2507.173          42.000
R10  20117037.594 6 107235115.834 6     -1963.637          39.000
C05                                                                  39772402.680 5 160146983.561 5        21.041          34.000
C19  23117025.625 8 120376434.733 8     -2299.926          49.000
E01  23781784.227 8 124974102.438 8       807.215          51.000    23781784.672 8  95759447.980 8       618.485          51.000
E19  25484590.500 7 133922418.633 7     -2436.344          45.000    25484592.383 7 102615871.585 7     -1866.806          47.000
E21  24431363.938 8 128387691.522 8     -1657.375          51.000    24431366.047 8  98374981.466 8     -1269.934          51.000
E31  27193360.383 7 142902073.439 7      2513.758          47.000    27193364.227 7 109496397.585 7      1926.174          47.000
> 2020 05 14 06 03 30.0000000  0 12        .000000000000
G13  21236139.234 8 111596657.797 8     -2360.918          51.000    21236138.867 7  86958406.945 7     -1839.676          46.000
G15  20490067.477 8 107676024.615 8     -1061.312          51.000    20490066.336 8  83903394.656 8      -826.997          51.000
G19  22699590.227 7 119287148.630 7      2646.801          45.000    22699591.453 6  92951023.011 6      2062.442          41.000
G28  22907886.500 5 120381729.518 5     -2845.367          33.000    22907886.750 4  93803965.977 4     -2217.169          28.000
R08  20597228.016 8 110297257.377 8     -3242.211          49.000    20597226.195 7  85786726.480 7     -2521.720          43.000
R10  20128118.891 6 107294182.332 6     -1973.477          39.000
R11  20238981.477 4 108150978.194 4      1624.465          28.000
C19  23130311.102 8 120445618.058 8     -2312.094          49.000
E01  23777203.352 8 124950031.024 8       797.887          51.000    23777204.070 8  95741003.648 8       611.386          51.000
E19  25498524.875 7 133995646.554 7     -2445.125          45.000    25498527.516 7 102671981.273 7     -1873.501          46.000
E21  24440843.727 8 128437508.037 8     -1663.352          51.000    24440846.039 8  98413152.560 8     -1274.516          51.000
E31  27179023.258 7 142826731.052 7      2509.473          45.000    27179026.516 7 109438667.737 7      1922.705          47.000
> 2020 05 14 06 04  0.0000000  0 12        .000000000000
G13  21249651.945 8 111667667.719 8     -2373.645          51.000    21249651.000 7  87013739.308 7     -1849.593          45.000
G15  20496174.711 8 107708118.071 8     -1078.688          51.000    20496173.477 8  83928402.524 8      -840.539          51.000
G19  22684518.555 7 119207941.415 7      2633.633          44.000    22684518.945 7  92889303.121 7      2052.181          43.000
R08  20615440.633 8 110394784.815 8     -3260.043          49.000    20615439.281 7  85862581.133 7     -2535.589          45.000
R10  20139249.391 5 107353515.990 5     -1982.387          34.000
R11  20229904.992 5 108102431.379 5      1611.414          33.000
C19  23143661.656 8 120515140.945 8     -2323.289          49.000
C28  25350607.906 6 132007261.687 6      -134.184          36.000
E01  23772671.000 8 124926213.520 8       789.438          51.000    23772672.086 8  95722753.859 8       604.867          51.000
E19  25512505.102 7 134069113.055 7     -2453.145          46.000    25512507.125 7 102728273.778 7     -1879.724          45.000
E21  24450352.773 8 128487478.215 8     -1668.453          51.000    24450355.242 8  98451441.392 8     -1278.428          51.000
E31  27164706.859 7 142751498.930 7      2505.801          42.000    27164709.969 8 109381022.382 8      1919.865          48.000
> 2020 05 14 06 04 30.0000000  0 14        .000000000000
G12  23503166.148 5 123509970.399 5      3656.043          32.000    23503157.969 5  96241515.582 5      2848.868          32.000
G13  21263224.211 8 111738990.805 8     -2383.332          51.000    21263222.891 7  87069315.676 7     -1857.145          45.000
G15  20502367.758 8 107740663.391 8     -1093.086          51.000    20502366.695 8  83953762.502 8      -851.755          51.000
G17  22476486.203 5 118114733.081 5       760.523          30.000    22476486.523 5  92037456.378 5       592.616          30.000
G19  22669505.633 7 119129045.899 7      2623.883          44.000    22669505.711 6  92827826.180 6      2044.587          41.000
R08  20633739.227 8 110492774.807 8     -3274.852          48.000    20633738.961 7  85938795.559 7     -2547.107          47.000
R10  20150415.766 6 107413043.511 6     -1988.113          36.000
R11  20220885.992 5 108054181.778 5      1602.832          35.000
C19  23157063.797 8 120584932.086 8     -2331.516          49.000
C28  25351411.297 6 132011444.210 6      -146.703          36.000
E01  23768173.828 8 124902579.624 8       784.141          51.000    23768174.984 8  95704644.762 8       600.802          51.000
E19  25526517.523 7 134142747.020 7     -2457.867          47.000    25526518.117 7 102784694.593 7     -1883.310          44.000
E21  24459877.492 8 128537531.012 8     -1670.426          51.000    24459879.883 8  98489793.517 8     -1279.949          51.000
E31  27150397.578 6 142676307.529 6      2505.109          39.000    27150401.719 8 109323408.204 8      1919.466          48.000
> 2020 05 14 06 05  0.0000000  0 12        .000000000000
G12  23482340.766 5 123400532.197 5      3644.941          32.000    23482331.734 5  96156232.087 5      2840.217          33.000
G13  21276891.844 8 111810814.390 8     -2400.781          51.000    21276890.555 7  87125282.076 7     -1870.739          46.000
G15  20508682.328 8 107773848.427 8     -1115.145          51.000    20508681.664 8  83979620.963 8      -868.944          51.000
G19  22654588.523 7 119050654.598 7      2606.004          45.000    22654587.898 7  92766742.055 7      2030.655          42.000
R08  20652158.961 7 110591415.639 7     -3297.246          47.000    20652160.117 7  86015516.214 7     -2564.525          47.000
R10  20161655.555 6 107472954.832 6     -2002.098          37.000
C19  23170553.102 8 120655176.101 8     -2347.293          50.000
C28  25352328.008 6 132016218.634 6      -167.668          36.000
E01  23763747.477 8 124879317.360 8       770.871          51.000    23763748.242 8  95686820.440 8       590.620          51.000
E19  25540597.484 8 134216735.728 8     -2470.551          48.000    25540596.797 7 102841387.198 7     -1892.954          45.000
E21  24469453.539 8 128587853.678 8     -1680.262          51.000    24469455.617 8  98528352.429 8     -1287.470          51.000
E31  27136131.977 6 142601345.742 6      2496.336          37.000    27136137.664 8 109265969.892 8      1912.915          49.000
> 2020 05 14 06 05 30.0000000  0 13        .000000000000
G12  23461549.695 5 123291275.799 5      3640.539          30.000    23461542.461 4  96071137.647 4      2836.781          29.000
G13  21290635.156 8 111883036.649 8     -2412.312          51.000    21290634.328 7  87181559.155 7     -1879.721          46.000
G15  20515099.281 8 107807571.647 8     -1131.418          50.000    20515098.945 8  84005898.795 8      -881.624          50.000
G19  22639748.711 7 118972669.843 7      2594.320          45.000    22639747.438 7  92705974.692 7      2021.545          42.000
R08  20670680.945 8 110690601.593 8     -3313.555          48.000    20670682.828 7  86092660.841 7     -2577.209          47.000
R10  20172947.438 6 107533145.709 6     -2009.496          37.000
R11  20203071.156 5 107959096.298 5      1575.203          30.000
C19  23184109.992 8 120725771.128 8     -2357.305          50.000
C28  25353339.250 5 132021484.656 5      -181.688          34.000
E01  23759372.570 8 124856325.638 8       763.625          51.000    23759372.844 8  95669203.418 8       585.106          51.000
E19  25554725.461 8 134290976.999 8     -2477.223          48.000    25554724.289 7 102898273.333 7     -1897.967          46.000
E21  24479061.586 8 128638344.374 8     -1684.035          51.000    24479063.414 8  98567040.092 8     -1290.383          51.000
E31  27121892.297 6 142526513.113 6      2493.906          40.000    27121898.281 8 109208630.595 8      1910.957          49.000
> 2020 05 14 06 06  0.0000000  0 14        .000000000000
G13  21304450.148 8 111955637.199 8     -2428.184          51.000    21304450.289 7  87238131.016 7     -1892.091          46.000
G15  20521615.000 8 107841813.453 8     -1151.816          50.000    20521614.820 8  84032580.728 8      -897.519          50.000
G19  22624983.414 7 118895075.460 7      2578.129          46.000    22624981.727 7  92645511.552 7      2008.932          42.000
G28  22989507.211 5 120810675.339 5     -2875.828          31.000
R01  19773692.812 6 105701718.362 6       -83.918          36.000    19773696.922 4  82212468.933 4       -65.270          25.000
R08  20689300.883 7 110790309.412 7     -3334.141          47.000    20689302.609 7  86170211.336 7     -2593.220          46.000
R10  20184287.172 5 107593594.701 5     -2021.090          35.000
R11  20194271.992 4 107912067.067 4      1559.562          29.000    20194267.953 4  83931602.816 4      1212.990          27.000
C19  23197730.617 8 120796696.366 8     -2371.438          51.000
C28  25354441.750 5 132027223.735 5      -201.234          33.000
E01  23755045.320 8 124833585.142 8       751.934          51.000    23755045.422 8  95651778.891 8       576.166          51.000
E19  25568897.430 8 134365450.748 8     -2488.180          48.000    25568897.008 8 102955337.632 8     -1906.581          48.000
E21  24488697.852 8 128688983.017 8     -1692.293          51.000    24488699.680 8  98605841.106 8     -1296.692          51.000
E31  27107674.297 7 142451791.024 7      2487.098          43.000    27107679.461 8 109151376.077 8      1905.629          48.000
> 2020 05 14 06 06 30.0000000  0 14        .000000000000
G13  21318350.438 8 112028685.474 8     -2438.660          51.000    21318351.125 7  87295051.738 7     -1900.252          46.000
G15  20528242.805 8 107876643.441 8     -1167.027          50.000    20528242.586 8  84059720.978 8      -909.372          50.000
G19  22610306.484 7 118817945.293 7      2566.762          45.000    22610303.969 7  92585410.173 7      2000.077          42.000
G24  21177834.461 5 111290280.015 5      1944.371          33.000
R01  19774241.586 6 105704647.627 6      -108.746          37.000    19774246.992 4  82214746.665 4       -84.580          25.000
R08  20708031.273 7 110890607.212 7     -3349.301          46.000    20708032.164 7  86248220.663 7     -2605.015          44.000
R09  22868592.000 4 122116983.910 4     -3331.980          29.000
R10  20195688.781 6 107654372.002 6     -2027.953          36.000
C19  23211428.008 8 120868019.621 8     -2380.383          50.000
C28  25355649.695 5 132033505.840 5      -214.332          33.000
E01  23750779.031 8 124811166.091 8       745.633          51.000    23750779.367 8  95634600.638 8       571.353          51.000
E19  25583126.930 8 134440226.647 8     -2493.879          49.000    25583127.641 8 103012633.429 8     -1910.879          49.000
E21  24498375.469 8 128739839.026 8     -1695.188          51.000    24498377.523 8  98644808.682 8     -1298.862          51.000
E31  27093491.078 7 142377250.574 7      2485.336          45.000    27093494.320 7 109094260.726 7      1904.327          47.000
> 2020 05 14 06 07  0.0000000  0 13        .000000000000
G12  23399389.039 5 122964609.960 5      3618.863          33.000    23399400.781 5  95816597.012 5      2819.893          33.000
G13  21332319.789 8 112102095.212 8     -2453.113          51.000    21332320.703 7  87352254.101 7     -1911.517          46.000
G15  20534966.289 8 107911975.864 8     -1186.270          50.000    20534965.836 8  84087252.716 8      -924.369          51.000
G19  22595701.797 7 118741197.003 7      2552.332          43.000    22595698.578 6  92525606.399 6      1988.833          40.000
R01  19774937.234 6 105708369.555 6      -137.602          36.000    19774941.453 4  82217641.527 4      -107.023          28.000
R08  20726854.398 7 110991404.615 7     -3368.180          46.000    20726855.086 7  86326618.574 7     -2619.695          44.000
R10  20207135.281 6 107715389.241 6     -2037.934          37.000
C19  23225184.641 8 120939654.496 8     -2393.160          49.000
C28  25356945.414 4 132040269.362 4      -232.160          27.000
E01  23746557.422 8 124788982.928 8       735.410          51.000    23746558.445 8  95617603.148 8       563.448          51.000
E19  25597397.695 8 134515218.140 8     -2503.438          49.000    25597398.758 8 103070094.430 8     -1918.209          48.000
E21  24508078.031 8 128790826.162 8     -1701.855          51.000    24508080.273 8  98683876.737 8     -1304.034          51.000
E31  27079326.172 7 142302807.005 7      2479.703          45.000    27079326.852 7 109037219.608 7      1900.044          46.000
> 2020 05 14 06 07 30.0000000  0 14        .000000000000
G12  23378751.938 6 122856153.510 6      3611.805          36.000    23378761.922 6  95732085.587 6      2814.393          36.000
G13  21346364.867 8 112175901.805 8     -2466.852          51.000    21346365.461 7  87409765.710 7     -1922.222          46.000
G15  20541792.508 8 107947846.818 8     -1204.742          51.000    20541791.781 8  84115204.083 8      -938.760          51.000
G19  22581176.617 6 118664870.636 6      2536.906          39.000    22581173.664 5  92466131.343 5      1976.813          35.000
R01  19775788.469 6 105712921.297 6      -165.242          36.000    19775795.125 5  82221181.753 5      -128.525          31.000
R08  20745776.422 7 111092735.461 7     -3386.523          46.000    20745777.750 7  86405431.459 7     -2633.963          44.000
R10  20218633.492 6 107776681.712 6     -2047.820          36.000
R11  20168310.359 5 107773358.694 5      1522.668          30.000    20168313.242 4  83823720.174 4      1184.297          29.000
C19  23239007.070 8 121011635.286 8     -2405.094          49.000
C28  25358332.562 5 132047500.149 5      -249.926          31.000
E01  23742387.773 8 124767072.017 8       725.809          51.000    23742389.453 8  95600814.281 8       556.160          51.000
E19  25611716.227 8 134590460.716 8     -2512.172          49.000    25611716.977 8 103127747.820 8     -1925.025          48.000
E21  24517812.297 8 128841980.098 8     -1707.875          51.000    24517814.625 8  98723072.587 8     -1308.617          51.000
E31  27065186.164 7 142228497.444 7      2474.832          43.000    27065185.188 7 108980281.181 7      1896.261          46.000
> 2020 05 14 06 08  0.0000000  0 14        .000000000000
G12  23358159.883 6 122747933.377 6      3597.336          37.000    23358169.656 6  95647758.285 6      2803.122          38.000
G13  21360490.977 8 112250133.687 8     -2487.578          51.000    21360491.188 7  87467608.707 7     -1938.373          47.000
G15  20548726.844 8 107984285.339 8     -1230.090          51.000    20548725.797 8  84143597.698 8      -958.512          51.000
G17  22448800.773 5 117969244.076 5       622.719          32.000
G19  22566736.820 6 118588999.286 6      2515.777          40.000    22566735.250 6  92407010.689 6      1960.340          36.000
R01  19776800.164 5 105718333.614 5      -200.777          35.000    19776806.750 4  82225391.294 4      -156.163          29.000
R08  20764802.867 8 111194626.319 8     -3411.660          48.000    20764805.281 7  86484679.911 7     -2653.513          45.000
R10  20230188.367 6 107838278.100 6     -2064.395          38.000
C19  23252901.461 8 121083989.444 8     -2423.988          48.000
C28  25359822.820 5 132055261.131 5      -273.641          31.000
E01  23738275.789 8 124745462.790 8       709.129          51.000    23738277.531 8  95584256.570 8       543.364          51.000
E19  25626087.641 7 134665982.883 7     -2528.125          47.000    25626087.680 7 103185615.419 7     -1937.138          47.000
E21  24527583.750 8 128893329.485 8     -1721.035          51.000    24527585.969 8  98762418.205 8     -1318.736          51.000
E31  27051076.047 6 142154352.155 6      2462.602          41.000    27051075.906 7 108923468.567 7      1886.911          47.000
> 2020 05 14 06 08 30.0000000  0 13        .000000000000
G12  23337595.586 6 122639853.294 6      3605.492          39.000    23337604.297 6  95563540.024 6      2809.471          39.000
G13  21374678.898 8 112324691.368 8     -2485.824          50.000    21374678.852 7  87525705.542 7     -1937.009          46.000
G15  20555750.414 8 108021192.141 8     -1233.152          51.000    20555748.773 8  84172356.225 8      -960.898          51.000
G19  22552367.609 7 118513487.200 7      2516.062          42.000    22552365.766 6  92348170.174 6      1960.571          36.000
R01  19777953.508 6 105724506.149 6      -213.637          36.000    19777959.805 4  82230192.136 4      -166.162          29.000
R08  20783915.648 8 111296973.293 8     -3414.031          49.000    20783918.516 7  86564283.110 7     -2655.358          46.000
R10  20241781.336 6 107900076.256 6     -2058.512          38.000
C19  23266848.828 8 121156617.330 8     -2420.578          49.000
C28  25361394.188 5 132063449.427 5      -274.992          30.000
E01  23734202.070 8 124724056.396 8       715.113          51.000    23734203.609 8  95567854.260 8       547.974          51.000
E19  25640492.922 7 134741685.020 7     -2521.473          46.000    25640492.047 7 103243620.914 7     -1932.094          45.000
E21  24537373.492 8 128944774.755 8     -1711.441          51.000    24537375.500 8  98801837.291 8     -1311.400          51.000
E31  27036977.234 6 142080272.985 6      2473.453          40.000    27036980.383 7 108866706.585 7      1894.938          47.000
> 2020 05 14 06 09  0.0000000  0 14        .000000000000
G12  23317071.820 6 122531989.393 6      3590.645          37.000    23317081.820 6  95479490.201 6      2797.905          36.000
G13  21388942.742 8 112399648.412 8     -2506.895          51.000    21388942.250 7  87584113.575 7     -1953.427          45.000
G15  20562877.117 8 108058641.394 8     -1259.086          51.000    20562875.094 8  84201537.463 8      -981.106          51.000
G19  22538082.094 7 118438412.501 7      2493.516          45.000    22538079.086 6  92289670.459 6      1943.002          36.000
R01  19779264.430 5 105731515.411 5      -249.418          35.000    19779270.820 4  82235643.813 4      -193.995          29.000
R08  20803127.906 8 111399849.070 8     -3439.668          50.000    20803130.500 8  86644297.587 8     -2675.297          48.000
R09  22962294.344 5 122617340.388 5     -3338.762          30.000
R10  20253426.930 6 107962150.641 6     -2075.750          40.000
R11  20142977.078 4 107638045.087 4      1484.266          27.000
C19  23280863.047 8 121229591.067 8     -2439.953          50.000
E01  23730180.922 8 124702927.417 8       697.973          51.000    23730182.430 8  95551664.515 8       534.849          51.000
E19  25654946.359 7 134817640.875 7     -2537.859          46.000    25654944.922 7 103301820.814 7     -1944.620          45.000
E21  24547195.562 8 128996389.791 8     -1725.012          51.000    24547197.516 8  98841386.454 8     -1321.768          51.000
E31  27022906.258 7 142006335.313 7      2460.500          42.000    27022912.484 8 108810053.029 8      1885.312          48.000
> 2020 05 14 06 09 30.0000000  0 12        .000000000000
G12  23296608.438 5 122424439.714 5      3586.168          34.000    23296616.859 5  95395685.224 5      2794.407          33.000
G13  21403300.797 8 112475099.646 8     -2516.949          51.000    21403300.133 7  87642906.713 7     -1961.262          45.000
G15  20570124.906 8 108096728.285 8     -1273.996          51.000    20570122.922 8  84231215.558 8      -992.727          51.000
G19  22523898.734 7 118363874.664 7      2481.758          45.000    22523895.586 6  92231589.084 6      1933.837          38.000
R01  19780749.320 5 105739458.983 5      -273.730          34.000    19780756.836 5  82241822.126 5      -212.901          31.000
R08  20822456.281 8 111503347.606 8     -3454.031          48.000    20822458.594 7  86724796.413 7     -2686.469          47.000
R10  20265141.688 6 108024596.598 6     -2081.547          38.000
C19  23294961.758 8 121303003.840 8     -2448.188          50.000
E01  23726231.234 8 124682171.574 8       691.852          51.000    23726232.820 8  95535760.691 8       530.111          51.000
E19  25669466.328 7 134893945.301 7     -2542.941          46.000    25669465.273 7 103360287.797 7     -1948.610          46.000
E21  24557068.031 8 129048269.638 8     -1727.547          51.000    24557070.164 8  98881138.535 8     -1323.690          51.000
E31  27008881.203 7 141932635.586 7      2458.906          43.000    27008889.750 8 108753581.825 8      1884.082          49.000
> 2020 05 14 06 10  0.0000000  0 15        .000000000000
G13  21417707.492 8 112550806.535 8     -2524.301          51.000    21417707.039 7  87701899.068 7     -1966.988          46.000
G15  20577448.602 8 108135215.028 8     -1286.082          51.000    20577447.047 8  84261205.210 8     -1002.142          51.000
G19  22509772.727 7 118289639.788 7      2472.555          44.000    22509769.383 6  92173743.774 6      1926.666          39.000
G28  23121816.109 5 121505946.145 5     -2910.789          32.000
R01  19782365.430 6 105748095.685 6      -295.863          37.000    19782371.742 5  82248539.527 5      -230.116          30.000
R08  20841854.078 7 111607223.630 7     -3465.254          46.000    20841856.266 7  86805588.868 7     -2695.197          46.000
R10  20276880.445 6 108087172.141 6     -2084.430          38.000
R11  20126461.406 5 107549699.806 5      1467.227          32.000    20126455.883 4  83649748.657 4      1141.176          26.000
C19  23309099.180 8 121376618.518 8     -2453.703          50.000
C28  25366693.023 4 132091029.606 4      -323.711          28.000
E01  23722307.711 8 124661551.354 8       688.531          51.000    23722309.266 8  95519960.782 8       527.537          51.000
E04  23994960.445 6 126094369.757 6       289.859          40.000    23994958.820 6  96617759.312 6       222.202          40.000
E19  25684007.320 7 134970359.844 7     -2545.500          46.000    25684007.484 7 103418839.189 7     -1950.490          47.000
E21  24566945.531 8 129100176.013 8     -1727.262          51.000    24566947.938 8  98920910.948 8     -1323.495          51.000
E31  26994856.781 7 141858937.093 7      2460.117          43.000    26994866.461 8 108697111.559 8      1884.956          48.000
> 2020 05 14 06 10 30.0000000  0 13        .000000000000
G13  21432207.070 8 112627001.886 8     -2555.039          50.000    21432206.648 7  87761272.041 7     -1990.943          47.000
G15  20584892.758 8 108174334.762 8     -1321.691          51.000    20584891.664 8  84291688.115 8     -1029.889          51.000
G19  22495749.156 7 118215944.644 7      2440.164          43.000    22495746.016 6  92116318.962 6      1901.423          37.000
G28  23138498.375 5 121593606.988 5     -2933.477          35.000
R01  19784156.164 6 105757663.593 6      -341.680          39.000    19784161.492 5  82255981.298 5      -265.751          31.000
R08  20861364.906 7 111711711.737 7     -3500.211          46.000    20861367.891 7  86886857.396 7     -2722.386          45.000
R10  20288687.789 6 108150112.914 6     -2111.340          37.000
C19  23323319.523 8 121450664.940 8     -2482.422          50.000
E01  23718454.219 8 124641300.400 8       661.793          51.000    23718455.695 8  95504443.815 8       507.097          51.000
E04  23993394.211 6 126086143.558 6       258.824          40.000    23993391.922 6  96611456.115 6       198.371          39.000
E19  25698613.805 7 135047117.368 7     -2571.422          46.000    25698615.391 7 103477653.384 7     -1970.238          47.000
E21  24576872.359 8 129152341.947 8     -1750.258          51.000    24576875.039 8  98960882.242 8     -1341.119          51.000
E31  26980877.438 7 141785474.294 7      2437.820          44.000    26980886.734 7 108640821.894 7      1867.865          47.000
> 2020 05 14 06 11  0.0000000  0 16        .000000000000
G12  23235395.555 5 122102820.564 5      3570.250          31.000    23235388.836 5  95145037.434 5      2782.013          32.000
G13  21446756.305 8 112703457.785 8     -2550.746          50.000    21446755.547 7  87820848.048 7     -1987.594          47.000
G15  20592413.867 8 108213859.785 8     -1322.176          51.000    20592413.055 8  84322486.823 8     -1030.267          51.000
G19  22481785.242 6 118142565.535 6      2442.961          41.000    22481782.570 5  92059140.440 5      1903.609          34.000
G28  23155181.492 5 121681293.859 5     -2921.199          35.000
R01  19786078.062 6 105767931.726 6      -352.188          41.000    19786082.641 5  82263967.628 5      -273.921          31.000
R08  20880947.859 8 111816577.656 8     -3499.699          48.000    20880950.172 7  86968419.714 7     -2721.991          44.000
R10  20300520.594 6 108213187.185 6     -2102.695          38.000
R11  20110204.148 4 107462908.498 4      1440.656          28.000    20110212.180 4  83582255.125 4      1120.510          28.000
C19  23337579.172 8 121524916.335 8     -2476.434          50.000
C28  25370698.820 4 132111879.207 4      -357.652          29.000
E01  23714627.484 8 124621191.594 8       670.090          51.000    23714628.961 8  95489035.773 8       513.428          51.000
E04  23991881.117 6 126078193.544 6       262.367          41.000    23991880.570 6  96605364.567 6       201.136          41.000
E19  25713242.312 8 135123989.975 8     -2562.184          48.000    25713244.891 7 103536555.768 7     -1963.223          46.000
E21  24586805.227 8 129204539.639 8     -1738.312          51.000    24586808.078 8  99000877.861 8     -1331.981          51.000
E31  26966899.789 7 141712020.822 7      2450.410          44.000    26966907.625 7 108584539.391 7      1877.596          47.000
> 2020 05 14 06 11 30.0000000  0 13        .000000000000
G13  21461404.336 8 112780433.624 8     -2573.215          50.000    21461403.328 7  87880829.249 7     -2005.102          47.000
G15  20600061.328 8 108254050.158 8     -1349.426          51.000    20600060.914 8  84353803.986 8     -1051.501          51.000
G19  22467931.695 6 118069766.592 6      2418.207          41.000    22467929.281 6  92002414.011 6      1884.320          37.000
G28  23171918.547 6 121769265.716 6     -2935.719          36.000
R01  19788180.766 7 105779165.409 7      -389.281          42.000    19788184.703 5  82272704.914 5      -302.774          32.000
R08  20900651.344 8 111922083.361 8     -3526.137          49.000    20900651.922 7  87050479.638 7     -2742.554          45.000
R10  20312428.219 6 108276657.878 6     -2121.105          38.000
C19  23351927.078 8 121599629.053 8     -2496.781          50.000
E01  23710877.578 8 124601485.485 8       651.566          51.000    23710878.875 8  95473936.275 8       499.267          51.000
E04  23990470.312 6 126070781.209 6       239.539          40.000    23990471.875 6  96599684.981 6       183.546          41.000
E19  25727942.266 8 135201237.300 8     -2579.793          48.000    25727944.539 7 103595745.264 7     -1976.659          45.000
E21  24596793.555 8 129257028.901 8     -1753.129          51.000    24596796.477 8  99041096.886 8     -1343.265          51.000
E31  26952973.664 7 141638837.943 7      2436.309          46.000    26952979.500 7 108528464.255 7      1866.779          46.000
> 2020 05 14 06 12  0.0000000  0 15        .000000000000
G12  23194797.930 5 121889525.646 5      3548.680          33.000    23194793.547 5  94978813.901 5      2765.205          33.000
G13  21476103.898 8 112857683.038 8     -2582.586          48.000    21476103.062 7  87941023.644 7     -2012.402          46.000
G15  20607788.781 8 108294659.863 8     -1363.637          51.000    20607788.781 8  84385447.892 8     -1062.574          51.000
G19  22454142.180 6 117997305.280 6      2406.559          41.000    22454140.500 6  91945950.669 6      1875.240          38.000
G28  23188664.641 6 121857275.290 6     -2937.781          37.000
R01  19790417.156 7 105791114.866 7      -413.441          42.000    19790420.531 5  82281998.934 5      -321.566          33.000
R08  20920426.859 8 112027974.952 8     -3539.223          50.000    20920426.422 7  87132839.708 7     -2752.732          45.000
R10  20324362.617 6 108340274.451 6     -2126.012          38.000
R11  20094245.930 5 107377644.020 5      1409.695          33.000
C19  23366315.938 8 121674558.068 8     -2504.215          50.000
E01  23707157.742 8 124581936.445 8       645.973          51.000    23707158.680 8  95458957.149 8       494.969          51.000
E04  23989115.258 6 126063662.037 6       229.457          40.000    23989116.906 6  96594230.018 6       175.731          40.000
E19  25742666.594 8 135278612.801 8     -2584.410          48.000    25742667.891 7 103655032.934 7     -1980.098          43.000
E21  24606790.508 8 129309563.483 8     -1754.930          51.000    24606793.258 8  99081350.635 8     -1344.674          51.000
E31  26939052.273 7 141565680.865 7      2435.055          45.000    26939056.695 7 108472408.867 7      1865.737          47.000
> 2020 05 14 06 12 30.0000000  0 18        .000000000000
G12  23174566.305 6 121783221.559 6      3540.027          36.000    23174565.852 6  94895979.520 6      2758.463          36.000
G13  21490891.078 8 112935391.182 8     -2596.336          50.000    21490890.141 7  88001575.462 7     -2023.119          45.000
G15  20615631.492 8 108335874.611 8     -1382.473          51.000    20615631.703 8  84417563.278 8     -1077.251          51.000
G17  22420603.539 5 117821108.421 5       465.070          35.000
G19  22440453.602 7 117925371.655 7      2390.367          42.000    22440452.227 6  91889898.547 6      1862.624          39.000
G28  23205454.430 5 121945507.456 5     -2944.117          35.000    23205451.820 5  95022444.985 5     -2294.117          33.000
R01  19792822.375 6 105803969.985 6      -442.234          40.000    19792825.508 5  82291997.354 5      -343.963          33.000
R08  20940308.523 7 112134438.779 7     -3556.727          47.000    20940307.969 7  87215644.875 7     -2766.343          45.000
R10  20336359.258 6 108404224.600 6     -2135.500          39.000
R11  20086372.477 5 107335589.215 5      1396.637          30.000
R12  23547453.484 6 125786264.585 6      3203.664          38.000    23547463.578 5  97833770.049 5      2491.742          30.000
C19  23380781.250 8 121749886.097 8     -2516.012          50.000
C28  25377430.617 5 132146932.906 5      -414.793          31.000
E01  23703503.000 8 124562730.686 8       635.988          51.000    23703503.797 8  95444241.074 8       487.307          51.000
E04  23987851.453 6 126057023.200 6       214.824          40.000    23987853.008 6  96589143.111 6       164.647          40.000
E19  25757450.484 8 135356302.001 8     -2593.395          48.000    25757450.758 7 103714560.966 7     -1987.161          43.000
E21  24616831.461 8 129362328.981 8     -1761.188          51.000    24616833.742 8  99121781.314 8     -1349.466          51.000
E31  26925171.102 7 141492736.613 7      2429.473          44.000    26925175.414 7 108416516.516 7      1861.511          47.000
> 2020 05 14 06 13  0.0000000  0 18        .000000000000
G12  23154372.086 5 121677097.695 5      3533.582          35.000    23154369.914 5  94813285.624 5      2753.444          35.000
G13  21505743.289 8 113013437.596 8     -2607.945          51.000    21505741.758 7  88062390.816 7     -2032.168          43.000
G15  20623566.523 8 108377574.241 8     -1398.852          51.000    20623566.805 8  84450056.479 8     -1090.014          51.000
G17  22418012.383 5 117807452.644 5       448.832          33.000
G19  22426843.844 7 117853849.150 7      2376.359          44.000    22426842.008 6  91834166.777 6      1851.712          38.000
G28  23222263.539 5 122033840.487 5     -2946.605          34.000
R01  19795373.859 6 105817608.792 6      -468.410          41.000    19795376.906 5  82302605.273 5      -364.322          34.000
R08  20960272.297 7 112241349.407 7     -3571.848          44.000    20960272.953 7  87298797.576 7     -2778.101          43.000
R10  20348395.562 6 108468385.171 6     -2143.133          38.000
R11  20078563.211 5 107293843.332 5      1384.168          35.000
R12  23529466.695 5 125690185.337 5      3200.082          35.000    23529477.234 4  97759041.666 4      2488.947          26.000
C19  23395300.500 8 121825492.586 8     -2525.578          51.000
C28  25379860.859 5 132159576.188 5      -429.867          34.000
E01  23699890.602 8 124543748.328 8       628.125          51.000    23699891.461 8  95429696.160 8       481.276          51.000
E04  23986656.648 6 126050745.739 6       202.301          41.000    23986659.297 6  96584333.093 6       154.986          41.000
E19  25772270.922 7 135434183.990 7     -2600.238          47.000    25772270.891 7 103774236.714 7     -1992.441          44.000
E21  24626893.461 8 129415204.807 8     -1765.273          51.000    24626895.156 8  99162296.531 8     -1352.621          51.000
E31  26911307.789 7 141419886.026 7      2425.961          45.000    26911312.859 8 108360695.940 8      1858.775          48.000
> 2020 05 14 06 13 30.0000000  0 16        .000000000000
G12  23134224.617 5 121571224.827 5      3524.637          34.000    23134222.023 5  94730787.385 5      2746.473          35.000
G13  21520672.797 8 113091889.323 8     -2622.176          51.000    21520670.750 7  88123521.976 7     -2043.254          44.000
G15  20631607.031 8 108419826.174 8     -1418.047          51.000    20631607.211 8  84482980.048 8     -1104.972          51.000
G19  22413326.180 7 117782809.358 7      2359.680          44.000    22413322.992 5  91778811.067 5      1838.711          34.000
R01  19798085.008 6 105832100.782 6      -497.785          40.000    19798088.203 5  82313876.796 5      -387.169          35.000
R08  20980331.719 7 112348772.803 7     -3589.523          45.000    20980333.172 7  87382349.086 7     -2791.855          43.000
R10  20360484.383 6 108532823.996 6     -2152.996          37.000
R11  20070835.336 6 107252528.514 6      1369.684          37.000
R12  23511514.172 5 125594287.277 5      3193.840          31.000    23511523.922 4  97684486.140 4      2484.098          26.000
C19  23409886.305 8 121901443.480 8     -2537.797          51.000
C28  25382390.047 5 132172738.154 5      -447.156          31.000
E01  23696333.773 8 124525057.689 8       617.922          51.000    23696334.812 8  95415374.741 8       473.535          51.000
E04  23985543.836 6 126044898.976 6       187.402          41.000    23985547.141 7  96579853.104 7       143.567          42.000
E19  25787140.492 7 135512326.298 7     -2609.418          44.000    25787141.438 7 103834111.968 7     -1999.376          46.000
E21  24636989.422 8 129468258.616 8     -1771.688          51.000    24636990.773 8  99202948.128 8     -1357.476          51.000
E31  26897475.859 7 141347198.188 7      2420.012          46.000    26897481.805 8 108305000.074 8      1854.292          49.000
> 2020 05 14 06 14  0.0000000  0 18        .000000000000
G12  23114122.086 6 121465590.575 6      3518.680          37.000    23114119.609 6  94648475.099 6      2741.831          37.000
G13  21535676.227 8 113170730.692 8     -2633.188          51.000    21535674.219 7  88184956.749 7     -2051.837          45.000
G15  20639750.016 8 108462615.498 8     -1433.906          51.000    20639749.922 8  84516322.359 8     -1117.330          51.000
G17  22413099.758 6 117781675.954 6       411.152          37.000    22413090.672 5  91777882.800 5       320.375          35.000
G19  22399897.477 6 117712241.055 6      2345.602          41.000    22399893.828 5  91723822.889 5      1827.748          35.000
G28  23255973.102 4 122210975.624 4     -2956.207          29.000
R01  19800952.242 6 105847430.954 6      -523.375          40.000    19800956.258 5  82325800.305 5      -407.069          34.000
R08  21000484.812 7 112456690.724 7     -3604.031          46.000    21000486.578 7  87466285.196 7     -2803.138          43.000
R10  20372622.609 6 108597525.179 6     -2160.004          39.000
R11  20063179.695 5 107211603.452 5      1359.270          34.000
R12  23493593.328 5 125498557.015 5      3189.273          33.000    23493606.625 4  97610029.156 4      2480.549          29.000
C19  23424535.367 8 121977722.577 8     -2546.781          51.000
C28  25385014.219 4 132186429.737 4      -462.785          29.000
E01  23692829.742 8 124506644.127 8       610.523          51.000    23692831.156 8  95401265.642 8       467.774          51.000
E04  23984510.750 7 126039469.229 7       175.449          42.000    23984513.531 7  96575692.650 7       134.450          42.000
E19  25802055.555 6 135590713.274 6     -2615.422          41.000    25802058.914 7 103894174.715 7     -2004.096          47.000
E21  24647116.352 8 129521475.170 8     -1775.273          51.000    24647117.797 8  99243724.428 8     -1360.233          51.000
E31  26883672.516 7 141274659.228 7      2416.812          46.000    26883679.141 8 108249418.289 8      1851.813          49.000
> 2020 05 14 06 14 30.0000000  0 15        .000000000000
G12  23094059.344 5 121360160.746 5      3510.426          35.000    23094057.023 5  94566322.073 5      2735.403          35.000
G13  21550746.594 8 113249924.576 8     -2646.266          51.000    21550744.688 7  88246666.223 7     -2062.028          45.000
G15  20647988.242 8 108505905.051 8     -1451.910          51.000    20647987.680 8  84550054.474 8     -1131.356          51.000
G19  22386552.625 6 117642111.390 6      2329.781          41.000    22386548.039 5  91669176.441 5      1815.417          33.000
R01  19803969.273 6 105863562.682 6      -551.734          39.000    19803973.820 5  82338347.215 5      -429.127          33.000
R08  21020723.172 7 112565062.993 7     -3620.473          47.000    21020725.055 7  87550574.722 7     -2815.923          44.000
R10  20384802.312 5 108662450.306 5     -2168.094          32.000
R12  23475697.125 6 125402959.169 6      3183.441          37.000    23475710.117 5  97535675.325 5      2476.007          34.000
C19  23439240.383 8 122054292.099 8     -2557.672          51.000
C28  25387729.617 5 132200569.375 5      -479.504          30.000
E01  23689371.516 8 124488471.318 8       601.129          51.000    23689373.398 8  95387341.023 8       460.608          51.000
E04  23983550.438 6 126034421.215 6       161.477          40.000    23983552.938 7  96571824.674 7       123.660          43.000
E19  25817009.922 6 135669307.946 6     -2623.789          40.000    25817015.633 8 103954396.636 8     -2010.538          48.000
E21  24657267.062 8 129574817.534 8     -1780.703          51.000    24657268.914 8  99284597.131 8     -1364.480          51.000
E31  26869890.727 7 141202233.639 7      2411.707          47.000    26869897.609 8 108193923.383 8      1847.928          49.000
> 2020 05 14 06 15  0.0000000  0 15        .000000000000
G12  23074039.844 5 121254955.226 5      3502.844          35.000    23074038.781 5  94484343.794 5      2729.492          35.000
G13  21565887.016 8 113329487.656 8     -2658.355          51.000    21565885.297 7  88308663.390 7     -2071.449          44.000
G15  20656324.898 8 108549712.148 8     -1469.023          51.000    20656323.961 8  84584189.882 8     -1144.694          51.000
G19  22373294.305 6 117572441.505 6      2314.414          37.000    22373288.883 5  91614888.193 5      1803.433          31.000
R01  19807140.328 7 105880513.622 7      -578.648          42.000    19807144.625 5  82351531.235 5      -450.063          31.000
R08  21041048.914 7 112673903.993 7     -3635.801          47.000    21041050.875 7  87635228.837 7     -2827.845          44.000
R10  20397025.820 5 108727615.962 5     -2176.430          34.000
R12  23457828.695 6 125307512.300 6      3178.656          39.000    23457841.398 5  97461438.839 5      2472.282          33.000
C19  23454004.086 8 122131167.837 8     -2567.793          50.000
C28  25390539.227 5 132215190.536 5      -495.125          33.000
E01  23685962.594 8 124470556.977 8       592.723          51.000    23685964.578 8  95373614.447 8       454.194          51.000
E04  23982666.414 7 126029773.629 7       148.055          42.000    23982668.406 7  96568263.466 7       113.453          43.000
E19  25832008.336 6 135748127.081 6     -2631.242          41.000    25832014.664 8 104014790.515 8     -2016.048          49.000
E21  24667444.844 8 129628302.782 8     -1785.250          51.000    24667447.086 8  99325579.314 8     -1367.976          51.000
E31  26856133.922 7 141129939.890 7      2407.410          46.000    26856140.484 8 108138529.501 8      1844.702          48.000
> 2020 05 14 06 15 30.0000000  0 15        .000000000000
G13  21581099.945 8 113409432.749 8     -2671.148          51.000    21581098.547 7  88370958.222 7     -2081.414          44.000
G15  20664762.469 8 108594049.803 8     -1486.773          51.000    20664761.289 8  84618738.723 8     -1158.522          51.000
G19  22360125.586 6 117503248.461 6      2298.594          38.000    22360121.961 5  91560971.571 5      1791.115          35.000
G24  20986446.484 4 110284545.085 4      1781.344          29.000
R01  19810467.328 6 105898297.817 6      -606.719          41.000    19810469.797 4  82365363.330 4      -471.895          28.000
R08  21061464.117 7 112783224.450 7     -3651.875          47.000    21061465.742 7  87720255.853 7     -2840.347          43.000
R10  20409299.391 5 108793035.374 5     -2185.129          31.000
R12  23439992.156 6 125212231.192 6      3173.410          36.000    23440004.805 5  97387331.294 5      2468.211          34.000
C19  23468828.391 8 122208361.526 8     -2578.371          48.000
C28  25393444.992 5 132230312.497 5      -512.199          32.000
E01  23682605.562 8 124452914.763 8       583.586          51.000    23682607.188 8  95360096.374 8       447.199          51.000
E04  23981861.602 7 126025540.921 7       134.121          44.000    23981862.273 7  96565020.218 7       102.861          43.000
E19  25847052.641 7 135827183.386 7     -2639.059          43.000    25847058.938 8 104075366.096 8     -2022.139          49.000
E21  24677652.359 8 129681943.931 8     -1790.559          51.000    24677654.703 8  99366680.959 8     -1371.960          50.000
E31  26842404.797 7 141057792.438 7      2402.668          46.000    26842410.453 7 108083247.703 7      1840.826          47.000
> 2020 05 14 06 16  0.0000000  0 15        .000000000000
G13  21596396.016 8 113489814.783 8     -2685.961          51.000    21596394.766 7  88433593.539 7     -2092.957          45.000
G15  20673311.211 8 108638973.315 8     -1506.469          51.000    20673309.836 8  84653744.075 8     -1173.872          51.000
G17  22404566.367 5 117736796.832 5       334.402          35.000    22404566.133 5  91742945.198 5       260.573          34.000
G19  22347060.242 6 117434591.576 6      2279.988          37.000    22347058.055 6  91507472.686 6      1776.617          36.000
R01  19813960.625 6 105916972.023 6      -636.598          41.000    19813961.109 4  82379887.692 4      -495.132          29.000
R08  21081978.383 7 112893077.889 7     -3669.875          45.000    21081980.102 7  87805697.407 7     -2854.347          43.000
R10  20421630.359 5 108858764.072 5     -2195.262          31.000
R12  23422197.531 5 125117173.984 5      3165.801          35.000    23422208.164 5  97313397.916 5      2462.293          31.000
C19  23483723.930 7 122285927.056 7     -2591.082          47.000
C28  25396456.422 5 132245990.621 5      -530.875          33.000
E01  23679310.836 8 124435600.874 8       572.289          51.000    23679312.266 8  95346829.883 8       438.507          51.000
E04  23981146.500 7 126021780.300 7       118.191          45.000    23981146.297 7  96562138.708 7        90.449          44.000
E19  25862153.219 7 135906532.209 7     -2649.203          45.000    25862158.570 8 104136165.794 8     -2029.930          48.000
E21  24687900.227 8 129735796.603 8     -1798.008          51.000    24687902.398 8  99407944.686 8     -1377.625          50.000
E31  26828714.383 7 140985848.231 7      2395.496          47.000    26828718.625 7 108028121.642 7      1835.375          47.000
> 2020 05 14 06 16 30.0000000  0 16        .000000000000
G12  23014266.820 6 120940765.166 6      3479.605          36.000    23014251.156 5  94239533.945 5      2711.384          34.000
G13  21611749.234 8 113570497.215 8     -2695.062          51.000    21611748.047 7  88496462.959 7     -2100.049          46.000
G15  20681945.109 8 108684346.829 8     -1520.711          50.000    20681943.812 8  84689100.065 8     -1184.970          50.000
G17  22402692.477 5 117726953.873 5       319.395          34.000    22402694.531 5  91735282.340 5       248.879          34.000
G19  22334071.984 6 117366338.839 6      2267.625          40.000    22334071.109 6  91454288.691 6      1766.984          39.000
R01  19817594.406 6 105936398.267 6      -660.516          39.000    19817596.227 5  82394996.972 5      -513.734          31.000
R08  21102564.938 7 113003322.674 7     -3682.047          43.000    21102567.469 7  87891443.337 7     -2863.814          43.000
R10  20433992.930 5 108924662.709 5     -2200.316          31.000
R12  23404424.164 5 125022231.189 5      3164.168          33.000    23404423.977 5  97239512.683 5      2461.020          30.000
C19  23498663.859 7 122363728.199 7     -2598.016          45.000
C28  25399547.914 6 132262090.627 6      -544.164          36.000
E01  23676052.711 8 124418479.609 8       566.887          51.000    23676054.281 8  95333711.005 8       434.398          51.000
E04  23980495.156 7 126018357.049 7       107.820          44.000    23980494.930 7  96559515.685 7        82.663          45.000
E19  25877283.469 7 135986036.924 7     -2653.250          45.000    25877287.352 7 104197084.956 7     -2032.998          47.000
E21  24698162.445 8 129789724.513 8     -1799.445          51.000    24698164.281 8  99449266.070 8     -1378.781          50.000
E31  26815037.281 8 140913972.391 8      2394.129          48.000    26815039.859 7 107973047.970 7      1834.519          47.000
> 2020 05 14 06 17  0.0000000  0 15        .000000000000
G12  22994409.352 6 120836397.393 6      3478.070          37.000    22994391.438 6  94158208.362 6      2710.182          37.000
G13  21627152.445 8 113651444.950 8     -2701.242          48.000    21627152.117 7  88559539.096 7     -2104.864          46.000
G15  20690657.898 8 108730135.472 8     -1531.680          51.000    20690656.867 8  84724779.523 8     -1193.514          51.000
G19  22321155.164 6 117298459.138 6      2258.145          41.000    22321155.609 6  91401395.410 6      1759.590          39.000
R01  19821362.078 6 105956541.746 6      -682.340          39.000    19821365.039 5  82410664.172 5      -530.709          30.000
R08  21123217.344 7 113113920.792 7     -3690.926          44.000    21123221.000 7  87977464.063 7     -2870.723          42.000
R10  20446379.867 4 108990695.776 4     -2201.500          29.000
R12  23386656.266 5 124927320.453 5      3164.605          33.000
C19  23513641.922 7 122441729.486 7     -2601.848          46.000
C28  25402713.930 5 132278578.984 5      -554.695          35.000
E01  23672825.062 8 124401516.950 8       564.219          51.000    23672826.586 8  95320713.651 8       432.359          51.000
E04  23979901.523 7 126015238.055 7       100.367          44.000    23979901.742 7  96557125.778 7        76.914          46.000
E19  25892436.516 7 136065662.845 7     -2654.777          46.000    25892439.227 7 104258096.979 7     -2034.126          46.000
E21  24708432.375 8 129843693.030 8     -1798.152          51.000    24708433.898 8  99490618.566 8     -1377.778          49.000
E31  26801367.078 8 140842131.610 8      2395.480          48.000    26801368.234 8 107918001.171 8      1835.552          48.000
> 2020 05 14 06 17 30.0000000  0 15        .000000000000
G12  22974609.781 5 120732343.796 5      3454.805          35.000    22974592.305 5  94077127.690 5      2692.059          34.000
G13  21642639.539 7 113732835.735 7     -2728.590          46.000    21642640.500 7  88622960.469 7     -2126.174          46.000
G15  20699483.844 8 108776517.220 8     -1564.121          51.000    20699483.156 8  84760921.134 8     -1218.796          51.000
G19  22308344.352 6 117231134.585 6      2226.512          41.000    22308344.070 6  91348934.671 6      1734.944          37.000
G28  23374735.031 5 122835068.037 5     -2995.078          32.000
R01  19825298.328 6 105977583.514 6      -724.688          40.000    19825301.367 5  82427030.093 5      -563.640          31.000
R08  21143969.742 7 113225050.515 7     -3721.391          44.000    21143972.758 7  88063898.216 7     -2894.418          42.000
R11  20011492.227 5 106935392.182 5      1262.195          35.000    20011503.164 4  83171962.416 4       981.711          26.000
C19  23528693.469 8 122520106.119 8     -2626.855          48.000
C28  25405988.797 5 132295632.725 5      -585.969          35.000
E01  23669661.648 8 124384891.429 8       540.320          51.000    23669662.922 8  95307974.614 8       414.012          51.000
E04  23979399.898 7 126012602.732 7        71.395          46.000    23979400.898 7  96555106.495 7        54.783          47.000
E19  25907646.141 7 136145587.488 7     -2677.363          46.000    25907648.031 7 104319337.887 7     -2051.423          46.000
E21  24718743.805 8 129897880.115 8     -1818.094          50.000    24718745.281 8  99532138.515 8     -1393.067          49.000
E31  26787737.484 8 140770505.230 8      2375.680          48.000    26787738.023 8 107863118.664 8      1820.371          48.000
> 2020 05 14 06 18  0.0000000  0 16        .000000000000
G12  22954865.188 5 120628583.657 5      3462.805          35.000    22954849.484 5  93996275.688 5      2698.292          34.000
G13  21658206.758 7 113814645.357 7     -2724.570          46.000    21658209.016 7  88686708.222 7     -2123.042          46.000
G15  20708418.141 8 108823468.188 8     -1565.137          51.000    20708417.836 8  84797506.288 8     -1219.587          51.000
G19  22295635.203 7 117164345.522 7      2226.621          43.000    22295633.492 5  91296891.245 5      1735.029          34.000
G28  23391800.656 5 122924733.811 5     -2983.316          31.000
R01  19829398.320 6 105999500.332 6      -735.730          41.000    19829401.039 5  82444076.521 5      -572.232          30.000
R08  21164816.586 7 113336685.063 7     -3719.930          43.000    21164818.844 7  88150725.040 7     -2893.279          43.000
R10  20471327.461 5 109123759.560 5     -2216.574          31.000
R11  20004401.469 6 106897479.355 6      1266.156          38.000
C19  23543813.023 8 122598833.600 8     -2620.707          49.000
C28  25409367.523 5 132313229.245 5      -586.422          34.000
E01  23666557.727 8 124368580.153 8       547.941          51.000    23666558.969 8  95295476.373 8       419.842          51.000
E04  23978986.125 7 126010429.115 7        74.207          44.000    23978987.492 7  96553440.990 7        56.800          47.000
E19  25922907.844 7 136225787.089 7     -2668.355          46.000    25922909.211 7 104380789.486 7     -2044.683          46.000
E21  24729092.352 8 129952262.255 8     -1806.562          50.000    24729093.938 8  99573807.919 8     -1384.162          49.000
E31  26774144.055 8 140699071.080 8      2387.426          48.000    26774144.703 8 107808383.445 8      1829.263          48.000
> 2020 05 14 06 18 30.0000000  0 16        .000000000000
G12  22935151.266 5 120524986.319 5      3448.117          32.000    22935136.383 5  93915550.531 5      2686.845          31.000
G13  21673828.812 7 113896740.389 7     -2744.227          47.000    21673831.180 7  88750678.385 7     -2138.358          46.000
G15  20717435.430 8 108870855.532 8     -1589.777          51.000    20717435.273 8  84834431.449 8     -1238.788          51.000
G19  22283003.539 7 117097962.739 7      2203.004          42.000    22283000.336 5  91245164.525 5      1716.633          35.000
G28  23408879.125 5 123014482.733 5     -2995.168          34.000    23408877.273 5  95855437.917 5     -2333.897          30.000
R01  19833636.594 6 106022156.776 6      -770.543          41.000    19833639.703 5  82461698.212 5      -599.311          31.000
R08  21185730.891 7 113448685.949 7     -3742.445          43.000    21185734.039 7  88237836.842 7     -2910.791          44.000
R10  20483861.523 5 109190551.237 5     -2232.047          34.000
R11  19997360.016 5 106859861.436 5      1246.121          31.000
C19  23558974.000 8 122677778.714 8     -2638.039          50.000
C28  25412825.398 5 132331237.275 5      -610.031          32.000
E01  23663488.242 8 124352450.550 8       531.746          51.000    23663489.461 8  95283117.335 8       407.424          51.000
E04  23978635.398 7 126008585.519 7        53.105          46.000    23978636.562 7  96552028.355 7        40.658          47.000
E19  25938196.406 7 136306128.078 7     -2683.266          47.000    25938197.414 7 104442349.435 7     -2056.006          47.000
E21  24739452.688 8 130006706.288 8     -1818.691          49.000    24739454.594 8  99615524.772 8     -1393.543          48.000
E31  26760561.867 8 140627697.396 8      2375.164          48.000    26760562.766 7 107753694.532 7      1819.964          47.000
> 2020 05 14 06 19  0.0000000  0 17        .000000000000
G12  22915502.445 5 120421776.927 5      3438.938          30.000    22915487.148 4  93835088.966 4      2679.707          28.000
G13  21689538.102 8 113979291.854 8     -2755.906          49.000    21689539.539 7  88815004.167 7     -2147.459          44.000
G15  20726568.508 8 108918849.936 8     -1606.539          51.000    20726568.273 8  84871829.647 8     -1251.849          51.000
G17  22394925.344 5 117686119.631 5       225.824          35.000    22394915.016 5  91703434.752 5       175.967          30.000
G19  22270482.547 7 117032161.283 7      2186.887          45.000    22270477.945 5  91193890.741 5      1704.068          33.000
G28  23425997.531 5 123104446.574 5     -2998.738          32.000
R01  19838046.000 6 106045727.361 6      -797.281          41.000    19838049.266 5  82480030.874 5      -620.111          32.000
R08  21206747.172 7 113561224.838 7     -3756.746          46.000    21206750.180 7  88325367.061 7     -2921.914          45.000
R10  20496451.664 5 109257670.312 5     -2238.738          30.000
R11  19990407.445 5 106822748.934 5      1233.930          31.000    19990409.695 4  83084307.654 4       959.723          25.000
C19  23574208.250 8 122757109.893 8     -2647.531          49.000
C28  25416394.188 5 132349827.207 5      -625.703          31.000
E01  23660486.172 8 124336674.392 8       523.332          51.000    23660487.109 8  95271029.106 8       400.968          51.000
E04  23978380.188 7 126007244.584 7        39.609          46.000    23978381.695 7  96551000.878 7        30.368          47.000
E19  25953544.578 8 136386781.366 8     -2690.258          48.000    25953545.352 7 104504148.695 7     -2061.417          47.000
E21  24749857.461 8 130061383.449 8     -1823.164          49.000    24749859.820 8  99657420.241 8     -1396.931          48.000
E31  26747023.898 7 140556556.714 7      2370.902          47.000    26747025.125 8 107699184.173 8      1816.567          48.000
> 2020 05 14 06 19 30.0000000  0 17        .000000000000
G12  22895911.688 6 120318823.538 6      3434.770          36.000    22895895.352 6  93754865.562 6      2676.447          38.000
G13  21705328.180 8 114062266.229 8     -2764.316          51.000    21705328.008 7  88879659.469 7     -2154.013          43.000
G15  20735811.031 8 108967418.551 8     -1619.961          51.000    20735810.414 8  84909675.282 8     -1262.307          51.000
G19  22258066.398 6 116966912.082 6      2174.262          40.000    22258061.453 6  91143047.266 6      1694.230          37.000
G24  20906806.562 5 109866072.634 5      1710.453          31.000    20906806.945 5  85609867.741 5      1332.821          31.000
G28  23443134.242 5 123194508.139 5     -3000.281          31.000
R01  19842620.344 7 106070178.623 7      -820.996          42.000    19842623.461 5  82499048.476 5      -638.553          31.000
R08  21227858.297 8 113674265.090 8     -3767.684          48.000    21227860.445 7  88413287.187 7     -2930.424          46.000
R10  20509095.953 4 109325023.888 4     -2243.027          28.000
R11  19983543.555 5 106786006.813 5      1224.945          32.000    19983537.086 4  83055773.849 4       952.729          26.000
R12  23298399.242 5 124455802.271 5      3135.504          32.000
C19  23589509.688 8 122836793.339 8     -2653.555          49.000
E01  23657545.109 8 124321219.335 8       518.383          51.000    23657545.898 8  95259186.927 8       397.158          51.000
E04  23978214.484 7 126006374.932 7        29.641          46.000    23978216.352 7  96550334.515 7        22.715          47.000
E19  25968945.898 8 136467713.952 8     -2693.863          48.000    25968946.672 7 104566161.947 7     -2064.132          47.000
E21  24760300.297 8 130116260.868 8     -1824.113          48.000    24760303.109 7  99699469.169 7     -1397.685          47.000
E31  26733524.117 7 140485617.541 7      2369.777          47.000    26733526.039 8 107644828.199 8      1815.800          49.000
> 2020 05 14 06 20  0.0000000  0 15        .000000000000
G12  22876329.164 6 120215918.251 6      3414.328          37.000    22876311.539 6  93674679.808 6      2660.522          37.000
G13  21721148.969 8 114145400.587 8     -2788.953          51.000    21721147.625 7  88944439.436 7     -2173.213          44.000
G15  20745113.094 8 109016299.395 8     -1649.664          51.000    20745111.820 8  84947764.223 8     -1285.456          51.000
G17  22392545.508 5 117673620.998 5       179.852          33.000    22392546.594 5  91693696.018 5       140.135          34.000
G19  22245721.805 5 116902031.951 5      2145.352          35.000
R01  19847309.875 7 106095244.323 7      -861.277          42.000    19847312.531 5  82518544.000 5      -669.882          31.000
R08  21249012.914 8 113787536.763 8     -3794.848          48.000    21249014.195 7  88501387.333 7     -2951.548          47.000
R10  20521745.258 4 109392441.282 4     -2263.676          29.000
R11  19976700.180 5 106749443.827 5      1200.047          32.000    19976702.562 5  83027344.351 5       933.370          32.000
C19  23604829.289 8 122916568.076 8     -2675.688          49.000
E01  23654615.320 8 124305823.860 8       497.082          51.000    23654616.172 8  95247390.404 8       380.866          51.000
E04  23978089.023 7 126005715.925 7         3.223          47.000    23978090.477 7  96549829.554 7         2.463          47.000
E19  25984350.375 8 136548663.191 8     -2713.746          49.000    25984351.320 7 104628187.964 7     -2079.349          47.000
E21  24770731.320 8 130171076.474 8     -1841.309          48.000    24770734.242 7  99741470.713 7     -1410.840          47.000
E31  26720012.750 7 140414619.087 7      2352.453          46.000    26720015.969 8 107590426.780 8      1802.547          49.000
> 2020 05 14 06 20 30.0000000  0 15        .000000000000
G12  22856830.477 6 120113452.821 6      3413.801          38.000    22856810.297 6  93594836.670 6      2660.108          37.000
G13  21737074.227 8 114229083.866 8     -2793.117          51.000    21737072.211 7  89009647.146 7     -2176.458          46.000
G15  20754548.391 8 109065880.809 8     -1658.879          51.000    20754546.836 8  84986399.065 8     -1292.633          51.000
G17  22391539.859 5 117668334.009 5       168.141          31.000    22391543.781 5  91689624.694 5       131.019          30.000
G19  22233471.148 6 116837688.555 6      2136.680          36.000
R01  19852188.133 7 106121320.183 7      -880.367          43.000    19852190.617 5  82538825.202 5      -684.730          32.000
R08  21270282.953 7 113901433.287 7     -3801.293          47.000    21270284.297 7  88589973.500 7     -2956.564          47.000
R11  19969976.727 6 106713472.062 6      1194.891          36.000    19969972.266 5  82999366.140 5       929.356          32.000
R12  23263258.406 4 124268159.248 4      3120.375          29.000
C19  23620241.102 8 122996818.448 8     -2677.480          50.000
E01  23651771.172 8 124290877.625 8       496.156          51.000    23651772.133 8  95235938.094 8       380.136          51.000
E04  23978078.266 8 126005657.964 8        -2.641          48.000    23978079.008 7  96549785.146 7        -2.017          47.000
E19  25999831.992 8 136630018.045 8     -2713.254          49.000    25999832.906 7 104690524.770 7     -2078.912          47.000
E21  24781224.570 7 130226219.337 7     -1838.164          47.000    24781227.375 7  99783723.009 7     -1408.517          46.000
E31  26706564.664 7 140343951.730 7      2355.387          46.000    26706569.219 8 107536279.069 8      1804.789          48.000
> 2020 05 14 06 21  0.0000000  0 14        .000000000000
G13  21753047.906 8 114313022.329 8     -2807.422          51.000    21753045.391 7  89075053.726 7     -2187.601          46.000
G15  20764061.117 8 109115870.006 8     -1678.289          51.000    20764059.633 8  85025351.648 8     -1307.758          51.000
G17  22390622.477 5 117663515.008 5       147.668          35.000    22390626.578 6  91685871.280 6       115.066          36.000
G19  22221321.633 6 116773817.335 6      2117.207          38.000    22221315.969 6  90992586.544 6      1649.778          37.000
R01  19857199.203 7 106148107.896 7      -910.309          42.000    19857202.227 5  82559660.028 5      -708.021          34.000
R08  21291612.172 7 114015653.033 7     -3817.965          45.000    21291614.141 7  88678811.058 7     -2969.528          46.000
R10  20547231.297 5 109528324.843 5     -2273.379          31.000
R12  23245754.352 5 124174619.628 5      3112.402          31.000    23245773.367 4  96580277.340 4      2420.760          26.000
C19  23635688.641 8 123077252.684 8     -2689.375          50.000
E01  23648956.820 8 124276087.980 8       485.188          51.000    23648958.016 8  95224605.772 8       371.755          51.000
E04  23978126.359 8 126005909.397 8       -18.625          48.000    23978126.656 7  96549977.779 7       -14.262          47.000
E19  26015334.750 8 136711484.817 8     -2722.594          49.000    26015335.445 7 104752947.334 7     -2086.107          46.000
E21  24791724.375 7 130281396.301 7     -1844.992          47.000    24791726.781 7  99826001.431 7     -1413.594          45.000
E31  26693124.523 8 140273323.622 8      2348.438          48.000    26693130.102 8 107482161.432 8      1799.410          49.000
> 2020 05 14 06 21 30.0000000  0 15        .000000000000
G12  22817934.555 5 119909083.152 5      3395.211          35.000    22817932.570 5  93435635.624 5      2645.622          35.000
G13  21769102.930 8 114397390.317 8     -2817.941          51.000    21769100.156 7  89140794.992 7     -2195.798          46.000
G15  20773684.508 8 109166441.196 8     -1693.969          51.000    20773683.117 8  85064757.738 8     -1319.976          51.000
G17  22389826.508 6 117659333.170 6       130.215          36.000    22389825.727 6  91682612.621 6       101.469          36.000
G19  22209277.273 7 116710522.899 7      2101.422          42.000    22209272.086 5  90943266.268 5      1637.472          35.000
R01  19862376.859 7 106175785.274 7      -935.977          43.000    19862379.750 5  82581186.885 5      -727.979          34.000
R08  21313034.109 7 114130371.166 7     -3830.605          46.000    21313036.250 7  88768036.257 7     -2979.360          46.000
R10  20560041.773 5 109596593.081 5     -2280.910          30.000
R12  23228293.352 5 124081323.522 5      3107.465          33.000
C19  23651204.375 8 123158042.737 8     -2697.383          50.000
E01  23646205.531 8 124261630.292 8       477.816          51.000    23646206.844 8  95213527.814 8       366.140          51.000
E04  23978266.703 8 126006646.426 8       -31.195          48.000    23978266.664 7  96550542.490 7       -23.891          47.000
E19  26030891.992 8 136793238.289 8     -2728.391          48.000    26030892.211 7 104815589.572 7     -2090.594          46.000
E21  24802263.992 8 130336782.225 8     -1848.156          48.000    24802265.992 7  99868439.986 7     -1416.138          45.000
E31  26679725.625 8 140202910.922 8      2344.945          49.000    26679731.586 8 107428208.861 8      1796.779          48.000
> 2020 05 14 06 22  0.0000000  0 17        .000000000000
G12  22798563.852 6 119807276.031 6      3389.660          36.000    22798558.625 6  93356305.335 6      2641.291          36.000
G13  21785211.203 8 114482040.194 8     -2827.516          51.000    21785209.023 7  89206755.907 7     -2203.262          46.000
G15  20783390.531 8 109217446.981 8     -1708.543          51.000    20783389.336 8  85104502.489 8     -1331.332          51.000
G17  22389122.828 4 117655636.697 4       112.289          29.000    22389124.844 5  91679735.339 5        87.504          30.000
G19  22197313.992 6 116647661.092 6      2086.625          36.000    22197311.328 6  90894283.196 6      1625.954          36.000
G24  20858789.000 5 109613675.121 5      1659.863          31.000
R01  19867692.375 7 106204202.581 7      -960.836          42.000    19867695.812 5  82603289.243 5      -747.317          35.000
R08  21334521.617 8 114245435.089 8     -3842.355          48.000    21334523.445 7  88857530.380 7     -2988.502          46.000
R10  20572877.961 5 109665025.991 5     -2284.594          30.000
R11  19950149.578 6 106607554.880 6      1158.859          36.000    19950151.070 4  82916963.186 4       901.335          28.000
R12  23210848.227 6 123988117.954 6      3104.195          38.000    23210843.453 4  96435244.808 4      2414.374          27.000
C19  23666759.664 8 123239041.503 8     -2704.582          50.000
E01  23643489.453 8 124247357.931 8       471.492          51.000    23643490.695 8  95202591.847 8       361.294          51.000
E04  23978471.398 8 126007723.182 8       -42.785          49.000    23978471.375 7  96551367.541 7       -32.852          47.000
E19  26046475.375 8 136875130.509 8     -2733.227          48.000    26046475.531 7 104878338.109 7     -2094.159          46.000
E21  24812815.469 8 130392229.913 8     -1850.434          48.000    24812817.125 7  99910925.843 7     -1417.871          44.000
E31  26666339.938 8 140132567.713 8      2342.375          49.000    26666345.531 7 107374309.541 7      1794.876          47.000
> 2020 05 14 06 22 30.0000000  0 16        .000000000000
G12  22779232.211 6 119705682.052 6      3385.312          40.000    22779226.453 6  93277141.276 6      2637.909          40.000
G13  21801378.125 8 114566999.522 8     -2834.496          51.000    21801376.656 7  89272957.977 7     -2208.698          45.000
G15  20793184.406 8 109268915.594 8     -1720.754          51.000    20793183.641 8  85144607.898 8     -1340.847          51.000
G19  22185439.398 6 116585263.984 6      2074.941          38.000    22185438.375 5  90845662.049 5      1616.834          35.000
R01  19873151.828 7 106233388.724 7      -982.941          43.000    19873155.570 5  82625989.548 5      -764.513          35.000
R08  21356079.070 8 114360870.412 8     -3851.309          49.000    21356080.625 7  88947313.369 7     -2995.462          47.000
R11  19943676.383 5 106572932.838 5      1151.379          32.000    19943675.906 4  82890034.970 4       895.523          28.000
R12  23193424.844 5 123895033.299 5      3103.727          34.000
C19  23682359.547 8 123320275.733 8     -2709.062          49.000
C28  25443974.789 5 132493466.546 5      -735.297          32.000
C30  25833671.891 6 134522712.057 6      3182.773          37.000
E01  23640814.148 8 124233299.718 8       467.664          51.000    23640815.328 8  95191819.969 8       358.340          51.000
E04  23978746.250 8 126009169.369 8       -51.770          49.000    23978746.633 7  96552475.654 7       -39.626          47.000
E19  26062090.055 7 136957189.522 7     -2735.426          46.000    26062091.031 7 104941214.482 7     -2096.020          46.000
E21  24823384.195 8 130447767.691 8     -1850.020          48.000    24823385.961 7  99953480.743 7     -1417.709          44.000
E31  26652973.188 8 140062323.633 8      2342.379          50.000    26652977.930 7 107320486.185 7      1794.825          47.000
> 2020 05 14 06 23  0.0000000  0 14        .000000000000
G12  22759956.133 7 119604385.322 7      3371.973          42.000    22759952.227 7  93198208.882 7      2627.514          42.000
G13  21817618.992 8 114652348.837 8     -2851.238          51.000    21817618.211 7  89339463.925 7     -2221.744          44.000
G15  20803081.633 8 109320928.036 8     -1742.551          50.000    20803081.281 8  85185137.068 8     -1357.832          50.000
G19  22173670.008 6 116523416.673 6      2052.688          36.000    22173670.023 6  90797469.243 6      1599.494          37.000
R01  19878770.938 7 106263425.997 7     -1015.043          43.000    19878774.836 5  82649351.842 5      -789.478          35.000
R08  21377720.438 8 114476756.569 8     -3870.082          49.000    21377722.023 7  89037446.995 7     -3010.067          46.000
C19  23698019.500 8 123401824.630 8     -2723.199          50.000
C28  25448283.188 5 132515907.675 5      -756.070          32.000
C30  25815358.688 6 134427362.460 6      3177.812          38.000
E01  23638195.156 8 124219537.419 8       454.055          51.000    23638196.328 8  95181274.829 8       347.945          51.000
E04  23979107.148 8 126011067.599 8       -70.543          49.000    23979108.219 8  96553930.142 8       -54.058          48.000
E19  26077751.727 7 137039496.385 7     -2747.582          45.000    26077753.930 7 105004280.755 7     -2105.191          47.000
E21  24833985.438 7 130503476.833 7     -1859.527          46.000    24833987.906 7  99996166.929 7     -1424.869          44.000
E31  26639641.078 8 139992261.224 8      2332.574          50.000    26639644.977 7 107266802.033 7      1787.381          47.000
> 2020 05 14 06 23 30.0000000  0 15        .000000000000
G12  22740743.195 6 119503421.944 6      3360.324          41.000    22740741.516 6  93119536.175 6      2618.434          41.000
G13  21833940.508 8 114738121.241 8     -2865.750          50.000    21833939.805 7  89406299.504 7     -2233.055          43.000
G15  20813088.633 8 109373516.928 8     -1762.238          50.000    20813088.531 8  85226115.443 8     -1373.170          50.000
G19  22162013.094 6 116462156.020 6      2032.574          40.000    22162011.516 6  90749733.703 6      1583.830          36.000
G24  20830632.172 5 109465743.537 5      1626.203          34.000
R01  19884555.859 7 106294347.828 7     -1045.121          44.000    19884559.000 5  82673402.152 5      -812.872          34.000
R08  21399451.523 8 114593124.951 8     -3886.480          49.000    21399453.219 7  89127955.686 7     -3022.821          46.000
R11  19930952.570 5 106504986.904 5      1118.371          33.000    19930948.875 4  82837202.575 4       869.844          28.000
C19  23713745.852 8 123483719.887 8     -2735.188          50.000
C30  25797058.922 6 134332083.834 6      3175.184          39.000
E01  23635639.062 8 124206104.822 8       442.680          51.000    23635640.023 8  95170982.324 8       339.250          51.000
E04  23979561.031 8 126013452.462 8       -87.156          50.000    23979562.430 8  96555757.490 8       -66.680          48.000
E19  26093467.172 7 137122083.883 7     -2757.102          46.000    26093470.180 7 105067562.089 7     -2112.605          47.000
E21  24844625.344 7 130559390.613 7     -1866.891          46.000    24844629.039 7 100039009.922 7     -1430.331          44.000
E31  26626350.117 8 139922414.991 8      2324.992          49.000    26626353.320 7 107213283.523 7      1781.565          47.000
> 2020 05 14 06 24  0.0000000  0 15        .000000000000
G12  22721567.805 6 119402661.117 6      3356.023          37.000    22721568.469 6  93041021.320 6      2615.086          37.000
G13  21850317.398 8 114824182.849 8     -2873.062          51.000    21850316.141 7  89473360.399 7     -2238.753          43.000
G15  20823180.359 8 109426548.927 8     -1774.707          50.000    20823180.141 8  85267439.121 8     -1382.889          50.000
G19  22150443.398 7 116401352.543 7      2019.441          43.000    22150440.406 5  90702354.444 5      1573.600          31.000
R01  19890480.711 7 106326018.840 7     -1067.816          44.000    19890482.789 5  82698035.119 5      -830.524          34.000
R08  21421246.133 7 114709836.401 7     -3895.527          47.000    21421248.266 7  89218731.217 7     -3029.858          46.000
R11  19924686.414 5 106471537.869 5      1109.562          30.000    19924691.789 4  82811186.505 4       862.990          29.000
R12  23141359.211 5 123616993.574 5      3082.812          32.000
C19  23729513.789 8 123565828.135 8     -2740.102          51.000
C30  25778749.375 6 134236747.535 6      3179.324          40.000
E01  23633120.508 8 124192869.179 8       438.332          51.000    23633121.266 8  95160840.721 8       335.883          51.000
E04  23980082.609 8 126016191.998 8       -96.805          50.000    23980084.023 8  96557856.615 8       -74.145          48.000
E19  26109211.062 7 137204818.263 7     -2759.754          46.000    26109214.438 7 105130955.955 7     -2114.676          47.000
E21  24855278.703 7 130615375.741 7     -1866.785          46.000    24855283.602 7 100081907.615 7     -1430.451          42.000
E31  26613074.945 8 139852652.968 8      2324.473          48.000    26613077.656 7 107159829.535 7      1781.051          45.000
> 2020 05 14 06 24 30.0000000  0 16        .000000000000
G12  22702440.305 6 119302149.444 6      3346.113          40.000    22702441.227 6  92962700.450 6      2607.361          41.000
G13  21866757.867 8 114910576.489 8     -2885.680          51.000    21866755.578 7  89540680.059 7     -2248.582          42.000
G15  20833364.875 8 109480067.245 8     -1792.453          51.000    20833364.266 8  85309141.712 8     -1396.717          51.000
G19  22138969.328 7 116341053.097 7      2001.023          43.000    22138964.297 5  90655367.979 5      1559.245          31.000
R01  19896554.320 7 106358482.774 7     -1095.859          45.000    19896554.945 5  82723284.807 5      -852.335          34.000
R08  21443112.453 7 114826932.597 7     -3910.035          45.000    21443115.398 7  89309805.990 7     -3041.141          45.000
R10  20637691.664 5 110010542.681 5     -2321.883          31.000
R11  19918494.938 5 106438385.846 5      1096.898          30.000    19918498.836 4  82785449.133 4       853.152          27.000
R12  23124069.227 5 123524612.393 5      3076.523          33.000
C19  23745331.398 8 123648191.276 8     -2750.070          51.000
C30  25760438.453 6 134141400.162 6      3177.562          39.000
E01  23630647.633 8 124179874.554 8       428.805          51.000    23630648.344 8  95150883.801 8       328.580          51.000
E04  23980680.016 8 126019331.125 8      -111.668          49.000    23980681.617 8  96560261.905 8       -85.579          48.000
E19  26124991.523 7 137287742.931 7     -2767.664          47.000    26124995.117 7 105194495.602 7     -2120.645          47.000
E21  24865953.984 7 130671475.847 7     -1872.234          45.000    24865959.539 6 100124893.413 6     -1434.677          41.000
E31  26599824.016 7 139783020.030 7      2318.629          47.000    26599826.836 7 107106474.445 7      1776.534          46.000
> 2020 05 14 06 25  0.0000000  0 18        .000000000000
G12  22683355.836 7 119201861.162 7      3341.445          42.000    22683356.383 7  92884553.731 7      2603.727          42.000
G13  21883256.094 8 114997273.269 8     -2892.574          51.000    21883253.773 7  89608235.963 7     -2253.954          44.000
G15  20843636.570 8 109534043.238 8     -1804.488          51.000    20843635.734 8  85351200.922 8     -1406.095          51.000
G17  22387178.953 6 117645403.303 6         5.941          37.000
G19  22127586.461 7 116281233.532 7      1988.344          43.000    22127577.727 5  90608755.379 5      1549.359          31.000
R01  19902770.297 7 106391710.489 7     -1117.879          44.000    19902770.383 5  82749128.569 5      -869.464          35.000
R08  21465044.727 7 114944381.572 7     -3918.344          42.000    21465048.438 7  89401155.139 7     -3047.604          44.000
R10  20650767.055 5 110080236.975 5     -2323.117          34.000
R11  19912366.148 5 106405624.710 5      1088.832          35.000    19912368.125 4  82759968.262 4       846.866          26.000
R12  23106798.945 6 123432356.083 6      3075.359          37.000
C19  23761192.375 8 123730779.899 8     -2754.398          51.000
C28  25466469.844 4 132610579.830 4      -816.324          28.000
C30  25742120.438 6 134046017.063 6      3182.332          38.000
E01  23628215.234 8 124167093.166 8       424.844          51.000    23628215.992 8  95141090.276 8       325.482          51.000
E04  23981348.352 8 126022842.807 8      -120.934          49.000    23981350.023 8  96562952.655 8       -92.657          49.000
E19  26140802.789 7 137370828.857 7     -2769.945          47.000    26140806.625 8 105258158.829 8     -2122.348          48.000
E21  24876645.984 7 130727662.614 7     -1871.812          46.000    24876651.570 6 100167945.619 6     -1434.479          40.000
E31  26586592.156 7 139713489.114 7      2318.328          47.000    26586595.555 7 107053197.519 7      1776.387          47.000
> 2020 05 14 06 25 30.0000000  0 16        .000000000000
G12  22664345.016 7 119101958.963 7      3327.070          43.000    22664345.234 7  92806707.921 7      2592.525          43.000
G13  21899842.156 8 115084432.797 8     -2909.664          51.000    21899840.383 7  89676152.467 7     -2267.271          46.000
G15  20854025.711 8 109588636.609 8     -1826.609          51.000    20854024.578 8  85393741.196 8     -1423.332          51.000
G19  22116325.391 6 116222057.068 6      1965.273          40.000    22116317.000 6  90562643.902 6      1531.379          36.000
R01  19909159.031 7 106425864.509 7     -1150.398          44.000    19909159.633 6  82775692.815 6      -894.754          37.000
R08  21487072.445 6 115062343.333 6     -3937.227          40.000    21487076.695 7  89492903.165 7     -3062.284          43.000
R10  20663906.711 5 110150264.875 5     -2336.508          34.000
R11  19906329.469 5 106373356.541 5      1071.246          32.000    19906333.688 4  82734870.828 4       833.191          26.000
R12  23089581.406 5 123340388.615 5      3064.445          35.000    23089581.195 4  95931419.678 4      2383.457          25.000
C19  23777126.109 8 123813751.287 8     -2768.656          49.000
C30  25723825.938 5 133950760.314 5      3176.379          35.000
E01  23625854.000 8 124154685.545 8       410.762          51.000    23625854.852 8  95131583.126 8       314.737          51.000
E04  23982118.273 8 126026888.371 8      -140.359          50.000    23982119.938 8  96566052.489 8      -107.542          49.000
E19  26156674.922 7 137454235.859 7     -2782.125          47.000    26156678.922 8 105322068.084 8     -2131.836          48.000
E21  24887385.055 7 130784096.204 7     -1881.691          47.000    24887390.320 6 100211186.913 6     -1441.962          39.000
E31  26573410.594 7 139644221.552 7      2307.875          47.000    26573414.031 7 107000122.366 7      1768.411          47.000
> 2020 05 14 06 26  0.0000000  0 16        .000000000000
G12  22645372.133 7 119002256.258 7      3316.906          42.000    22645371.867 7  92729017.544 7      2584.602          42.000
G13  21916480.039 8 115171864.866 8     -2922.195          51.000    21916479.109 7  89744281.336 7     -2277.035          47.000
G15  20864496.070 8 109643657.436 8     -1844.359          51.000    20864494.438 8  85436614.560 8     -1437.163          51.000
G19  22105151.023 6 116163338.238 6      1946.105          40.000    22105145.695 6  90516889.040 6      1516.449          38.000
R01  19915685.539 7 106460751.770 7     -1178.520          46.000    19915687.336 6  82802827.347 6      -916.626          38.000
R08  21509157.633 6 115180621.504 6     -3951.398          40.000    21509164.359 7  89584897.307 7     -3073.313          42.000
R10  20677070.344 5 110220433.784 5     -2344.637          34.000
R11  19900348.570 6 106341389.634 6      1057.297          38.000    19900345.789 4  82709995.075 4       822.342          24.000
R12  23072362.945 5 123248448.228 5      3057.387          30.000    23072364.773 4  95859890.174 4      2377.967          28.000
C19  23793095.766 7 123896916.328 7     -2778.625          46.000
C30  25705518.484 5 133855445.609 5      3175.301          30.000
E01  23623527.977 8 124142462.758 8       401.051          51.000    23623529.070 8  95122217.606 8       307.296          51.000
E04  23982953.805 8 126031279.605 8      -155.422          50.000    23982955.703 8  96569417.214 8      -119.081          50.000
E19  26172571.922 7 137537774.134 7     -2790.020          47.000    26172575.797 8 105386077.915 8     -2137.852          48.000
E21  24898135.023 7 130840587.140 7     -1887.223          47.000    24898139.555 6 100254472.121 6     -1446.057          39.000
E31  26560243.555 7 139575029.131 7      2301.926          47.000    26560246.758 7 106947104.819 7      1763.759          47.000
> 2020 05 14 06 26 30.0000000  0 15        .000000000000
G12  22626449.883 7 118902818.047 7      3310.691          44.000    22626448.422 7  92651533.194 7      2579.756          44.000
G13  21933181.336 8 115259631.341 8     -2930.512          50.000    21933181.320 7  89812670.780 7     -2283.513          47.000
G15  20875059.195 8 109699167.881 8     -1857.918          51.000    20875057.219 8  85479869.427 8     -1447.728          51.000
G19  22094075.266 6 116105143.180 6      1931.473          36.000    22094073.500 6  90471542.134 6      1505.038          36.000
G24  20775821.836 5 109177657.305 5      1571.531          33.000    20775818.117 5  85073489.083 5      1224.570          33.000
R01  19922361.297 7 106496435.410 7     -1201.980          45.000    19922363.992 6  82830581.285 6      -934.874          38.000
R08  21531315.375 7 115299277.140 7     -3960.746          43.000    21531323.227 7  89677184.991 7     -3080.583          42.000
R10  20690272.617 6 110290806.389 6     -2348.398          39.000
R12  23055198.930 5 123156737.900 5      3054.594          32.000    23055212.688 4  95788633.546 4      2375.786          25.000
C19  23809114.523 7 123980335.683 7     -2784.371          46.000
E01  23621249.219 8 124130487.867 8       395.676          51.000    23621250.391 8  95113042.034 8       303.144          51.000
E04  23983866.984 8 126036080.411 8      -166.297          48.000    23983869.422 8  96573095.767 8      -127.455          50.000
E19  26188505.852 7 137621505.727 7     -2793.566          47.000    26188509.211 7 105450235.867 7     -2140.513          47.000
E21  24908907.922 7 130897198.054 7     -1888.363          47.000    24908911.586 6 100297849.279 6     -1447.074          40.000
E31  26547103.125 7 139505975.699 7      2300.062          47.000    26547106.273 8 106894193.759 8      1762.463          48.000
> 2020 05 14 06 27  0.0000000  0 17        .000000000000
G12  22607582.336 7 118803666.294 7      3301.539          46.000    22607579.562 7  92574272.130 7      2572.628          46.000
G13  21949949.008 7 115347751.127 7     -2941.918          46.000    21949950.297 7  89881335.599 7     -2292.401          46.000
G15  20885718.859 8 109755186.821 8     -1874.512          51.000    20885716.820 8  85523520.509 8     -1460.658          51.000
G19  22083104.430 5 116047494.514 5      1914.207          35.000    22083104.516 5  90426621.022 5      1491.590          35.000
R01  19929189.141 7 106532934.469 7     -1228.805          45.000    19929192.539 6  82858969.432 6      -955.737          38.000
R08  21553548.281 7 115418327.120 7     -3973.434          44.000    21553555.297 7  89769779.359 7     -3090.448          42.000
R10  20703517.148 6 110361401.949 6     -2355.582          38.000
R11  19888587.820 4 106278581.893 4      1034.738          29.000    19888592.828 4  82661130.991 4       804.796          25.000
R12  23038066.352 5 123065215.590 5      3049.008          34.000    23038064.539 4  95717383.162 4      2371.451          25.000
C19  23825187.570 8 124064027.269 8     -2793.016          49.000
C28  25486146.656 5 132713005.784 5      -884.992          30.000
C30  25668920.344 4 133664804.061 4      3176.773          29.000
E01  23619021.508 8 124118780.689 8       387.105          51.000    23619022.656 8  95104071.597 8       296.622          51.000
E04  23984861.727 7 126041311.375 7      -180.250          47.000    23984865.242 8  96577103.891 8      -138.132          51.000
E19  26204480.117 7 137705449.586 7     -2800.309          47.000    26204482.719 7 105514556.453 7     -2145.757          45.000
E21  24919707.375 7 130953948.316 7     -1892.738          46.000    24919710.281 6 100341333.193 6     -1450.127          39.000
E31  26533992.906 7 139437081.846 7      2295.055          46.000    26533996.289 7 106841404.984 7      1758.620          47.000
> 2020 05 14 06 27 30.0000000  0 16        .000000000000
G12  22588758.883 8 118704745.809 8      3295.625          49.000    22588754.945 8  92497191.284 8      2568.019          49.000
G13  21966772.438 8 115436165.369 8     -2949.871          48.000    21966774.977 7  89950229.871 7     -2298.598          45.000
G15  20896464.297 8 109811656.021 8     -1887.613          50.000    20896462.453 8  85567522.463 8     -1470.867          50.000
G19  22072227.906 6 115990338.290 6      1899.156          39.000    22072227.367 6  90382083.736 6      1479.865          36.000
R01  19936157.883 7 106570189.653 7     -1252.145          45.000    19936161.867 6  82887945.668 6      -973.890          39.000
R08  21575843.852 7 115537709.163 7     -3982.758          45.000    21575848.656 7  89862631.992 7     -3097.704          42.000
R10  20716791.539 5 110432161.187 5     -2358.875          35.000
R12  23020956.891 6 122973820.132 6      3046.652          38.000    23020956.211 4  95646299.451 4      2369.618          24.000
C19  23841302.188 8 124147932.471 8     -2798.230          50.000
C28  25491284.211 4 132739806.122 4      -897.137          28.000
C30  25650618.922 4 133569503.058 4      3178.586          29.000
E01  23616833.820 8 124107283.893 8       382.008          51.000    23616835.219 8  95095262.360 8       292.728          51.000
E04  23985927.750 8 126046915.853 8      -190.820          49.000    23985932.078 8  96581398.209 8      -146.120          51.000
E19  26220483.609 7 137789547.464 7     -2803.543          47.000    26220485.117 7 105578995.018 7     -2148.118          44.000
E21  24930522.289 7 131010780.118 7     -1893.461          46.000    24930524.344 6 100384879.639 6     -1450.882          39.000
E31  26520902.156 7 139368290.984 7      2293.621          46.000    26520905.938 8 106788695.126 8      1757.507          48.000
> 2020 05 14 06 28  0.0000000  0 16        .000000000000
G12  22569997.016 8 118606150.243 8      3281.309          49.000    22569992.969 8  92420363.591 8      2556.867          49.000
G13  21983670.562 8 115524964.473 8     -2966.203          51.000    21983672.703 7  90019423.961 7     -2311.330          45.000
G15  20907312.344 8 109868665.692 8     -1909.145          48.000    20907311.141 8  85611945.549 8     -1487.648          48.000
G17  22389087.523 5 117655377.206 5      -113.297          35.000    22389062.625 5  91679541.800 5       -88.292          35.000
G19  22061462.719 6 115933768.185 6      1876.453          37.000    22061462.695 6  90338003.225 6      1462.177          37.000
R01  19943286.000 7 106608292.765 7     -1283.969          45.000    19943290.219 6  82917581.407 6      -998.642          39.000
R08  21598218.133 7 115657512.672 7     -4000.156          43.000    21598219.914 6  89955812.420 6     -3111.236          41.000
R10  20730112.695 5 110503175.719 5     -2371.387          35.000
R12  23003889.477 5 122882645.118 5      3035.730          35.000    23003899.273 4  95575432.606 4      2361.124          29.000
C19  23857474.383 8 124232139.745 8     -2811.734          50.000
C30  25632329.836 5 133474271.481 5      3173.023          31.000
E01  23614703.461 8 124096088.694 8       368.352          51.000    23614705.133 8  95086684.213 8       282.258          51.000
E04  23987082.828 8 126052985.773 8      -209.859          49.000    23987087.211 8  96586049.185 8      -160.819          51.000
E19  26236533.430 7 137873889.685 7     -2815.254          47.000    26236533.938 7 105643620.807 7     -2157.098          43.000
E21  24941369.797 7 131067784.203 7     -1902.855          45.000    24941371.383 6 100428558.062 6     -1457.978          39.000
E31  26507848.562 7 139299695.130 7      2283.359          47.000    26507852.812 8 106736134.663 8      1749.638          48.000
> 2020 05 14 06 28 30.0000000  0 16        .000000000000
G12  22551282.133 8 118507803.520 8      3273.961          49.000    22551279.391 8  92343729.816 8      2551.138          49.000
G13  22000627.469 8 115614069.440 8     -2975.398          51.000    22000628.594 7  90088856.358 7     -2318.495          44.000
G15  20918248.406 8 109926137.105 8     -1923.566          49.000    20918247.570 8  85656728.426 8     -1498.886          49.000
G19  22050795.172 6 115877709.827 6      1859.777          40.000    22050795.445 5  90294321.453 5      1449.174          32.000
R01  19950557.695 7 106647163.426 7     -1308.688          46.000    19950561.953 6  82947814.119 6     -1017.868          38.000
R08  21620655.156 7 115777654.533 7     -4010.562          43.000    21620655.008 7  90049256.063 7     -3119.326          42.000
R10  20743466.102 5 110574365.821 5     -2375.934          35.000
R12  22986849.227 5 122791612.533 5      3031.137          33.000    22986860.617 5  95504629.440 5      2357.548          31.000
C19  23873688.703 8 124316570.066 8     -2818.137          50.000
C22  23653408.039 6 123169515.135 6      -208.434          36.000
C30  25614039.234 5 133379027.160 5      3174.105          30.000
E01  23612615.656 8 124085117.135 8       361.785          51.000    23612617.156 8  95078277.433 8       277.230          51.000
E04  23988312.242 8 126059443.955 8      -222.004          50.000    23988316.031 8  96590997.662 8      -170.008          50.000
E19  26252614.602 8 137958397.421 8     -2819.848          48.000    26252614.859 7 105708373.437 7     -2160.651          43.000
E21  24952234.898 7 131124882.242 7     -1904.996          44.000    24952236.867 6 100472308.472 6     -1459.454          38.000
E31  26494817.648 7 139231217.042 7      2280.504          47.000    26494822.195 8 106683664.450 8      1747.366          48.000
> 2020 05 14 06 29  0.0000000  0 16        .000000000000
G12  22532614.672 8 118409705.550 8      3264.543          50.000    22532613.008 8  92267289.840 8      2543.800          50.000
G13  22017641.719 8 115703476.668 8     -2986.496          51.000    22017642.148 7  90158524.268 7     -2327.143          43.000
G15  20929272.125 8 109984066.581 8     -1939.734          51.000    20929271.078 8  85701868.254 8     -1511.481          51.000
G19  22040225.406 6 115822163.748 6      1841.273          37.000    22040224.039 4  90251038.843 4      1434.752          29.000
R01  19957972.125 7 106686797.645 7     -1335.086          45.000    19957975.695 6  82978640.746 6     -1038.400          39.000
R08  21643153.469 6 115898128.722 6     -4022.609          40.000    21643153.289 7  90142958.208 7     -3128.696          42.000
R10  20756852.797 5 110645727.847 5     -2383.051          33.000
R11  19865896.633 5 106157329.504 5       986.398          30.000    19865903.719 4  82566835.035 4       767.199          27.000
C19  23889944.367 8 124401219.062 8     -2826.453          49.000
C22  23654654.867 6 123176006.470 6      -225.480          38.000
C30  25595749.148 5 133283786.610 5      3173.207          32.000
E01  23610569.922 8 124074366.679 8       353.457          51.000    23610571.227 8  95070040.073 8       270.798          51.000
E04  23989615.211 8 126066288.567 8      -235.824          50.000    23989618.172 8  96596242.233 8      -180.732          50.000
E19  26268726.555 7 138043067.033 7     -2826.211          47.000    26268726.984 7 105773250.101 7     -2165.511          44.000
E21  24963117.086 7 131182071.248 7     -1909.078          42.000    24963119.992 6 100516128.626 6     -1462.896          39.000
E31  26481809.109 8 139162854.927 8      2275.516          48.000    26481813.508 8 106631283.120 8      1743.601          48.000
> 2020 05 14 06 29 30.0000000  0 16        .000000000000
G12  22514006.469 8 118311918.103 8      3254.594          51.000    22514004.898 8  92191091.843 8      2536.047          51.000
G13  22034724.000 8 115793244.341 8     -2998.098          50.000    22034724.398 7  90228473.041 7     -2336.183          42.000
G15  20940394.398 8 110042513.162 8     -1956.617          51.000    20940393.164 8  85747411.022 8     -1524.637          51.000
G19  22029764.617 6 115767192.136 6      1822.762          39.000    22029763.773 6  90208203.950 6      1420.334          39.000
R01  19965540.617 7 106727255.085 7     -1362.098          46.000    19965543.625 6  83010107.638 6     -1059.409          38.000
R08  21665723.555 6 116018992.306 6     -4035.129          37.000    21665724.359 6  90236963.244 6     -3138.431          40.000
R10  20770282.477 5 110717320.891 5     -2390.418          31.000
R12  22952858.211 5 122610060.322 5      3020.086          33.000    22952866.367 4  95363379.869 4      2348.956          29.000
C19  23906252.523 8 124486144.124 8     -2835.227          48.000
C22  23656007.227 6 123183042.364 6      -243.113          37.000
C30  25577471.156 5 133188603.945 5      3171.543          35.000
E01  23608577.594 8 124063897.050 8       344.566          51.000    23608579.188 8  95062017.886 8       264.006          51.000
E04  23991002.781 8 126073580.077 8      -250.336          49.000    23991005.477 8  96601829.207 8      -191.828          50.000
E19  26284880.430 7 138127957.630 7     -2833.059          47.000    26284881.188 7 105838296.112 7     -2170.842          44.000
E21  24974028.156 6 131239410.474 6     -1913.543          41.000    24974031.734 6 100560063.881 6     -1466.290          38.000
E31  26468834.250 8 139094669.287 8      2270.035          48.000    26468838.281 8 106579037.010 8      1739.411          49.000
> 2020 05 14 06 30  0.0000000  0 17        .000000000000
G12  22495448.062 8 118214392.237 8      3246.215          51.000    22495446.078 8  92115097.696 8      2529.521          51.000
G13  22051864.383 8 115883320.232 8     -3007.836          49.000    22051864.594 6  90298662.014 6     -2343.771          40.000
G15  20951605.227 8 110101424.648 8     -1971.707          51.000    20951603.906 8  85793316.058 8     -1536.395          51.000
G19  22019404.641 6 115712747.418 6      1805.719          38.000    22019404.180 6  90165779.512 6      1407.051          37.000
G24  20714425.039 5 108855048.088 5      1501.906          33.000
R01  19973253.500 7 106768482.716 7     -1387.320          47.000    19973255.344 6  83042173.567 6     -1079.027          37.000
R08  21688354.672 6 116140190.016 6     -4045.426          37.000    21688356.734 6  90331228.170 6     -3146.442          36.000
R10  20783744.430 5 110789079.506 5     -2395.598          30.000
R12  22935913.945 5 122519521.785 5      3015.488          33.000    22935915.188 5  95292960.995 5      2345.380          31.000
C19  23922603.555 7 124571292.771 7     -2842.266          47.000
C22  23657454.031 6 123190572.460 6      -259.715          38.000
C30  25559195.828 5 133093431.489 5      3172.074          34.000
E01  23606629.008 8 124053657.195 8       337.336          51.000    23606630.852 8  95054171.759 8       258.505          51.000
E04  23992465.789 8 126081268.061 8      -263.004          50.000    23992468.297 8  96607719.970 8      -201.513          49.000
E19  26301066.289 7 138213016.894 7     -2838.301          46.000    26301067.344 7 105903471.356 7     -2174.856          44.000
E21  24984958.492 6 131296848.507 6     -1916.324          41.000    24984961.664 6 100604074.867 6     -1468.340          37.000
E31  26455883.320 7 139026609.806 7      2266.391          47.000    26455887.008 8 106526887.573 8      1736.621          48.000
> 2020 05 14 06 30 30.0000000  0 16        .000000000000
G12  22476947.234 8 118117168.826 8      3235.992          51.000    22476945.266 8  92039339.240 8      2521.555          51.000
G13  22069070.773 8 115973742.398 8     -3019.609          49.000    22069069.992 6  90369120.793 6     -2352.945          40.000
G15  20962911.648 8 110160838.718 8     -1988.461          51.000    20962910.820 8  85839612.726 8     -1549.450          51.000
G19  22009151.602 5 115658871.234 5      1786.668          32.000    22009151.922 5  90123798.038 5      1392.212          31.000
R01  19981117.359 7 106810518.752 7     -1414.410          46.000    19981118.961 6  83074868.230 6     -1100.097          37.000
R08  21711056.617 7 116261757.748 7     -4058.066          42.000    21711056.000 5  90425780.788 5     -3156.280          33.000
R10  20797258.906 5 110861054.455 5     -2403.227          33.000
R12  22919001.914 5 122429175.197 5      3008.586          32.000    22919000.312 5  95222691.398 5      2340.005          30.000
C19  23939004.562 7 124656701.717 7     -2850.926          45.000
C22  23659002.227 6 123198635.547 6      -277.488          36.000
C30  25540930.602 5 132998310.973 5      3170.195          35.000
E01  23604731.578 8 124043686.027 8       328.191          51.000    23604733.273 8  95046531.498 8       251.519          51.000
E04  23994012.070 8 126089392.145 8      -277.719          51.000    23994014.078 8  96613944.912 8      -212.783          50.000
E19  26317291.672 7 138298283.003 7     -2845.359          46.000    26317292.945 7 105968805.103 7     -2180.264          45.000
E21  24995915.086 6 131354423.902 6     -1921.312          41.000    24995917.750 6 100648191.069 6     -1471.968          37.000
E31  26442963.492 7 138958716.167 7      2260.750          46.000    26442967.203 8 106474865.210 8      1732.233          48.000
> 2020 05 14 06 31  0.0000000  0 15        .000000000000
G12  22458497.742 8 118020217.106 8      3227.598          50.000    22458496.531 8  91963792.477 8      2515.011          50.000
G13  22086337.016 8 116064476.351 8     -3029.336          51.000    22086335.344 6  90439822.473 6     -2360.525          39.000
G15  20974306.992 8 110220721.325 8     -2003.457          51.000    20974306.852 8  85886274.484 8     -1561.135          51.000
R01  19989125.398 7 106853328.148 7     -1439.562          47.000    19989128.023 6  83108164.416 6     -1119.657          38.000
R08  21733822.461 7 116383658.389 7     -4068.535          45.000    21733818.242 5  90520592.255 5     -3164.422          33.000
R11  19844311.211 5 106042000.094 5       937.547          32.000
R12  22902115.703 5 122338999.622 5      3004.391          31.000    22902111.250 4  95152540.576 4      2336.745          28.000
C19  23955449.086 7 124742336.348 7     -2857.730          43.000
C22  23660645.523 5 123207198.885 5      -293.129          35.000
C30  25522670.133 6 132903212.425 6      3169.895          36.000
E01  23602879.070 8 124033950.420 8       320.988          51.000    23602880.547 8  95039071.737 8       245.970          51.000
E04  23995635.031 8 126097919.849 8      -290.594          51.000    23995637.078 8  96620479.117 8      -222.702          50.000
E19  26333549.852 7 138383721.887 7     -2850.453          45.000    26333551.289 7 106034271.229 7     -2184.042          44.000
E21  25006891.195 7 131412103.082 7     -1923.863          42.000    25006894.414 6 100692386.804 6     -1473.976          37.000
E31  26430068.805 7 138890956.039 7      2256.758          46.000    26430073.047 8 106422945.117 8      1729.252          48.000
> 2020 05 14 06 31 30.0000000  0 15        .000000000000
G12  22440103.406 8 117923555.260 8      3214.891          49.000    22440102.883 8  91888471.556 8      2505.110          49.000
G13  22103665.609 8 116155537.405 8     -3043.172          50.000    22103663.695 6  90510779.060 6     -2371.303          40.000
G15  20985794.398 8 110281087.885 8     -2022.578          51.000    20985794.766 8  85933313.354 8     -1576.035          51.000
G19  21988957.148 5 115552753.086 5      1747.801          35.000    21988963.938 5  90041124.443 5      1361.923          33.000
R01  19997280.578 7 106896926.253 7     -1468.672          46.000    19997284.625 6  83142074.052 6     -1142.300          38.000
R08  21756652.453 7 116505904.911 7     -4082.996          44.000    21756647.438 5  90615672.798 5     -3175.667          35.000
R12  22885274.242 5 122248997.094 5      2994.469          30.000
C19  23971940.523 6 124828211.072 6     -2868.488          41.000
C22  23662385.859 4 123216279.153 4      -313.453          29.000
C30  25504417.039 5 132808155.220 5      3165.828          34.000
E01  23601074.578 8 124024466.823 8       309.605          51.000    23601076.156 8  95031805.089 8       237.230          51.000
E04  23997338.070 8 126106868.328 8      -307.602          51.000    23997340.234 8  96627335.734 8      -235.716          51.000
E19  26349843.719 7 138469348.928 7     -2859.637          45.000    26349845.336 7 106099881.559 7     -2191.183          44.000
E21  25017889.742 6 131469902.168 6     -1930.871          40.000    25017893.469 6 100736674.370 6     -1479.675          37.000
E31  26417202.500 7 138823346.587 7      2248.863          45.000    26417207.930 8 106371140.490 8      1723.167          48.000
> 2020 05 14 06 32  0.0000000  0 16        .000000000000
G12  22421769.695 8 117827211.590 8      3206.980          50.000    22421769.633 8  91813398.569 8      2498.946          50.000
G13  22121060.781 8 116246949.729 8     -3052.090          49.000    22121058.852 6  90582009.391 6     -2378.252          40.000
G15  20997378.695 8 110341962.924 8     -2036.773          51.000    20997379.195 8  85980748.443 8     -1587.096          51.000
G19  21979028.430 6 115500559.247 6      1730.551          36.000    21979025.000 5  90000453.878 5      1348.475          32.000
R01  20005588.492 7 106941337.625 7     -1493.082          47.000    20005593.039 6  83176616.205 6     -1161.289          38.000
R08  21779550.406 6 116628519.762 6     -4092.402          41.000    21779546.359 6  90711039.835 6     -3182.983          36.000
R10  20837990.781 5 111078232.962 5     -2422.523          32.000
R12  22868448.867 5 122159224.185 5      2990.496          31.000
C19  23988483.281 6 124914349.220 6     -2874.453          39.000
C22  23664230.945 6 123225901.337 6      -328.758          36.000
C30  25486176.180 5 132713167.545 5      3166.133          35.000
E01  23599322.781 8 124015260.624 8       303.082          51.000    23599324.555 8  95024750.987 8       232.214          51.000
E04  23999126.164 8 126116263.602 8      -319.754          51.000    23999127.977 8  96634534.710 8      -245.036          50.000
E19  26366178.492 7 138555188.870 7     -2864.016          46.000    26366179.875 7 106165654.998 7     -2194.568          44.000
E21  25028916.008 7 131527846.054 7     -1932.844          42.000    25028919.117 6 100781072.869 6     -1481.055          36.000
E31  26404369.961 7 138755913.941 7      2245.555          45.000    26404376.523 8 106319471.302 8      1720.719          48.000
> 2020 05 14 06 32 30.0000000  0 15        .000000000000
G12  22403486.602 8 117731133.323 8      3197.504          51.000    22403486.031 8  91738532.396 8      2491.561          51.000
G13  22138511.898 8 116338657.393 8     -3062.504          48.000    22138510.141 6  90653469.926 6     -2386.367          41.000
G15  21009049.180 8 110403290.684 8     -2052.395          51.000    21009049.414 8  86028536.282 8     -1599.272          51.000
G19  21969197.781 6 115448899.562 6      1712.523          36.000    21969193.633 5  89960175.632 5      1334.431          31.000
R01  20014038.445 8 106986505.507 8     -1518.859          48.000    20014043.156 6  83211746.749 6     -1181.335          38.000
R08  21802504.734 6 116751443.652 6     -4103.492          38.000    21802502.984 6  90806647.264 6     -3191.608          36.000
R12  22851661.406 5 122069566.386 5      2985.875          35.000
C19  24005064.344 5 125000694.909 5     -2882.523          35.000
C22  23666170.852 5 123236011.731 5      -346.105          33.000
C30  25467938.773 6 132618198.378 6      3164.797          37.000
E01  23597613.227 8 124006277.326 8       295.055          51.000    23597614.977 8  95017867.664 8       226.102          51.000
E04  24000988.867 8 126126051.858 8      -333.484          51.000    24000990.273 8  96642034.792 8      -255.515          50.000
E19  26382543.734 7 138641186.168 7     -2869.832          47.000    26382544.695 7 106231548.996 7     -2198.950          44.000
E21  25039959.578 6 131585879.902 6     -1936.730          40.000    25039960.938 6 100825540.316 6     -1483.827          36.000
E31  26391561.359 7 138688604.324 7      2240.855          46.000    26391568.703 8 106267896.408 8      1717.019          48.000
> 2020 05 14 06 33  0.0000000  0 16        .000000000000
G12  22385258.297 8 117635343.376 8      3187.820          49.000    22385256.961 8  91663890.879 8      2484.016          49.000
G13  22156023.297 8 116430680.454 8     -3073.270          49.000    22156022.031 7  90725176.199 7     -2394.759          44.000
G15  21020809.492 8 110465090.982 8     -2068.199          51.000    21020809.273 8  86076692.330 8     -1611.587          51.000
G19  21959472.312 6 115397797.847 6      1693.328          37.000    21959468.766 5  89920356.250 5      1319.486          33.000
R01  20022633.625 8 107032449.421 8     -1544.762          49.000    20022637.883 6  83247480.880 6     -1201.481          36.000
R08  21825519.562 5 116874694.531 5     -4114.086          35.000    21825520.461 5  90902509.037 5     -3199.845          35.000
R10  20865321.094 5 111223908.634 5     -2435.668          32.000
R12  22834905.688 5 121980079.992 5      2980.129          33.000
C19  24021686.719 6 125087266.938 6     -2889.512          37.000
C22  23668209.086 5 123246631.045 5      -362.336          34.000
C30  25449709.547 6 132523271.403 6      3163.168          37.000
E01  23595950.000 8 123997537.743 8       287.004          51.000    23595951.711 8  95011171.091 8       219.879          51.000
E04  24002930.516 8 126136254.571 8      -347.316          51.000    24002931.547 8  96649852.440 8      -266.120          51.000
E19  26398942.930 8 138727360.562 8     -2875.699          48.000    26398943.828 7 106297578.689 7     -2203.536          44.000
E21  25051024.258 6 131644024.122 6     -1939.957          37.000    25051024.164 6 100870092.388 6     -1486.733          36.000
E31  26378780.547 7 138621439.346 7      2236.195          45.000    26378788.258 8 106216432.340 8      1713.454          48.000
> 2020 05 14 06 33 30.0000000  0 18        .000000000000
G12  22367085.906 8 117539848.995 8      3178.227          48.000    22367084.781 8  91589479.685 8      2476.540          48.000
G13  22173596.172 8 116523023.056 8     -3083.387          51.000    22173595.188 7  90797131.407 7     -2402.639          45.000
G15  21032660.516 8 110527368.012 8     -2083.582          51.000    21032659.797 8  86125219.860 8     -1623.570          51.000
G17  22402549.406 4 117726217.027 4      -317.777          28.000
G19  21949856.695 6 115347262.704 6      1674.941          37.000    21949853.281 6  89880978.062 6      1305.143          36.000
R01  20031374.789 8 107079173.224 8     -1570.301          49.000    20031377.367 5  83283821.605 5     -1221.348          35.000
R08  21848596.508 5 116998273.750 5     -4124.730          33.000    21848599.227 5  90998626.156 5     -3208.124          34.000
R10  20879043.250 5 111297049.824 5     -2441.117          32.000
R12  22818184.055 5 121890771.478 5      2973.742          31.000    22818195.023 4  94803879.323 4      2312.914          26.000
C19  24038356.742 7 125174068.840 7     -2896.996          42.000
C22  23670347.695 5 123257764.469 5      -379.141          34.000
C28  25560189.773 4 133098578.667 4     -1092.020          29.000
C30  25431490.055 6 132428394.804 6      3161.945          38.000
E01  23594334.375 8 123989047.160 8       279.047          51.000    23594336.164 8  95004665.314 8       213.815          51.000
E04  24004952.281 8 126146877.576 8      -360.980          51.000    24004952.844 8  96657992.137 8      -276.551          51.000
E19  26415376.711 8 138813716.542 8     -2881.324          48.000    26415377.766 7 106363747.519 7     -2207.855          44.000
E21  25062111.102 6 131702283.749 6     -1943.578          36.000    25062110.531 6 100914732.852 6     -1489.298          36.000
E31  26366028.305 7 138554425.027 7      2231.336          46.000    26366035.969 7 106165083.701 7      1709.830          47.000
> 2020 05 14 06 34  0.0000000  0 15        .000000000000
G12  22348968.812 8 117444644.983 8      3169.238          48.000    22348968.258 8  91515294.744 8      2469.536          48.000
G13  22191228.219 8 116615675.918 8     -3092.934          51.000    22191226.945 7  90869328.419 7     -2410.078          45.000
G15  21044600.531 8 110590113.002 8     -2098.676          51.000    21044599.461 8  86174112.052 8     -1635.332          51.000
G19  21940348.359 6 115297288.920 6      1657.457          38.000    21940344.938 6  89842037.580 6      1291.531          37.000
R01  20040259.852 8 107126667.754 8     -1595.242          49.000    20040261.281 6  83320761.725 6     -1240.744          36.000
R08  21871733.609 5 117122170.351 5     -4134.660          32.000    21871736.516 5  91094990.177 5     -3215.844          31.000
R12  22801496.773 5 121801633.492 5      2969.246          35.000    22801507.359 4  94734500.823 4      2309.420          27.000
C19  24055070.227 7 125261091.094 7     -2903.730          44.000
C22  23672583.664 5 123269404.577 5      -396.004          33.000
C30  25413278.086 6 132333564.128 6      3160.496          39.000
E01  23592764.742 8 123980797.925 8       271.652          51.000    23592766.477 8  94998344.469 8       208.161          51.000
E04  24007052.523 8 126157913.848 8      -374.082          51.000    24007052.789 8  96666448.500 8      -286.631          51.000
E19  26431843.094 8 138900245.710 8     -2886.484          48.000    26431844.312 7 106430049.044 7     -2211.719          44.000
E21  25073218.602 6 131760650.632 6     -1946.781          38.000    25073217.992 6 100959455.510 6     -1491.693          36.000
E31  26353303.641 7 138487554.444 7      2227.309          47.000    26353310.555 7 106113845.218 7      1706.624          47.000
> 2020 05 14 06 34 30.0000000  0 15        .000000000000
G12  22330908.961 8 117349740.423 8      3158.355          49.000    22330908.648 8  91441343.187 8      2461.059          50.000
G13  22208920.047 8 116708645.368 8     -3104.398          51.000    22208918.852 7  90941772.120 7     -2419.012          46.000
G15  21056630.562 8 110653332.049 8     -2115.355          51.000    21056629.414 8  86223373.675 8     -1648.329          51.000
G17  22406412.031 5 117746486.006 5      -355.566          35.000
G19  21930947.914 6 115247886.706 6      1637.121          40.000    21930943.672 6  89803542.370 6      1275.679          38.000
R01  20049290.023 8 107174938.822 8     -1622.098          49.000    20049291.516 6  83358305.849 6     -1261.632          38.000
R08  21894929.047 4 117246387.807 4     -4146.059          27.000    21894933.805 4  91191603.742 4     -3224.712          29.000
R12  22784844.258 6 121712674.793 6      2962.246          36.000    22784860.680 4  94665310.760 4      2303.966          29.000
C19  24071826.883 7 125348339.066 7     -2912.156          45.000
C30  25395076.008 6 132238789.506 6      3158.230          39.000
E01  23591242.320 8 123972797.290 8       262.520          51.000    23591243.641 8  94992214.108 8       201.151          51.000
E04  24009232.695 8 126169371.273 8      -388.988          51.000    24009233.008 8  96675227.548 8      -297.957          51.000
E19  26448343.148 7 138986953.926 7     -2893.328          47.000    26448344.477 7 106496487.770 7     -2216.894          44.000
E21  25084347.422 6 131819131.695 6     -1951.449          41.000    25084347.922 6 101004265.692 6     -1495.084          37.000
E31  26340607.820 7 138420835.606 7      2221.418          47.000    26340613.070 7 106062722.991 7      1702.063          45.000
> 2020 05 14 06 35  0.0000000  0 13        .000000000000
G12  22312901.719 8 117255111.446 8      3147.938          50.000    22312901.266 8  91367606.373 8      2452.938          50.000
G13  22226666.477 8 116801903.996 8     -3115.371          51.000    22226665.570 7  91014441.157 7     -2427.562          44.000
G15  21068745.477 8 110716998.078 8     -2131.426          50.000    21068744.734 8  86272983.590 8     -1660.851          50.000
G19  21921651.406 7 115199032.581 7      1617.359          42.000    21921645.547 5  89765474.239 5      1260.283          33.000
R01  20058459.898 8 107223958.323 8     -1648.270          48.000    20058462.617 6  83396432.119 6     -1281.987          39.000
R12  22768221.219 5 121623869.722 5      2955.508          35.000    22768238.078 4  94596311.127 4      2298.728          27.000
C19  24088621.109 7 125435785.033 7     -2919.973          44.000
C30  25376880.367 6 132144048.327 6      3155.406          41.000
E01  23589762.273 8 123965019.214 8       253.676          51.000    23589763.047 8  94986254.282 8       194.324          51.000
E04  24011488.055 8 126181224.383 8      -403.590          51.000    24011488.625 8  96684309.791 8      -309.253          51.000
E19  26464872.117 7 139073814.756 7     -2899.883          46.000    26464873.336 7 106563043.438 7     -2221.976          43.000
E21  25095492.648 6 131877700.631 6     -1955.609          40.000    25095494.391 6 101049143.194 6     -1498.502          37.000
E31  26327936.406 8 138354243.175 8      2215.750          48.000    26327939.211 7 106011697.642 7      1697.693          45.000
> 2020 05 14 06 35 30.0000000  0 16        .000000000000
G12  22294953.312 8 117160791.145 8      3136.910          49.000    22294952.508 8  91294110.062 8      2444.346          49.000
G13  22244473.305 8 116895481.814 8     -3126.340          49.000    22244472.523 7  91087358.919 7     -2436.109          43.000
G15  21080951.438 8 110781141.136 8     -2147.992          51.000    21080951.188 8  86322965.172 8     -1673.763          51.000
G17  22410670.352 5 117768876.879 5      -394.633          34.000    22410671.078 5  91767934.869 5      -307.509          34.000
G19  21912465.219 6 115150760.557 6      1597.609          41.000    21912459.883 5  89727859.684 5      1244.890          35.000
G28  24001117.016 5 126126721.213 5     -3097.672          34.000    24001108.500 4  98280525.088 4     -2413.770          28.000
R01  20067775.039 7 107273756.134 7     -1674.754          47.000    20067778.727 6  83435163.776 6     -1302.583          39.000
R12  22751631.992 5 121535250.949 5      2948.820          31.000    22751654.250 4  94527394.209 4      2293.521          26.000
C19  24105458.469 7 125523458.060 7     -2928.051          44.000
C22  23679887.242 4 123307380.458 4      -448.336          29.000
C30  25358698.047 7 132049374.453 7      3152.715          42.000
E01  23588330.461 8 123957494.844 8       244.680          51.000    23588331.195 8  94980488.860 8       187.461          51.000
E04  24013824.633 8 126193504.934 8      -418.398          51.000    24013825.344 8  96693719.548 8      -320.603          50.000
E19  26481435.328 7 139160857.827 7     -2906.340          43.000    26481436.320 7 106629738.738 7     -2226.840          42.000
E21  25106660.375 6 131936388.215 6     -1960.203          39.000    25106662.625 6 101094111.585 6     -1501.968          37.000
E31  26315295.281 7 138287809.114 7      2209.922          47.000    26315295.648 7 105960793.631 7      1693.326          44.000
> 2020 05 14 06 36  0.0000000  0 14        .000000000000
G12  22277065.578 8 117066790.158 8      3127.598          48.000    22277064.992 8  91220862.546 8      2437.089          48.000
G13  22262342.250 8 116989385.895 8     -3136.070          48.000    22262341.562 7  91160530.914 7     -2443.694          43.000
G15  21093249.812 8 110845768.445 8     -2162.855          51.000    21093249.703 8  86373324.076 8     -1685.342          51.000
G17  22412970.805 5 117780968.577 5      -414.035          31.000    22412974.336 4  91777357.032 4      -322.625          27.000
G19  21903391.188 6 115103081.861 6      1579.148          41.000    21903387.367 5  89690707.510 5      1230.502          33.000
G28  24018797.492 5 126219633.755 5     -3098.883          33.000    24018788.234 5  98352920.769 5     -2414.714          31.000
R01  20077236.758 7 107324339.160 7     -1699.652          47.000    20077241.398 6  83474506.139 6     -1321.952          39.000
C19  24122340.664 7 125611364.527 7     -2934.492          43.000
C30  25340531.266 7 131954779.103 7      3151.422          42.000
E01  23586948.383 8 123950232.496 8       237.215          51.000    23586949.445 8  94974924.207 8       181.747          51.000
E04  24016244.281 8 126206221.796 8      -431.668          51.000    24016244.906 8  96703463.635 8      -330.762          50.000
E19  26498033.820 6 139248090.789 6     -2911.324          41.000    26498034.984 6 106696579.572 6     -2230.926          41.000
E21  25117851.531 6 131995202.408 6     -1963.020          39.000    25117854.555 6 101139176.958 6     -1504.111          36.000
E31  26302685.609 7 138221542.391 7      2205.539          47.000    26302684.422 7 105910017.839 7      1690.069          43.000
> 2020 05 14 06 36 30.0000000  0 16        .000000000000
G12  22259232.242 8 116973075.738 8      3119.578          48.000    22259232.227 8  91147838.330 8      2430.840          48.000
G13  22280266.758 8 117083580.335 8     -3144.105          49.000    22280266.258 7  91233929.119 7     -2449.952          43.000
G15  21105633.406 8 110910844.074 8     -2176.117          51.000    21105633.242 8  86424032.310 8     -1695.679          51.000
G17  22415376.492 5 117793607.481 5      -429.473          34.000    22415379.391 5  91787205.489 5      -334.651          33.000
G19  21894424.422 6 115055964.438 6      1561.617          39.000    21894420.766 5  89653992.627 5      1216.845          31.000
G28  24036485.906 5 126312584.445 5     -3099.176          31.000    24036465.469 4  98425316.090 4     -2414.942          28.000
R01  20086838.953 8 107375670.615 8     -1723.059          48.000    20086843.914 6  83514430.575 6     -1340.157          40.000
R08  21988293.961 6 117746246.041 6     -4185.664          36.000    21988301.797 4  91580437.103 4     -3255.520          28.000
R10  20962092.547 5 111739754.744 5     -2477.242          31.000
C19  24139260.914 7 125699468.206 7     -2939.590          42.000
C30  25322373.844 6 131860231.030 6      3151.438          41.000
E01  23585609.555 8 123943197.540 8       231.242          51.000    23585610.797 8  94969533.779 8       177.180          51.000
E04  24018740.609 8 126219340.890 8      -443.449          51.000    24018741.289 8  96713515.916 8      -339.750          50.000
E19  26514662.055 6 139335478.093 6     -2914.785          41.000    26514663.078 6 106763538.663 6     -2233.467          40.000
E21  25129059.719 6 132054108.209 6     -1964.516          38.000    25129063.875 6 101184312.551 6     -1504.955          36.000
E31  26290100.938 7 138155409.163 7      2202.785          46.000    26290099.641 7 105859344.360 7      1687.896          44.000
> 2020 05 14 06 37  0.0000000  0 17        .000000000000
G12  22241453.484 8 116879646.598 8      3109.312          49.000    22241453.289 8  91075036.405 8      2422.841          49.000
G13  22298245.734 8 117178060.028 8     -3154.055          49.000    22298244.836 7  91307549.631 7     -2457.708          43.000
G15  21118101.305 8 110976363.097 8     -2191.523          51.000    21118100.836 8  86475086.058 8     -1707.681          51.000
G19  21885564.516 6 115009407.413 6      1541.855          38.000    21885560.203 5  89617714.466 5      1201.449          35.000
R01  20096580.969 8 107427744.795 8     -1748.426          49.000    20096586.023 6  83554932.672 6     -1359.887          41.000
R08  22011770.914 6 117871960.344 6     -4195.273          39.000    22011775.945 4  91678214.900 4     -3262.990          27.000
R10  20976049.023 5 111814154.069 5     -2482.312          33.000
R11  19786125.297 5 105731050.242 5       791.828          32.000
R12  22702072.609 5 121270344.363 5      2934.062          34.000    22702103.070 4  94321529.072 4      2282.049          27.000
C19  24156217.742 6 125787763.676 6     -2946.613          40.000
C22  23688032.930 4 123349841.305 4      -497.297          29.000
C30  25304225.539 6 131765729.660 6      3149.008          41.000
E01  23584313.336 8 123936386.265 8       223.000          51.000    23584314.602 8  94964314.738 8       170.849          51.000
E04  24021312.625 8 126232859.063 8      -457.543          51.000    24021313.750 8  96723873.983 8      -350.624          50.000
E19  26531320.062 7 139423015.006 7     -2920.637          43.000    26531319.906 6 106830612.368 6     -2237.846          39.000
E21  25140285.141 5 132113101.584 5     -1968.078          35.000    25140289.773 5 101229515.322 5     -1508.295          35.000
E31  26277540.484 7 138089406.454 7      2197.516          45.000    26277540.000 7 105808770.887 7      1683.844          43.000
> 2020 05 14 06 37 30.0000000  0 18        .000000000000
G12  22223735.312 8 116786535.894 8      3097.156          48.000    22223735.273 8  91002482.641 8      2413.369          49.000
G13  22316284.797 8 117272855.400 8     -3166.367          51.000    22316283.914 7  91381416.118 7     -2467.299          43.000
G15  21130659.227 8 111042355.802 8     -2208.816          51.000    21130658.148 8  86526508.919 8     -1721.159          51.000
G17  22420508.227 5 117820565.089 5      -469.047          32.000
G19  21876817.516 6 114963444.820 6      1520.859          39.000    21876814.742 6  89581899.516 6      1185.085          36.000
R01  20106467.641 8 107480591.804 8     -1775.633          48.000    20106472.898 7  83596035.897 7     -1381.051          42.000
R08  22035304.570 6 117997980.642 6     -4206.730          37.000    22035310.812 4  91776230.637 4     -3271.905          28.000
R10  20990044.156 4 111888744.902 4     -2491.496          28.000
R11  19781720.125 5 105707499.852 5       776.883          31.000    19781723.898 4  82216971.020 4       604.248          26.000
R12  22685610.297 5 121182432.508 5      2926.078          32.000    22685633.078 4  94253152.689 4      2275.832          25.000
C19  24173216.617 6 125876280.077 6     -2955.445          37.000
C22  23690958.688 6 123365032.237 6      -516.352          36.000
C30  25286093.070 7 131671309.101 7      3145.039          42.000
E01  23583065.664 8 123929830.005 8       213.051          51.000    23583067.133 8  94959291.105 8       163.196          51.000
E04  24023966.727 8 126246808.229 8      -473.469          51.000    24023968.266 8  96734562.279 8      -362.794          50.000
E19  26548012.805 7 139510731.912 7     -2928.176          44.000    26548010.969 6 106897823.978 6     -2243.410          37.000
E21  25151534.438 6 132172213.577 6     -1973.586          36.000    25151538.391 5 101274808.956 5     -1512.423          33.000
E31  26265010.812 7 138023566.361 7      2190.707          44.000    26265011.656 7 105758321.989 7      1678.594          44.000
> 2020 05 14 06 38  0.0000000  0 17        .000000000000
G12  22206071.984 8 116693713.403 8      3091.297          48.000    22206071.891 8  90930153.446 8      2408.803          48.000
G13  22334377.844 8 117367932.893 8     -3172.012          51.000    22334376.945 7  91455502.457 7     -2471.697          44.000
G15  21143300.852 8 111108788.695 8     -2219.844          51.000    21143299.492 8  86578274.774 8     -1729.748          51.000
G19  21868178.672 6 114918047.092 6      1505.805          40.000    21868176.492 6  89546524.665 6      1173.354          38.000
G24  20584777.734 5 108173708.584 5      1339.539          33.000    20584776.867 5  84291224.679 5      1043.809          32.000
R01  20116492.453 8 107534177.345 8     -1796.438          50.000    20116497.539 6  83637713.538 6     -1397.229          41.000
R08  22058889.086 5 118124270.723 5     -4211.887          35.000    22058896.359 4  91874456.182 4     -3275.915          29.000
R11  19777376.219 4 105684293.975 4       769.398          29.000    19777383.492 4  82198922.217 4       598.430          27.000
R12  22669180.273 5 121094700.284 5      2924.719          30.000
C19  24190249.031 5 125964983.595 5     -2957.973          32.000
C22  23693973.727 6 123380711.983 6      -528.926          38.000
C30  25267970.328 6 131576940.556 6      3146.711          40.000
E01  23581860.352 8 123923496.607 8       209.316          51.000    23581862.180 8  94954438.235 8       160.355          51.000
E04  24026697.148 8 126261156.731 8      -483.074          51.000    24026698.953 8  96745556.571 8      -370.145          51.000
E19  26564733.398 7 139598595.910 7     -2929.297          44.000    26564730.047 6 106965148.279 6     -2245.017          36.000
E21  25162800.359 5 132231411.767 5     -1972.742          35.000    25162803.125 5 101320168.614 5     -1511.911          33.000
E31  26252506.094 7 137957857.361 7      2190.031          44.000    26252508.781 7 105707973.594 7      1678.022          45.000
> 2020 05 14 06 38 30.0000000  0 16        .000000000000
G12  22188465.977 8 116601192.871 8      3078.207          48.000    22188464.875 8  90858059.513 8      2398.603          48.000
G13  22352526.453 8 117463302.391 8     -3184.789          51.000    22352525.516 7  91529816.317 7     -2481.654          45.000
G15  21156028.102 8 111175671.936 8     -2237.988          51.000    21156026.633 8  86630391.555 8     -1743.887          50.000
G19  21859649.844 6 114873228.257 6      1483.207          37.000    21859648.672 6  89511600.896 6      1155.749          37.000
G24  20577170.438 4 108133760.815 4      1326.180          28.000    20577167.195 4  84260091.721 4      1033.378          28.000
R01  20126657.438 8 107588510.753 8     -1824.512          50.000    20126661.672 6  83679972.814 6     -1419.065          41.000
R08  22082525.812 5 118250838.575 5     -4224.781          33.000    22082532.688 4  91972967.344 4     -3285.938          25.000
R21  23649063.078 6 126550912.094 6      4097.594          41.000    23649067.570 6  98428491.926 6      3187.020          38.000
C19  24207317.984 5 126053883.589 5     -2967.727          32.000
C22  23697083.914 6 123396891.120 6      -548.586          37.000
C30  25249860.344 6 131482638.224 6      3141.117          41.000
E01  23580699.586 8 123917397.277 8       198.414          51.000    23580701.711 8  94949764.718 8       152.067          51.000
E04  24029505.828 8 126275916.288 8      -499.707          51.000    24029507.906 8  96756865.828 8      -382.931          51.000
E19  26581483.852 7 139686617.149 7     -2937.699          44.000    26581479.430 5 107032593.049 5     -2251.036          35.000
E21  25174084.414 5 132290706.128 5     -1978.938          32.000    25174086.883 5 101365614.645 5     -1516.694          32.000
E31  26240029.023 7 137892291.505 7      2182.277          43.000    26240032.891 7 105657734.831 7      1672.117          44.000
> 2020 05 14 06 39  0.0000000  0 18        .000000000000
G12  22170921.641 7 116508998.006 7      3068.918          47.000    22170920.062 7  90786219.392 7      2391.368          47.000
G13  22370734.430 8 117558984.855 8     -3193.371          51.000    22370733.562 7  91604374.052 7     -2488.341          45.000
G15  21168845.188 8 111243026.410 8     -2251.797          51.000    21168843.656 8  86682875.549 8     -1754.647          51.000
G19  21851235.594 6 114829012.735 6      1464.844          38.000    21851233.977 6  89477147.220 6      1141.434          37.000
G24  20569632.914 5 108094135.579 5      1316.215          34.000    20569635.047 5  84229208.654 5      1025.628          35.000
R01  20136965.484 8 107643612.604 8     -1848.137          48.000    20136969.086 6  83722829.767 6     -1437.440          41.000
R08  22106217.172 4 118377702.750 4     -4232.410          29.000    22106224.227 4  92071641.647 4     -3291.872          26.000
R11  19768898.016 5 105639011.926 5       743.742          32.000    19768902.383 5  82163676.280 5       578.466          30.000
R12  22636429.242 5 120919777.995 5      2910.918          31.000    22636430.891 4  94048698.165 4      2264.047          26.000
R21  23626095.344 6 126428020.771 6      4095.613          37.000    23626101.469 6  98332909.865 6      3185.480          37.000
C19  24224430.492 5 126143000.126 5     -2973.129          33.000
C22  23700294.297 5 123413591.329 5      -564.199          35.000
C30  25231767.773 6 131388426.975 6      3140.043          40.000
E01  23579587.586 8 123911554.052 8       191.738          51.000    23579589.812 8  94945287.444 8       146.916          51.000
E04  24032397.086 8 126291109.476 8      -512.336          51.000    24032399.117 8  96768507.365 8      -392.608          50.000
E19  26598267.914 7 139774816.614 7     -2941.734          43.000    26598264.055 6 107100174.362 6     -2253.862          36.000
E21  25185388.641 5 132350110.268 5     -1981.445          32.000    25185393.547 5 101411141.703 5     -1517.930          31.000
E31  26227583.633 7 137826891.506 7      2178.398          43.000    26227588.773 7 105607623.141 7      1669.297          45.000
> 2020 05 14 06 39 30.0000000  0 18        .000000000000
G12  22153436.188 8 116417111.971 8      3059.555          50.000    22153433.914 8  90714619.918 8      2384.069          50.000
G13  22388997.719 8 117654960.006 8     -3202.250          51.000    22388997.227 7  91679159.823 7     -2495.263          45.000
G15  21181748.102 8 111310831.771 8     -2265.883          50.000    21181746.641 8  86735710.891 8     -1765.623          51.000
G19  21842933.516 6 114785384.535 6      1446.484          38.000    21842932.453 6  89443151.192 6      1127.134          37.000
G24  20562148.289 5 108054850.271 5      1306.031          34.000
R01  20147412.258 7 107699461.855 7     -1872.324          47.000    20147416.750 7  83766268.088 7     -1456.252          42.000
R08  22129957.578 5 118504840.246 5     -4241.047          31.000
R10  21046336.008 5 112188844.370 5     -2510.547          32.000
R11  19764762.039 4 105616899.132 4       732.664          29.000    19764760.914 4  82146476.884 4       569.853          26.000
R21  23603144.180 5 126305224.636 5      4093.480          34.000    23603153.133 6  98237401.830 6      3183.818          37.000
C19  24241581.367 5 126232312.607 5     -2978.723          33.000
C22  23703598.625 5 123430793.823 5      -579.926          33.000
C30  25213690.070 7 131294291.209 7      3138.473          42.000
E01  23578520.766 8 123905948.066 8       184.684          51.000    23578522.945 8  94940991.944 8       141.448          51.000
E04  24035367.414 8 126306717.922 8      -525.469          51.000    24035369.016 8  96780467.089 8      -402.635          50.000
E19  26615082.125 7 139863174.652 7     -2946.191          43.000    26615079.844 6 107167877.205 6     -2257.316          37.000
E21  25196715.398 6 132409615.013 6     -1983.629          36.000
E31  26215166.773 7 137761639.220 7      2174.438          45.000    26215172.703 7 105557624.650 7      1666.139          44.000
> 2020 05 14 06 40  0.0000000  0 21        .000000000000
G12  22135987.703 8 116325419.987 8      3049.953          50.000    22135985.383 8  90643171.639 8      2376.587          50.000
G13  22407294.188 8 117751109.373 8     -3211.102          51.000    22407293.633 7  91754081.358 7     -2502.157          44.000
G15  21194714.422 8 111378969.878 8     -2279.902          51.000    21194713.188 8  86788805.519 8     -1776.547          51.000
G17  22435181.188 5 117897683.094 5      -559.059          32.000
G19  21834721.141 7 114742228.808 7      1427.641          42.000    21834720.352 5  89409523.357 5      1112.444          35.000
G24  20554710.906 4 108015733.912 4      1296.484          29.000    20554708.547 4  84168096.407 4      1010.241          27.000
G28  24160550.633 5 126964522.159 5     -3108.422          32.000    24160542.453 4  98933385.863 4     -2422.147          27.000
R01  20157976.656 8 107755937.336 8     -1896.102          49.000    20157981.961 7  83810193.458 7     -1474.746          42.000
R08  22153726.133 5 118632128.649 5     -4248.172          32.000    22153734.422 5  92269513.163 5     -3304.140          31.000
R10  21060463.547 5 112264212.964 5     -2514.734          31.000
R12  22603785.609 5 120745418.021 5      2901.078          31.000
R21  23580191.266 4 126182409.494 4      4090.195          28.000    23580202.758 6  98141878.975 6      3181.263          38.000
C19  24258747.609 5 126321703.163 5     -2984.453          32.000
C22  23706975.234 5 123448382.702 5      -595.883          30.000
C28  25649454.281 5 133563395.984 5     -1289.508          34.000
C30  25195605.656 7 131200118.110 7      3136.539          43.000
E01  23577476.789 8 123900462.268 8       177.703          51.000    23577479.078 8  94936788.535 8       136.150          51.000
E04  24038394.672 8 126322625.055 8      -538.359          51.000    24038395.844 8  96792655.666 8      -412.530          51.000
E19  26631904.219 7 139951573.135 7     -2950.559          42.000    26631903.477 6 107235611.066 6     -2260.617          39.000
E21  25208036.469 6 132469111.085 6     -1986.203          38.000    25208038.828 5 101502326.015 5     -1521.492          30.000
E31  26202756.234 7 137696418.387 7      2170.344          46.000    26202762.078 7 105507650.230 7      1662.997          45.000
> 2020 05 14 06 40 30.0000000  0 18        .000000000000
G12  22118632.562 8 116234218.911 8      3022.523          50.000    22118631.000 8  90572105.885 8      2355.213          51.000
G13  22425680.039 8 117847726.956 8     -3237.633          51.000    22425679.297 7  91829367.733 7     -2522.831          43.000
G15  21207800.016 8 111447734.444 8     -2311.844          51.000    21207798.977 8  86842388.290 8     -1801.437          51.000
G19  21826655.734 7 114699843.347 7      1390.562          42.000    21826653.438 5  89376495.639 5      1083.555          32.000
G24  20547365.180 5 107977131.011 5      1269.199          32.000    20547361.773 5  84138016.177 5       988.986          32.000
R01  20168714.898 8 107813337.411 8     -1938.121          50.000    20168719.461 6  83854837.950 6     -1507.428          39.000
R08  22177578.406 5 118759865.349 5     -4274.762          32.000    22177585.609 4  92368863.915 4     -3324.818          29.000
R12  22587538.172 5 120658629.325 5      2878.348          32.000
R21  23557294.203 5 126059880.871 5      4070.211          35.000    23557306.273 6  98046578.980 6      3165.717          39.000
C19  24275986.062 4 126411462.350 4     -3007.508          28.000
C22  23710484.195 5 123466649.911 5      -629.836          32.000
C28  25656954.234 5 133602452.878 5     -1321.520          32.000
C30  25177570.586 7 131106203.017 7      3117.164          44.000
E01  23576511.906 8 123895391.697 8       152.789          51.000    23576514.430 8  94932903.299 8       117.078          51.000
E04  24041535.117 8 126339126.364 8      -569.250          51.000    24041535.945 8  96805299.517 8      -436.197          51.000
E19  26648790.031 6 140040306.146 6     -2972.664          41.000    26648790.594 6 107303601.246 6     -2277.768          40.000
E21  25219411.109 5 132528899.258 5     -2006.215          34.000    25219411.117 5 101548117.190 5     -1536.891          30.000
E31  26190408.242 7 137631524.683 7      2148.375          46.000    26190412.742 7 105457926.490 7      1646.101          43.000
> 2020 05 14 06 41  0.0000000  0 17        .000000000000
G12  22101343.875 8 116143366.586 8      3039.477          51.000    22101342.445 8  90501311.848 8      2368.423          51.000
G13  22444127.414 8 117944666.837 8     -3219.816          51.000    22444126.391 7  91904905.270 7     -2508.948          43.000
G15  21220976.945 8 111516979.813 8     -2299.344          51.000    21220976.109 8  86896345.707 8     -1791.696          51.000
G17  22441827.141 5 117932566.055 5      -585.223          34.000
G19  21818709.711 6 114658086.669 6      1398.395          41.000    21818707.719 5  89343958.092 5      1089.664          32.000
R01  20179598.117 8 107871513.228 8     -1934.988          49.000    20179601.242 6  83900085.764 6     -1504.994          38.000
R08  22201486.391 5 118887899.265 5     -4255.750          31.000    22201492.727 4  92468445.849 4     -3310.028          24.000
R10  21088909.805 5 112415743.535 5     -2514.043          31.000
R21  23534424.727 5 125937496.932 5      4094.074          35.000    23534436.664 6  97951391.504 6      3184.280          39.000
C19  24293271.375 4 126501437.679 4     -2986.766          29.000
C28  25664549.664 5 133642043.287 5     -1309.559          31.000
C30  25159558.094 7 131012406.066 7      3141.176          44.000
E01  23575598.633 8 123890592.051 8       172.332          51.000    23575601.289 8  94929225.652 8       131.981          51.000
E04  24044761.219 8 126356078.031 8      -555.730          51.000    24044761.508 8  96818288.444 8      -425.807          51.000
E19  26665712.516 6 140129228.451 6     -2950.219          41.000    26665713.094 6 107371736.454 6     -2260.632          40.000
E21                                                                  25230809.930 5 101594014.993 5     -1519.058          31.000
E31  26178094.953 7 137566814.545 7      2170.781          44.000    26178096.781 7 105408343.400 7      1663.203          43.000
> 2020 05 14 06 41 30.0000000  0 16        .000000000000
G12  22084075.227 8 116052619.560 8      3012.668          51.000    22084073.727 8  90430599.897 8      2347.533          51.000
G13  22462588.922 8 118041682.484 8     -3245.555          50.000    22462587.688 7  91980501.840 7     -2529.004          42.000
G15  21234198.477 8 111586459.405 8     -2330.309          51.000    21234197.703 8  86950485.631 8     -1815.825          51.000
G19  21810837.328 6 114616715.296 6      1362.180          39.000    21810834.289 4  89311720.782 4      1061.433          29.000
G28  24213863.203 5 127244705.678 5     -3118.781          30.000
R01  20190579.078 8 107930212.750 8     -1975.957          49.000    20190581.172 6  83945740.882 6     -1536.855          40.000
R08  22225403.930 5 119015976.906 5     -4280.836          34.000
R12  22555121.719 5 120485460.094 5      2877.191          31.000    22555136.352 5  93710934.239 5      2237.816          32.000
R21  23511537.664 6 125815012.894 6      4073.504          41.000    23511547.828 6  97856126.129 6      3168.281          38.000
C19  24310553.602 5 126591398.578 5     -3008.289          32.000
C28  25672191.719 5 133681837.507 5     -1341.000          34.000
C30  25141522.211 7 130918487.031 7      3122.180          46.000
E01  23574690.047 8 123885817.782 8       148.273          51.000    23574692.664 8  94925567.434 8       113.561          51.000
E04  24048026.320 8 126373234.968 8      -585.793          51.000    24048025.859 8  96831434.663 8      -448.827          51.000
E19  26682624.648 6 140218093.500 6     -2971.812          40.000    26682624.273 6 107439827.796 6     -2277.007          41.000
E31  26165769.531 6 137502043.146 6      2149.664          40.000    26165769.938 7 105358713.400 7      1646.951          43.000
> 2020 05 14 06 42  0.0000000  0 17        .000000000000
G12  22066916.742 8 115962450.800 8      3004.777          51.000    22066914.742 8  90360338.536 8      2341.385          51.000
G13  22481153.656 8 118139243.634 8     -3252.320          48.000    22481152.609 7  92056523.512 7     -2534.276          42.000
G15  21247554.086 8 111656643.111 8     -2342.371          51.000    21247553.227 8  87005174.189 8     -1825.227          51.000
G19  21803127.875 6 114576202.927 6      1344.617          38.000    21803123.891 6  89280152.752 6      1047.751          36.000
G24  20525685.484 5 107863222.208 5      1251.332          34.000    20525683.266 5  84049246.063 5       975.064          35.000
R01  20201747.195 8 107989913.037 8     -1997.711          48.000    20201749.875 7  83992174.427 7     -1553.775          42.000
R08  22249419.344 5 119144574.515 5     -4286.336          35.000
R12  22538991.453 5 120399296.167 5      2873.188          34.000    22539005.984 4  93643917.900 4      2234.701          29.000
R21  23488722.438 7 125692913.452 7      4072.363          44.000    23488730.453 5  97761159.900 5      3167.397          35.000
C19  24327919.281 5 126681803.481 5     -3012.000          34.000
C28  25679970.680 5 133722344.656 5     -1353.965          30.000
C30  25123553.234 7 130824915.816 7      3121.969          46.000
E01  23573875.930 8 123881539.935 8       143.148          51.000    23573878.344 8  94922289.589 8       109.637          51.000
E04  24051420.047 8 126391068.662 8      -596.980          51.000    24051419.266 8  96845099.429 8      -457.382          51.000
E19  26699615.867 6 140307371.498 6     -2973.938          38.000    26699613.539 6 107508235.546 6     -2278.752          41.000
E21  25253634.680 6 132708751.053 6     -2002.324          38.000    25253636.039 5 101685923.733 5     -1534.084          32.000
E31  26153521.680 6 137437682.256 6      2147.082          38.000    26153522.141 7 105309397.954 7      1645.304          43.000
> 2020 05 14 06 42 30.0000000  0 19        .000000000000
G12  22049787.320 8 115872434.134 8      2995.301          51.000    22049785.727 8  90290195.689 8      2334.004          51.000
G13  22499739.875 7 118236920.587 7     -3260.590          47.000    22499739.602 6  92132635.395 6     -2540.722          41.000
G15  21260962.008 8 111727100.846 8     -2355.879          51.000    21260961.000 8  87060076.242 8     -1835.753          51.000
G19  21795500.617 5 114536123.867 5      1326.250          32.000    21795497.234 4  89248922.306 4      1033.442          28.000
G24  20518570.172 5 107825826.349 5      1241.102          35.000    20518563.672 5  84020106.433 5       967.092          34.000
R01  20213020.023 7 108050176.520 7     -2020.926          47.000    20213024.508 7  84039046.034 7     -1571.831          43.000
R08  22273450.086 6 119273252.180 6     -4292.996          36.000    22273444.086 4  92768108.235 4     -3339.000          26.000
R10  21131751.305 5 112644104.301 5     -2545.500          32.000
R12  22522862.656 5 120313143.150 5      2869.234          34.000
R21  23465898.031 7 125570767.558 7      4069.461          46.000    23465903.320 5  97666157.542 5      3165.136          30.000
C19  24345285.148 5 126772225.620 5     -3017.273          35.000
C22  23725444.727 5 123544618.951 5      -680.508          33.000
C28  25687804.969 4 133763140.689 4     -1366.895          29.000
C30  25105569.867 7 130731271.150 7      3119.879          46.000
E01  23573074.992 8 123877330.261 8       136.480          51.000    23573077.297 8  94919063.979 8       104.606          51.000
E04  24054861.078 8 126409151.288 8      -609.656          51.000    24054860.375 8  96858954.922 8      -467.097          51.000
E19  26716604.242 6 140396632.984 6     -2977.668          37.000    26716599.789 6 107576630.648 6     -2281.775          41.000
E21  25265068.391 6 132768829.806 6     -2004.098          40.000    25265070.219 5 101731963.157 5     -1535.652          33.000
E31  26141270.133 6 137373304.348 6      2143.512          38.000    26141271.578 7 105260069.426 7      1642.365          43.000
> 2020 05 14 06 43  0.0000000  0 20        .000000000000
G12  22032720.391 8 115782746.051 8      2982.109          51.000    22032719.336 8  90220308.904 8      2323.725          51.000
G13  22518381.742 7 118334886.968 7     -3272.422          47.000    22518381.523 7  92208972.780 7     -2549.942          42.000
G15  21274455.125 8 111798006.208 8     -2372.957          51.000    21274454.000 8  87115327.106 8     -1849.057          51.000
G17  22456314.633 5 118008757.267 5      -673.965          34.000
G19  21787988.141 5 114496655.317 5      1303.508          32.000    21787987.375 5  89218167.396 5      1015.714          31.000
G28  24267272.453 5 127525337.071 5     -3120.777          33.000
R01  20224431.328 8 108111178.900 8     -2047.812          49.000    20224436.961 7  84086492.308 7     -1592.743          43.000
R08  22297528.648 6 119402183.987 6     -4303.848          37.000    22297524.430 5  92868388.460 5     -3347.437          31.000
R10  21146083.500 5 112720513.987 5     -2552.586          32.000
R12  22506767.219 5 120227179.512 5      2860.129          31.000
R21  23443098.734 7 125448758.284 7      4062.645          45.000    23443098.422 4  97571256.575 4      3159.841          27.000
C19  24362685.328 6 126862836.062 6     -3025.348          36.000
C22  23729421.727 5 123565311.841 5      -700.633          31.000
C28  25695727.836 5 133804396.322 5     -1385.586          31.000
C30  25087605.477 7 130637729.108 7      3114.344          44.000
E01  23572320.234 8 123873363.338 8       126.160          51.000    23572322.648 8  94916024.386 8        96.683          51.000
E04  24058382.906 8 126427657.821 8      -625.941          51.000    24058382.250 8  96873135.249 8      -479.591          51.000
E19  26733621.742 5 140486051.887 5     -2984.727          35.000    26733615.930 6 107645146.366 6     -2287.528          40.000
E21  25276522.734 6 132829011.932 6     -2009.820          37.000    25276523.641 5 101778076.685 5     -1539.917          34.000
E31  26129048.836 6 137309084.741 6      2135.883          39.000    26129052.578 7 105210862.200 7      1636.666          44.000
> 2020 05 14 06 43 30.0000000  0 17        .000000000000
G12  22015688.922 8 115693244.465 8      2989.195          51.000    22015687.969 8  90150567.440 8      2329.243          51.000
G13  22537051.609 8 118432997.325 8     -3263.699          49.000    22537051.836 7  92285422.312 7     -2543.145          43.000
G15  21288005.695 8 111869214.022 8     -2369.754          51.000    21288004.633 8  87170813.668 8     -1846.565          51.000
G19  21780566.938 6 114457655.539 6      1301.137          39.000    21780566.344 5  89187777.984 5      1013.867          34.000
G28  24285053.203 5 127618769.418 5     -3103.938          33.000
R01  20235953.648 8 108172771.379 8     -2053.816          49.000    20235959.492 7  84134397.541 7     -1597.416          43.000
R08  22321626.344 6 119531220.210 6     -4293.645          36.000    22321623.109 5  92968749.843 5     -3339.504          32.000
R10  21160425.977 5 112796974.894 5     -2539.379          34.000
R21  23420298.453 7 125326744.289 7      4076.098          44.000    23420293.086 4  97476356.909 4      3170.298          28.000
C19  24380092.195 6 126953490.562 6     -3013.750          36.000
C22  23733467.758 5 123586385.505 5      -699.156          35.000
C30  25069633.094 7 130544150.328 7      3128.758          43.000
E01  23571584.234 8 123869495.332 8       136.266          51.000    23571586.602 8  94913060.589 8       104.420          51.000
E04  24061957.945 8 126446444.917 8      -621.867          51.000    24061957.477 8  96887530.543 8      -476.505          51.000
E19  26750640.617 5 140575561.353 5     -2972.277          35.000    26750633.758 6 107713671.659 6     -2277.480          38.000
E21  25287968.828 6 132889153.290 6     -1994.777          38.000    25287969.289 5 101824159.030 5     -1528.582          35.000
E31  26116831.242 7 137244880.296 7      2148.723          42.000    26116836.570 7 105161666.588 7      1646.499          44.000
> 2020 05 14 06 44  0.0000000  0 16        .000000000000
G12  21998762.961 8 115604298.676 8      2959.578          50.000    21998762.039 8  90081259.052 8      2306.165          50.000
G13  22555818.695 8 118531617.044 8     -3291.871          49.000    22555819.508 7  92362268.774 7     -2565.094          44.000
G15  21301683.117 8 111941089.529 8     -2402.973          51.000    21301682.406 8  87226820.552 8     -1872.446          51.000
G19  21773305.836 6 114419493.687 6      1261.840          37.000    21773304.539 5  89158041.500 5       983.249          35.000
R01  20247655.875 8 108235324.913 8     -2097.160          48.000    20247661.992 7  84183050.275 7     -1631.125          44.000
R08  22345812.430 5 119660730.885 5     -4320.238          30.000    22345808.859 5  93069480.327 5     -3360.185          32.000
R10  21174841.594 5 112873832.429 5     -2564.328          32.000
R21  23397567.961 7 125205104.020 7      4052.312          44.000    23397565.312 5  97381747.860 5      3151.799          34.000
C19  24397576.586 6 127044550.476 6     -3038.016          36.000
C22  23737653.680 5 123608168.724 5      -734.285          35.000
C30  25051723.492 6 130450901.218 6      3106.812          41.000
E01  23570936.906 8 123866092.948 8       109.688          51.000    23570938.867 8  94910453.556 8        84.103          51.000
E04  24065656.219 8 126465879.614 8      -654.602          51.000    24065655.844 8  96902422.052 8      -501.554          51.000
E19  26767729.359 6 140665370.866 6     -2995.629          36.000    26767723.383 6 107782486.668 6     -2295.559          36.000
E21  25299475.773 6 132949620.320 6     -2016.922          39.000    25299477.320 5 101870490.879 5     -1545.245          35.000
E31  26104686.844 7 137181058.395 7      2125.098          42.000    26104693.211 7 105112764.130 7      1628.286          45.000
> 2020 05 14 06 44 30.0000000  0 18        .000000000000
G12  21981887.203 8 115515616.769 8      2952.105          50.000    21981886.508 8  90012156.270 8      2300.339          50.000
G13  22574626.797 8 118630451.537 8     -3297.539          50.000    22574627.766 7  92439282.616 7     -2569.514          46.000
G15  21315431.195 8 112013338.302 8     -2414.133          50.000    21315431.078 8  87283118.297 8     -1881.142          50.000
G17  22468295.398 5 118071729.335 5      -727.309          33.000    22468294.820 5  92003907.187 5      -566.734          34.000
G19  21766148.352 6 114381879.074 6      1245.086          41.000    21766146.102 5  89128731.470 5       970.200          31.000
G28  24320699.148 5 127806098.436 5     -3121.965          32.000
R01  20259481.695 8 108298539.042 8     -2117.555          48.000    20259487.836 7  84232216.776 7     -1646.987          44.000
R10  21189277.344 5 112950788.641 5     -2566.820          31.000
R11  19727073.227 5 105415496.076 5       612.641          30.000
R12  22458718.383 5 119970371.770 5      2844.648          32.000
R21  23374851.828 6 125083544.020 6      4051.164          41.000    23374851.133 5  97287201.295 5      3150.908          35.000
C19  24415082.320 5 127135723.472 5     -3040.270          34.000
C30  25033822.141 6 130357694.381 6      3107.023          40.000
E01  23570322.516 8 123862862.974 8       105.191          51.000    23570324.102 8  94907978.629 8        80.589          51.000
E04  24069421.984 8 126485669.069 8      -665.172          51.000    24069421.758 8  96917585.391 8      -509.734          51.000
E19  26784833.742 6 140755264.401 6     -2997.371          36.000    26784828.375 5 107851407.078 5     -2296.453          32.000
E21  25310988.781 5 133010119.491 5     -2016.695          35.000    25310990.789 5 101916847.455 5     -1545.140          33.000
E31  26092559.617 6 137117326.539 6      2123.098          40.000    26092566.555 7 105063930.673 7      1626.822          45.000
> 2020 05 14 06 45  0.0000000  0 16        .000000000000
G12  21965048.570 8 115427128.030 8      2940.484          51.000    21965048.305 8  89943204.022 8      2291.287          51.000
G13  22593461.836 8 118729426.140 8     -3307.391          51.000    22593462.727 7  92516405.662 7     -2577.188          47.000
G15  21329235.719 7 112085885.475 7     -2429.305          47.000    21329236.445 8  87339648.568 8     -1892.962          48.000
G17  22472502.938 6 118093778.045 6      -746.324          38.000    22472481.703 6  92021103.464 6      -581.551          36.000
G19  21759081.594 6 114344740.527 6      1223.887          36.000    21759079.727 5  89099792.313 5       953.675          32.000
G28  24338509.922 5 127899703.399 5     -3123.164          33.000
R01  20271416.430 8 108362336.408 8     -2142.191          48.000    20271422.461 7  84281836.931 7     -1666.149          44.000
R12  22442722.031 5 119885050.792 5      2838.008          31.000
R21  23352137.281 6 124961995.002 6      4045.473          41.000    23352137.750 6  97192663.227 6      3146.479          36.000
C19  24432597.078 5 127226935.033 5     -3046.473          34.000
C30  25015916.148 6 130264460.252 6      3102.355          39.000
E01  23569726.844 8 123859731.997 8        96.805          51.000    23569728.523 8  94905579.575 8        74.112          51.000
E04  24073241.164 8 126505740.299 8      -679.641          51.000    24073241.266 8  96932964.608 8      -520.823          51.000
E19  26801939.133 5 140845167.673 5     -3002.922          35.000    26801935.203 4 107920285.991 4     -2300.602          28.000
E21  25322494.438 5 133070604.379 5     -2020.402          32.000    25322495.367 5 101963172.328 5     -1548.220          32.000
E31  26080434.523 5 137053612.169 5      2117.266          34.000    26080442.766 7 105015110.525 7      1622.473          45.000
> 2020 05 14 06 45 30.0000000  0 17        .000000000000
G12  21948296.242 8 115339093.566 8      2928.348          49.000    21948296.359 8  89874605.757 8      2281.829          49.000
G13  22612372.734 8 118828799.312 8     -3317.516          51.000    22612373.320 7  92593839.288 7     -2585.077          47.000
G15  21343146.258 8 112158989.359 8     -2444.516          48.000    21343147.516 8  87396612.658 8     -1904.814          48.000
G17  22476794.164 5 118116412.532 5      -765.316          34.000    22476792.992 5  92038736.060 5      -596.360          30.000
G19  21752154.336 5 114308339.864 5      1202.711          32.000    21752152.680 5  89071428.286 5       937.196          31.000
G24  20477171.156 5 107608274.347 5      1173.703          30.000    20477169.016 5  83850583.167 5       914.574          30.000
G28  24356345.805 5 127993428.416 5     -3125.355          32.000
R01  20283508.992 8 108426978.973 8     -2167.246          49.000    20283514.422 7  84332114.487 7     -1685.636          43.000
R12  22426803.172 5 119800027.734 5      2830.789          30.000
R21  23329474.602 7 124840726.501 7      4039.086          42.000    23329476.227 5  97098343.308 5      3141.514          35.000
C19  24450169.109 6 127318440.562 6     -3053.816          36.000
C30  24998055.719 6 130171459.158 6      3097.703          41.000
E01  23569199.305 8 123856959.629 8        87.957          51.000    23569201.117 8  94903455.289 8        67.375          51.000
E04  24077163.734 8 126526353.217 8      -694.523          51.000    24077163.867 8  96948758.890 8      -532.182          51.000
E19  26819095.789 5 140935339.112 5     -3008.746          35.000
E21                                                                  25334039.961 5 102009680.182 5     -1550.956          31.000
E31  26068360.273 5 136990175.526 5      2111.719          35.000    26068371.312 7 104966503.109 7      1617.903          44.000
> 2020 05 14 06 46  0.0000000  0 17        .000000000000
G12  21931598.148 8 115251345.412 8      2918.207          49.000    21931598.297 8  89806230.602 8      2273.931          49.000
G13  22631326.625 8 118928399.369 8     -3325.672          51.000    22631326.875 7  92671449.711 7     -2591.433          47.000
G15  21357130.602 8 112232478.202 8     -2457.953          50.000    21357132.070 8  87453876.717 8     -1915.285          50.000
G17  22481207.117 5 118139556.747 5      -782.762          33.000    22481203.992 5  92056737.337 5      -609.966          31.000
G19  21745336.914 6 114272509.747 6      1182.762          37.000    21745333.844 5  89043508.626 5       921.636          34.000
G24  20470487.617 5 107573166.063 5      1163.820          34.000    20470494.492 5  83823231.211 5       906.876          34.000
G28  24374179.805 5 128087138.806 5     -3125.152          32.000
R01  20295727.180 8 108492291.487 8     -2190.105          49.000    20295731.562 6  84382913.075 6     -1703.415          41.000
R10  21232729.031 5 113182458.827 5     -2582.820          31.000
R21  23306832.852 7 124719570.256 7      4034.707          44.000    23306834.109 5  97004110.699 5      3138.105          33.000
C19  24467766.172 6 127410069.479 6     -3058.098          40.000
C30  24980208.609 7 130078525.677 7      3094.793          42.000
E01  23568707.656 8 123854375.745 8        81.098          51.000    23568709.180 8  94901475.409 8        62.170          51.000
E04  24081157.172 8 126547338.054 8      -707.555          51.000    24081157.242 8  96964838.163 8      -542.131          51.000
E19  26836271.367 5 141025607.804 5     -3012.301          34.000
E21                                                                  25345593.406 5 102056202.501 5     -1553.087          30.000
E31  26056308.898 6 136926846.960 6      2107.219          37.000    26056319.859 7 104917978.617 7      1614.610          44.000
> 2020 05 14 06 46 30.0000000  0 18        .000000000000
G12  21914964.000 8 115163932.454 8      2912.590          50.000    21914962.812 8  89738116.627 8      2269.551          49.000
G13  22650331.781 8 119028271.927 8     -3329.273          48.000    22650332.164 7  92749272.449 7     -2594.239          47.000
G15  21371197.367 8 112306397.928 8     -2466.762          50.000    21371198.641 8  87511476.483 8     -1922.152          50.000
G17  22485726.289 6 118163299.095 6      -795.863          36.000    22485726.242 6  92075237.873 6      -620.150          36.000
G19  21738637.617 6 114237298.874 6      1167.809          39.000    21738634.516 5  89016071.576 5       909.978          35.000
G24  20463872.188 5 107538393.096 5      1157.980          31.000    20463880.695 5  83796135.517 5       902.319          31.000
G28  24392019.531 5 128180880.438 5     -3120.633          32.000
R01  20308079.594 8 108558319.427 8     -2208.469          50.000    20308083.344 7  84434268.113 7     -1717.698          42.000
R10  21247278.711 5 113259998.366 5     -2582.918          34.000
R12  22395080.148 5 119630482.791 5      2824.371          35.000
R21  23284222.320 7 124598579.226 7      4034.691          43.000    23284223.008 5  96910006.613 5      3138.093          33.000
C19  24485396.547 6 127501866.457 6     -3058.180          41.000
C28  25753583.719 5 134105641.871 5     -1483.438          31.000
C30  24962384.742 7 129985709.331 7      3096.211          45.000
E01  23568260.617 8 123852027.199 8        78.828          51.000    23568262.047 8  94899675.865 8        60.359          51.000
E04  24085230.141 8 126568742.065 8      -716.078          51.000    24085230.312 8  96981238.625 8      -548.662          51.000
E19  26853475.422 6 141115967.521 6     -3011.762          36.000
E31  26044287.633 5 136863674.137 5      2107.543          35.000    26044298.383 7 104869573.545 7      1614.850          45.000
> 2020 05 14 06 47  0.0000000  0 16        .000000000000
G12  21898398.984 8 115076881.994 8      2891.055          50.000    21898397.086 8  89670285.137 8      2252.773          50.000
G13  22669391.992 6 119128441.196 6     -3348.508          41.000    22669393.656 6  92827326.384 6     -2609.227          40.000
G15  21385350.797 8 112380772.540 8     -2491.289          51.000    21385351.672 8  87569430.685 8     -1941.264          51.000
G17  22490355.680 5 118187622.514 5      -825.184          34.000    22490353.023 5  92094191.137 5      -642.997          35.000
G19  21732061.250 6 114202735.410 6      1136.598          39.000    21732057.477 6  88989138.981 6       885.661          36.000
R01  20320570.242 8 108625085.982 8     -2242.492          49.000    20320574.047 7  84486197.670 7     -1744.161          43.000
R12  22379258.797 5 119546002.664 5      2807.996          35.000    22379265.703 4  92980228.877 4      2184.000          29.000
R21  23261649.156 7 124477784.806 7      4018.441          44.000    23261650.305 6  96816055.448 6      3125.457          36.000
C19  24503064.062 7 127593854.937 7     -3074.168          42.000
C22  23764623.992 5 123748617.036 5      -835.512          31.000
C28  25762196.219 4 134150516.835 4     -1507.676          29.000
C30  24944589.469 7 129893038.570 7      3081.957          45.000
E01  23567863.258 8 123849939.549 8        60.621          51.000    23567864.914 8  94898076.243 8        46.432          51.000
E04  24089387.820 8 126590591.081 8      -740.410          51.000    24089388.000 8  96997980.077 8      -567.348          51.000
E19  26870712.227 6 141206546.740 6     -3026.617          37.000
E31  26032301.211 5 136800683.363 5      2092.266          35.000    26032311.219 7 104821307.962 7      1602.892          45.000
> 2020 05 14 06 47 30.0000000  0 16        .000000000000
G12  21881903.398 7 114990198.123 7      2886.723          47.000    21881901.727 7  89602739.268 7      2249.394          47.000
G13  22688506.133 5 119228907.780 5     -3350.203          33.000    22688511.164 5  92905612.134 5     -2610.542          33.000
G15  21399590.875 8 112455602.836 8     -2498.621          51.000    21399591.477 8  87627739.980 8     -1946.977          51.000
G17  22495094.969 5 118212529.296 5      -836.320          32.000    22495092.148 5  92113598.943 5      -651.681          33.000
G19  21725607.789 6 114168823.460 6      1122.898          37.000    21725606.203 5  88962714.151 5       874.989          34.000
R01  20333198.508 8 108692591.273 8     -2259.039          49.000    20333202.961 7  84538701.765 7     -1757.030          44.000
R21  23239113.664 7 124357194.277 7      4019.602          44.000    23239115.945 6  96722262.923 6      3126.360          39.000
C19  24520768.070 7 127686035.353 7     -3072.453          42.000
C22  23769463.742 5 123773813.001 5      -845.734          33.000
C28  25770900.391 4 134195839.802 4     -1515.559          29.000
C30  24926823.406 7 129800518.759 7      3084.828          46.000
E01  23567516.195 8 123848115.066 8        59.730          51.000    23567517.992 8  94896678.259 8        45.782          51.000
E04  24093630.602 8 126612887.704 8      -747.289          51.000    24093631.000 8  97015064.495 8      -572.655          51.000
E19  26887982.055 6 141297295.132 6     -3024.176          38.000
E21  25380410.719 5 133374963.222 5     -2033.805          35.000
E31  26020348.719 5 136737854.754 5      2094.004          32.000    26020359.930 7 104773184.181 7      1604.359          46.000
> 2020 05 14 06 48  0.0000000  0 16        .000000000000
G12  21865471.664 7 114903854.617 7      2873.961          43.000    21865471.086 7  89535458.549 7      2239.447          43.000
G13  22707674.867 7 119329642.237 7     -3361.047          42.000    22707679.695 6  92984106.505 6     -2619.001          41.000
G15  21413911.859 8 112530858.949 8     -2514.309          51.000    21413912.539 8  87686381.082 8     -1959.202          51.000
G19  21719273.555 5 114135536.962 5      1100.695          35.000    21719272.352 5  88936776.476 5       857.682          32.000
R01  20345959.047 8 108760803.701 8     -2284.137          48.000    20345964.000 7  84591755.850 7     -1776.551          44.000
R08  22540680.609 5 120704281.510 5     -4375.844          30.000
R10  21291151.469 5 113493799.221 5     -2604.066          30.000
R12  22347750.492 5 119377670.804 5      2800.902          30.000
R21  23216611.617 7 124236783.905 7      4011.973          45.000    23216615.320 6  96628610.486 6      3120.423          40.000
C19  24538502.281 7 127778377.400 7     -3078.988          42.000
C22  23774397.805 5 123799528.835 5      -862.895          30.000
C30  24909081.289 7 129708124.710 7      3079.035          46.000
E01  23567213.641 8 123846525.161 8        50.355          51.000    23567215.570 8  94895460.014 8        38.581          51.000
E04  24097953.156 8 126635603.639 8      -762.828          51.000    24097953.922 8  97032470.195 8      -584.571          51.000
E19  26905278.969 6 141388182.759 6     -3030.422          40.000    26905285.414 5 108336408.441 5     -2322.473          31.000
E31  26008426.508 6 136675206.398 6      2087.070          36.000    26008438.156 7 104725180.777 7      1599.184          44.000
> 2020 05 14 06 48 30.0000000  0 13        .000000000000
G12  21849093.156 7 114817784.389 7      2859.379          47.000    21849092.156 7  89468390.838 7      2228.091          47.000
G13  22726882.789 7 119430574.333 7     -3372.695          47.000    22726886.312 6  93062754.823 6     -2628.077          41.000
G15  21428300.375 8 112606470.447 8     -2531.293          51.000    21428301.125 8  87745299.114 8     -1972.436          51.000
G19  21713043.594 5 114102817.131 5      1076.195          32.000
R01  20358837.797 7 108829650.825 7     -2310.504          46.000    20358843.422 7  84645303.596 7     -1797.062          43.000
R08  22565213.414 5 120835648.297 5     -4386.730          32.000
R21  23194131.133 7 124116489.067 7      4002.777          45.000    23194136.508 6  96535047.891 6      3113.271          41.000
C19  24556253.375 6 127870811.259 6     -3087.555          40.000
C30  24891350.328 7 129615791.473 7      3071.738          46.000
E01  23566942.539 8 123845101.118 8        39.703          51.000    23566944.562 8  94894368.853 8        30.446          51.000
E04  24102342.680 8 126658670.484 8      -779.734          51.000    24102343.461 8  97050144.775 8      -597.477          51.000
E19  26922589.406 6 141479140.215 6     -3037.969          41.000    26922592.539 5 108406103.058 5     -2327.761          34.000
E31  25996522.336 6 136612646.999 6      2079.051          39.000    25996533.641 7 104677245.665 7      1592.817          44.000
> 2020 05 14 06 49  0.0000000  0 15        .000000000000
G12  21832773.414 8 114732021.097 8      2853.621          50.000    21832772.477 8  89401562.344 8      2223.601          50.000
G13  22746134.305 8 119531734.600 8     -3375.820          49.000    22746136.703 6  93141580.913 6     -2630.512          39.000
G15  21442762.461 8 112682467.785 8     -2539.648          51.000    21442762.859 8  87804517.823 8     -1978.947          51.000
G17  22509913.914 5 118290421.031 5      -890.770          34.000
G19  21706928.164 6 114070682.227 6      1061.148          37.000
G24  20431768.367 5 107369659.544 5      1099.027          32.000    20431773.250 5  83664672.568 5       856.388          32.000
R01  20371840.648 7 108899162.797 7     -2327.957          45.000    20371847.070 7  84699368.457 7     -1810.633          43.000
R21  23171679.258 7 123996347.263 7      4002.062          44.000    23171685.672 6  96441604.303 6      3112.715          41.000
C19  24574027.266 6 127963366.626 6     -3087.102          39.000
C22  23784515.219 4 123852212.641 4      -893.547          27.000
C30  24873637.297 7 129523553.828 7      3072.902          47.000
E01  23566709.203 8 123843874.863 8        37.629          51.000    23566711.164 8  94893429.243 8        28.883          51.000
E04  24106805.219 8 126682120.433 8      -788.035          51.000    24106805.586 8  97068112.906 8      -603.816          51.000
E19  26939918.750 6 141570198.148 6     -3036.902          41.000    26939920.492 5 108475874.678 5     -2326.798          35.000
E31  25984641.594 6 136550209.285 6      2079.066          37.000    25984651.500 6 104629403.806 6      1593.248          41.000
> 2020 05 14 06 49 30.0000000  0 15        .000000000000
G12  21816527.352 8 114646644.501 8      2841.211          50.000    21816526.438 8  89335035.147 8      2213.931          50.000
G13  22765443.391 7 119633199.525 7     -3385.316          47.000    22765444.234 6  93220644.395 6     -2637.915          37.000
G15  21457312.648 8 112758927.684 8     -2554.492          51.000    21457312.562 8  87864096.949 8     -1990.513          51.000
G19  21700941.484 5 114039220.155 5      1039.434          32.000    21700947.641 5  88861744.829 5       809.948          33.000
G24  20425538.180 5 107336918.395 5      1086.754          34.000    20425540.656 5  83639160.002 5       846.821          32.000
R01  20384982.789 7 108969416.232 7     -2352.367          46.000    20384989.383 7  84754009.971 7     -1829.622          42.000
R12  22300696.078 5 119126310.709 5      2782.895          30.000    22300691.039 4  92653781.800 4      2164.474          27.000
R21  23149271.570 7 123876443.212 7      3994.613          45.000    23149278.641 6  96348345.578 6      3106.921          41.000
C19  24591839.641 6 128056118.819 6     -3093.328          40.000
C22  23789725.711 5 123879289.315 5      -909.832          31.000
C30  24855957.914 8 129431492.032 8      3067.605          48.000
E01  23566528.344 8 123842924.230 8        28.973          51.000    23566530.336 8  94892700.832 8        22.161          51.000
E04  24111355.477 8 126706031.604 8      -802.863          51.000    24111355.539 8  97086434.453 8      -615.232          51.000
E19  26957281.508 6 141661433.695 6     -3042.406          41.000    26957282.680 5 108545782.376 5     -2330.901          35.000
E31  25972798.664 6 136487971.803 6      2072.832          37.000    25972806.609 6 104581715.417 6      1588.468          41.000
> 2020 05 14 06 50  0.0000000  0 17        .000000000000
G12  21800339.203 8 114561574.201 8      2831.305          49.000    21800338.578 8  89268746.593 8      2206.211          49.000
G13  22784793.727 8 119734884.926 8     -3392.297          48.000    22784793.273 6  93299879.713 6     -2643.351          37.000
G15  21471934.664 8 112835765.889 8     -2566.676          51.000    21471934.242 8  87923970.838 8     -2000.010          51.000
G17  22520307.977 6 118345040.661 6      -926.633          37.000    22520305.438 5  92216882.950 5      -722.052          35.000
G19  21695067.852 6 114008350.163 6      1019.754          40.000    21695082.383 4  88837721.426 4       794.613          26.000
R01  20398248.359 8 109040324.074 8     -2373.617          48.000    20398253.969 7  84809160.496 7     -1846.144          42.000
R10  21349935.742 5 113807201.865 5     -2620.332          31.000
R12  22285088.281 5 119042930.202 5      2778.418          33.000    22285079.992 4  92588907.427 4      2160.992          28.000
R21  23126893.727 7 123756697.573 7      3989.789          45.000    23126900.398 6  96255210.075 6      3103.169          40.000
C19  24609674.461 6 128148983.787 6     -3096.520          40.000
C22  23795019.961 5 123906892.919 5      -925.367          32.000
C27  23965211.008 6 124793145.077 6      1052.453          39.000
C30  24838296.703 7 129339527.056 7      3064.676          46.000
E01  23566384.062 8 123842166.294 8        22.922          51.000    23566386.141 8  94892120.064 8        17.549          51.000
E04  24115977.414 8 126730321.335 8      -815.164          51.000    24115977.820 8  97105046.029 8      -624.549          51.000
E19  26974661.836 6 141752762.588 6     -3044.973          41.000    26974661.172 5 108615761.569 5     -2333.325          33.000
E31  25960977.484 5 136425852.381 5      2069.207          34.000    25960984.508 6 104534117.457 6      1585.763          41.000
> 2020 05 14 06 50 30.0000000  0 15        .000000000000
G12  21784218.273 8 114476858.929 8      2817.348          48.000    21784217.250 8  89202734.683 8      2195.339          48.000
G13  22804194.766 8 119836836.312 8     -3403.188          49.000    22804194.000 6  93379322.251 6     -2651.837          39.000
G15  21486637.172 8 112913027.858 8     -2582.949          51.000    21486636.555 8  87984174.912 8     -2012.688          51.000
G19  21689315.055 5 113978119.660 5       997.023          32.000
R01  20411644.570 7 109111931.743 7     -2399.086          47.000    20411649.812 7  84864855.376 7     -1865.956          42.000
R11  19690605.977 5 105220627.475 5       469.555          31.000
R21  23104555.875 7 123637163.773 7      3980.426          46.000    23104561.453 6  96162239.411 6      3095.890          39.000
C19  24627539.430 6 128242006.562 6     -3103.910          41.000
C22  23800411.180 4 123934952.679 4      -944.406          29.000
C30  24820662.938 7 129247708.908 7      3057.703          45.000
E01  23566285.414 8 123841648.370 8        12.777          51.000    23566287.406 8  94891723.191 8         9.796          51.000
E04  24120680.383 8 126755037.145 8      -831.422          51.000    24120681.258 8  97123984.096 8      -637.072          51.000
E19  26992068.250 6 141844231.418 6     -3051.871          40.000    26992064.844 5 108685848.018 5     -2338.165          33.000
E21  25450409.062 6 133742760.301 6     -2052.406          36.000
E31  25949188.820 5 136363899.018 5      2061.371          35.000    25949194.414 7 104486646.643 7      1579.938          42.000
> 2020 05 14 06 51  0.0000000  0 15        .000000000000
G12  21768163.297 8 114392490.417 8      2807.586          50.000    21768161.492 8  89136993.040 8      2187.729          50.000
G13  22823644.531 8 119939042.199 8     -3409.973          51.000    22823643.992 6  93458963.124 6     -2657.122          41.000
G15  21501417.969 8 112990701.744 8     -2594.879          51.000    21501417.375 8  88044699.989 8     -2021.987          51.000
G19  21683682.453 6 113948524.078 6       977.191          37.000    21683683.867 5  88791060.996 5       761.448          34.000
R01  20425168.977 7 109184226.490 7     -2420.035          47.000    20425174.367 7  84921084.632 7     -1882.250          42.000
R12  22253966.289 5 118876673.822 5      2765.168          35.000    22253953.797 3  92459599.046 3      2150.686          23.000
R21  23082256.969 7 123517836.685 7      3975.199          46.000    23082260.797 6  96069429.500 6      3091.825          38.000
C19  24645432.391 7 128335175.041 7     -3106.934          42.000
C22  23805895.695 5 123963499.937 5      -958.383          32.000
C30  24803055.539 7 129156030.520 7      3054.578          44.000
E01  23566230.422 8 123841360.113 8         6.840          51.000    23566232.289 8  94891502.307 8         5.238          51.000
E04  24125462.516 8 126780168.939 8      -843.578          51.000    24125463.500 8  97143240.927 8      -646.405          51.000
E19  27009498.359 6 141935828.718 6     -3054.477          39.000    27009493.781 5 108756032.872 5     -2340.177          33.000
E21  25462134.578 6 133804360.425 6     -2053.945          37.000
E31  25937430.258 6 136302101.874 6      2058.164          40.000    25937435.492 7 104439295.626 7      1577.247          43.000
> 2020 05 14 06 51 30.0000000  0 15        .000000000000
G12  21752170.562 8 114308448.111 8      2795.652          51.000    21752168.727 8  89071505.552 8      2178.430          51.000
G13  22843138.375 8 120041478.932 8     -3418.680          51.000    22843137.656 7  93538783.901 7     -2663.909          42.000
G15  21516272.273 8 113068763.864 8     -2608.820          51.000    21516272.062 8  88105527.581 8     -2032.850          50.000
G19  21678167.055 6 113919541.705 6       955.246          37.000
R01  20438817.570 8 109257182.879 8     -2443.094          48.000    20438822.266 6  84977828.446 6     -1900.184          41.000
R11  19685447.789 5 105193069.487 5       448.133          32.000
R21  23059993.391 7 123398698.937 7      3967.777          47.000    23059996.484 6  95976766.828 6      3086.049          39.000
C19  24663348.211 7 128428465.486 7     -3111.703          42.000
C22  23811466.633 4 123992554.554 4      -974.891          28.000
C30  24785471.828 7 129064473.040 7      3049.520          45.000
E01  23566215.008 8 123841279.376 8        -1.066          51.000    23566216.766 8  94891440.436 8         -.790          51.000
E04  24130319.609 8 126805694.771 8      -857.766          51.000    24130320.656 8  97162799.681 8      -657.210          51.000
E19  27026948.180 6 142027531.404 6     -3058.723          38.000    27026943.250 5 108826298.507 5     -2343.640          33.000
E21  25473871.750 6 133866025.105 6     -2056.938          36.000
E31  25925697.617 6 136240439.613 6      2052.891          41.000    25925701.844 7 104392047.918 7      1572.934          43.000
> 2020 05 14 06 52  0.0000000  0 14        .000000000000
G12  21736247.945 8 114224773.592 8      2783.984          51.000    21736246.906 8  89006304.628 8      2169.338          51.000
G13  22862682.773 8 120144185.000 8     -3426.930          50.000    22862682.328 7  93618814.553 7     -2670.338          44.000
G15  21531207.812 8 113147252.538 8     -2622.402          51.000    21531208.008 8  88166687.552 8     -2043.433          51.000
G17  22542344.242 5 118460822.751 5     -1000.477          33.000
G19  21672776.828 6 113891214.021 6       934.293          40.000    21672775.258 5  88746391.612 5       728.014          31.000
R01  20452596.352 7 109330838.474 7     -2465.781          47.000    20452600.273 6  85035116.037 6     -1917.833          39.000
R21  23037774.062 8 123279796.177 8      3960.516          49.000    23037776.430 6  95884286.907 6      3080.401          41.000
C19  24681293.938 7 128521915.295 7     -3116.691          42.000
C30  24767920.055 7 128973078.870 7      3044.754          46.000
E01  23566246.758 8 123841445.772 8        -8.727          51.000    23566248.422 8  94891567.936 8        -6.737          51.000
E04  24135259.586 8 126831654.494 8      -871.574          51.000    24135260.695 8  97182690.888 8      -667.871          51.000
E19  27044425.172 6 142119378.080 6     -3063.223          36.000    27044420.109 5 108896674.435 5     -2346.812          33.000
E21  25485626.750 5 133927794.044 5     -2059.852          35.000
E31  25913998.000 7 136178952.524 7      2047.586          42.000    25914001.492 7 104344934.438 7      1569.028          44.000
> 2020 05 14 06 52 30.0000000  0 16        .000000000000
G12  21720387.578 8 114141426.205 8      2772.941          51.000    21720386.930 8  88941358.632 8      2160.734          51.000
G13  22882269.469 8 120247116.252 8     -3434.609          49.000    22882269.930 7  93699020.690 7     -2676.319          44.000
G15  21546216.438 8 113226123.561 8     -2635.207          51.000    21546216.844 8  88228145.490 8     -2053.405          51.000
G19  21667503.680 6 113863500.208 6       914.000          38.000    21667501.258 6  88724796.450 6       712.211          37.000
G24  20389482.422 6 107147457.323 6      1019.301          36.000    20389481.594 5  83491499.754 5       794.263          35.000
R01  20466496.633 7 109405147.019 7     -2487.555          46.000    20466500.469 6  85092911.526 6     -1934.765          38.000
R11  19680551.445 5 105166882.461 5       424.512          32.000    19680554.578 4  81796483.371 4       330.179          28.000
R21  23015591.828 8 123161090.265 8      3953.742          49.000    23015593.664 7  95791960.109 7      3075.133          42.000
C19  24699261.273 6 128615480.334 6     -3120.656          41.000
C22  23822880.242 6 124051970.939 6     -1006.625          37.000
C30  24750392.375 7 128881808.944 7      3040.477          47.000
E01  23566317.562 8 123841816.696 8       -15.578          51.000    23566319.000 8  94891852.140 8       -11.948          51.000
E04  24140274.352 8 126858005.690 8      -884.629          51.000    24140274.898 8  97202882.047 8      -677.853          51.000
E19  27061921.305 5 142211356.337 5     -3066.531          35.000    27061916.164 5 108967127.407 5     -2349.488          32.000
E21                                                                  25497390.812 5 102667432.075 5     -1579.998          35.000
E31  25902322.781 6 136117598.641 6      2043.258          39.000    25902325.867 7 104297923.031 7      1565.449          43.000
> 2020 05 14 06 53  0.0000000  0 17        .000000000000
G12  21704592.266 8 114058420.987 8      2760.598          50.000    21704591.438 8  88876679.260 8      2151.115          50.000
G13  22901901.125 7 120350284.743 7     -3443.551          47.000    22901902.531 7  93779411.720 7     -2683.286          43.000
G15  21561300.336 8 113305389.010 8     -2649.250          51.000    21561300.625 8  88289910.761 8     -2064.351          51.000
G19  21662350.500 5 113836415.420 5       891.867          32.000    21662347.062 4  88703691.447 4       694.961          29.000
G24  20383696.883 5 107117061.475 5      1007.129          34.000    20383698.609 5  83467814.645 5       784.773          35.000
R01  20480521.234 7 109480119.909 7     -2510.750          47.000    20480526.094 6  85151223.779 6     -1952.806          39.000
R10  21438982.258 5 114281822.968 5     -2651.480          30.000
R11  19678203.367 4 105154350.788 4       413.250          27.000    19678209.969 4  81786710.801 4       321.417          29.000
R21  22993449.539 8 123042600.049 8      3945.434          49.000    22993451.648 7  95699801.105 7      3068.674          43.000
C19  24717252.773 7 128709172.082 7     -3125.668          42.000
C22  23828731.992 5 124082421.296 5     -1023.289          35.000
C30  24732892.008 8 128790679.733 8      3034.691          48.000
E01  23566429.719 8 123842405.560 8       -23.824          51.000    23566430.852 8  94892303.336 8       -18.189          51.000
E04  24145366.281 8 126884761.983 8      -899.191          51.000    24145365.703 8  97223383.594 8      -688.907          51.000
E19  27079439.312 5 142303416.224 5     -3070.809          35.000    27079433.719 5 109037666.764 5     -2353.439          34.000
E21                                                                  25509171.164 5 102714865.698 5     -1582.386          34.000
E31  25890674.805 6 136056392.067 6      2037.406          38.000    25890677.859 7 104251024.499 7      1561.070          42.000
> 2020 05 14 06 53 30.0000000  0 15        .000000000000
G12  21688864.711 8 113975773.110 8      2748.555          50.000    21688863.688 8  88812278.318 8      2141.728          50.000
G13  22921580.281 8 120453701.960 8     -3451.758          48.000    22921582.266 7  93859996.510 7     -2689.684          43.000
G15  21576461.438 8 113385059.979 8     -2662.809          51.000    21576461.367 8  88351992.022 8     -2074.919          51.000
G25  24317728.961 6 127790521.698 6      3549.664          37.000
R01  20494672.680 8 109555767.411 8     -2533.047          49.000    20494678.641 6  85210060.733 6     -1970.145          40.000
R08  22812406.812 5 122159342.488 5     -4441.656          30.000    22812418.820 4  95012916.120 4     -3454.625          28.000
R21  22971350.453 8 122924344.388 8      3937.500          48.000    22971353.328 7  95607824.492 7      3062.503          44.000
C19  24735270.969 6 128803001.558 6     -3130.566          40.000
C22  23834675.195 5 124113357.711 5     -1039.535          33.000
C30  24715422.148 8 128699707.209 8      3029.301          48.000
E01  23566585.797 8 123843225.343 8       -31.500          51.000    23566586.617 8  94892931.481 8       -24.100          51.000
E04  24150537.867 8 126911936.485 8      -913.141          51.000    24150536.383 8  97244205.607 8      -699.652          51.000
E19  27096981.141 5 142395600.983 5     -3075.215          34.000    27096976.273 5 109108301.768 5     -2356.256          35.000
E21  25520960.109 5 134113549.984 5     -2068.109          34.000    25520966.172 4 102762354.466 4     -1584.530          29.000
E31  25879057.586 6 135995346.468 6      2031.758          39.000    25879059.891 6 104204249.319 6      1556.751          40.000
> 2020 05 14 06 54  0.0000000  0 16        .000000000000
G12  21673189.914 8 113893402.433 8      2742.770          49.000    21673189.039 8  88748093.371 8      2137.223          49.000
G13  22941291.594 7 120557284.603 7     -3453.613          46.000    22941293.422 7  93940710.224 7     -2691.127          44.000
G15  21591683.812 8 113465053.248 8     -2670.117          51.000    21591683.438 8  88414324.419 8     -2080.611          51.000
G24  20372314.258 6 107057244.496 6       990.316          36.000    20372319.375 6  83421237.903 6       771.672          36.000
G25  24297462.461 6 127684017.286 6      3550.504          39.000    24297450.406 5  99494052.798 5      2766.626          33.000
R01  20508934.625 8 109632003.419 8     -2549.270          50.000    20508941.070 6  85269355.374 6     -1982.765          40.000
R08  22837282.430 5 122292565.344 5     -4440.387          30.000
R21  22949280.336 8 122806244.998 8      3935.770          48.000    22949284.039 7  95515969.435 7      3061.154          44.000
C19  24753299.953 6 128896885.766 6     -3128.645          39.000
C22  23840696.062 5 124144698.258 5     -1049.531          35.000
C30  24697967.297 7 128608813.434 7      3030.191          46.000
E01  23566770.320 8 123844194.255 8       -33.117          51.000    23566770.930 8  94893673.893 8       -25.387          51.000
E04  24155773.359 8 126939447.535 8      -920.945          51.000    24155771.672 8  97265285.504 8      -705.719          51.000
E19  27114530.914 5 142487821.636 5     -3073.316          32.000    27114527.773 6 109178968.866 6     -2354.726          36.000
E21  25532759.109 5 134175548.172 5     -2065.562          34.000
E31  25867456.188 6 135934380.649 6      2032.586          38.000    25867457.320 6 104157535.293 6      1557.158          39.000
> 2020 05 14 06 54 30.0000000  0 17        .000000000000
G12  21657591.469 8 113811432.283 8      2724.758          50.000    21657590.828 8  88684220.533 8      2123.188          50.000
G13  22961056.969 7 120661152.794 7     -3467.863          44.000    22961058.672 6  94021646.418 6     -2702.231          41.000
G15  21606990.180 8 113545488.707 8     -2689.461          51.000    21606989.484 8  88477001.362 8     -2095.687          51.000
G19  21647601.047 6 113758906.089 6       827.262          37.000
G25  24277231.516 6 127577706.432 6      3539.504          41.000    24277223.000 5  99411213.222 5      2758.055          34.000
R01  20523329.062 8 109708948.585 8     -2577.523          49.000    20523334.844 6  85329201.555 6     -2004.743          39.000
R08  22862197.562 4 122425989.926 4     -4451.055          27.000
R10  21483857.852 5 114520989.219 5     -2666.293          33.000
R12  22146141.133 5 118300699.569 5      2719.906          30.000
R21  22927263.727 8 122688430.881 8      3921.461          48.000    22927267.727 7  95424336.257 7      3050.025          43.000
C19  24771362.656 5 128990943.212 5     -3138.852          34.000
C30  24680551.266 7 128518121.791 7      3018.699          46.000
E01  23567006.094 8 123845433.553 8       -46.684          51.000    23567006.852 8  94894623.489 8       -35.774          51.000
E04  24161095.727 8 126967416.588 8      -940.777          51.000    24161094.750 8  97286716.330 8      -720.843          51.000
E19  27132114.117 5 142580218.610 5     -3082.633          31.000    27132110.195 6 109249760.431 6     -2362.535          38.000
E21  25544583.367 5 134237673.032 5     -2073.633          34.000
E31  25855893.805 6 135873616.648 6      2021.098          38.000    25855892.852 6 104110975.795 6      1548.663          38.000
> 2020 05 14 06 55  0.0000000  0 18        .000000000000
G12  21642068.047 8 113729856.245 8      2712.578          50.000    21642067.156 8  88620654.814 8      2113.697          50.000
G13  22980874.336 7 120765296.966 7     -3476.215          43.000    22980876.242 6  94102797.726 6     -2708.739          39.000
G15  21622378.656 8 113626356.639 8     -2702.859          49.000    21622377.578 8  88540015.271 8     -2106.127          49.000
G17  22578469.242 5 118650642.217 5     -1109.332          34.000    22578436.398 5  92455011.603 5      -864.424          33.000
G19  21642938.266 6 113734399.062 6       804.973          36.000    21642925.336 4  88624150.097 4       627.251          29.000
G24  20361205.188 5 106998856.362 5       960.082          31.000    20361209.531 5  83375741.151 5       748.110          30.000
G25  24257035.695 6 127471582.600 6      3534.090          40.000    24257030.125 5  99328519.358 5      2753.836          32.000
R01  20537853.531 8 109786591.969 8     -2599.816          48.000    20537858.664 6  85389590.777 6     -2022.079          39.000
R11  19669442.008 5 105107557.626 5       365.277          34.000    19669436.570 4  81750279.066 4       284.092          26.000
R12  22130874.172 5 118219144.915 5      2713.152          31.000    22130872.422 4  91948225.947 4      2110.236          28.000
R21  22905300.039 8 122570899.048 8      3912.852          48.000    22905303.570 6  95332922.660 6      3043.329          41.000
C19  24789457.680 5 129085163.978 5     -3143.375          31.000
C22  23853021.875 4 124208979.624 4     -1088.383          29.000
C30  24663173.172 7 128427627.435 7      3013.098          46.000
E01  23567291.641 8 123846935.208 8       -54.512          51.000    23567292.578 8  94895774.111 8       -41.799          51.000
E04  24166503.781 8 126995835.753 8      -954.914          51.000    24166503.828 8  97308492.036 8      -731.654          51.000
E19                                                                  27149722.195 6 109320669.412 6     -2365.501          39.000
E31  25844368.258 6 135813046.932 6      2015.516          36.000    25844367.078 6 104064565.295 6      1544.356          38.000
> 2020 05 14 06 55 30.0000000  0 16        .000000000000
G12  21626630.008 8 113648728.877 8      2703.230          51.000    21626628.383 8  88557438.714 8      2106.413          51.000
G13  23000753.992 7 120869768.567 7     -3481.395          44.000    23000756.164 6  94184204.112 6     -2712.778          40.000
G15  21637859.258 8 113707708.619 8     -2713.312          50.000    21637857.852 8  88603406.360 8     -2114.269          50.000
G19  21638414.188 6 113710628.304 6       786.723          41.000    21638410.594 4  88605667.538 4       613.034          29.000
G24  20355774.094 4 106970313.791 4       950.938          29.000    20355795.766 4  83353506.117 4       740.978          27.000
G25  24236870.211 6 127365646.658 6      3531.797          40.000    24236883.688 6  99245933.954 6      2752.050          38.000
R01  20552518.320 8 109864984.342 8     -2618.957          49.000    20552522.695 6  85450562.598 6     -2036.967          39.000
R21  22883399.867 7 122453708.730 7      3907.059          47.000    22883402.609 6  95241774.692 6      3038.826          39.000
C19  24807594.023 5 129179598.686 5     -3144.957          32.000
C22  23859344.281 5 124241926.138 5     -1101.035          33.000
C28  25921330.703 5 134979170.480 5     -1744.082          30.000
C30  24645843.945 7 128337386.065 7      3010.141          47.000
E01  23567637.438 8 123848752.247 8       -59.344          51.000    23567638.219 8  94897166.360 8       -45.396          51.000
E04  24172007.797 8 127024758.152 8      -965.977          51.000    24172008.805 8  97330653.335 8      -740.131          51.000
E19                                                                  27167373.375 6 109391735.837 6     -2366.519          40.000
E31  25832890.945 5 135752756.280 5      2012.367          30.000    25832889.008 6 104018344.848 6      1542.548          38.000
> 2020 05 14 06 56  0.0000000  0 18        .000000000000
G12  21611230.938 8 113567805.934 8      2690.469          51.000    21611228.367 8  88494381.888 8      2096.469          51.000
G13  23020649.250 7 120974319.910 7     -3489.887          45.000    23020651.719 7  94265672.619 7     -2719.395          42.000
G15  21653384.945 8 113789296.513 8     -2727.066          51.000    21653383.539 8  88666981.309 8     -2124.987          51.000
G17  22591340.797 6 118718291.086 6     -1143.480          37.000    22591329.773 5  92507742.445 5      -891.021          35.000
G19  21633983.617 6 113687348.984 6       764.133          39.000    21633984.359 6  88587527.816 6       595.428          36.000
G24  20350377.992 5 106941958.194 5       937.762          30.000    20350401.234 5  83331485.502 5       730.702          30.000
G25  24216721.469 6 127259762.158 6      3525.742          38.000    24216737.406 5  99163426.541 5      2747.335          31.000
R01  20567276.141 8 109943872.566 8     -2641.484          48.000    20567280.234 6  85511920.090 6     -2054.488          39.000
R10  21528960.539 5 114761468.157 5     -2678.371          35.000
R21  22861517.773 7 122336614.475 7      3897.918          47.000    22861520.164 6  95150701.450 6      3031.717          40.000
C19  24825723.797 5 129274001.393 5     -3150.062          33.000
C22  23865731.477 6 124275194.883 6     -1117.961          36.000
C28  25931418.086 5 135031697.328 5     -1758.488          31.000
C30  24628517.461 8 128247156.585 8      3003.754          48.000
E01  23567996.203 8 123850638.235 8       -67.648          51.000    23567997.141 8  94898611.454 8       -51.772          51.000
E04  24177560.625 8 127053937.514 8      -980.539          51.000    24177562.289 8  97353011.522 8      -751.316          51.000
E19                                                                  27185016.109 6 109462769.872 6     -2370.021          41.000
E31                                                                  25821411.625 6 103972126.178 6      1537.714          36.000
> 2020 05 14 06 56 30.0000000  0 18        .000000000000
G12  21595903.508 8 113487259.647 8      2677.141          50.000    21595900.672 8  88431618.569 8      2086.084          50.000
G13  23040592.492 7 121079120.230 7     -3499.078          45.000    23040594.852 7  94347335.156 7     -2726.554          43.000
G15  21668987.805 8 113871289.323 8     -2741.273          51.000    21668986.297 8  88730871.808 8     -2136.054          51.000
G19  21629679.875 5 113664733.393 5       741.316          34.000
G24  20345052.930 4 106913973.711 4       925.082          29.000    20345055.086 4  83309570.160 4       720.849          28.000
G25  24196604.445 6 127154047.603 6      3519.344          36.000    24196622.273 5  99081051.569 5      2742.346          32.000
R01  20582158.219 8 110023426.941 8     -2664.285          48.000    20582162.828 6  85573795.688 6     -2072.222          40.000
R11  19663571.867 5 105076081.530 5       330.688          33.000    19663574.891 4  81725900.268 4       257.192          24.000
R12  22085306.344 5 117975704.380 5      2693.637          33.000
R21  22839686.984 7 122219795.146 7      3887.840          46.000    22839690.148 6  95059842.027 6      3023.875          40.000
C19  24843878.336 5 129368539.161 5     -3154.828          35.000
C22  23872213.562 5 124308954.066 5     -1134.879          35.000
C28  25941589.562 4 135084661.915 4     -1773.891          29.000
C30  24611226.102 8 128157111.128 8      2997.152          48.000
E01  23568400.398 8 123852763.707 8       -76.203          51.000    23568401.820 8  94900240.076 8       -58.416          51.000
E04  24183194.484 8 127083544.461 8      -995.375          51.000    24183196.828 8  97375697.345 8      -762.693          51.000
E19                                                                  27202682.102 6 109533901.455 6     -2373.649          41.000
E31                                                                  25809965.812 5 103926040.425 5      1532.875          34.000
> 2020 05 14 06 57  0.0000000  0 15        .000000000000
G12  21580654.312 8 113407125.460 8      2664.504          48.000    21580651.977 8  88369176.370 8      2076.237          48.000
G13  23060589.375 7 121184201.379 7     -3507.047          46.000    23060591.461 7  94429216.569 7     -2732.764          45.000
G15  21684673.805 8 113953719.099 8     -2754.680          51.000    21684672.047 8  88795102.802 8     -2146.504          51.000
G25  24176524.500 4 127048538.799 4      3513.906          29.000    24176546.688 4  98998836.825 4      2738.103          25.000
R01  20597170.844 7 110103678.928 7     -2686.332          47.000    20597176.125 7  85636213.892 7     -2089.369          42.000
R11  19661748.625 5 105066342.838 5       318.883          35.000
R12  22070185.352 5 117894918.855 5      2686.832          31.000
R21  22817914.906 7 122103290.446 7      3878.465          45.000    22817919.023 6  94969227.280 6      3016.584          41.000
C19  24862065.039 6 129463243.706 6     -3159.406          36.000
C22  23878798.164 5 124343236.551 5     -1150.922          35.000
C30  24593976.719 8 128067286.447 8      2990.668          49.000
E01  23568856.969 8 123855162.510 8       -84.180          51.000    23568858.344 8  94902078.116 8       -64.561          51.000
E04  24188915.883 8 127113612.861 8     -1009.629          51.000    24188918.922 8  97398736.760 8      -773.603          51.000
E19                                                                  27220378.102 6 109605155.887 6     -2376.848          40.000
E31  25798577.742 5 135572450.855 5      1994.730          32.000    25798557.562 5 103880101.092 5      1528.714          32.000
> 2020 05 14 06 57 30.0000000  0 17        .000000000000
G12  21565460.367 7 113327281.667 7      2657.004          47.000    21565459.227 8  88306960.445 8      2070.393          48.000
G13  23080616.023 7 121289438.820 7     -3510.117          47.000    23080617.773 7  94511219.719 7     -2735.159          46.000
G15  21700419.297 8 114036460.841 8     -2762.789          51.000    21700417.266 8  88859576.865 8     -2152.823          51.000
G24  20334612.281 5 106859105.870 5       905.254          32.000    20334614.875 5  83266845.892 5       705.390          33.000
G25  24156460.961 5 126943063.068 5      3512.902          34.000    24156486.484 5  98916765.580 5      2737.330          33.000
R01  20612290.203 8 110184499.750 8     -2703.105          48.000    20612295.727 7  85699074.484 7     -2102.415          42.000
R11  19659978.258 4 105056880.239 4       311.191          29.000    19659980.328 4  81710980.958 4       242.038          25.000
R12  22055098.883 5 117814311.018 5      2684.863          34.000
R21  22796179.414 7 121986979.771 7      3874.219          44.000    22796183.797 6  94878763.436 6      3013.281          40.000
C19  24880259.156 6 129557990.657 6     -3158.918          36.000
C22  23885460.195 5 124377919.141 5     -1162.652          32.000
C30  24576746.383 8 127977563.100 8      2989.363          49.000
E01  23569342.086 8 123857710.971 8       -87.094          51.000    23569343.133 8  94904030.810 8       -66.743          51.000
E04  24194701.492 8 127144019.137 8     -1018.836          51.000    24194705.055 8  97422035.062 8      -780.658          51.000
E19                                                                  27238080.508 6 109676437.470 6     -2376.285          40.000
E21  25615832.492 5 134612144.365 5     -2085.578          33.000
E31  25787173.062 6 135512506.737 6      1993.824          38.000    25787165.805 5 103834239.790 5      1528.211          33.000
> 2020 05 14 06 58  0.0000000  0 19        .000000000000
G12  21550330.633 8 113247773.987 8      2641.371          50.000    21550330.758 8  88245006.400 8      2058.211          49.000
G13  23100680.555 8 121394875.123 8     -3521.102          49.000    23100681.859 7  94593377.817 7     -2743.716          44.000
G15  21716232.359 8 114119557.036 8     -2779.082          51.000    21716230.109 8  88924327.119 8     -2165.522          51.000
G19  21617508.852 5 113600770.733 5       677.188          34.000
G24  20329482.141 6 106832139.045 6       889.793          39.000    20329485.320 6  83245832.730 6       693.345          37.000
G25  24136423.672 6 126837768.087 6      3504.277          41.000    24136451.906 5  98834717.577 5      2730.606          34.000
R01  20627524.039 7 110265931.391 7     -2727.863          47.000    20627529.414 7  85762410.165 7     -2121.674          42.000
R08  23037387.250 4 123364081.066 4     -4482.523          28.000
R11  19658260.164 4 105047781.346 4       298.301          29.000
R12  22040045.297 4 117733869.902 4      2675.480          28.000    22040045.352 4  91570861.798 4      2080.929          26.000
R21  22774490.016 7 121870913.425 7      3861.395          46.000    22774493.852 6  94788489.638 6      3003.307          40.000
C19  24898469.828 6 129652821.844 6     -3165.781          36.000
C22  23892207.375 5 124413044.765 5     -1181.566          34.000
C30  24559543.820 8 127887987.897 8      2980.035          48.000
E01  23569863.758 8 123860453.137 8       -97.965          51.000    23569864.969 8  94906131.946 8       -75.109          51.000
E04  24200559.977 8 127174807.459 8     -1036.027          51.000    24200563.672 8  97445626.096 8      -793.821          51.000
E19                                                                  27255797.625 6 109747779.331 6     -2381.682          38.000
E21  25627748.031 6 134674763.540 6     -2091.645          36.000
E31  25775810.453 6 135452783.454 6      1985.082          38.000    25775802.633 5 103788477.873 5      1521.252          33.000
> 2020 05 14 06 58 30.0000000  0 19        .000000000000
G12  21535282.141 8 113168692.405 8      2632.930          51.000    21535282.906 8  88183384.379 8      2051.634          51.000
G13  23120799.195 8 121500597.212 8     -3524.762          48.000    23120800.172 7  94675758.608 7     -2746.571          45.000
G15  21732129.250 8 114203094.249 8     -2787.934          51.000    21732126.945 8  88989421.013 8     -2172.416          51.000
G17  22625204.164 5 118896235.091 5     -1229.633          34.000
G19  21613700.383 6 113580768.092 6       658.465          39.000
G24  20324431.219 6 106805590.473 6       882.059          39.000    20324432.953 6  83225145.466 6       687.315          38.000
G25  24116428.688 7 126732693.334 7      3502.852          44.000    24116460.039 5  98752841.152 5      2729.498          34.000
R01  20642887.891 7 110348060.586 7     -2745.277          47.000    20642893.516 7  85826288.397 7     -2135.216          43.000
R10  21604659.164 5 115164851.239 5     -2698.316          34.000
R11  19656630.734 5 105039041.461 5       288.055          33.000    19656632.258 4  81697062.686 4       224.030          28.000
R12  22025029.125 5 117653712.722 5      2672.973          30.000    22025029.023 4  91508456.883 4      2078.979          25.000
R21  22752864.297 7 121755186.619 7      3855.891          46.000    22752867.539 6  94698479.929 6      2999.029          41.000
C19  24916713.836 6 129747822.980 6     -3165.445          36.000
C22  23899058.016 5 124448700.132 5     -1193.746          35.000
C30  24542387.031 8 127798651.569 8      2977.840          49.000
E01  23570439.219 8 123863477.423 8      -101.598          51.000    23570440.812 8  94908449.254 8       -77.889          51.000
E04  24206508.312 8 127206066.270 8     -1045.852          51.000    24206511.836 8  97469577.625 8      -801.400          51.000
E19                                                                  27273545.672 6 109819248.251 6     -2381.374          37.000
E31  25764488.984 5 135393278.845 5      1984.316          35.000    25764481.484 5 103742883.460 5      1520.235          35.000
> 2020 05 14 06 59  0.0000000  0 18        .000000000000
G12  21520287.453 8 113089893.374 8      2618.898          51.000    21520287.859 8  88121982.528 8      2040.700          51.000
G13  23140943.867 8 121606457.746 8     -3533.973          48.000    23140944.898 7  94758247.296 7     -2753.745          45.000
G15  21748081.805 8 114286925.207 8     -2802.223          51.000    21748079.555 8  89054743.796 8     -2183.550          51.000
G19  21610001.953 6 113561335.053 6       634.852          40.000
G24  20319431.562 6 106779314.903 6       868.137          38.000    20319431.055 6  83204670.964 6       676.473          36.000
G25  24096448.469 7 126627695.244 7      3495.805          44.000    24096481.383 5  98671024.409 5      2724.001          32.000
R01  20658354.289 8 110430736.282 8     -2767.996          48.000    20658359.586 7  85890591.702 7     -2152.889          43.000
R10  21619855.289 5 115245861.670 5     -2704.621          34.000
R11  19655055.500 5 105030574.658 5       275.320          32.000    19655051.391 5  81690477.304 5       214.132          30.000
R12  22010038.820 4 117573680.732 4      2664.445          29.000
R21  22731274.727 7 121639656.656 7      3844.688          46.000    22731278.461 6  94608623.331 6      2990.312          41.000
C19  24934963.328 6 129842848.077 6     -3171.434          36.000
C30  24525249.234 8 127709413.050 8      2969.918          49.000
E01  23571040.938 8 123866638.276 8      -110.645          51.000    23571042.570 8  94910871.196 8       -84.750          51.000
E04  24212518.727 8 127237650.018 8     -1061.176          51.000    24212522.055 8  97493778.130 8      -813.097          51.000
E19                                                                  27291296.680 5 109890732.143 5     -2385.112          34.000
E21  25651635.977 5 134800247.285 5     -2094.527          34.000
E31  25753179.242 5 135333870.010 5      1976.809          31.000    25753175.656 5 103697345.604 5      1514.736          35.000
> 2020 05 14 06 59 30.0000000  0 17        .000000000000
G12  21505373.742 8 113011520.542 8      2606.629          51.000    21505372.828 8  88060912.791 8      2031.139          51.000
G13  23161141.125 7 121712597.010 7     -3541.262          47.000    23161142.820 7  94840953.176 7     -2759.425          44.000
G15  21764116.930 8 114371190.376 8     -2814.684          51.000    21764114.914 8  89120404.910 8     -2193.263          51.000
G19  21606439.445 6 113542614.228 6       613.398          38.000    21606435.469 5  88474745.163 5       477.970          33.000
G24  20314510.664 6 106753456.467 6       856.023          36.000    20314508.203 6  83184521.572 6       667.037          36.000
G25  24076510.242 7 126522917.378 7      3490.254          43.000    24076544.617 5  98589379.286 5      2719.675          31.000
R01  20673949.328 7 110514099.758 7     -2788.867          46.000    20673954.492 7  85955429.913 7     -2169.122          42.000
R11  19653535.859 5 105022562.940 5       263.211          35.000    19653540.500 4  81684216.913 4       204.729          28.000
R21  22709749.969 7 121524473.125 7      3834.832          47.000    22709753.969 6  94519036.136 6      2982.647          41.000
C19  24953245.023 6 129938035.570 6     -3174.371          36.000
C22  23913003.461 5 124521291.323 5     -1226.281          31.000
C30  24508157.750 8 127620415.827 8      2963.820          48.000
E01  23571695.453 8 123870077.378 8      -117.898          51.000    23571696.914 8  94913506.341 8       -90.359          51.000
E04  24218617.984 8 127269700.398 8     -1074.742          51.000    24218621.195 8  97518336.195 8      -823.513          51.000
E19                                                                  27309077.680 5 109962340.511 5     -2387.617          31.000
E21  25663600.141 6 134863129.834 6     -2097.062          36.000
E31  25741907.516 5 135274635.273 5      1971.496          33.000    25741909.070 5 103651973.331 5      1510.525          34.000
