     3.02           OBSERVATION DATA    M (MIXED)           RINEX VERSION / TYPE
SAVERINEX           SC600               20200507 005932 LCL PGM / RUN BY / DATE
       G = GPS       R = GLONASS       C = COMPASS          COMMENT
       S = SBAS      J = QZSS          E = GALILEO          COMMENT
BEAN                                                        MARKER NAME
1                                                           MARKER NUMBER
GEODETIC                                                    MARKER TYPE
Unige DICCA         GTER                                    OBSERVER / AGENCY
SC60291900056       SC600               2.12(191226)        REC # / TYPE / VERS
                    HEMA45          NONE                    ANT # / TYPE
  4509407.8091   693652.4678  4442337.6214                  APPROX POSITION XYZ
        0.0000        0.0000        0.0000                  ANTENNA: DELTA H/E/N
G    8 C1C L1C D1C S1C C2Y L2Y D2Y S2Y                      SYS / # / OBS TYPES
R    8 C1C L1C D1C S1C C2P L2P D2P S2P                      SYS / # / OBS TYPES
C    8 C1I L1I D1I S1I C7I L7I D7I S7I                      SYS / # / OBS TYPES
E    8 C1C L1C D1C S1C C7Q L7Q D7Q S7Q                      SYS / # / OBS TYPES
DBHZ                                                        COMMENT
     30.000                                                 INTERVAL
  2020    05    06    22    00    0.0000000     GPS         TIME OF FIRST OBS
  2020    05    06    22    59   30.0000000     GPS         TIME OF LAST OBS
     0                                                      RCV CLOCK OFFS APPL
G L1C  0.00000                                              SYS / PHASE SHIFT
G L2Y  0.00000                                              SYS / PHASE SHIFT
R L1C  0.00000                                              SYS / PHASE SHIFT
R L2P  0.25000                                              SYS / PHASE SHIFT
C L1I  0.00000                                              SYS / PHASE SHIFT
C L7I  0.00000                                              SYS / PHASE SHIFT
E L1C  0.50000                                              SYS / PHASE SHIFT
E L7Q -0.25000                                              SYS / PHASE SHIFT
 15 R03  5 R04  6 R05  1 R06 -4 R07  5 R10 -5 R13 -2 R14 -7 GLONASS SLOT / FRQ #
    R15  0 R16 -1 R17  4 R18 -3 R19  3 R20  2 R21  4        GLONASS SLOT / FRQ #
 C1C   71.950 C2C   71.950 C2P   71.950                     GLONASS COD/PHS/BIS
    18                                                      LEAP SECONDS
*** Above antenna height is from mark to ANTENNA BOTTOM.    COMMENT
    17     4        0.0000        ANT MEASURE TYPE/HEIGT    COMMENT
    0.0000    0.0000    0.0458    0.0405    0.0000          COMMENT
                    BASE STATION                            COMMENT
                                                            END OF HEADER
> 2020 05 06 22 00  0.0000000  0 17        .000000000000
G01  21948517.961 8 115340226.388 8     -2769.082          48.000    21948518.016 8  89875506.164 8     -2157.726          48.000
G03  20479524.305 8 107620637.506 8      -780.480          51.000    20479525.805 8  83860257.952 8      -608.167          51.000
G04  20723799.211 7 108904367.540 7      1678.137          46.000    20723801.328 7  84860549.974 7      1307.639          46.000
G09  22875932.391 6 120213942.347 6      3310.281          40.000    22875936.242 6  93673153.369 6      2579.440          40.000
G17  22066721.797 5 115961404.835 5      -447.660          34.000
G22  21871416.234 5 114935064.252 5     -1902.504          30.000
R04  22613494.969 4 121094231.659 4     -3479.016          28.000    22613502.758 4  94184439.409 4     -2705.895          25.000
R05  19532635.078 6 104413196.985 6     -1192.496          39.000    19532635.859 5  81210253.434 5      -927.497          31.000
R06  21080134.305 5 112487643.341 5      2546.277          32.000
R20  19805802.555 6 105910535.538 6     -2071.777          38.000    19805807.445 8  82374855.371 8     -1611.382          49.000
C14                                                                  25021208.164 6 100750031.207 6     -2070.564          36.000
C27  22331440.039 6 116285650.943 6      -501.043          40.000
C28  23871682.352 8 124306124.697 8     -3104.348          50.000
E07  23727409.188 8 124688377.520 8     -1021.770          51.000    23727412.977 8  95540465.114 8      -782.902          51.000
E08  25374174.016 6 133342186.806 6     -2657.418          36.000    25374178.039 6 102171293.758 6     -2036.102          39.000
E13  27161790.906 6 142736148.643 6     -3058.898          41.000    27161797.734 5 109369266.581 5     -2343.999          32.000
E26  22745256.469 8 119527122.737 8     -1394.262          51.000    22745256.930 8  91585724.476 8     -1068.318          51.000
> 2020 05 06 22 00 30.0000000  0 16        .000000000000
G01  21964356.383 7 115423460.171 7     -2779.047          46.000    21964355.812 7  89940363.642 7     -2165.491          47.000
G03  20484007.250 8 107644195.727 8      -789.438          51.000    20484008.922 8  83878615.017 8      -615.146          51.000
G04  20714265.008 8 108854265.375 8      1662.746          48.000    20714266.859 8  84821509.318 8      1295.646          48.000
G09  22857057.398 6 120114751.913 6      3302.969          40.000    22857059.000 6  93595862.144 6      2573.742          40.000
G31  23339350.250 6 122649114.239 6      -661.258          39.000
R04  22632982.555 5 121198601.769 5     -3478.641          32.000
R05  19539365.680 6 104449176.968 6     -1205.703          39.000    19539364.938 5  81238237.845 5      -937.772          31.000
R06  21065848.734 5 112411422.415 5      2535.484          35.000
R20  19817491.719 6 105973038.143 6     -2094.688          40.000    19817495.766 8  82423468.518 8     -1629.201          48.000
C14  25036638.539 5 130372346.194 5     -2677.906          31.000    25036638.875 6 100812157.764 6     -2070.793          36.000
C27  22334374.594 6 116300933.946 6      -517.258          40.000
C28  23889585.727 8 124399357.110 8     -3110.613          48.000
E07  23733265.383 8 124719152.524 8     -1029.320          51.000    23733269.125 8  95564045.961 8      -788.697          51.000
E08  25389344.453 5 133421911.034 5     -2657.188          34.000    25389348.961 6 102232381.183 6     -2036.147          39.000
E13  27179262.336 7 142827959.311 7     -3061.180          42.000    27179269.781 5 109439653.116 5     -2345.636          33.000
E26  22753248.961 8 119569123.436 8     -1405.207          51.000    22753249.539 8  91617906.824 8     -1076.675          51.000
> 2020 05 06 22 01  0.0000000  0 18        .000000000000
G01  21980254.109 8 115507003.907 8     -2787.457          48.000    21980253.891 8  90005462.640 8     -2172.047          48.000
G03  20488543.688 8 107668034.867 8      -797.117          51.000    20488545.375 8  83897190.992 8      -621.130          51.000
G04  20704821.305 8 108804636.684 8      1648.645          50.000    20704822.547 8  84782837.575 8      1284.658          50.000
G09  22838226.367 6 120015791.731 6      3297.312          41.000    22838225.516 6  93518750.375 6      2569.337          41.000
G17  22072048.719 4 115989391.740 4      -481.574          28.000
G22  21893174.125 5 115049409.523 5     -1911.965          33.000    21893170.844 5  89648876.937 5     -1489.843          33.000
G31  23343181.789 5 122669257.930 5      -678.574          35.000    23343185.125 5  95586406.102 5      -528.762          34.000
R04  22652476.359 6 121302987.426 6     -3477.516          38.000
R05  19546170.930 6 104485551.536 6     -1216.668          38.000    19546171.414 5  81266529.224 5      -946.294          32.000
R06  21051628.648 5 112335533.701 5      2526.465          32.000
R20  19829312.203 6 106036243.410 6     -2116.207          40.000    19829315.820 8  82472628.174 8     -1645.939          49.000
C14  25052071.641 5 130452699.714 5     -2676.465          33.000    25052068.359 5 100874292.229 5     -2069.165          32.000
C27  22337403.570 6 116316710.890 6      -531.918          40.000
C28  23907526.305 7 124492788.291 7     -3115.473          44.000
E07  23739167.023 8 124750165.806 8     -1035.484          51.000    23739170.625 8  95587809.383 8      -793.459          51.000
E08  25404516.070 5 133501632.383 5     -2655.512          32.000    25404521.523 6 102293475.566 6     -2034.740          39.000
E13  27196749.094 7 142919851.250 7     -3062.133          43.000    27196755.602 6 109510063.846 6     -2346.519          37.000
E26  22761305.711 8 119611463.747 8     -1414.754          51.000    22761307.031 8  91650349.382 8     -1083.996          51.000
> 2020 05 06 22 01 30.0000000  0 16        .000000000000
G01  21996217.828 8 115590892.732 8     -2802.070          50.000    21996218.656 8  90070830.550 8     -2183.431          50.000
G03  20493140.453 8 107692190.913 8      -810.602          51.000    20493142.078 8  83916013.897 8      -631.638          51.000
G04  20695474.844 8 108755518.763 8      1628.746          51.000    20695475.742 8  84744563.876 8      1269.153          49.000
G09  22819446.344 6 119917100.166 6      3285.105          40.000    22819445.430 6  93441847.915 6      2559.822          40.000
G22  21904127.594 6 115106963.731 6     -1922.238          39.000    21904124.133 6  89693724.428 6     -1497.845          39.000
G31  23347130.969 5 122690012.425 5      -701.844          33.000    23347138.641 5  95602578.335 5      -546.891          32.000
R04  22671980.750 6 121407426.178 6     -3482.137          36.000
R05  19553056.031 6 104522355.449 6     -1234.109          36.000    19553059.359 4  81295154.681 4      -959.857          28.000
R20  19841269.992 6 106100186.291 6     -2143.918          39.000    19841273.625 8  82522361.492 8     -1667.495          48.000
C14  25067513.422 4 130533098.872 4     -2681.234          29.000    25067505.625 5 100936461.932 5     -2072.998          32.000
C27  22340535.578 7 116333017.570 7      -552.324          42.000
C28  23925509.305 6 124586452.167 6     -3126.184          39.000
E07  23745120.859 8 124781452.740 8     -1047.629          51.000    23745124.219 8  95611782.472 8      -802.663          51.000
E08                                                                  25419702.570 6 102354604.175 6     -2038.065          40.000
E13  27214257.797 7 143011859.713 7     -3068.996          42.000    27214263.008 6 109580563.796 6     -2351.760          38.000
E26  22769434.227 8 119654179.767 8     -1430.246          51.000    22769436.352 8  91683079.823 8     -1095.924          51.000
> 2020 05 06 22 02  0.0000000  0 17        .000000000000
G01  22012248.109 8 115675130.784 8     -2812.125          50.000    22012249.742 8  90136470.566 8     -2191.266          50.000
G03  20497798.461 8 107716668.840 8      -819.602          51.000    20497800.008 8  83935087.599 8      -638.651          51.000
G04  20686226.844 8 108706917.981 8      1613.055          51.000    20686227.281 8  84706693.155 8      1256.929          49.000
G09  22800718.320 6 119818684.413 6      3277.863          40.000    22800719.922 6  93365160.351 6      2554.179          40.000
G22  21915122.008 5 115164735.679 5     -1927.449          35.000    21915117.305 5  89738741.547 5     -1501.905          35.000
G31  23351197.914 5 122711382.617 5      -721.176          34.000    23351204.844 5  95619230.434 5      -561.952          34.000
R04  22691495.766 5 121511921.512 5     -3482.418          35.000
R05  19560022.930 5 104559592.808 5     -1247.164          35.000    19560022.859 4  81324078.499 4      -970.020          28.000
R06  21023402.695 5 112184895.255 5      2499.969          34.000
R20  19853365.477 6 106164870.391 6     -2166.875          38.000    19853369.641 7  82572671.327 7     -1685.347          47.000
C14                                                                  25082954.406 5 100998662.578 5     -2073.189          30.000
C27  22343771.750 7 116349859.024 7      -568.594          43.000
C28  23943539.805 6 124680351.946 6     -3132.039          40.000
E07  23751127.523 8 124813017.675 8     -1055.262          51.000    23751130.789 8  95635968.584 8      -808.565          51.000
E08                                                                  25434892.688 6 102415770.413 6     -2038.245          40.000
E13  27231789.500 6 143103988.873 6     -3071.289          41.000    27231793.258 6 109651156.224 6     -2353.463          39.000
E26  22777635.609 8 119697276.451 8     -1441.324          51.000    22777638.367 8  91716101.960 8     -1104.454          51.000
> 2020 05 06 22 02 30.0000000  0 17        .000000000000
G01  22028336.688 8 115759675.991 8     -2822.656          49.000    22028339.281 8  90202349.921 8     -2199.472          50.000
G03  20502509.891 8 107741427.524 8      -829.594          51.000    20502511.219 8  83954380.066 8      -646.437          51.000
G04  20677069.828 8 108658794.498 8      1596.641          51.000    20677069.570 8  84669194.337 8      1244.139          48.000
G09  22782035.203 6 119720505.656 6      3269.238          41.000    22782039.320 7  93288657.427 7      2547.458          42.000
G17  22080832.203 5 116035561.419 5      -539.395          35.000
G31  23355375.000 6 122733327.702 6      -740.867          37.000    23355377.664 6  95636330.490 6      -577.296          36.000
R04  22711013.438 5 121616430.448 5     -3483.367          33.000
R05  19567061.773 6 104597219.819 6     -1260.480          38.000    19567069.305 5  81353343.496 5      -980.371          33.000
R06  21009388.859 5 112110088.329 5      2488.371          33.000
R20  19865591.125 6 106230252.127 6     -2190.648          37.000    19865596.375 7  82623523.777 7     -1703.841          47.000
C14                                                                  25098407.359 5 101060878.346 5     -2073.433          33.000
C27  22347102.492 7 116367194.689 7      -585.613          44.000
C28  23961610.734 7 124774445.355 7     -3139.098          44.000
E07  23757179.016 8 124844818.850 8     -1063.504          51.000    23757182.383 8  95660335.728 8      -814.896          51.000
E08                                                                  25450083.828 6 102476942.286 6     -2038.849          39.000
E13  27249336.320 6 143196196.830 6     -3074.270          41.000    27249338.539 6 109721809.029 6     -2355.585          41.000
E26  22785901.547 8 119740712.724 8     -1453.031          51.000    22785905.008 8  91749384.299 8     -1113.392          51.000
> 2020 05 06 22 03  0.0000000  0 17        .000000000000
G01  22044487.891 8 115844552.137 8     -2834.195          49.000    22044491.273 8  90268487.179 8     -2208.464          49.000
G03  20507279.438 8 107766491.747 8      -839.887          51.000    20507280.734 8  83973910.607 8      -654.457          51.000
G04  20668008.141 8 108611174.321 8      1579.609          51.000    20668007.852 8  84632087.730 8      1230.864          48.000
G09  22763402.562 7 119622590.827 7      3260.180          44.000    22763407.578 7  93212360.155 7      2540.403          43.000
G17  22083980.305 5 116052079.048 5      -559.797          34.000
G22  21937228.570 6 115280926.066 6     -1940.742          36.000    21937208.531 5  89829248.247 5     -1512.264          35.000
G31  23359665.531 6 122755872.073 6      -760.723          37.000    23359665.484 5  95653897.523 5      -592.771          35.000
R04  22730537.148 5 121720977.266 5     -3485.148          31.000
R05  19574178.078 6 104635260.118 6     -1274.453          38.000    19574181.875 4  81382949.839 4      -991.247          27.000
R20  19877951.961 6 106296354.741 6     -2214.727          36.000    19877957.742 7  82674936.890 7     -1722.568          46.000
C14                                                                  25113866.352 6 101123120.211 6     -2074.385          37.000
C27  22350532.367 7 116385049.009 7      -603.070          44.000
C28  23979723.945 7 124868755.107 7     -3146.523          47.000
E07  23763280.188 8 124876880.420 8     -1072.441          51.000    23763283.430 8  95684902.385 8      -821.723          51.000
E08                                                                  25465280.820 6 102538138.358 6     -2039.783          38.000
E13  27266902.625 6 143288507.538 6     -3078.090          41.000    27266903.477 6 109792540.618 6     -2358.554          41.000
E26  22794236.664 8 119784513.407 8     -1465.430          51.000    22794240.719 8  91782945.855 8     -1122.898          51.000
> 2020 05 06 22 03 30.0000000  0 16        .000000000000
G01  22060702.164 7 115929761.634 7     -2846.469          47.000    22060706.211 7  90334884.264 7     -2218.022          47.000
G03  20512107.719 8 107791864.826 8      -851.516          51.000    20512109.156 8  83993681.807 8      -663.522          51.000
G04  20659042.617 8 108564062.120 8      1561.352          51.000    20659042.758 7  84595376.964 7      1216.638          47.000
G09  22744821.562 7 119524945.466 7      3249.746          46.000    22744826.234 7  93136272.898 7      2532.270          46.000
G22  21948320.523 5 115339250.170 5     -1949.203          32.000    21948313.523 5  89874708.546 5     -1518.866          32.000
G31  23364069.672 5 122779019.045 5      -781.344          31.000    23364070.766 4  95671934.194 4      -608.824          27.000
R04  22750066.000 5 121825563.846 5     -3487.762          32.000    22750072.539 4  94753238.969 4     -2712.701          29.000
R05  19581369.461 5 104673715.304 5     -1289.406          34.000    19581373.609 5  81412858.909 5     -1002.865          32.000
R20  19890448.906 6 106363179.996 6     -2240.320          37.000    19890454.344 7  82726912.080 7     -1742.471          46.000
C14                                                                  25129330.523 6 101185390.591 6     -2076.792          36.000
C27  22354060.984 7 116403425.415 7      -621.816          43.000
C28  23997878.914 7 124963282.793 7     -3155.188          46.000
E07  23769431.445 8 124909205.077 8     -1082.523          51.000    23769434.367 8  95709670.639 8      -829.442          51.000
E08                                                                  25480484.414 6 102599360.844 6     -2041.525          38.000
E13  27284488.773 6 143380923.600 6     -3082.922          40.000    27284488.805 6 109863352.900 6     -2362.257          40.000
E26  22802641.438 8 119828681.815 8     -1479.027          51.000    22802645.961 8  91816789.187 8     -1133.281          51.000
> 2020 05 06 22 04  0.0000000  0 15        .000000000000
G01  22076977.695 8 116015291.506 8     -2856.945          50.000    22076981.367 8  90401530.943 8     -2226.188          50.000
G03  20516992.469 8 107817534.601 8      -861.555          51.000    20516993.844 8  84013684.228 8      -671.341          51.000
G04  20650171.875 8 108517447.030 8      1544.629          51.000    20650172.180 8  84559053.529 8      1203.607          48.000
G09  22726290.188 7 119427559.693 7      3240.934          47.000    22726294.125 7  93060387.920 7      2525.406          47.000
G17  22090576.828 4 116086764.137 4      -598.164          27.000
G31  23368586.820 5 122802751.421 5      -803.129          32.000    23368588.031 5  95690460.653 5      -625.821          32.000
R05  19588637.516 6 104712571.855 6     -1302.688          39.000    19588644.570 5  81443080.664 5     -1013.204          31.000
R20  19903078.852 6 106430713.937 6     -2263.938          38.000    19903083.219 7  82779438.444 7     -1760.840          46.000
C14  25144803.328 4 130935584.523 4     -2687.344          28.000    25144799.797 6 101247679.955 6     -2077.152          39.000
C27  22357687.516 7 116422311.797 7      -638.844          46.000
C28  24016071.953 7 125058014.600 7     -3161.984          43.000
E07  23775630.188 8 124941779.985 8     -1090.859          51.000    23775632.906 8  95734630.637 8      -835.826          51.000
E08                                                                  25495692.367 6 102660599.992 6     -2042.366          37.000
E13  27302092.367 6 143473431.956 6     -3085.949          38.000    27302092.492 6 109934235.946 6     -2364.576          38.000
E26  22811113.570 8 119873205.791 8     -1490.926          51.000    22811118.430 8  91850904.973 8     -1142.392          51.000
> 2020 05 06 22 04 30.0000000  0 15        .000000000000
G01  22093311.578 8 116101123.678 8     -2865.211          50.000    22093314.117 8  90468413.105 8     -2232.632          50.000
G03  20521930.445 8 107843483.866 8      -869.102          51.000    20521931.789 8  84033904.436 8      -677.222          51.000
G04  20641392.445 8 108471313.038 8      1530.402          50.000    20641393.227 8  84523105.013 8      1192.524          48.000
G09  22707805.391 7 119330418.574 7      3234.570          47.000    22707808.758 7  92984693.563 7      2520.444          47.000
G17  22094039.648 6 116104964.945 6      -613.965          36.000
G31  23373212.961 6 122827061.931 6      -819.121          36.000    23373212.891 5  95709403.862 5      -638.276          34.000
R05  19595977.391 6 104751810.364 6     -1313.562          36.000    19595981.766 5  81473599.383 5     -1021.663          31.000
R20  19915837.820 6 106498936.934 6     -2284.625          39.000    19915840.336 7  82832500.749 7     -1776.931          45.000
C14                                                                  25160271.484 6 101309975.077 6     -2075.783          37.000
C27  22361409.164 7 116441691.181 7      -653.543          47.000
C28  24034298.953 6 125152931.730 6     -3166.223          41.000
E07  23781873.125 8 124974587.340 8     -1096.758          51.000    23781875.789 8  95759768.746 8      -840.358          51.000
E08                                                                  25510901.578 6 102721842.255 6     -2040.786          36.000
E13  27319709.828 6 143566014.694 6     -3086.375          36.000    27319711.172 6 110005176.030 6     -2364.960          36.000
E26  22819650.023 8 119918068.111 8     -1500.383          51.000    22819655.117 8  91885280.011 8     -1149.599          51.000
> 2020 05 06 22 05  0.0000000  0 14        .000000000000
G01  22109709.523 8 116187292.288 8     -2878.262          51.000    22109711.328 8  90535557.421 8     -2242.804          51.000
G03  20526928.352 8 107869747.756 8      -880.961          51.000    20526929.758 8  84054369.809 8      -686.463          51.000
G04  20632711.719 8 108425696.531 8      1511.559          50.000    20632712.938 8  84487559.729 8      1177.838          48.000
G09  22689373.648 7 119233559.477 7      3223.727          45.000    22689376.742 7  92909218.936 7      2511.995          45.000
G17  22097611.266 6 116123724.616 6      -635.250          38.000
R05  19603394.820 5 104791465.062 5     -1329.086          33.000    19603401.281 5  81504442.023 5     -1033.730          33.000
R20  19928731.594 6 106567883.161 6     -2310.723          39.000    19928732.938 7  82886125.608 7     -1797.229          46.000
C14                                                                  25175750.227 5 101372302.719 5     -2078.345          34.000
C27  22365232.227 8 116461598.350 8      -672.668          48.000
C28  24052567.547 6 125248067.220 6     -3175.262          39.000
E07  23788167.023 8 125007661.651 8     -1107.156          51.000    23788169.578 8  95785111.398 8      -848.349          51.000
E08                                                                  25526118.594 6 102783114.146 6     -2042.953          36.000
E13  27337347.867 5 143658706.194 5     -3091.859          34.000    27337350.844 6 110076199.413 6     -2368.854          36.000
E26  22828257.422 8 119963303.908 8     -1514.363          50.000    22828262.391 8  91919941.223 8     -1160.356          51.000
> 2020 05 06 22 05 30.0000000  0 16        .000000000000
G01  22126167.047 8 116273774.243 8     -2886.816          51.000    22126168.430 8  90602945.909 8     -2249.470          51.000
G03  20531981.945 8 107896304.260 8      -889.020          51.000    20531983.289 8  84075063.187 8      -692.742          51.000
G04  20624125.773 8 108380576.717 8      1496.832          50.000    20624127.180 8  84452401.426 8      1166.363          49.000
G09  22670991.203 7 119136962.603 7      3216.500          44.000    22670993.945 7  92833948.627 7      2506.364          44.000
G17  22101287.055 5 116143036.843 5      -651.953          35.000
R04  22828235.219 5 122244140.024 5     -3488.992          34.000    22828237.742 5  95078791.380 5     -2713.661          31.000
R05  19610884.680 6 104831511.984 6     -1340.422          36.000    19610891.758 4  81535589.678 4     -1042.550          29.000
R20  19941755.633 6 106637528.261 6     -2332.102          40.000    19941757.281 8  82940294.027 8     -1813.857          48.000
C14  25191238.203 4 131177385.638 4     -2687.004          28.000    25191233.430 6 101434645.690 6     -2077.191          36.000
C25  26246385.609 6 136671814.465 6      2859.641          39.000
C27  22369152.406 7 116482011.469 7      -687.582          47.000
C28  24070876.688 7 125343397.628 7     -3179.680          42.000
E07  23794507.414 8 125040980.228 8     -1113.500          51.000    23794509.891 8  95810641.223 8      -853.213          51.000
E08                                                                  25541338.898 5 102844398.417 5     -2042.172          34.000
E13                                                                  27355005.992 5 110147288.601 5     -2369.802          35.000
E26  22836931.828 8 120008891.156 8     -1524.258          50.000    22836936.367 8  91954871.696 8     -1167.965          51.000
> 2020 05 06 22 06  0.0000000  0 17        .000000000000
G01  22142682.867 8 116360563.853 8     -2899.039          51.000    22142684.281 8  90670574.145 8     -2258.991          51.000
G03  20537090.312 8 107923148.613 8      -900.418          51.000    20537091.617 8  84095980.858 8      -701.624          51.000
G04  20615633.297 8 108335949.944 8      1478.461          48.000    20615635.227 8  84417627.332 8      1152.047          48.000
G09  22652658.461 7 119040625.299 7      3206.148          46.000    22652660.086 7  92758880.614 7      2498.297          46.000
G17  22105067.352 6 116162896.022 6      -672.328          36.000
G22  22004386.734 5 115633832.551 5     -1980.316          32.000    22004382.945 5  90104277.804 5     -1543.104          33.000
R04  22847787.266 6 122348833.415 6     -3491.207          37.000    22847789.055 5  95160219.594 5     -2715.383          31.000
R05  19618449.680 6 104871944.855 6     -1354.930          36.000    19618453.820 5  81567037.314 5     -1053.837          31.000
R20  19954908.602 6 106707865.359 6     -2357.258          39.000    19954911.461 8  82995000.662 8     -1833.423          49.000
C14  25206722.531 5 131258026.061 5     -2689.367          30.000    25206718.945 6 101497000.331 6     -2079.526          36.000
C25  26229918.969 6 136586067.245 6      2856.863          39.000
C27  22373168.414 7 116502925.732 7      -706.266          47.000
C28  24089222.969 7 125438916.520 7     -3187.957          45.000
E07  23800893.211 8 125074537.697 8     -1123.383          51.000    23800895.594 8  95836354.084 8      -860.792          51.000
E08                                                                  25556561.391 5 102905690.990 5     -2043.737          33.000
E13                                                                  27372676.727 5 110218439.323 5     -2373.313          31.000
E26  22845672.758 8 120054825.005 8     -1537.777          51.000    22845676.477 8  91990067.745 8     -1178.261          51.000
> 2020 05 06 22 06 30.0000000  0 16        .000000000000
G01  22159261.609 8 116447687.810 8     -2910.996          48.000    22159263.797 8  90738462.926 8     -2268.309          49.000
G03  20542258.672 8 107950308.451 8      -912.035          51.000    20542260.102 8  84117144.380 8      -710.677          51.000
G04  20607240.328 8 108291845.114 8      1459.977          49.000    20607242.469 8  84383259.934 8      1137.641          49.000
G09  22634381.734 8 118944577.468 8      3195.262          49.000    22634381.586 8  92684038.173 8      2489.814          49.000
G17  22108951.930 5 116183326.040 5      -692.203          32.000
G22  22015716.109 5 115693353.920 5     -1988.766          35.000    22015708.336 5  90150648.523 5     -1549.684          34.000
R04  22867346.914 6 122453566.428 6     -3492.891          38.000    22867347.281 4  95241678.583 4     -2716.693          29.000
R05  19626092.469 5 104912789.541 5     -1369.426          34.000    19626094.594 4  81598805.495 4     -1065.109          29.000
R20  19968195.602 6 106778920.661 6     -2381.594          39.000    19968199.789 8  83050265.876 8     -1852.354          50.000
C14  25222214.172 4 131338706.737 4     -2691.465          29.000    25222212.695 6 101559387.649 6     -2081.003          39.000
C25  26213463.531 5 136500378.645 5      2853.605          34.000
C27  22377286.055 8 116524368.438 8      -724.992          48.000
C28  24107610.016 7 125534649.517 7     -3196.145          45.000
E07  23807329.688 8 125108361.047 8     -1133.262          51.000    23807331.836 8  95862270.672 8      -868.394          51.000
E08                                                                  25571791.430 5 102967012.737 5     -2045.976          31.000
E26  22854485.398 8 120101133.047 8     -1551.258          51.000    22854487.945 8  92025550.537 8     -1188.650          51.000
> 2020 05 06 22 07  0.0000000  0 16        .000000000000
G01  22175896.062 7 116535109.299 7     -2917.668          45.000    22175899.984 7  90806583.565 7     -2273.508          45.000
G03  20547480.203 8 107977747.978 8      -918.066          51.000    20547481.695 8  84138525.846 8      -715.376          51.000
G04  20598940.258 8 108248227.535 8      1447.141          50.000    20598942.109 8  84349272.190 8      1127.642          49.000
G09  22616153.984 8 118848785.446 8      3189.914          51.000    22616152.766 8  92609395.076 8      2485.650          51.000
G19  22184357.617 5 116579576.065 5       480.754          32.000
G22  22027078.438 5 115753048.955 5     -1991.605          33.000    22027068.383 5  90197164.131 5     -1551.909          30.000
R04  22886904.789 6 122558301.273 6     -3489.988          36.000    22886905.164 4  95323139.112 4     -2714.432          28.000
R05  19633804.492 6 104954008.856 6     -1379.094          39.000    19633804.414 4  81630842.828 4     -1072.635          28.000
R20  19981610.391 6 106850655.807 6     -2401.113          40.000    19981614.789 8  83106059.858 8     -1867.533          49.000
C14  25237707.344 5 131419394.143 5     -2688.367          32.000    25237708.633 6 101621780.171 6     -2078.864          39.000
C25  26197009.172 5 136414716.099 5      2856.945          30.000
C27  22381498.719 8 116546303.988 8      -738.070          48.000
C28  24126029.477 7 125630559.345 7     -3198.719          45.000
E07  23813809.875 8 125142413.782 8     -1137.684          51.000    23813811.844 8  95888363.027 8      -871.756          51.000
E13  27408069.117 5 144030380.422 5     -3101.098          35.000    27408080.539 5 110360977.123 5     -2376.369          33.000
E26  22863362.586 8 120147779.411 8     -1559.340          51.000    22863364.398 8  92061292.551 8     -1194.804          51.000
> 2020 05 06 22 07 30.0000000  0 15        .000000000000
G01  22192589.430 7 116622840.264 7     -2931.211          45.000    22192594.945 7  90874945.372 7     -2284.060          45.000
G03  20552757.305 8 108005480.075 8      -930.902          51.000    20552758.969 8  84160135.282 8      -725.378          51.000
G04  20590735.508 8 108205111.231 8      1427.129          50.000    20590737.281 8  84315675.086 8      1112.048          50.000
G09  22597977.570 8 118753264.307 8      3177.738          51.000    22597976.656 8  92534963.062 8      2476.160          51.000
G17  22117044.656 5 116225853.307 5      -728.031          33.000
R04  22906464.414 5 122663050.241 5     -3493.934          34.000    22906465.828 5  95404610.527 5     -2717.504          30.000
R05  19641589.203 6 104995613.817 6     -1395.281          36.000    19641588.641 5  81663202.260 5     -1085.216          31.000
R20  19995154.766 6 106923081.826 6     -2427.449          41.000    19995158.695 8  83162391.209 8     -1888.016          49.000
C14  25253205.211 5 131500100.725 5     -2692.398          33.000    25253207.164 5 101684187.545 5     -2082.181          34.000
C25  26180563.383 5 136329095.471 5      2851.734          32.000
C27  22385808.148 7 116568745.165 7      -758.184          47.000
C28  24144484.078 7 125726657.042 7     -3207.988          44.000
E07  23820335.953 8 125176708.205 8     -1149.043          51.000    23820338.000 8  95914640.580 8      -880.450          51.000
E13  27425787.297 5 144123498.300 5     -3107.395          35.000    27425796.758 5 110432327.225 5     -2380.494          33.000
E26  22872306.531 8 120194776.930 8     -1574.293          51.000    22872308.203 8  92097303.626 8     -1206.309          51.000
> 2020 05 06 22 08  0.0000000  0 18        .000000000000
G01  22209351.469 7 116710927.185 7     -2939.246          46.000    22209357.492 7  90943584.545 7     -2290.322          46.000
G03  20558099.023 8 108033552.200 8      -938.383          51.000    20558101.086 8  84182009.657 8      -731.204          51.000
G04  20582635.633 8 108162544.749 8      1412.676          51.000    20582637.188 8  84282506.418 8      1100.786          50.000
G09  22579861.758 8 118658063.759 8      3171.039          51.000    22579861.969 8  92460780.852 8      2470.940          51.000
G17  22121253.805 5 116247949.664 5      -744.141          32.000
G22  22049917.820 5 115873099.450 5     -2005.469          32.000
R04  22926037.500 5 122767860.362 5     -3491.645          34.000    22926038.062 4  95486129.416 4     -2715.724          29.000
R05  19649452.594 6 105037651.049 6     -1405.660          39.000    19649454.188 5  81695898.041 5     -1093.288          31.000
R06  20859612.469 5 111310942.639 5      2357.453          33.000
R20  20008837.125 6 106996245.211 6     -2448.145          40.000    20008840.508 8  83219296.072 8     -1904.112          49.000
C14  25268716.297 5 131580873.311 5     -2690.098          30.000    25268717.445 5 101746646.030 5     -2080.722          31.000
C24  25619347.133 6 133406662.071 6      1250.680          38.000
C25  26164138.758 5 136243566.516 5      2852.133          35.000
C27  22390223.344 7 116591738.796 7      -772.797          46.000
C28  24162982.828 7 125822987.883 7     -3211.980          42.000
E07  23826916.914 8 125211291.091 8     -1154.617          51.000    23826919.000 8  95941139.151 8      -884.692          51.000
E13  27443530.070 5 144216745.371 5     -3107.355          35.000    27443538.000 5 110503776.388 5     -2381.407          34.000
E26  22881326.305 8 120242172.975 8     -1583.516          51.000    22881327.820 8  92133620.062 8     -1213.334          51.000
> 2020 05 06 22 08 30.0000000  0 17        .000000000000
G01  22226162.953 8 116799271.524 8     -2950.906          48.000    22226168.391 8  91012424.316 8     -2299.404          48.000
G03  20563486.898 8 108061866.826 8      -949.613          51.000    20563489.188 8  84204072.993 8      -739.958          51.000
G04  20574621.758 8 108120431.682 8      1394.340          49.000    20574622.938 8  84249691.076 8      1086.502          49.000
G09  22561788.312 8 118563088.389 8      3160.301          50.000    22561789.875 8  92386774.107 8      2462.572          50.000
G17  22125560.062 5 116270566.990 5      -763.371          34.000
R04  22945603.703 6 122872631.194 6     -3493.492          38.000    22945603.602 4  95567617.800 4     -2717.164          28.000
R05  19657379.102 6 105080020.082 6     -1419.414          38.000    19657379.375 5  81728851.762 5     -1103.986          30.000
R06  20846395.023 5 111240424.257 5      2343.566          34.000
R20  20022638.148 6 107070044.413 6     -2472.414          39.000    20022641.398 8  83276695.475 8     -1922.989          50.000
C14  25284221.375 5 131661615.225 5     -2692.754          31.000
C24  25612182.297 5 133369357.304 5      1235.664          33.000
C25  26147714.570 5 136158035.558 5      2849.188          35.000
C27  22394725.508 7 116615188.070 7      -791.031          46.000
C28  24181506.414 6 125919453.456 6     -3219.039          38.000
E07  23833534.102 8 125246064.287 8     -1163.949          51.000    23833536.031 8  95967783.546 8      -891.818          51.000
E13  27461279.148 5 144309997.354 5     -3111.430          34.000    27461286.648 5 110575249.130 5     -2383.918          33.000
E26  22890403.086 8 120289869.902 8     -1596.637          51.000    22890404.633 8  92170167.062 8     -1223.397          51.000
> 2020 05 06 22 09  0.0000000  0 17        .000000000000
G01  22243056.000 8 116888043.768 8     -2960.461          48.000    22243060.969 8  91081597.505 8     -2306.850          48.000
G03  20568953.680 8 108090595.477 8      -958.734          51.000    20568956.117 8  84226458.944 8      -747.066          51.000
G04  20566726.805 8 108078944.609 8      1378.164          50.000    20566728.078 8  84217363.522 8      1073.894          50.000
G09  22543790.422 8 118468511.922 8      3151.555          50.000    22543793.281 8  92313078.183 8      2455.757          50.000
G31  23419935.273 5 123072581.619 5      -996.812          33.000
R04  22965194.812 6 122977536.341 6     -3493.355          36.000    22965193.375 4  95649210.671 4     -2717.054          25.000
R05  19665398.891 6 105122893.685 6     -1431.652          41.000    19665398.000 5  81762197.922 5     -1113.507          31.000
R06  20833266.867 5 111170388.501 5      2332.570          31.000
R20  20036589.672 6 107144651.834 6     -2494.363          37.000    20036593.875 8  83334723.475 8     -1940.060          50.000
C14  25299754.234 5 131742496.408 5     -2692.922          35.000    25299749.547 5 101871605.272 5     -2082.121          30.000
C24  25605114.352 5 133332578.397 5      1222.578          33.000
C25  26131323.750 6 136072675.572 6      2848.156          37.000
C27  22399347.641 7 116639262.813 7      -807.219          46.000
C28  24200086.000 5 126016222.000 5     -3224.770          34.000
E07  23840219.977 8 125281198.666 8     -1171.375          51.000    23840221.727 8  95994704.701 8      -897.526          51.000
E13  27479067.031 5 144403476.917 5     -3113.492          34.000    27479075.398 5 110646848.375 5     -2385.699          33.000
E26  22899569.461 8 120338039.143 8     -1607.691          51.000    22899571.625 8  92207075.949 8     -1231.918          51.000
> 2020 05 06 22 09 30.0000000  0 15        .000000000000
G01  22259974.703 8 116976950.180 8     -2973.969          49.000    22259979.500 8  91150875.242 8     -2317.381          49.000
G03  20574443.734 8 108119445.431 8      -971.824          51.000    20574446.133 8  84248939.416 8      -757.263          51.000
G04  20558895.734 8 108037791.956 8      1358.016          49.000    20558897.227 8  84185296.532 8      1058.194          49.000
G09  22525812.961 8 118374043.771 8      3138.918          49.000    22525816.805 8  92239466.665 8      2445.910          49.000
R04  22984753.398 5 123082276.570 5     -3497.152          31.000    22984752.227 4  95730683.343 4     -2720.004          24.000
R05  19673458.039 7 105165972.411 7     -1447.703          42.000    19673456.875 5  81795703.545 5     -1125.994          33.000
R20  20050636.461 6 107219767.810 6     -2521.086          38.000    20050641.539 8  83393147.004 8     -1960.845          49.000
C14  25315258.852 5 131823226.375 5     -2696.699          33.000    25315257.180 6 101934030.848 6     -2085.413          36.000
C24  25598097.453 6 133296037.132 6      1206.066          37.000
C25  26114911.273 6 135987199.456 6      2843.035          41.000
C27  22404035.031 7 116663672.728 7      -827.340          47.000
C28  24218669.562 5 126113001.512 5     -3234.105          35.000
E07  23846918.625 8 125316400.830 8     -1182.742          51.000    23846920.430 8  96021677.786 8      -906.206          51.000
E13  27496837.422 6 144496864.503 6     -3119.738          37.000    27496847.953 5 110718406.108 5     -2389.889          34.000
E26  22908769.633 8 120386387.878 8     -1622.809          51.000    22908772.836 8  92244122.341 8     -1243.439          51.000
> 2020 05 06 22 10  0.0000000  0 17        .000000000000
G01  22276965.992 8 117066236.943 8     -2980.496          50.000    22276970.328 8  91220449.335 8     -2322.464          50.000
G03  20580004.016 8 108148663.934 8      -978.184          51.000    20580006.086 8  84271707.084 8      -762.221          51.000
G04  20551175.141 7 107997221.907 7      1344.543          47.000    20551176.797 7  84153683.535 7      1047.696          47.000
G09  22507903.680 8 118279933.345 8      3133.047          49.000    22507907.656 8  92166133.903 8      2441.335          48.000
G17  22139113.570 5 116341832.992 5      -817.176          33.000
R04  23004328.281 4 123187102.889 4     -3493.184          29.000
R05  19681601.578 6 105209506.208 6     -1456.309          36.000    19681602.477 5  81829563.175 5     -1132.681          34.000
R06  20807175.070 5 111031120.312 5      2307.789          32.000
R20  20064825.383 6 107295641.491 6     -2539.785          39.000    20064830.656 8  83452159.861 8     -1975.388          48.000
C14  25330780.766 5 131904050.275 5     -2694.070          31.000    25330779.781 5 101996528.938 5     -2082.507          35.000
C24  25591174.898 6 133259980.605 6      1195.945          38.000
C25  26098523.766 6 135901855.178 6      2844.527          41.000
C27  22408834.094 7 116688662.635 7      -840.613          46.000
C28  24237305.398 6 126210035.552 6     -3237.004          37.000
E07  23853677.133 8 125351917.369 8     -1187.141          51.000    23853679.148 8  96048891.756 8      -909.588          51.000
E13  27514637.203 6 144590406.472 6     -3118.520          37.000    27514650.344 5 110790081.186 5     -2389.889          35.000
E26  22918050.953 8 120435163.167 8     -1630.980          51.000    22918054.938 8  92281495.581 8     -1249.667          51.000
> 2020 05 06 22 10 30.0000000  0 16        .000000000000
G01  22294015.844 8 117155831.269 8     -2991.426          51.000    22294019.258 8  91290263.054 8     -2330.981          51.000
G03  20585620.758 8 108178179.082 8      -988.531          51.000    20585622.578 8  84294705.889 8      -770.284          51.000
G04  20543552.227 8 107957163.665 8      1326.945          48.000    20543553.875 8  84122469.342 8      1033.983          48.000
G09  22490049.773 8 118186110.907 8      3122.770          49.000    22490052.562 8  92093025.539 8      2433.327          49.000
G17  22143837.633 4 116366651.868 4      -837.082          29.000
G31  23437503.852 5 123164893.525 5     -1055.461          34.000
R05  19689814.922 6 105253420.297 6     -1470.098          40.000    19689817.719 5  81863718.636 5     -1143.409          33.000
R20  20079141.688 6 107372197.649 6     -2562.965          38.000    20079146.477 7  83511703.521 7     -1993.417          47.000
C14                                                                  25346305.531 5 102059044.486 5     -2084.214          34.000
C24  25584331.969 5 133224339.828 5      1181.082          35.000
C25  26082147.734 7 135816574.448 7      2841.859          42.000
C27  22413731.008 7 116714161.098 7      -858.199          47.000
C28  24255976.148 6 126307250.951 6     -3243.344          40.000
E07  23860481.648 8 125387675.784 8     -1195.738          51.000    23860483.945 8  96076291.057 8      -916.200          51.000
E13  27532452.883 5 144684030.182 5     -3121.820          35.000    27532467.383 5 110861818.812 5     -2391.981          34.000
E26  22927399.734 8 120484293.051 8     -1643.387          51.000    22927404.203 8  92319140.535 8     -1259.156          51.000
> 2020 05 06 22 11  0.0000000  0 15        .000000000000
G01  22311122.273 8 117245723.939 8     -3003.426          50.000    22311123.859 8  91360309.241 8     -2340.332          50.000
G03  20591292.312 8 108207982.857 8     -1000.148          51.000    20591294.148 8  84317929.607 8      -779.336          51.000
G04  20536025.531 8 107917610.188 8      1308.047          48.000    20536027.195 8  84091648.429 8      1019.257          48.000
G09  22472249.938 8 118092570.464 8      3111.371          50.000    22472251.445 8  92020136.925 8      2424.445          50.000
R05  19698099.961 6 105297704.940 6     -1484.383          37.000    19698102.258 5  81898162.134 5     -1154.520          33.000
R20  20093583.500 6 107449425.770 6     -2586.953          37.000    20093587.859 7  83571769.807 7     -2012.078          47.000
C14                                                                  25361834.414 5 102121570.925 5     -2085.827          35.000
C24  25577566.688 6 133189108.625 6      1165.516          36.000
C25  26065782.211 7 135731352.254 7      2837.828          44.000
C27  22418724.250 8 116740159.813 8      -876.930          48.000
C28  24274679.656 6 126404637.973 6     -3250.992          41.000
E07  23867330.461 8 125423667.286 8     -1205.582          51.000    23867333.023 8  96103868.961 8      -923.779          51.000
E13  27550282.930 5 144777713.731 5     -3126.457          34.000    27550297.328 5 110933612.234 5     -2395.690          33.000
E19  27997294.977 6 147126783.065 6      2656.414          39.000    27997298.031 6 112733514.015 6      2035.569          41.000
E26  22936814.500 8 120533769.259 8     -1656.906          51.000    22936818.969 8  92357050.869 8     -1269.637          51.000
> 2020 05 06 22 11 30.0000000  0 16        .000000000000
G01  22328289.508 8 117335937.115 8     -3009.164          50.000    22328289.789 8  91430605.188 8     -2344.803          50.000
G03  20597023.180 8 108238098.415 8     -1005.566          51.000    20597025.062 8  84341396.269 8      -783.558          51.000
G04  20528599.180 8 107878585.599 8      1295.312          48.000    20528601.109 8  84061239.671 8      1009.337          48.000
G09  22454508.688 8 117999337.401 8      3106.043          50.000    22454509.898 8  91947487.827 8      2420.293          50.000
G31  23449783.984 5 123229442.355 5     -1092.312          35.000
R05  19706457.367 6 105342381.993 6     -1492.531          37.000    19706461.453 5  81932911.046 5     -1160.855          34.000
R20  20108155.078 6 107527347.298 6     -2605.559          38.000    20108159.406 7  83632375.442 7     -2026.546          47.000
C14                                                                  25377369.484 5 102184126.096 5     -2083.066          34.000
C24  25570885.477 6 133154312.240 6      1155.906          37.000
C25  26049432.336 7 135646214.594 7      2839.660          43.000
C27  22423817.750 8 116766681.547 8      -889.375          48.000
C28  24293419.367 6 126502217.815 6     -3252.566          39.000
E07  23874227.953 8 125459914.489 8     -1209.094          51.000    23874230.727 8  96131642.783 8      -926.451          51.000
E13                                                                  27568144.258 5 111005493.539 5     -2393.678          32.000
E19  27982133.070 6 147047105.971 6      2657.078          38.000    27982135.484 6 112672462.773 6      2036.042          41.000
E26  22946299.758 8 120583614.863 8     -1664.320          51.000    22946303.828 8  92395244.230 8     -1275.202          51.000
> 2020 05 06 22 12  0.0000000  0 16        .000000000000
G01  22345509.898 8 117426430.906 8     -3021.945          50.000    22345510.352 8  91501119.801 8     -2354.763          50.000
G03  20602806.008 8 108268486.956 8     -1018.066          51.000    20602807.984 8  84365075.643 8      -793.298          51.000
G04  20521266.773 8 107840052.079 8      1275.578          50.000    20521268.641 8  84031213.561 8       993.957          50.000
G09  22436818.617 8 117906374.992 8      3093.625          48.000    22436820.328 8  91875049.624 8      2410.617          49.000
G31  23456086.484 5 123262565.872 5     -1113.566          34.000    23456088.984 5  96048758.932 5      -867.714          33.000
R05  19714880.680 5 105387410.566 5     -1507.363          35.000    19714884.859 5  81967933.203 5     -1172.397          31.000
R20  20122848.977 6 107605920.346 6     -2630.652          40.000    20122853.391 8  83693487.831 8     -2046.063          48.000
C14                                                                  25392903.852 5 102246680.208 5     -2085.727          33.000
C24  25564279.594 5 133119914.011 5      1139.285          33.000
C25  26033091.289 7 135561125.867 7      2834.844          42.000
C27  22429004.484 8 116793687.521 8      -908.809          48.000
C28  24312187.047 6 126599950.269 6     -3260.566          36.000
E07  23881166.609 8 125496377.886 8     -1219.582          51.000    23881169.508 8  96159582.252 8      -934.467          51.000
E13                                                                  27586001.695 5 111077397.407 5     -2397.991          31.000
E19  27966988.891 6 146967519.491 6      2650.707          38.000    27966990.500 6 112611480.967 6      2031.022          40.000
E26  22955848.070 8 120633790.848 8     -1678.586          51.000    22955851.578 8  92433690.768 8     -1286.180          51.000
> 2020 05 06 22 12 30.0000000  0 14        .000000000000
G01  22362796.578 8 117517272.888 8     -3029.496          50.000    22362797.711 8  91571905.740 8     -2360.646          51.000
G03  20608653.844 8 108299217.177 8     -1025.680          51.000    20608655.836 8  84389021.264 8      -799.231          51.000
G04  20514041.062 8 107802079.226 8      1260.832          49.000    20514042.570 8  84001624.333 8       982.467          49.000
G09  22419193.062 8 117813754.065 8      3086.043          48.000    22419195.352 8  91802877.471 8      2404.709          48.000
R20  20137677.305 6 107685212.608 6     -2650.582          39.000    20137681.773 8  83755159.584 8     -2061.564          49.000
C14                                                                  25408452.781 5 102309285.677 5     -2084.413          34.000
C24  25557763.461 5 133085984.381 5      1127.102          30.000
C25  26016773.016 7 135476157.153 7      2834.445          42.000
C27  22434297.141 8 116821245.518 8      -923.441          48.000
C28  24330996.812 6 126697901.580 6     -3263.941          36.000
E07  23888159.352 8 125533125.495 8     -1225.316          51.000    23888162.273 8  96187739.507 8      -938.873          51.000
E13  27603878.672 5 145059359.184 5     -3129.938          35.000    27603882.969 5 111149399.791 5     -2398.309          31.000
E19  27951874.977 6 146888093.232 6      2649.008          38.000    27951875.883 6 112550621.884 6      2030.047          40.000
E26  22965472.289 8 120684365.679 8     -1688.070          51.000    22965475.336 8  92472442.925 8     -1293.492          51.000
> 2020 05 06 22 13  0.0000000  0 15        .000000000000
G01  22380133.961 8 117608380.593 8     -3045.227          51.000    22380135.172 8  91642898.767 8     -2372.904          51.000
G03  20614551.188 8 108330207.597 8     -1041.219          51.000    20614552.992 8  84413169.635 8      -811.339          51.000
G04  20506906.281 8 107764586.555 8      1237.770          50.000    20506907.656 8  83972409.245 8       964.493          48.000
G09  22401617.367 8 117721395.221 8      3070.508          49.000    22401620.094 8  91730909.541 8      2392.607          49.000
R05  19731942.531 6 105478545.462 6     -1535.766          37.000    19731953.266 5  82038903.438 5     -1194.484          35.000
R06  20730578.586 5 110622330.478 5      2231.160          30.000
R20  20152623.992 6 107765138.822 6     -2678.613          39.000    20152628.609 8  83817324.405 8     -2083.366          49.000
C14  25424004.828 5 132389464.761 5     -2701.855          31.000    25423999.430 5 102371879.995 5     -2089.406          33.000
C25  26000463.102 7 135391230.756 7      2826.367          42.000
C27  22439680.055 8 116849274.509 8      -945.988          48.000
C28  24349832.812 5 126795989.249 5     -3275.934          30.000
E07  23895190.484 8 125570075.212 8     -1238.840          51.000    23895193.539 8  96216051.620 8      -949.220          51.000
E13  27621769.703 5 145153370.819 5     -3138.398          34.000    27621772.156 5 111221434.601 5     -2404.672          32.000
E19  27936775.891 6 146808746.995 6      2639.711          38.000    27936776.727 6 112489824.161 6      2022.642          41.000
E26  22975156.812 8 120735257.703 8     -1705.574          51.000    22975159.766 8  92511438.146 8     -1306.824          51.000
> 2020 05 06 22 13 30.0000000  0 15        .000000000000
G01  22397516.086 8 117699723.311 8     -3049.707          50.000    22397517.211 8  91714074.905 8     -2376.395          50.000
G03  20620492.367 8 108361428.614 8     -1045.684          51.000    20620494.062 8  84437497.706 8      -814.818          51.000
G04  20499857.516 8 107727545.367 8      1226.141          49.000    20499858.867 8  83943545.990 8       955.434          49.000
G09  22384086.820 8 117629270.919 8      3065.816          50.000    22384089.461 8  91659124.404 8      2388.951          50.000
G19  22159406.562 5 116448456.918 5       195.285          35.000
R05  19740570.227 6 105524632.659 6     -1542.328          38.000    19740577.055 5  82074749.042 5     -1199.589          34.000
R06  20718038.930 4 110555424.447 4      2224.773          28.000
R20  20167682.992 6 107845666.428 6     -2695.273          39.000    20167687.750 8  83879956.991 8     -2096.324          49.000
C14  25439540.664 5 132470369.395 5     -2696.859          30.000    25439536.234 5 102434440.605 5     -2085.576          34.000
C25  25984156.727 6 135306320.235 6      2829.047          40.000
C27  22445147.469 8 116877744.784 8      -957.359          48.000
E07  23902254.391 8 125607196.765 8     -1241.211          51.000    23902257.500 8  96244495.391 8      -951.082          51.000
E13  27639663.195 5 145247409.992 5     -3135.406          31.000
E19  27921686.359 6 146729452.238 6      2641.438          39.000    27921687.625 6 112429065.874 6      2023.923          41.000
E26  22984896.023 8 120786437.163 8     -1711.805          51.000    22984899.141 8  92550653.605 8     -1311.625          51.000
> 2020 05 06 22 14  0.0000000  0 15        .000000000000
G01  22414969.906 8 117791443.784 8     -3055.055          49.000    22414970.984 8  91785545.398 8     -2380.565          49.000
G03  20626504.703 8 108393024.053 8     -1050.801          51.000    20626506.477 8  84462117.535 8      -818.806          51.000
G04  20492922.336 8 107691100.362 8      1213.523          50.000    20492923.586 8  83915147.322 8       945.606          50.000
G09  22366628.836 8 117537527.067 8      3060.344          50.000    22366631.305 8  91587635.729 8      2384.686          50.000
G17  22179838.625 6 116555836.481 6      -957.531          36.000
G19  22158368.359 5 116442985.330 5       177.684          30.000
R05  19749277.125 6 105571167.891 6     -1549.875          38.000    19749274.312 5  82110943.010 5     -1205.458          30.000
R20  20182881.336 6 107926939.559 6     -2713.023          39.000    20182886.133 8  83943169.435 8     -2110.129          48.000
C14  25455094.695 4 132551360.777 4     -2694.344          28.000    25455091.703 5 102497077.511 5     -2082.821          33.000
C25  25967881.617 6 135221571.088 6      2830.508          41.000
C27  22450726.430 8 116906798.508 8      -969.770          49.000
C28  24387588.953 5 126992565.569 5     -3276.734          31.000
E07  23909378.406 8 125644633.296 8     -1244.496          51.000    23909381.336 8  96273180.516 8      -953.608          51.000
E19  27906633.844 6 146650353.513 6      2642.000          40.000    27906636.234 7 112368457.782 7      2024.297          42.000
E26  22994717.062 8 120838047.672 8     -1718.930          51.000    22994720.578 8  92590199.328 8     -1317.099          51.000
> 2020 05 06 22 14 30.0000000  0 15        .000000000000
G01  22432462.102 8 117883367.379 8     -3068.238          49.000    22432464.031 8  91857174.155 8     -2390.838          49.000
G03  20632555.273 8 108424820.354 8     -1063.727          51.000    20632557.195 8  84486893.879 8      -828.878          51.000
G04  20486067.789 8 107655078.849 8      1193.035          51.000    20486068.734 8  83887078.625 8       929.638          50.000
G09  22349210.398 8 117445992.255 8      3047.109          49.000    22349212.836 8  91516309.929 8      2374.371          49.000
G17  22185381.875 5 116584960.824 5      -978.672          35.000
G22  22201845.508 5 116671501.515 5     -2084.945          35.000
R05  19758032.977 6 105617973.257 6     -1564.816          38.000    19758032.891 5  82147347.193 5     -1217.076          34.000
R20  20198185.438 6 108008779.233 6     -2737.602          39.000    20198190.227 7  84006822.507 7     -2129.249          47.000
C14  25470634.516 4 132632277.537 4     -2696.699          28.000    25470632.805 4 102559682.628 4     -2085.721          29.000
C25  25951604.883 6 135136814.260 6      2824.840          39.000
C27  22456384.539 8 116936263.320 8      -989.566          50.000
C28  24406510.328 5 127091076.595 5     -3285.547          35.000
E07  23916529.305 8 125682210.592 8     -1255.527          51.000    23916532.055 8  96301973.507 8      -962.006          51.000
E19  27891585.898 6 146571278.559 6      2634.773          41.000    27891589.680 7 112307867.922 7      2018.855          42.000
E26  23004587.094 8 120889915.452 8     -1733.762          51.000    23004590.703 8  92629942.171 8     -1328.482          51.000
> 2020 05 06 22 15  0.0000000  0 16        .000000000000
G01  22450021.172 8 117975642.130 8     -3074.840          49.000    22450023.859 8  91929076.558 8     -2395.979          49.000
G03  20638672.492 8 108456966.771 8     -1070.500          51.000    20638674.609 8  84511943.019 8      -834.156          51.000
G04  20479322.289 8 107619630.930 8      1178.922          50.000    20479323.000 8  83859456.878 8       918.640          50.000
G09  22331860.414 8 117354817.749 8      3039.969          49.000    22331862.586 8  91445264.891 8      2368.807          48.000
G17  22191036.406 5 116614684.259 5      -994.102          32.000
G31  23496224.891 5 123473478.389 5     -1223.668          34.000
R05  19766868.430 6 105665199.106 6     -1574.035          41.000    19766870.672 5  82184078.496 5     -1224.247          34.000
R20  20213623.758 6 108091334.499 6     -2756.844          38.000    20213628.211 7  84071032.140 7     -2144.215          47.000
C14  25486190.695 5 132713281.683 5     -2694.883          31.000
C24  25526355.555 5 132922427.294 5      1059.695          31.000
C25  25935354.969 6 135052200.721 6      2824.910          38.000
C27  22462150.297 8 116966286.722 8     -1003.270          50.000
C28  24425472.844 6 127189805.942 6     -3288.270          38.000
E07  23923735.156 8 125720077.238 8     -1260.086          51.000    23923738.070 8  96330988.216 8      -965.559          51.000
E19  27876571.258 7 146492377.486 7      2634.133          42.000    27876576.375 7 112247411.305 7      2018.215          42.000
E26  23014534.562 8 120942189.478 8     -1742.359          51.000    23014537.953 8  92669996.285 8     -1335.031          51.000
> 2020 05 06 22 15 30.0000000  0 16        .000000000000
G01  22467625.945 8 118068155.862 8     -3092.938          50.000    22467629.031 8  92001165.173 8     -2410.081          50.000
G03  20644835.273 8 108489352.176 8     -1088.828          51.000    20644837.336 8  84537178.384 8      -848.437          51.000
G04  20472664.844 8 107584646.340 8      1153.066          50.000    20472665.453 8  83832196.184 8       898.496          50.000
G09  22314558.312 8 117263894.520 8      3021.141          49.000    22314559.484 8  91374415.678 8      2354.139          48.000
G22  22225748.070 5 116797093.537 5     -2102.855          34.000
G31  23503289.664 6 123510604.976 6     -1251.566          40.000    23503295.367 6  96242055.894 6      -975.244          37.000
R05  19775760.688 6 105712730.666 6     -1594.715          37.000    19775763.906 5  82221047.506 5     -1240.337          31.000
R20  20229174.250 6 108174490.194 6     -2786.895          38.000    20229178.773 7  84135708.769 7     -2167.585          47.000
C14  25501740.461 5 132794250.090 5     -2703.926          32.000    25501738.242 5 102684938.989 5     -2090.910          31.000
C24  25520309.828 5 132890958.396 5      1036.922          34.000
C25  25919111.633 6 134967623.281 6      2813.648          36.000
C27  22468001.938 8 116996758.193 8     -1028.465          49.000
C28  24444455.570 6 127288641.596 6     -3301.750          39.000
E07  23930974.680 8 125758121.473 8     -1276.480          51.000    23930977.844 8  96360138.995 8      -978.041          51.000
E19  27861569.062 7 146413540.277 7      2621.520          42.000    27861575.250 7 112187003.614 7      2008.643          43.000
E26  23024538.156 8 120994758.413 8     -1762.535          51.000    23024541.406 8  92710276.354 8     -1350.523          51.000
> 2020 05 06 22 16  0.0000000  0 16        .000000000000
G01  22485288.914 8 118160973.586 8     -3105.039          50.000    22485290.578 8  92073490.675 8     -2419.511          51.000
G03  20651056.180 8 108522042.710 8     -1100.895          51.000    20651057.953 8  84562651.521 8      -857.840          51.000
G04  20466108.516 8 107550192.067 8      1133.531          51.000    20466108.852 8  83805348.721 8       883.274          49.000
G09  22297316.883 8 117173290.706 8      3008.617          48.000    22297317.289 8  91303815.365 8      2344.380          48.000
G22  22237750.227 5 116860168.319 5     -2111.945          34.000
G31  23510466.258 6 123548320.894 6     -1273.277          37.000    23510468.953 6  96271444.963 6      -992.161          37.000
R05  19784720.391 5 105760633.492 5     -1609.016          32.000    19784721.414 5  82258305.207 5     -1251.451          30.000
R20  20244849.180 6 108258311.124 6     -2811.406          38.000    20244853.969 7  84200902.829 7     -2186.649          47.000
C14  25517295.375 5 132875247.964 5     -2706.676          32.000    25517289.602 5 102747571.536 5     -2093.067          32.000
C24  25514350.219 5 132859935.406 5      1021.602          31.000
C25  25902888.805 6 134883150.473 6      2808.312          37.000
C27  22473951.555 8 117027742.797 8     -1047.516          48.000
C28  24463470.164 6 127387647.434 6     -3309.203          36.000
E07  23938260.445 8 125796408.717 8     -1286.320          51.000    23938263.555 8  96389475.984 8      -985.664          51.000
E19  27846591.945 7 146334834.109 7      2615.457          42.000    27846598.742 7 112126696.332 7      2004.040          43.000
E26  23034610.180 8 121047688.108 8     -1776.363          51.000    23034613.609 8  92750832.830 8     -1361.098          51.000
> 2020 05 06 22 16 30.0000000  0 14        .000000000000
G01  22503012.492 8 118254109.028 8     -3103.715          51.000    22503012.273 8  92146063.708 8     -2418.479          51.000
G03  20657337.930 8 108555053.250 8     -1099.660          51.000    20657339.672 8  84588374.008 8      -856.878          51.000
G04  20459655.836 8 107516283.709 8      1127.160          50.000    20459656.031 8  83778926.650 8       878.310          48.000
G09  22280139.391 8 117083023.260 8      3009.246          48.000    22280140.086 8  91233477.112 8      2344.864          48.000
G31  23517757.922 6 123586640.297 6     -1280.898          37.000    23517751.297 4  96301304.022 4      -998.112          27.000
R05  19793752.258 5 105808921.197 5     -1609.789          31.000    19793754.938 5  82295862.339 5     -1252.058          33.000
R20  20260650.344 6 108342809.527 6     -2821.875          37.000    20260655.867 8  84266623.838 8     -2194.789          48.000
C14  25532858.711 5 132956289.962 5     -2695.590          31.000    25532853.438 5 102810238.339 5     -2084.878          34.000
C25  25886689.797 6 134798799.956 6      2815.500          39.000
C27  22480001.633 7 117059254.780 7     -1053.195          47.000
C28  24482519.328 5 127486836.263 5     -3302.965          35.000
E07  23945595.227 8 125834953.209 8     -1283.031          51.000    23945598.133 8  96419010.081 8      -983.126          51.000
E19  27831642.750 6 146256274.783 6      2622.199          41.000    27831649.484 7 112066501.557 7      2009.176          42.000
E26  23044753.383 8 121100993.176 8     -1777.074          51.000    23044757.164 8  92791676.930 8     -1361.615          51.000
> 2020 05 06 22 17  0.0000000  0 16        .000000000000
G01  22520790.953 8 118347534.062 8     -3121.391          50.000    22520789.195 8  92218862.394 8     -2432.255          50.000
G03  20663675.492 8 108588356.752 8     -1117.422          51.000    20663677.219 8  84614324.769 8      -870.718          51.000
G04  20453302.070 8 107482895.049 8      1101.820          51.000    20453302.180 8  83752909.514 8       858.561          49.000
G09  22263021.289 8 116993067.142 8      2991.020          48.000    22263022.664 8  91163381.448 8      2330.665          49.000
G22  22261872.164 6 116986922.859 6     -2121.535          36.000    22261869.516 5  91158622.548 5     -1653.144          34.000
G31  23525158.508 5 123625535.111 5     -1308.230          34.000    23525151.742 5  96331611.579 5     -1019.403          34.000
R05  19802850.781 5 105857565.025 5     -1630.254          33.000    19802855.000 5  82333696.444 5     -1267.972          32.000
R20  20276572.570 6 108427955.588 6     -2851.242          37.000    20276578.906 8  84332848.568 8     -2217.633          48.000
C14  25548425.664 5 133037349.527 5     -2704.965          31.000    25548421.070 5 102872918.595 5     -2091.454          35.000
C24  25502695.406 5 132799219.820 5       994.449          34.000
C25  25870510.469 6 134714547.971 6      2804.238          40.000
C27  22486148.453 7 117091266.944 7     -1077.828          47.000
C28  24501598.078 5 127586179.628 5     -3316.539          33.000
E07  23952973.719 8 125873727.240 8     -1298.633          51.000    23952976.625 8  96448720.058 8      -995.071          51.000
E19  27816716.305 7 146177836.348 7      2610.332          42.000    27816722.078 7 112006399.417 7      2000.011          42.000
E26  23054962.930 8 121154646.241 8     -1796.492          51.000    23054966.648 8  92832787.705 8     -1376.572          51.000
> 2020 05 06 22 17 30.0000000  0 17        .000000000000
G01  22538613.680 7 118441194.128 7     -3128.250          47.000    22538612.391 7  92291844.237 7     -2437.597          47.000
G03  20670058.625 8 108621899.880 8     -1124.012          51.000    20670060.336 8  84640462.243 8      -875.853          51.000
G04  20447037.461 8 107449973.524 8      1087.641          51.000    20447037.727 8  83727256.404 8       847.512          50.000
G09  22245952.984 8 116903371.100 8      2983.391          50.000    22245954.484 8  91093488.438 8      2324.720          50.000
G17  22220799.570 6 116771096.305 6     -1087.969          37.000
G22  22273978.336 6 117050538.540 6     -2124.867          38.000    22273973.320 6  91208213.089 6     -1655.744          36.000
G31  23532658.117 4 123664952.473 4     -1325.082          29.000    23532655.641 4  96362288.735 4     -1032.516          26.000
R05  19812006.367 6 105906508.685 6     -1638.340          38.000    19812011.930 5  82371763.708 5     -1274.267          33.000
R20  20292605.844 6 108513692.348 6     -2869.805          38.000    20292612.281 7  84399532.705 7     -2232.070          46.000
C14  25563985.164 5 133118373.485 5     -2702.469          31.000    25563981.852 6 102935571.351 6     -2089.566          37.000
C24  25496987.852 5 132769483.897 5       983.223          31.000
C25  25854340.609 6 134630344.580 6      2803.957          40.000
C27  22492381.953 8 117123725.959 8     -1091.461          48.000
C28  24520695.602 4 127685622.782 4     -3317.363          29.000
E07  23960385.578 8 125912676.821 8     -1303.211          51.000    23960388.680 8  96478564.549 8      -998.570          51.000
E19  27801802.641 7 146099466.195 7      2609.336          42.000    27801806.414 7 111946349.603 7      1999.316          42.000
E26  23065228.648 8 121208593.720 8     -1805.141          51.000    23065232.219 8  92874124.100 8     -1383.091          51.000
> 2020 05 06 22 18  0.0000000  0 15        .000000000000
G01  22556507.922 7 118535235.949 7     -3143.254          46.000    22556508.797 7  92365123.602 7     -2449.286          46.000
G03  20676515.430 8 108655830.530 8     -1139.852          51.000    20676517.102 8  84666901.689 8      -888.196          51.000
G04  20440890.156 8 107417667.737 8      1064.340          51.000    20440890.602 8  83702083.093 8       829.356          50.000
G09  22228962.828 8 116814085.020 8      2967.059          50.000    22228963.609 8  91023914.886 8      2311.994          50.000
G17  22227073.328 6 116804064.791 6     -1111.090          39.000
G22  22286138.719 6 117114437.693 6     -2137.277          40.000    22286133.773 5  91258004.635 5     -1665.411          33.000
R04  23317583.430 5 124864579.197 5     -3499.172          31.000
R05  19821247.766 5 105955901.107 5     -1655.684          32.000    19821251.953 5  82410180.130 5     -1287.748          31.000
R20  20308777.734 6 108600167.848 6     -2897.039          40.000    20308782.977 7  84466791.395 7     -2253.256          44.000
C14  25579566.297 4 133199508.377 4     -2708.039          29.000    25579563.984 6 102998310.028 6     -2094.617          36.000
C25  25838208.258 6 134546339.400 6      2794.352          39.000
C27  22498729.430 8 117156777.832 8     -1113.863          49.000
E07  23967858.891 8 125951949.161 8     -1316.781          51.000    23967862.062 8  96508656.352 8     -1008.953          51.000
E19  27786930.414 7 146021313.538 7      2599.281          42.000    27786931.930 7 111886466.457 7      1991.483          42.000
E26  23075578.312 8 121262983.193 8     -1822.676          51.000    23075582.430 8  92915799.180 8     -1396.578          51.000
> 2020 05 06 22 18 30.0000000  0 17        .000000000000
G01  22574438.945 7 118629468.678 7     -3140.500          47.000    22574441.711 7  92438551.775 7     -2447.140          47.000
G03  20683009.836 8 108689958.988 8     -1137.062          51.000    20683011.312 8  84693495.290 8      -886.023          51.000
G04  20434824.055 8 107385788.739 8      1059.332          51.000    20434824.484 8  83677242.315 8       825.454          50.000
G09  22212014.812 8 116725021.167 8      2968.789          50.000    22212015.062 8  90954514.502 8      2313.342          50.000
G17  22233429.891 5 116837471.226 5     -1116.484          35.000
G22  22298315.945 6 117178431.090 6     -2130.578          38.000    22298311.953 6  91307869.532 6     -1660.191          37.000
R04  23337146.531 4 124969358.038 4     -3486.422          28.000
R05  19830533.773 6 106005547.914 6     -1655.148          36.000    19830537.312 5  82448794.339 5     -1287.335          31.000
R20  20325051.266 6 108687186.360 6     -2905.891          39.000    20325054.383 7  84534472.419 7     -2260.137          43.000
C14  25595131.453 4 133280565.740 4     -2697.590          28.000    25595132.297 5 103060989.018 5     -2085.377          34.000
C24  25485840.859 5 132711415.182 5       959.543          35.000
C25  25822077.648 6 134462347.427 6      2803.234          38.000
C27  22505154.617 8 117190234.053 8     -1118.254          49.000
C28  24558989.445 5 127885087.831 5     -3321.855          31.000
E07  23975357.492 8 125991353.875 8     -1311.914          51.000    23975360.422 8  96538849.576 8     -1005.248          51.000
E19  27772063.812 6 145943189.502 6      2607.484          41.000    27772063.742 7 111826605.230 7      1997.844          42.000
E26  23085975.984 8 121317624.636 8     -1821.773          51.000    23085981.031 8  92957667.321 8     -1395.907          51.000
> 2020 05 06 22 19  0.0000000  0 19        .000000000000
G01  22592417.625 8 118723947.080 8     -3155.738          48.000    22592421.602 8  92512171.312 8     -2459.017          48.000
G03  20689552.516 8 108724341.046 8     -1152.680          51.000    20689553.859 8  84720286.510 8      -898.192          51.000
G04  20428849.719 8 107354392.979 8      1036.137          51.000    20428850.352 8  83652778.100 8       807.382          51.000
G09  22195119.477 8 116636237.376 8      2952.297          48.000    22195120.195 8  90885332.315 8      2300.491          48.000
G17  22239880.109 5 116871359.525 5     -1141.371          32.000
G22  22310522.039 6 117242574.022 6     -2143.191          40.000    22310517.844 5  91357850.977 5     -1670.019          34.000
R04  23356698.977 5 125074066.681 5     -3491.457          31.000
R05  19839880.078 6 106055504.064 6     -1672.762          38.000    19839881.883 5  82487649.086 5     -1301.037          31.000
R06  20584736.250 5 109844077.666 5      2087.684          30.000
R14  22959140.680 6 122385141.034 6       819.418          38.000    22959145.203 5  95188447.770 5       637.325          31.000
R20  20341435.766 6 108774802.039 6     -2932.715          38.000    20341438.555 7  84602617.918 7     -2281.000          45.000
C14                                                                  25610694.922 5 103123650.871 5     -2089.883          30.000
C24  25480380.781 6 132682969.095 6       939.211          36.000
C25  25805960.828 6 134378426.855 6      2793.605          40.000
C27  22511668.102 8 117224149.317 8     -1140.500          50.000
C28  24578169.016 5 127984938.560 5     -3332.133          35.000
E07  23982891.820 8 126030946.095 8     -1325.195          51.000    23982894.375 8  96569186.478 8     -1015.406          51.000
E19  27757213.781 6 145865150.876 6      2597.250          41.000    27757212.844 7 111766809.433 7      1990.376          42.000
E26  23096432.523 8 121372573.573 8     -1839.062          51.000    23096437.984 8  92999771.054 8     -1409.152          51.000
> 2020 05 06 22 19 30.0000000  0 18        .000000000000
G01  22610466.969 8 118818795.164 8     -3163.152          49.000    22610471.383 8  92586078.904 8     -2464.794          49.000
G03  20696167.289 8 108759102.043 8     -1160.180          51.000    20696168.648 8  84747373.003 8      -904.036          51.000
G04  20422991.305 8 107323606.507 8      1020.805          51.000    20422991.852 8  83628788.650 8       795.432          51.000
G09  22178301.297 8 116547860.904 8      2943.859          48.000    22178302.641 8  90816467.492 8      2293.916          48.000
G17  22246448.430 5 116905875.804 5     -1156.238          35.000
G22  22322780.750 6 117306992.233 6     -2147.062          41.000    22322777.453 6  91408046.960 6     -1673.036          37.000
R04  23376265.977 5 125178854.072 5     -3489.305          33.000
R05  19849307.562 6 106105895.578 6     -1682.098          37.000    19849309.133 5  82526842.517 5     -1308.295          30.000
R14  22954606.820 6 122360955.670 6       797.242          37.000    22954608.281 5  95169636.998 5       620.077          32.000
R20  20357954.914 6 108863139.542 6     -2951.574          38.000    20357958.781 7  84671324.858 7     -2295.669          47.000
C14                                                                  25626274.367 4 103186390.755 4     -2089.059          29.000
C24  25475020.680 4 132655055.153 4       926.316          28.000
C25  25789883.156 6 134294704.846 6      2792.141          41.000
C27  22518293.773 8 117258647.252 8     -1155.016          51.000
C28  24597389.508 5 128085020.051 5     -3335.371          32.000
E07  23990485.492 8 126070850.476 8     -1330.715          51.000    23990487.875 8  96599762.566 8     -1019.663          51.000
E19  27742404.328 7 145787323.998 7      2595.105          42.000    27742403.133 7 111707175.892 7      1988.766          43.000
E26  23106971.727 8 121427954.965 8     -1848.582          51.000    23106976.977 8  93042206.137 8     -1416.452          51.000
> 2020 05 06 22 20  0.0000000  0 18        .000000000000
G01  22628556.680 8 118913855.263 8     -3174.504          49.000    22628560.992 8  92660151.707 8     -2473.639          49.000
G03  20702824.383 8 108794085.489 8     -1172.082          51.000    20702825.859 8  84774632.827 8      -913.311          51.000
G04  20417218.852 8 107293273.478 8      1001.277          51.000    20417219.203 8  83605152.535 8       780.219          51.000
G09  22161531.680 8 116459737.336 8      2931.020          49.000    22161533.078 8  90747799.761 8      2283.911          49.000
G17  22253104.852 6 116940851.889 6     -1175.723          36.000
G22  22335061.586 6 117371529.088 6     -2155.656          39.000    22335058.695 6  91458335.402 6     -1679.735          37.000
R04  23395818.836 5 125283559.920 5     -3491.160          32.000
R05  19858786.258 6 106156561.842 6     -1695.559          38.000    19858789.523 5  82566249.613 5     -1318.765          31.000
R06  20561388.688 5 109719561.100 5      2063.102          32.000
R14  22950192.922 6 122337430.064 6       771.129          38.000    22950195.570 5  95151339.303 5       599.767          32.000
R20  20374579.141 6 108952036.980 6     -2974.918          38.000    20374584.000 8  84740467.299 8     -2313.825          48.000
C14                                                                  25641844.617 5 103249090.670 5     -2091.049          31.000
C25  25773814.742 6 134211029.351 6      2786.121          40.000
C27  22525001.656 8 117293572.255 8     -1173.598          51.000
C28  24616625.414 5 128185175.227 5     -3341.457          35.000
E07  23998108.602 8 126110909.853 8     -1340.098          51.000    23998111.070 8  96630457.417 8     -1026.828          51.000
E19  27727605.727 7 145709553.345 7      2589.328          42.000    27727604.641 7 111647585.469 7      1983.938          43.000
E26  23117563.586 8 121483611.972 8     -1862.078          51.000    23117568.016 8  93084852.405 8     -1426.757          51.000
> 2020 05 06 22 20 30.0000000  0 18        .000000000000
G01  22646700.367 8 119009199.160 8     -3182.660          49.000    22646704.391 8  92734445.641 8     -2479.995          50.000
G03  20709537.766 8 108829364.392 8     -1180.840          51.000    20709539.383 8  84802122.896 8      -920.135          51.000
G04  20411546.688 8 107263467.556 8       984.836          51.000    20411547.164 8  83581927.135 8       767.405          51.000
G09  22144824.953 8 116371941.510 8      2921.137          50.000    22144825.500 8  90679387.447 8      2276.210          50.000
G17  22259861.750 5 116976359.245 5     -1192.027          33.000
G22  22347379.227 6 117436257.294 6     -2160.355          39.000    22347376.008 5  91508772.973 5     -1683.394          34.000
R04  23415370.477 5 125388257.822 5     -3489.332          30.000
R05  19868330.016 6 106207575.301 6     -1705.926          37.000    19868334.383 4  82605926.802 4     -1326.828          26.000
R06  20549818.141 5 109657828.672 5      2052.062          34.000
R14  22945917.203 6 122314639.928 6       747.445          39.000    22945920.070 5  95133613.700 5       581.346          31.000
R20  20391321.820 6 109041566.046 6     -2994.242          37.000    20391326.953 8  84810101.005 8     -2328.858          48.000
C14                                                                  25657420.781 5 103311805.630 5     -2090.412          34.000
C25  25757769.289 6 134127475.739 6      2783.109          39.000
C27  22531804.477 8 117328996.038 8     -1188.980          49.000
C28  24635888.852 6 128285474.729 6     -3346.141          36.000
E07  24005774.891 8 126151196.551 8     -1346.414          51.000    24005777.578 8  96661326.439 8     -1031.665          51.000
E19  27712831.812 7 145631912.760 7      2586.105          42.000    27712831.008 7 111588094.664 7      1981.636          43.000
E26  23128221.617 8 121539617.223 8     -1872.422          51.000    23128224.805 8  93127765.509 8     -1434.722          51.000
> 2020 05 06 22 21  0.0000000  0 19        .000000000000
G01  22664896.195 8 119104816.619 8     -3191.215          50.000    22664899.430 8  92808952.744 8     -2486.661          49.000
G03  20716305.586 8 108864929.602 8     -1189.719          51.000    20716307.383 8  84829836.053 8      -927.054          51.000
G04  20405973.195 8 107234180.283 8       968.133          51.000    20405973.883 8  83559105.898 8       754.389          51.000
G09  22128179.516 8 116284466.339 8      2911.023          51.000    22128179.164 8  90611225.017 8      2268.330          51.000
G17  22266716.328 5 117012383.852 5     -1209.184          33.000
G22  22359731.633 5 117501168.157 5     -2165.062          35.000    22359727.797 5  91559352.876 5     -1687.062          33.000
G31  23588219.594 5 123956922.389 5     -1454.414          34.000    23588220.250 5  96589800.081 5     -1133.313          31.000
R04  23434919.211 5 125492937.682 5     -3488.742          30.000
R05  19877935.539 5 106258925.236 5     -1715.828          31.000
R06  20538320.672 5 109596467.362 5      2040.105          32.000
R14  22941778.250 6 122292578.470 6       723.848          39.000    22941780.273 5  95116454.725 5       562.990          31.000
R20  20408180.648 6 109131714.677 6     -3014.957          37.000    20408185.242 8  84880216.592 8     -2344.967          48.000
C14                                                                  25672998.969 5 103374528.574 5     -2090.642          34.000
C25  25741744.922 6 134044037.884 6      2779.941          38.000
C27  22538700.492 8 117364908.953 8     -1204.797          49.000
C28  24655176.094 6 128385907.570 6     -3349.523          36.000
E07  24013482.539 8 126191700.804 8     -1353.207          51.000    24013485.328 8  96692362.154 8     -1036.888          51.000
E19  27698080.891 6 145554394.282 6      2582.422          40.000    27698080.469 7 111528697.436 7      1978.820          43.000
E26  23138943.836 8 121595961.262 8     -1883.238          51.000    23138945.969 8  93170938.206 8     -1443.004          51.000
> 2020 05 06 22 21 30.0000000  0 14        .000000000000
G01  22683138.602 8 119200679.574 8     -3200.215          49.000    22683141.102 8  92883651.132 8     -2493.674          49.000
G03  20723122.766 8 108900754.334 8     -1199.160          51.000    20723124.617 8  84857751.442 8      -934.411          51.000
G04  20400493.648 8 107205385.414 8       950.918          51.000    20400494.094 8  83536668.340 8       740.975          50.000
G09  22111590.227 8 116197286.947 8      2900.309          51.000    22111589.961 8  90543293.082 8      2259.981          51.000
R05  19887598.656 6 106310582.764 6     -1727.645          37.000    19887608.508 5  82686025.559 5     -1343.727          31.000
R14  22937770.586 6 122271220.436 6       699.277          38.000    22937773.398 5  95099842.953 5       543.882          31.000
R20  20425148.789 6 109222452.616 6     -3035.098          36.000    20425153.688 8  84950790.569 8     -2360.632          48.000
C14                                                                  25688573.641 5 103437238.917 5     -2090.702          31.000
C25  25725738.344 6 133960692.270 6      2775.891          40.000
C27  22545685.547 8 117401283.758 8     -1220.879          49.000
C28  24674481.703 5 128486445.470 5     -3353.793          34.000
E07  24021226.312 8 126232395.096 8     -1360.336          51.000    24021229.016 8  96723543.498 8     -1042.362          51.000
E19  27683347.633 6 145476972.001 6      2578.270          38.000    27683347.875 7 111469373.913 7      1975.497          43.000
E26  23149724.883 8 121652616.869 8     -1894.422          51.000    23149726.516 8  93214349.628 8     -1451.552          51.000
> 2020 05 06 22 22  0.0000000  0 16        .000000000000
G01  22701433.086 8 119296817.392 8     -3210.855          48.000    22701435.289 8  92958563.693 8     -2501.968          48.000
G03  20729995.188 8 108936869.193 8     -1210.484          51.000    20729997.117 8  84885892.897 8      -943.235          51.000
G04  20395113.891 8 107177114.149 8       931.836          51.000    20395114.227 8  83514638.803 8       726.106          50.000
G09  22095063.164 8 116110435.922 8      2887.816          50.000    22095063.336 8  90475616.996 8      2250.250          50.000
G17  22280715.930 5 117085964.176 5     -1245.023          34.000
R05  19897326.289 6 106362577.739 6     -1740.645          39.000    19897334.656 5  82726466.101 5     -1353.835          31.000
R14  22933901.047 6 122250599.094 6       673.578          36.000    22933905.375 5  95083804.105 5       523.894          30.000
R20  20442232.148 5 109313808.439 5     -3057.199          35.000    20442237.547 8  85021845.143 8     -2377.822          48.000
C14  25704152.773 4 133848266.595 4     -2705.805          28.000    25704150.711 4 103499959.988 4     -2092.430          29.000
C24  25449436.477 5 132521895.180 5       849.531          35.000
C25  25709756.453 7 133877472.111 7      2770.234          42.000
C27  22552765.633 8 117438150.172 8     -1238.699          50.000
C28  24693811.531 5 128587116.935 5     -3359.805          35.000
E07  24029011.992 8 126273309.401 8     -1369.207          51.000    24029014.469 8  96754893.405 8     -1049.094          51.000
E19  27668637.883 5 145399677.359 5      2572.570          35.000    27668639.141 7 111410148.180 7      1971.232          43.000
E26  23160570.477 8 121709614.310 8     -1907.359          51.000    23160572.523 8  93258022.968 8     -1461.477          51.000
> 2020 05 06 22 22 30.0000000  0 18        .000000000000
G01  22719780.359 7 119393234.776 7     -3218.031          47.000    22719782.562 7  93033694.115 7     -2507.554          46.000
G03  20736923.953 8 108973280.035 8     -1218.176          51.000    20736925.844 8  84914264.984 8      -949.225          51.000
G04  20389835.023 8 107149372.930 8       916.387          51.000    20389835.727 8  83493022.300 8       714.071          51.000
G09  22078599.992 8 116023921.044 8      2878.766          50.000    22078600.305 8  90408202.835 8      2243.194          50.000
G17  22287864.164 5 117123535.602 5     -1260.438          32.000
G31  23613615.297 5 124090385.703 5     -1511.090          35.000    23613615.656 5  96693810.994 5     -1177.473          35.000
R05  19907117.008 6 106414914.097 6     -1749.691          38.000    19907119.188 5  82767172.113 5     -1360.874          30.000
R06  20504238.117 5 109414525.206 5      2002.746          31.000
R14  22930171.484 5 122230722.261 5       650.742          32.000    22930176.578 5  95068344.217 5       506.124          30.000
R20  20459431.375 5 109405785.250 5     -3075.562          35.000    20459437.391 8  85093382.675 8     -2392.104          48.000
C14                                                                  25719729.664 5 103562693.213 5     -2090.799          30.000
C24  25444575.000 5 132496592.131 5       836.609          33.000
C25  25693801.398 7 133794386.199 7      2767.789          43.000
C27  22559941.406 8 117475513.320 8     -1253.117          51.000
C28  24713168.086 5 128687925.872 5     -3361.922          34.000
E07  24036840.578 8 126314448.874 8     -1374.441          51.000    24036842.898 8  96786415.853 8     -1053.164          51.000
E19  27653952.914 5 145322517.150 5      2570.930          34.000    27653955.664 7 111351025.486 7      1969.472          42.000
E26  23171482.195 8 121766959.020 8     -1916.660          51.000    23171485.047 8  93301962.396 8     -1468.694          51.000
> 2020 05 06 22 23  0.0000000  0 19        .000000000000
G01  22738178.344 7 119489920.080 7     -3222.180          45.000    22738180.156 7  93109033.280 7     -2510.789          46.000
G03  20743907.055 8 109009976.495 8     -1222.867          51.000    20743908.945 8  84942859.633 8      -952.884          51.000
G04  20384655.203 8 107122151.951 8       903.688          50.000    20384655.859 8  83471811.168 8       704.172          50.000
G09  22062198.906 8 115937733.887 8      2872.477          48.000    22062199.867 8  90341044.018 8      2238.293          48.000
G17  22295111.484 5 117161622.985 5     -1272.855          35.000
G19  22160902.398 5 116456338.652 5      -216.047          33.000
G22  22409471.531 5 117762565.129 5     -2185.723          35.000
G31  23622296.359 6 124135999.165 6     -1524.844          38.000    23622297.047 6  96729353.903 6     -1188.190          37.000
R05  19916968.797 6 106467580.048 6     -1755.883          38.000    19916968.734 4  82808134.537 4     -1365.690          27.000
R14  22926578.727 5 122211581.017 5       630.922          30.000    22926585.852 5  95053456.753 5       490.732          31.000
R20  20476745.031 6 109498369.681 6     -3091.113          36.000    20476751.336 8  85165392.794 8     -2404.199          49.000
C14                                                                  25735311.570 5 103625436.767 5     -2087.467          31.000
C24  25439800.148 5 132471718.066 5       825.926          30.000
C25  25677871.055 7 133711427.262 7      2768.238          44.000
C27  22567210.055 8 117513362.235 8     -1264.707          51.000
C28  24732549.477 5 128788860.268 5     -3361.707          31.000
E07  24044709.961 8 126355802.506 8     -1376.965          51.000    24044712.258 8  96818102.394 8     -1055.026          51.000
E19  27639292.500 5 145245482.223 5      2570.777          34.000    27639296.047 7 111291998.719 7      1969.777          42.000
E26  23182458.523 8 121824640.240 8     -1923.207          51.000    23182461.797 8  93346159.680 8     -1473.647          51.000
> 2020 05 06 22 23 30.0000000  0 18        .000000000000
G01  22756639.844 7 119586938.999 7     -3237.582          45.000    22756641.625 7  93184632.410 7     -2522.791          45.000
G03  20750957.172 8 109047025.424 8     -1238.746          51.000    20750959.203 8  84971728.912 8      -965.257          51.000
G04  20379586.992 8 107095518.616 8       879.996          50.000    20379587.477 8  83451057.926 8       685.714          50.000
G09  22045872.930 7 115851943.260 7      2855.270          47.000    22045874.914 8  90274194.182 8      2224.885          48.000
G17  22302470.078 6 117200291.627 6     -1296.598          37.000
G22  22422007.672 5 117828441.469 5     -2197.840          35.000
G31  23631096.109 6 124182235.858 6     -1549.625          39.000    23631096.094 6  96765382.506 6     -1207.500          39.000
R05  19926894.125 6 106520641.844 6     -1773.328          38.000    19926895.859 4  82849415.732 4     -1379.255          25.000
R06  20481875.281 5 109295211.466 5      1976.266          31.000
R20  20494185.102 6 109591626.849 6     -3117.621          38.000    20494190.906 8  85237926.143 8     -2424.816          49.000
C14                                                                  25750909.250 5 103688238.818 5     -2092.696          34.000
C24  25435124.883 5 132447382.614 5       804.809          30.000
C25  25661978.344 7 133628664.622 7      2757.496          45.000
C27  22574584.266 8 117551762.450 8     -1287.094          51.000
C28  24751969.609 5 128889984.595 5     -3371.875          34.000
E07  24052632.547 8 126397436.482 8     -1390.348          51.000    24052635.094 8  96850003.765 8     -1065.310          51.000
E19  27624670.172 5 145168620.193 5      2559.934          35.000    27624673.328 7 111233119.749 7      1961.801          42.000
E26  23193511.953 8 121882724.421 8     -1940.738          51.000    23193515.305 8  93390665.749 8     -1487.062          51.000
> 2020 05 06 22 24  0.0000000  0 16        .000000000000
G01  22775141.422 7 119684169.177 7     -3243.797          44.000    22775144.391 7  93260396.159 7     -2527.634          44.000
G03  20758051.297 8 109084305.805 8     -1245.832          51.000    20758053.383 8  85000778.548 8      -970.778          51.000
G04  20374607.719 8 107069352.465 8       865.113          50.000    20374608.586 8  83430668.737 8       674.114          50.000
G09  22029600.055 8 115766429.989 8      2846.301          49.000    22029602.656 8  90207560.469 8      2217.897          49.000
G17  22309916.156 6 117239419.269 6     -1311.047          37.000
G22  22434567.977 6 117894445.502 6     -2201.691          39.000    22434573.102 4  91865823.006 4     -1715.601          26.000
G31  23639990.242 6 124228973.982 6     -1565.746          39.000    23639990.227 6  96801801.865 6     -1220.059          38.000
R05  19936870.094 6 106573974.976 6     -1781.355          37.000    19936886.297 5  82890903.083 5     -1385.499          30.000
R20  20511727.531 6 109685430.775 6     -3135.066          39.000    20511732.570 8  85310884.746 8     -2438.385          49.000
C14                                                                  25766498.812 6 103751006.620 6     -2090.986          36.000
C25  25646100.844 7 133545981.289 7      2755.387          46.000
C27  22582040.898 8 117590593.323 8     -1300.852          51.000
C28  24771404.977 5 128991177.053 5     -3373.820          35.000
E07  24060585.219 8 126439229.094 8     -1394.977          51.000    24060588.102 8  96882026.694 8     -1068.851          51.000
E19  27610062.336 6 145091850.968 6      2558.719          38.000    27610064.828 7 111174296.606 7      1960.325          42.000
E26  23204618.992 8 121941090.091 8     -1949.500          51.000    23204622.555 8  93435387.510 8     -1493.809          51.000
> 2020 05 06 22 24 30.0000000  0 17        .000000000000
G01  22793680.664 7 119781595.163 7     -3253.312          44.000    22793685.055 7  93336312.532 7     -2535.049          44.000
G03  20765186.805 8 109121803.444 8     -1256.266          51.000    20765188.773 8  85029997.464 8      -978.908          51.000
G04  20369714.477 8 107043639.741 8       846.820          49.000    20369715.594 8  83410632.854 8       659.860          49.000
G09  22013378.070 8 115681181.693 8      2834.422          50.000    22013380.555 8  90141133.259 8      2208.643          50.000
G17  22317447.023 5 117278990.317 5     -1328.508          35.000
G22  22447150.172 6 117960563.227 6     -2208.277          40.000
G31  23648976.852 6 124276198.194 6     -1585.227          38.000    23648975.562 6  96838600.000 6     -1235.241          38.000
R05  19946894.977 6 106627563.566 6     -1793.336          37.000    19946908.461 4  82932583.144 4     -1394.814          24.000
R20  20529368.695 6 109779764.036 6     -3155.957          40.000    20529373.172 7  85384255.043 7     -2454.636          47.000
C14                                                                  25782077.047 5 103813729.324 5     -2091.783          35.000
C24  25426009.719 5 132399885.345 5       775.211          31.000
C25  25630235.906 7 133463366.115 7      2750.148          46.000
C27  22589577.227 8 117629839.974 8     -1317.836          51.000
C28  24790849.406 5 129092421.851 5     -3378.820          35.000
E07  24068565.375 8 126481165.465 8     -1402.953          51.000    24068568.305 8  96914159.767 8     -1074.957          51.000
E19  27595465.617 6 145015141.201 6      2553.270          41.000    27595467.906 7 111115519.006 7      1956.416          42.000
E26  23215776.641 8 121999722.585 8     -1961.543          51.000    23215780.609 8  93480313.726 8     -1503.027          51.000
> 2020 05 06 22 25  0.0000000  0 17        .000000000000
G01  22812283.250 7 119879351.868 7     -3261.355          45.000    22812288.406 7  93412486.608 7     -2541.316          45.000
G03  20772389.570 8 109159654.374 8     -1264.863          51.000    20772391.344 8  85059491.679 8      -985.608          51.000
G04  20364933.609 8 107018516.976 8       830.438          50.000    20364934.469 8  83391056.676 8       647.094          49.000
G09  21997232.789 8 115596336.425 8      2824.094          50.000    21997234.117 8  90075020.132 8      2200.596          50.000
G17  22325089.164 5 117319139.884 5     -1344.512          30.000
G22  22459779.766 6 118026930.720 6     -2213.484          39.000
G31  23658082.031 6 124324043.550 6     -1602.621          37.000    23658080.172 6  96875882.128 6     -1248.793          37.000
R05  19956994.398 6 106681544.257 6     -1803.133          36.000
R20  20547134.344 6 109874762.244 6     -3175.141          39.000    20547137.938 7  85458142.541 7     -2469.554          47.000
C14                                                                  25797669.461 5 103876511.144 5     -2091.590          33.000
C24  25421592.312 4 132376869.502 4       760.938          29.000
C25  25614410.312 7 133380956.987 7      2746.164          46.000
C27  22597219.195 8 117669636.546 8     -1333.074          51.000
C28  24810329.820 6 129193851.805 6     -3381.227          37.000
E07  24076598.695 8 126523381.025 8     -1409.105          51.000    24076601.617 8  96946506.755 8     -1079.776          51.000
E19  27580906.031 7 144938628.047 7      2549.707          42.000    27580908.406 7 111056892.085 7      1953.845          42.000
E26  23227010.578 8 122058757.553 8     -1971.938          51.000    23227014.844 8  93525548.326 8     -1510.857          51.000
> 2020 05 06 22 25 30.0000000  0 16        .000000000000
G01  22830929.062 7 119977333.765 7     -3276.953          47.000    22830934.094 7  93488836.188 7     -2553.467          47.000
G03  20779639.758 8 109197754.413 8     -1281.184          51.000    20779641.336 8  85089180.009 8      -998.325          51.000
G04  20360245.578 8 106993880.477 8       806.008          50.000    20360246.359 8  83371859.434 8       628.061          49.000
G09  21981144.148 8 115511791.914 8      2805.961          48.000    21981144.242 8  90009141.316 8      2186.463          48.000
G17  22332820.711 4 117359753.120 4     -1369.887          29.000    22332817.297 5  91449151.801 5     -1067.444          31.000
G22  22472437.172 6 118093443.716 6     -2226.891          41.000    22472440.727 5  92020860.921 5     -1735.221          31.000
G31  23667284.703 5 124372404.659 5     -1629.008          32.000    23667283.453 5  96913566.112 5     -1269.357          34.000
R05  19967147.641 5 106735809.576 5     -1820.551          33.000    19967145.188 4  83016760.224 4     -1415.984          25.000
R20  20565003.648 6 109970316.327 6     -3201.590          38.000    20565006.984 7  85532462.391 7     -2490.125          47.000
C14                                                                  25813256.391 5 103939272.264 5     -2097.075          34.000
C25  25598604.633 7 133298653.570 7      2734.672          46.000
C27  22604946.969 8 117709878.969 8     -1355.805          51.000
C28  24829824.938 5 129295362.031 5     -3392.145          34.000
E07  24084665.102 8 126565770.861 8     -1422.840          51.000    24084668.227 8  96978987.286 8     -1090.279          51.000
E19  27566363.977 7 144862208.004 7      2538.703          43.000    27566366.273 6 110998336.539 6      1945.177          41.000
E26  23238300.914 8 122118090.350 8     -1989.707          51.000    23238305.477 8  93571011.134 8     -1524.644          51.000
> 2020 05 06 22 26  0.0000000  0 14        .000000000000
G01  22849632.719 8 120075618.493 8     -3278.203          48.000    22849637.516 8  93565421.718 8     -2554.444          48.000
G03  20786952.328 8 109236182.537 8     -1283.469          51.000    20786953.898 8  85119124.028 8     -1000.106          51.000
G04  20355665.031 8 106969809.520 8       796.016          50.000    20355665.688 8  83353102.874 8       620.272          49.000
G09  21965127.359 7 115427628.864 7      2802.059          47.000    21965128.484 7  89943559.721 7      2183.422          47.000
G22  22485136.977 6 118160181.150 6     -2225.820          37.000    22485133.000 5  92072876.053 5     -1734.415          30.000
R05  19977366.672 5 106790438.146 5     -1823.922          33.000    19977366.602 4  83059258.284 4     -1418.603          29.000
R20  20582991.055 6 110066503.440 6     -3213.566          39.000    20582994.680 7  85607274.600 7     -2499.441          47.000
C14                                                                  25828852.898 5 104002072.963 5     -2091.741          33.000
C25  25582834.438 7 133216537.051 7      2737.082          45.000
C27  22612775.266 8 117750644.585 8     -1364.457          50.000
C28  24849349.406 5 129397028.800 5     -3389.121          32.000
E07  24092779.547 8 126608413.198 8     -1422.559          51.000    24092782.984 8  97011661.289 8     -1089.988          51.000
E19  27551854.758 7 144785961.137 7      2541.855          44.000    27551856.258 6 110939913.648 6      1947.632          40.000
E26  23249662.594 8 122177799.374 8     -1993.457          50.000    23249667.523 8  93616762.198 8     -1527.451          51.000
> 2020 05 06 22 26 30.0000000  0 15        .000000000000
G01  22868360.633 7 120174031.241 7     -3287.551          47.000    22868365.258 7  93642106.976 7     -2561.728          47.000
G03  20794294.352 8 109274765.036 8     -1293.691          51.000    20794295.820 8  85149188.310 8     -1008.071          51.000
G04  20351159.086 8 106946130.982 8       777.844          50.000    20351159.500 8  83334652.091 8       606.112          49.000
G09  21949151.242 8 115343675.544 8      2790.078          49.000    21949153.812 8  89878141.545 8      2174.087          49.000
G22  22497846.594 6 118226969.526 6     -2232.301          40.000    22497840.492 4  92124918.933 4     -1739.446          26.000
R05  19987620.641 6 106845251.982 6     -1835.047          37.000    19987622.711 5  83101891.348 5     -1427.259          31.000
R14  22905324.297 5 122098267.562 5       453.453          30.000    22905330.008 5  94965286.326 5       352.677          34.000
R20  20601063.336 6 110163143.890 6     -3233.957          39.000    20601066.797 7  85682439.407 7     -2515.300          47.000
C14                                                                  25844426.438 5 104064780.345 5     -2092.366          31.000
C24  25408835.578 5 132310467.288 5       714.789          30.000
C25  25567067.531 7 133134438.393 7      2731.512          46.000
C27  22620671.062 8 117791760.633 8     -1381.215          51.000
E07  24100909.023 8 126651133.824 8     -1430.117          51.000    24100912.531 8  97044395.283 8     -1095.768          51.000
E19  27537345.680 7 144709714.658 7      2536.785          43.000    27537345.648 6 110881491.074 6      1943.636          40.000
E26  23261062.828 8 122237710.576 8     -2005.250          50.000    23261067.508 8  93662668.184 8     -1536.427          51.000
> 2020 05 06 22 27  0.0000000  0 14        .000000000000
G01  22887153.555 7 120272787.157 7     -3301.383          47.000    22887158.102 7  93719059.630 7     -2572.506          47.000
G03  20801706.977 8 109313718.353 8     -1308.402          51.000    20801708.211 8  85179541.523 8     -1019.534          51.000
G04  20346769.180 8 106923061.715 8       755.062          50.000    20346769.539 8  83316676.051 8       588.360          50.000
G09  21933257.125 8 115260150.219 8      2773.117          49.000    21933259.875 8  89813056.866 8      2160.871          49.000
G17  22356578.812 5 117484603.364 5     -1418.281          34.000    22356577.445 5  91546451.740 5     -1105.151          30.000
G22  22510607.023 5 118294038.227 5     -2244.129          31.000    22510601.742 5  92177170.121 5     -1748.660          33.000
R05  19997949.180 5 106900469.758 5     -1851.301          31.000    19997950.727 5  83144838.493 5     -1439.895          31.000
R20  20619261.344 6 110260455.218 6     -3258.754          39.000    20619264.273 7  85758125.973 7     -2534.586          46.000
C24  25404757.992 5 132289258.794 5       693.973          35.000
C25  25551346.375 7 133052575.076 7      2721.168          47.000
C27  22628675.789 8 117833440.729 8     -1402.453          51.000
E07  24109094.547 8 126694148.486 8     -1442.375          51.000    24109097.836 8  97077354.565 8     -1105.208          51.000
E19  27522878.078 7 144633685.928 7      2526.938          43.000    27522876.797 6 110823235.330 6      1936.180          40.000
E26  23272543.242 8 122298039.879 8     -2021.656          51.000    23272546.469 8  93708894.545 8     -1549.046          51.000
> 2020 05 06 22 27 30.0000000  0 14        .000000000000
G01  22906000.219 7 120371825.772 7     -3301.871          47.000    22906004.383 7  93796232.571 7     -2572.887          47.000
G03  20809178.977 8 109352983.534 8     -1310.074          51.000    20809180.109 8  85210137.766 8     -1020.837          51.000
G04  20342483.961 8 106900543.011 8       745.363          50.000    20342484.453 8  83299129.024 8       580.803          50.000
G09  21917433.836 8 115176995.639 8      2769.719          49.000    21917435.914 8  89748261.097 8      2158.225          49.000
G17  22364700.008 6 117527271.658 6     -1427.047          39.000    22364697.312 5  91579699.669 5     -1111.978          33.000
R05  20008341.102 6 106956029.854 6     -1853.293          36.000    20008345.812 5  83188051.946 5     -1441.450          34.000
R20  20637572.766 6 110358374.174 6     -3269.641          38.000    20637575.156 7  85834285.145 7     -2543.054          46.000
C24  25400779.578 5 132268544.297 5       686.160          34.000
C25  25535660.078 7 132970891.522 7      2723.859          46.000
C27  22636777.922 8 117875625.499 8     -1410.531          51.000
C28  24908007.500 5 129702532.477 5     -3397.461          31.000
E07  24117324.703 8 126737397.435 8     -1441.457          51.000    24117327.742 8  97110493.373 8     -1104.538          51.000
E19  27508440.508 6 144557816.633 6      2530.375          41.000    27508439.383 6 110765101.757 6      1938.841          41.000
E26  23284092.453 8 122358727.774 8     -2024.883          51.000    23284093.711 8  93755395.646 8     -1551.552          50.000
> 2020 05 06 22 28  0.0000000  0 14        .000000000000
G01  22924878.977 8 120471033.834 8     -3311.234          48.000    22924881.953 8  93873537.537 8     -2580.183          48.000
G03  20816688.930 8 109392448.458 8     -1320.520          51.000    20816690.055 8  85240889.642 8     -1028.976          51.000
G04  20338282.234 8 106878463.214 8       727.098          51.000    20338282.883 8  83281923.996 8       566.570          51.000
G09  21901659.930 8 115094101.583 8      2757.172          50.000    21901661.578 8  89683668.380 8      2148.446          50.000
G17  22372899.484 7 117570356.559 7     -1444.543          42.000    22372895.711 5  91613272.265 5     -1125.624          33.000
R05  20018777.688 6 107011816.980 6     -1864.801          37.000    20018783.875 5  83231441.925 5     -1450.401          32.000
R20  20655975.625 6 110456783.729 6     -3289.953          38.000    20655978.023 7  85910825.890 7     -2558.855          46.000
C24  25396876.289 5 132248212.352 5       669.848          31.000
C25  25519987.680 7 132889279.695 7      2717.648          47.000
C27  22644955.188 8 117918203.072 8     -1427.355          51.000
C28  24927595.242 5 129804534.392 5     -3401.641          33.000
E07  24125577.906 8 126780767.974 8     -1449.289          51.000    24125581.023 8  97143725.358 8     -1110.536          51.000
E19  27494011.711 6 144481995.842 6      2524.957          40.000    27494012.344 7 110707005.354 7      1934.758          42.000
E26  23295688.688 8 122419661.704 8     -2036.836          51.000    23295687.984 8  93802085.265 8     -1560.695          50.000
> 2020 05 06 22 28 30.0000000  0 15        .000000000000
G01  22943804.070 7 120570485.047 7     -3318.453          47.000    22943803.820 7  93951031.982 7     -2585.808          47.000
G03  20824251.133 8 109432188.139 8     -1328.617          51.000    20824252.117 8  85271855.626 8     -1035.286          51.000
G04  20334178.609 8 106856897.721 8       710.926          51.000    20334179.453 8  83265119.722 8       553.968          51.000
G09  21885950.016 8 115011544.924 8      2746.969          50.000    21885951.766 8  89619338.577 8      2140.495          50.000
G17  22381192.008 7 117613931.634 7     -1460.203          42.000    22381185.023 4  91647226.853 4     -1137.827          27.000
R05  20029271.086 5 107067905.719 5     -1873.863          34.000    20029273.711 4  83275066.412 4     -1457.452          29.000
R14  22896232.625 6 122049777.200 6       356.047          36.000    22896239.258 4  94927650.285 4       276.925          26.000
R20  20674483.938 6 110555757.129 6     -3308.070          38.000    20674486.273 7  85987805.197 7     -2572.944          46.000
C24  25393060.852 5 132228331.256 5       656.094          30.000
C25  25504343.734 7 132807816.921 7      2713.527          46.000
C27  22653221.648 8 117961246.878 8     -1441.906          51.000
C28  24947201.102 5 129906631.036 5     -3404.016          35.000
E07  24133868.312 8 126824334.456 8     -1454.758          51.000    24133871.609 8  97177107.477 8     -1114.637          51.000
E19  27479606.297 6 144406299.330 6      2521.895          39.000    27479609.477 7 110649004.136 7      1932.382          43.000
E26  23307345.547 8 122480916.168 8     -2046.457          51.000    23307343.961 8  93849020.499 8     -1568.088          50.000
> 2020 05 06 22 29  0.0000000  0 14        .000000000000
G01  22962779.211 7 120670200.412 7     -3329.531          47.000    22962776.773 7  94028732.251 7     -2594.440          47.000
G03  20831869.867 8 109472224.887 8     -1340.684          51.000    20831870.867 8  85303053.080 8     -1044.689          51.000
G04  20330177.109 8 106835869.125 8       690.840          51.000    20330177.961 8  83248733.813 8       538.317          51.000
G09  21870308.742 8 114929349.857 8      2732.688          49.000    21870310.812 8  89555290.491 8      2129.367          49.000
G17  22389581.477 6 117658017.279 6     -1478.934          41.000    22389573.305 5  91681579.280 5     -1152.419          30.000
R05  20039823.000 5 107124317.062 5     -1887.023          31.000    20039825.078 5  83318942.930 5     -1467.685          30.000
R14  22894311.023 6 122039516.897 6       328.027          39.000    22894313.461 4  94919669.497 4       255.132          28.000
R20  20693101.734 6 110655313.971 6     -3329.453          39.000    20693104.383 7  86065238.300 7     -2589.575          46.000
C25  25488733.289 7 132726528.302 7      2705.531          46.000
C27  22661581.281 8 118004778.106 8     -1460.418          51.000
C28  24966829.836 5 130008842.620 5     -3410.160          35.000
E07  24142200.133 8 126868118.511 8     -1464.223          51.000    24142203.312 8  97210656.308 8     -1121.970          51.000
E19  27465229.688 7 144330750.479 7      2514.602          42.000    27465234.531 7 110591116.079 7      1926.701          43.000
E26  23319066.961 8 122542512.953 8     -2060.133          51.000    23319065.969 8  93896218.023 8     -1578.513          51.000
> 2020 05 06 22 29 30.0000000  0 16        .000000000000
G01  22981796.070 7 120770137.647 7     -3336.637          45.000    22981794.461 7  94106605.406 7     -2599.977          44.000
G03  20839537.336 8 109512517.720 8     -1348.930          51.000    20839538.531 8  85334450.080 8     -1051.114          51.000
G04  20326269.875 8 106815336.788 8       674.578          51.000    20326270.750 8  83232734.597 8       525.645          51.000
G09  21854728.695 8 114847477.157 8      2721.977          50.000    21854730.531 8  89491493.571 8      2121.018          50.000
G17  22398059.273 6 117702571.371 6     -1494.508          39.000    22398051.219 5  91716296.738 5     -1164.555          30.000
G19  22187746.625 5 116597396.519 5      -501.828          31.000
R05  20050428.594 6 107181008.008 6     -1895.836          36.000    20050433.469 5  83363035.980 5     -1474.536          30.000
R14  22892518.508 5 122030011.450 5       304.117          33.000    22892522.023 4  94912243.448 4       236.533          25.000
R20  20711820.398 6 110755409.526 6     -3347.305          38.000    20711823.031 7  86143090.403 7     -2603.456          45.000
C24  25385700.656 5 132190017.724 5       622.762          31.000
C25  25473149.008 7 132645376.118 7      2701.426          46.000
C27  22670025.828 8 118048755.210 8     -1474.852          51.000
C28  24986473.141 5 130111126.689 5     -3412.273          34.000
E07  24150565.383 8 126912078.478 8     -1469.766          51.000    24150568.266 8  97244339.916 8     -1126.151          51.000
E19  27450873.992 7 144255308.890 7      2511.414          44.000    27450879.289 7 110533310.245 7      1924.435          44.000
E26  23330845.258 8 122604410.517 8     -2069.836          51.000    23330845.656 8  93943646.013 8     -1585.921          51.000
> 2020 05 06 22 30  0.0000000  0 16        .000000000000
G01  23000864.539 7 120870348.276 7     -3344.906          43.000    23000865.180 7  94184691.615 7     -2606.420          43.000
G03  20847263.586 8 109553119.489 8     -1358.496          51.000    20847265.000 8  85366087.825 8     -1058.568          51.000
G04  20322467.297 8 106795353.856 8       657.078          51.000    20322468.406 8  83217163.495 8       512.012          51.000
G09  21839220.672 8 114765981.412 8      2710.211          51.000    21839221.508 8  89427990.409 8      2111.856          51.000
G17  22406635.805 6 117747645.760 6     -1510.914          41.000    22406628.156 5  91751419.685 5     -1177.333          31.000
G19  22190671.875 5 116612767.172 5      -523.160          30.000
R05  20061097.531 5 107238030.841 5     -1905.980          35.000    20061103.094 4  83407387.123 4     -1482.429          26.000
R14  22890876.562 6 122021261.516 6       278.488          36.000    22890879.406 4  94905428.954 4       216.608          28.000
R20  20730648.883 6 110856093.883 6     -3365.863          38.000    20730651.492 7  86221400.478 7     -2617.894          45.000
C24  25382155.148 5 132171565.663 5       606.883          35.000
C25  25457601.562 7 132564415.758 7      2695.500          46.000
C27  22678566.070 8 118093229.658 8     -1490.625          51.000
C28  25006140.555 5 130213533.754 5     -3415.348          34.000
E07  24158973.977 8 126956266.553 8     -1476.594          51.000    24158976.836 8  97278198.314 8     -1131.407          50.000
E19  27436549.211 7 144180028.444 7      2506.715          45.000    27436553.953 7 110475627.875 7      1920.831          43.000
E26  23342690.875 8 122666661.118 8     -2080.738          51.000    23342692.492 8  93991344.509 8     -1594.314          51.000
> 2020 05 06 22 30 30.0000000  0 15        .000000000000
G01  23019987.125 7 120970843.812 7     -3352.086          42.000    23019990.328 7  94262999.806 7     -2612.015          43.000
G03  20855051.086 8 109594042.993 8     -1366.527          51.000    20855052.625 8  85397976.271 8     -1064.827          51.000
G04  20318771.711 8 106775933.377 8       640.656          51.000    20318772.680 8  83202030.673 8       499.213          51.000
G09  21823787.250 8 114684877.181 8      2699.758          51.000    21823786.906 8  89364792.331 8      2103.707          51.000
G17  22415313.953 7 117793251.280 7     -1525.984          42.000    22415307.266 5  91786956.447 5     -1189.079          33.000
R05  20071828.320 5 107295397.151 5     -1915.449          32.000
R14  22889386.211 6 122013308.717 6       254.613          37.000    22889390.383 5  94899243.454 5       198.036          35.000
R20  20749589.055 6 110957377.400 6     -3383.141          37.000    20749592.273 7  86300176.563 7     -2631.332          45.000
C24  25378709.148 5 132153624.460 5       592.363          34.000
C25  25442094.195 7 132483662.865 7      2691.094          46.000
C27  22687205.117 8 118138213.153 8     -1505.121          51.000
C28  25025835.094 5 130316074.657 5     -3417.242          34.000
E07  24167428.344 8 127000694.824 8     -1482.102          51.000    24167431.438 8  97312240.760 8     -1135.633          50.000
E19  27422257.820 7 144104922.717 7      2503.309          45.000    27422261.367 7 110418079.386 7      1918.263          43.000
E26  23354606.375 8 122729277.021 8     -2090.422          51.000    23354608.516 8  94039322.913 8     -1601.797          51.000
> 2020 05 06 22 31  0.0000000  0 16        .000000000000
G01  23039123.945 7 121071409.631 7     -3360.602          44.000    23039128.375 7  94341362.762 7     -2618.651          44.000
G03  20862859.305 8 109635075.034 8     -1376.945          50.000    20862860.922 8  85429949.290 8     -1072.944          50.000
G04  20315142.625 8 106756862.381 8       622.469          51.000    20315143.305 8  83187170.171 8       485.041          51.000
G09  21808388.070 8 114603953.052 8      2686.980          51.000    21808387.133 8  89301734.595 8      2093.751          51.000
G17  22424052.703 6 117839172.716 6     -1543.250          41.000    22424046.219 6  91822739.360 6     -1202.539          36.000
G22  22613846.336 5 118836549.024 5     -2283.965          32.000
R05  20082582.500 5 107352888.276 5     -1925.238          30.000
R14  22888002.930 4 122005937.999 4       230.062          27.000    22888008.609 6  94893510.796 6       178.944          37.000
R20  20768600.039 6 111059040.048 6     -3402.672          38.000    20768603.797 7  86379247.520 7     -2646.523          45.000
C24  25375319.016 6 132135984.113 6       576.012          36.000
C25  25426586.359 7 132402909.153 7      2684.348          45.000
C27  22695901.328 8 118183493.476 8     -1521.633          51.000
C28  25045513.781 5 130418536.378 5     -3420.434          30.000
E07  24175887.875 8 127045149.463 8     -1489.652          51.000    24175891.055 8  97346303.405 8     -1141.398          50.000
E19  27407958.992 7 144029779.577 7      2497.957          44.000    27407961.703 7 110360502.218 7      1914.031          44.000
E26  23366550.875 8 122792044.458 8     -2102.148          51.000    23366553.148 8  94087417.419 8     -1610.755          51.000
> 2020 05 06 22 31 30.0000000  0 16        .000000000000
G01  23058347.953 7 121172430.100 7     -3356.551          45.000    23058352.672 7  94420080.005 7     -2615.494          45.000
G03  20870761.500 8 109676601.255 8     -1374.023          50.000    20870763.125 8  85462307.385 8     -1070.668          49.000
G04  20311653.586 8 106738526.849 8       617.398          51.000    20311654.422 8  83172882.769 8       481.093          51.000
G09  21793096.875 8 114523596.452 8      2687.590          51.000    21793096.141 8  89239119.076 8      2094.229          51.000
G17  22432924.945 7 117885794.449 7     -1547.297          42.000    22432918.727 5  91859067.945 5     -1205.689          32.000
G19  22200183.242 5 116662751.021 5      -575.562          33.000
R05  20093433.047 5 107410895.454 5     -1923.574          35.000    20093440.570 4  83541845.303 4     -1496.107          26.000
R14  22886807.148 5 121999550.064 5       214.953          31.000    22886810.273 6  94888510.299 6       167.189          36.000
R20  20787754.914 6 111161470.736 6     -3408.281          37.000    20787758.969 7  86458915.817 7     -2650.888          46.000
C24  25372060.523 5 132119028.265 5       572.207          31.000
C25  25411152.336 7 132322539.715 7      2690.828          43.000
C27  22704727.109 8 118229451.803 8     -1524.934          51.000
C28  25065250.875 4 130521338.285 4     -3411.789          28.000
E07  24184425.750 8 127090015.480 8     -1483.938          51.000    24184428.758 8  97380681.255 8     -1137.016          50.000
E19  27393725.836 6 143954985.394 6      2505.980          41.000    27393728.945 7 110303192.409 7      1920.062          44.000
E26  23378597.445 8 122855348.517 8     -2100.664          51.000    23378599.805 8  94135923.122 8     -1609.567          51.000
> 2020 05 06 22 32  0.0000000  0 15        .000000000000
G01  23077587.336 7 121273530.113 7     -3381.898          46.000    23077591.359 7  94498859.236 7     -2635.246          46.000
G03  20878686.555 8 109718247.912 8     -1400.898          49.000    20878688.211 8  85494759.301 8     -1091.612          49.000
G04  20308233.414 8 106720553.217 8       582.430          51.000    20308234.023 8  83158877.363 8       453.841          51.000
G09  21777842.578 8 114443435.367 8      2658.137          49.000    21777842.227 8  89176655.914 8      2071.275          50.000
G17  22441858.633 6 117932741.250 6     -1580.969          41.000    22441853.055 6  91895649.886 6     -1231.927          38.000
G19  22203586.219 6 116680625.268 6      -614.238          36.000
R05  20104308.859 6 107469036.760 6     -1950.879          37.000    20104318.984 4  83587075.314 4     -1517.350          28.000
R14  22885720.633 5 121993777.681 5       172.602          31.000    22885719.555 4  94884041.234 4       134.246          25.000
R20  20806981.695 6 111264286.141 6     -3444.730          38.000    20806986.109 7  86538883.329 7     -2679.235          45.000
C24  25368863.711 5 132102387.967 5       538.695          34.000
C25  25395721.375 7 132242187.257 7      2667.594          43.000
C27  22713611.477 8 118275716.755 8     -1557.824          51.000
E07  24192970.570 8 127134918.458 8     -1508.059          51.000    24192973.367 8  97415087.440 8     -1155.603          50.000
E19  27379487.727 6 143880167.296 6      2483.746          41.000    27379492.172 7 110245864.283 7      1902.936          45.000
E26  23390674.602 8 122918814.891 8     -2128.965          51.000    23390677.500 8  94184553.203 8     -1631.291          51.000
> 2020 05 06 22 32 30.0000000  0 13        .000000000000
G01  23096887.445 8 121374950.227 8     -3382.414          48.000    23096890.828 8  94577887.879 8     -2635.647          48.000
G03  20886680.547 8 109760256.881 8     -1402.852          48.000    20886682.086 8  85527493.550 8     -1093.131          48.000
G04  20304928.148 8 106703183.559 8       572.457          51.000    20304928.305 8  83145342.571 8       446.070          51.000
G09  21762671.180 7 114363713.448 7      2653.438          47.000    21762671.852 7  89114534.957 7      2067.614          47.000
G17  22450899.352 6 117980253.347 6     -1589.609          38.000    22450894.969 5  91932672.333 5     -1238.654          34.000
R05  20115255.695 6 107527556.824 6     -1953.367          36.000    20115264.000 4  83632592.406 4     -1519.289          26.000
R20  20826325.773 6 111367729.218 6     -3454.707          37.000    20826330.281 7  86619339.039 7     -2686.994          45.000
C24  25365774.727 5 132086304.051 5       530.004          31.000
C25  25380340.656 7 132162094.321 7      2668.820          43.000
C27  22722601.031 8 118322527.014 8     -1565.953          51.000
E07  24201568.156 8 127180099.610 8     -1507.199          51.000    24201570.781 8  97449706.775 8     -1154.882          50.000
E19  27365291.570 7 143805568.105 7      2486.367          42.000    27365297.211 7 110188703.896 7      1905.204          46.000
E26  23402827.914 8 122982684.859 8     -2132.305          50.000    23402831.914 8  94233492.527 8     -1633.802          51.000
> 2020 05 06 22 33  0.0000000  0 13        .000000000000
G01  23116232.102 8 121476605.204 8     -3388.309          48.000    23116235.219 8  94657099.529 8     -2640.240          48.000
G03  20894727.539 8 109802544.254 8     -1410.059          48.000    20894729.039 8  85560444.756 8     -1098.747          48.000
G04  20301721.883 8 106686334.153 8       557.230          51.000    20301721.828 8  83132213.171 8       434.206          51.000
G09  21747567.844 7 114284348.546 7      2643.625          47.000    21747569.633 7  89052692.164 7      2059.968          47.000
G17  22460031.570 5 118028245.176 5     -1603.484          35.000    22460028.195 5  91970068.486 5     -1249.471          35.000
G31  23817591.195 5 125162264.571 5     -1884.785          33.000
R05  20126258.406 6 107586368.968 6     -1961.000          40.000    20126258.125 4  83678292.544 4     -1525.222          29.000
R20  20845770.750 6 111471711.353 6     -3470.820          37.000    20845775.172 7  86700214.019 7     -2699.527          45.000
C25  25364994.727 7 132082180.817 7      2664.898          43.000
C27  22731679.445 8 118369798.430 8     -1579.199          51.000
E07  24210202.609 8 127225474.373 8     -1511.410          51.000    24210205.102 8  97484474.476 8     -1158.120          51.000
E19  27351121.531 7 143731104.663 7      2484.035          42.000    27351127.672 7 110131647.522 7      1903.552          46.000
E26  23415041.320 8 123046873.891 8     -2140.641          49.000    23415046.867 8  94282676.345 8     -1640.192          51.000
> 2020 05 06 22 33 30.0000000  0 15        .000000000000
G01  23135605.164 7 121578411.842 7     -3397.938          46.000    23135608.836 7  94736429.379 7     -2647.744          46.000
G03  20902812.031 8 109845028.252 8     -1421.215          48.000    20902813.703 7  85593549.182 7     -1107.440          47.000
G04  20298598.875 8 106669923.385 8       537.898          51.000    20298599.125 8  83119425.560 8       419.142          51.000
G09  21732518.148 8 114205260.465 8      2629.750          50.000    21732520.164 8  88991065.118 8      2049.156          50.000
G17  22469240.156 5 118076634.164 5     -1621.152          30.000    22469236.000 5  92007774.163 5     -1263.242          30.000
G22  22679450.406 5 119181296.155 5     -2311.090          33.000
G31  23828407.633 5 125219105.965 5     -1903.961          33.000    23828408.258 5  97573353.988 5     -1483.609          31.000
R05  20137300.711 6 107645388.386 6     -1972.574          40.000    20137307.148 5  83724196.518 5     -1534.221          34.000
R20  20865300.680 6 111576145.920 6     -3490.797          38.000    20865305.016 7  86781440.874 7     -2715.067          45.000
C25  25349668.031 7 132002368.556 7      2656.855          42.000
C27  22740830.672 8 118417448.886 8     -1596.434          51.000
C28  25144253.094 4 130932721.101 4     -3433.051          29.000
E07  24218858.336 8 127270960.303 8     -1519.926          51.000    24218860.914 8  97519327.337 8     -1164.633          51.000
E19  27336961.953 6 143656696.045 6      2477.520          41.000    27336967.570 7 110074633.203 7      1898.362          46.000
E26  23427300.023 8 123111299.564 8     -2153.324          48.000    23427306.805 8  94332041.500 8     -1649.983          51.000
> 2020 05 06 22 34  0.0000000  0 15        .000000000000
G01  23155030.625 7 121680495.197 7     -3410.574          45.000    23155034.953 7  94815974.856 7     -2657.590          45.000
G03  20910957.961 7 109887835.227 7     -1435.422          45.000    20910959.562 7  85626905.287 7     -1118.508          46.000
G04  20295583.453 8 106654077.831 8       515.531          51.000    20295583.719 8  83107078.371 8       401.713          51.000
G09  21717545.922 8 114126577.345 8      2612.781          51.000    21717547.719 8  88929753.636 8      2035.936          51.000
G17  22478543.258 5 118125546.656 5     -1642.711          31.000    22478542.211 5  92045900.492 5     -1280.038          30.000
R05  20148404.867 6 107704742.122 6     -1987.516          37.000    20148412.375 5  83770360.626 5     -1545.842          35.000
R14  22882833.977 5 121978371.777 5        74.074          35.000    22882831.203 5  94872057.624 5        57.613          31.000
R20  20884938.883 6 111681158.165 6     -3513.328          38.000    20884942.664 7  86863117.032 7     -2732.589          45.000
C24  25357044.898 6 132040811.527 6       477.859          36.000
C25  25334385.391 6 131922785.769 6      2646.094          40.000
C27  22750078.219 8 118465602.531 8     -1616.641          51.000
C28  25164046.047 5 131035782.771 5     -3440.633          32.000
E07  24227559.250 8 127316683.083 8     -1531.324          50.000    24227562.086 8  97554361.681 8     -1173.358          51.000
E19  27322837.016 6 143582469.457 6      2467.941          40.000    27322840.977 7 110017758.348 7      1891.095          45.000
E26  23439628.602 8 123176087.654 8     -2168.785          50.000    23439635.758 8  94381684.356 8     -1661.892          51.000
> 2020 05 06 22 34 30.0000000  0 17        .000000000000
G01  23174494.109 7 121782777.857 7     -3411.031          44.000    23174498.117 7  94895675.662 7     -2657.946          43.000
G03  20919150.852 7 109930889.204 7     -1437.500          45.000    20919152.320 7  85660453.860 7     -1120.130          44.000
G04  20292661.320 8 106638721.525 8       505.582          51.000    20292661.297 8  83095112.408 8       393.960          51.000
G09  21702636.578 8 114048224.892 8      2608.137          51.000    21702638.117 8  88868699.784 8      2032.314          51.000
G17  22487934.516 5 118174894.570 5     -1650.293          33.000    22487937.211 5  92084357.268 5     -1285.936          32.000
G19  22222453.133 5 116779727.079 5      -711.637          32.000
G22  22705909.383 4 119320358.203 4     -2321.035          29.000
R05  20159555.188 6 107764351.362 6     -1989.457          39.000    20159562.289 5  83816723.457 5     -1547.355          35.000
R14  22882460.625 6 121976378.293 6        55.695          37.000    22882461.133 5  94870516.470 5        43.319          32.000
R20  20904669.859 6 111786667.665 6     -3523.590          37.000    20904673.758 7  86945179.973 7     -2740.570          46.000
C24  25354304.906 5 132026566.354 5       469.527          32.000
C25  25319132.734 6 131843360.115 6      2646.816          39.000
C27  22759406.805 8 118514182.944 8     -1624.590          51.000
C28  25183848.617 4 131138889.582 4     -3435.699          29.000
E07  24236290.609 8 127362565.996 8     -1530.164          50.000    24236293.625 8  97589518.722 8     -1172.454          51.000
E19  27308732.523 6 143508349.660 6      2470.680          39.000    27308734.180 7 109960965.286 7      1893.193          44.000
E26  23452012.352 8 123241161.510 8     -2172.000          51.000    23452018.984 8  94431546.147 8     -1664.218          51.000
> 2020 05 06 22 35  0.0000000  0 15        .000000000000
G01  23194009.102 7 121885330.318 7     -3420.672          44.000    23194012.555 7  94975586.691 7     -2665.459          44.000
G03  20927404.344 7 109974262.032 7     -1448.652          44.000    20927405.875 7  85694250.881 7     -1128.820          44.000
G04  20289845.992 8 106623926.550 8       486.039          51.000    20289845.977 8  83083583.882 8       378.732          51.000
G09  21687803.828 8 113970276.681 8      2593.812          51.000    21687805.328 8  88807960.925 8      2021.153          51.000
G17  22497423.328 5 118224761.190 5     -1668.254          30.000    22497425.594 5  92123214.394 5     -1299.950          30.000
R05  20170768.133 7 107824288.058 7     -2000.797          43.000    20170770.852 6  83863340.842 6     -1556.178          36.000
R06  20244488.336 5 108028460.398 5      1693.941          30.000
R14  22882241.305 4 121975206.331 4        28.613          29.000    22882239.430 4  94869606.038 4        22.255          29.000
R20  20924506.695 6 111892744.205 6     -3542.996          38.000    20924510.945 7  87027683.962 7     -2755.664          47.000
C24  25351664.086 5 132012841.071 5       451.121          35.000
C25  25303924.164 6 131764165.803 6      2638.277          39.000
C27  22768830.555 8 118563260.266 8     -1641.906          50.000
E07  24245065.891 8 127408680.344 8     -1538.715          50.000    24245068.852 8  97624853.092 8     -1178.946          51.000
E19  27294662.078 6 143434409.500 6      2464.172          38.000    27294662.016 7 109904309.872 7      1888.006          43.000
E26  23464464.422 8 123306592.372 8     -2184.656          51.000    23464470.016 8  94481681.495 8     -1673.969          51.000
> 2020 05 06 22 35 30.0000000  0 14        .000000000000
G01  23213563.016 7 121988085.049 7     -3426.539          46.000    23213565.242 7  95055655.321 7     -2670.033          46.000
G03  20935705.820 7 110017887.602 7     -1456.547          44.000    20935707.438 7  85728244.871 7     -1134.969          44.000
G04  20287125.008 8 106609626.857 8       470.281          51.000    20287124.602 8  83072441.290 8       366.453          50.000
G09  21673035.320 8 113892668.260 8      2583.152          50.000    21673036.898 8  88747486.828 8      2012.846          50.000
G17  22506997.305 5 118275068.971 5     -1682.328          31.000    22506998.109 4  92162419.244 4     -1310.908          25.000
R05  20182029.875 6 107884483.238 6     -2008.914          41.000    20182030.172 6  83910159.275 6     -1562.489          37.000
R14  22882160.164 5 121974754.959 5         4.387          33.000    22882158.320 4  94869264.965 4         3.409          27.000
R20  20944436.766 6 111999317.297 6     -3558.867          39.000    20944440.727 7  87110574.151 7     -2768.008          47.000
C24  25349114.539 5 131999571.476 5       436.574          32.000
C25  25288746.203 6 131685140.284 6      2633.348          37.000
C27  22778337.734 8 118612767.876 8     -1655.504          50.000
E07  24253872.492 8 127454959.360 8     -1543.434          51.000    24253875.281 8  97660313.635 8     -1182.634          51.000
E19  27280613.336 6 143360583.757 6      2461.133          38.000    27280612.656 7 109847742.103 7      1885.537          43.000
E26  23476971.703 8 123372313.501 8     -2193.582          51.000    23476976.188 8  94532039.249 8     -1680.785          51.000
> 2020 05 06 22 36  0.0000000  0 12        .000000000000
G01  23233158.828 7 122091059.553 7     -3437.746          47.000    23233159.375 7  95135895.129 7     -2678.766          47.000
G03  20944058.961 7 110061784.766 7     -1469.039          45.000    20944060.711 7  85762450.490 7     -1144.706          44.000
G04  20284501.812 8 106595841.310 8       449.586          51.000    20284501.281 8  83061699.334 8       350.327          51.000
G09  21658334.914 8 113815420.090 8      2567.645          49.000    21658336.688 8  88687293.461 8      2000.762          49.000
R05  20193342.219 6 107944954.851 6     -2021.629          40.000    20193343.414 6  83957192.756 6     -1572.375          39.000
R20  20964462.266 6 112106402.535 6     -3579.277          38.000    20964466.039 7  87193862.676 7     -2783.882          46.000
C24  25346657.164 5 131986777.494 5       416.418          32.000
C25  25273604.258 5 131606305.118 5      2623.496          35.000
C27  22787931.492 8 118662723.323 8     -1673.918          50.000
E07  24262713.984 8 127501421.194 8     -1553.062          51.000    24262716.750 8  97695914.246 8     -1189.967          51.000
E19  27266590.297 6 143286891.971 6      2452.922          38.000    27266589.695 7 109791276.947 7      1879.500          44.000
E26  23489537.328 8 123438343.040 8     -2207.438          51.000    23489540.883 8  94582633.301 8     -1691.344          51.000
> 2020 05 06 22 36 30.0000000  0 12        .000000000000
G01  23252789.844 7 122194220.197 7     -3442.973          45.000    23252789.797 7  95216279.991 7     -2682.836          45.000
G03  20952457.938 7 110105921.265 7     -1476.273          46.000    20952459.602 7  85796842.595 7     -1150.343          46.000
G04  20281970.180 8 106582537.780 8       434.320          51.000    20281969.836 8  83051332.989 8       338.434          51.000
G09  21643697.555 8 113738501.607 8      2557.273          49.000    21643698.633 8  88627357.003 8      1992.684          49.000
R05  20204699.055 6 108005668.482 6     -2029.059          38.000    20204701.852 6  84004414.481 6     -1578.157          40.000
R20  20984576.453 6 112213963.600 6     -3594.285          37.000    20984580.180 7  87277521.296 7     -2795.555          46.000
C24  25344284.602 4 131974428.403 4       402.801          28.000
C25  25258494.742 6 131527631.275 6      2618.785          40.000
C27  22797604.547 8 118713093.549 8     -1687.023          49.000
E07  24271584.125 8 127548032.987 8     -1557.285          51.000    24271587.008 8  97731629.767 8     -1193.179          51.000
E19  27252587.508 6 143213302.530 6      2450.336          38.000    27252586.883 7 109734890.226 7      1877.374          44.000
E26  23502154.930 8 123504648.098 8     -2215.820          51.000    23502157.914 8  94633438.454 8     -1697.893          51.000
> 2020 05 06 22 37  0.0000000  0 15        .000000000000
G01  23272447.391 7 122297522.253 7     -3442.020          44.000    23272448.938 7  95296775.099 7     -2682.093          45.000
G03  20960894.469 7 110150253.760 7     -1477.027          47.000    20960895.992 7  85831387.424 7     -1150.930          47.000
G04  20279521.914 8 106569673.027 8       425.414          50.000    20279521.852 8  83041308.512 8       331.495          50.000
G09  21629115.406 8 113661871.118 8      2553.441          51.000    21629115.195 8  88567644.981 8      1989.698          51.000
G17  22536222.703 6 118428633.385 6     -1721.637          37.000    22536222.422 5  92282041.233 5     -1341.532          35.000
R05  20216093.195 6 108066578.878 6     -2029.543          38.000    20216096.664 6  84051789.258 6     -1578.533          39.000
R14  22882738.727 6 121977753.461 6       -64.977          38.000    22882735.906 4  94871667.661 4       -50.537          24.000
R20  21004770.672 6 112321953.549 6     -3602.941          37.000    21004774.758 7  87361513.467 7     -2802.288          46.000
C24  25341993.039 5 131962410.412 5       395.758          32.000
C25  25243409.938 6 131449078.811 6      2620.305          40.000
C27  22807348.609 8 118763834.400 8     -1693.609          48.000
C28  25283046.266 5 131655437.215 5     -3440.531          31.000
E07  24280474.312 8 127594750.717 8     -1555.008          51.000    24280477.250 8  97767426.473 8     -1191.458          51.000
E19  27238596.414 6 143139772.994 6      2454.211          40.000    27238595.867 7 109678549.428 7      1880.290          44.000
E26  23514816.477 8 123571184.696 8     -2217.703          51.000    23514818.984 8  94684421.003 8     -1699.285          51.000
> 2020 05 06 22 37 30.0000000  0 17        .000000000000
G01  23292173.062 7 122401183.249 7     -3455.742          43.000    23292176.672 7  95377549.936 7     -2692.783          43.000
G03  20969410.031 8 110195001.249 8     -1492.863          48.000    20969411.320 8  85866255.590 8     -1163.273          48.000
G04  20277198.773 8 106557466.029 8       401.605          50.000    20277199.227 8  83031796.583 8       312.939          50.000
G09  21614630.062 8 113585749.291 8      2534.512          51.000    21614629.945 8  88508329.288 8      1974.944          51.000
G17  22546153.156 6 118480822.687 6     -1744.094          36.000    22546155.422 6  92322708.174 6     -1359.031          37.000
G19  22249057.477 5 116919585.912 5      -838.680          34.000
R05  20227565.711 6 108127907.159 6     -2045.266          41.000    20227568.562 6  84099489.010 6     -1590.762          38.000
R06  20197737.867 4 107778966.613 4      1632.605          29.000
R14  22883233.914 6 121980492.456 6       -97.742          38.000    22883229.594 4  94873714.090 4       -76.022          27.000
R20  21025085.898 6 112430591.417 6     -3626.719          36.000    21025090.773 7  87446009.596 7     -2820.778          47.000
C24  25339822.141 4 131951085.750 4       372.234          29.000
C25  25228390.883 6 131370867.677 6      2606.824          40.000
C27  22817204.797 7 118815161.745 7     -1715.199          47.000
C28  25302931.219 5 131758986.649 5     -3449.195          30.000
E07  24289426.078 8 127641792.765 8     -1567.945          51.000    24289428.836 8  97803471.675 8     -1201.416          51.000
E19  27224658.273 6 143066523.370 6      2442.523          40.000    27224658.148 7 109622423.148 7      1871.550          45.000
E26  23527563.742 8 123638171.111 8     -2234.816          51.000    23527565.688 8  94735748.232 8     -1712.398          51.000
> 2020 05 06 22 38  0.0000000  0 15        .000000000000
G01  23311896.289 7 122504830.903 7     -3477.898          44.000    23311901.086 7  95458314.369 7     -2710.048          44.000
G03  20977933.891 8 110239792.785 8     -1516.914          48.000    20977934.812 7  85901158.059 7     -1182.014          47.000
G04  20274930.414 8 106545545.784 8       369.441          51.000    20274931.070 8  83022508.089 8       287.876          51.000
G09  21600170.672 8 113509766.713 8      2507.371          49.000    21600172.086 8  88449122.076 8      1953.796          49.000
G17  22556127.742 6 118533240.432 6     -1774.047          36.000    22556129.969 6  92363553.098 6     -1382.374          38.000
G19  22253895.391 6 116944988.533 6      -874.012          38.000    22253890.062 5  91125958.139 5      -681.048          30.000
R05  20239045.406 6 108189274.599 6     -2069.520          37.000    20239047.094 6  84147219.172 6     -1609.626          37.000
R20  21045451.367 6 112539496.426 6     -3657.926          36.000    21045457.031 7  87530713.486 7     -2845.053          47.000
C24  25337692.047 5 131940023.977 5       341.480          32.000
C25  25213367.211 6 131292633.156 6      2585.492          40.000
C27  22827102.570 7 118866706.715 7     -1744.637          46.000
C28  25322780.812 4 131862367.523 4     -3466.395          29.000
E07  24298368.820 8 127688787.449 8     -1588.750          51.000    24298371.312 8  97839480.569 8     -1217.297          51.000
E19  27210702.391 6 142993183.328 6      2422.977          41.000    27210702.953 7 109566227.573 7      1856.587          44.000
E26  23540325.797 8 123705235.627 8     -2259.875          51.000    23540327.547 8  94787135.327 8     -1731.590          51.000
> 2020 05 06 22 38 30.0000000  0 16        .000000000000
G01  23331704.734 7 122608924.298 7     -3456.484          46.000    23331709.711 7  95539426.151 7     -2693.364          46.000
G03  20986553.531 7 110285088.889 7     -1497.785          47.000    20986554.250 7  85936453.721 7     -1167.105          47.000
G04  20272804.406 8 106534372.865 8       380.527          51.000    20272805.117 8  83013801.952 8       296.518          51.000
G09  21585825.672 8 113434385.656 8      2523.207          50.000    21585828.641 8  88390383.557 8      1966.135          50.000
G17  22566233.188 5 118586344.792 5     -1761.156          34.000    22566233.992 5  92404933.143 5     -1372.330          34.000
G19  22258873.641 6 116971170.641 6      -866.910          38.000
R05  20250619.742 6 108251148.219 6     -2049.836          41.000    20250622.086 6  84195343.111 6     -1594.317          37.000
R14  22884612.594 5 121987845.710 5      -135.012          32.000    22884614.695 5  94879420.715 5      -105.012          34.000
R20  21065954.180 6 112649133.844 6     -3645.578          37.000    21065959.688 7  87615987.017 7     -2835.450          46.000
C24  25335702.180 4 131929666.460 4       353.578          29.000
C25  25198426.930 6 131214834.622 6      2606.090          40.000
C27  22837130.227 8 118918924.560 8     -1731.484          48.000
C28  25342688.656 5 131966034.158 5     -3439.859          33.000
E07  24307390.008 8 127736194.707 8     -1566.562          51.000    24307392.539 8  97875805.603 8     -1200.341          51.000
E19  27196816.680 6 142920214.325 6      2446.695          41.000    27196817.953 7 109510316.306 7      1874.732          44.000
E26  23553189.906 8 123772838.089 8     -2241.785          51.000    23553192.406 8  94838934.646 8     -1717.755          51.000
> 2020 05 06 22 39  0.0000000  0 15        .000000000000
G01  23351550.008 7 122713211.067 7     -3480.172          47.000    23351554.891 7  95620688.599 7     -2711.819          47.000
G03  20995221.180 7 110330638.623 7     -1523.457          47.000    20995222.102 7  85971947.008 7     -1187.109          46.000
G04  20270772.836 8 106523696.286 8       346.809          51.000    20270773.508 8  83005482.562 8       270.240          51.000
G09  21571548.391 8 113359356.595 8      2494.277          51.000    21571551.234 8  88331919.389 8      1943.593          51.000
G17  22576421.586 6 118639883.550 6     -1793.078          37.000    22576421.320 6  92446651.734 6     -1397.201          38.000
G19  22263968.742 6 116997958.323 6      -904.047          37.000    22263970.477 5  91167222.519 5      -704.437          31.000
R05  20262241.742 7 108313271.671 7     -2075.707          42.000    20262243.906 6  84243661.270 6     -1614.439          38.000
R14  22885530.836 6 121992745.385 6      -176.594          38.000    22885536.703 5  94883270.306 5      -137.357          32.000
R20  21086545.797 6 112759245.295 6     -3679.180          37.000    21086550.344 7  87701629.210 7     -2861.584          46.000
C25  25183523.000 6 131137226.317 6      2583.047          40.000
C27  22847239.883 8 118971565.376 8     -1762.629          49.000
C28  25362603.945 4 132069733.204 4     -3457.848          28.000
E07  24316441.859 8 127783762.952 8     -1589.086          51.000    24316444.586 8  97912253.993 8     -1217.560          51.000
E19  27182953.305 6 142847366.234 6      2425.359          41.000    27182955.273 7 109454497.643 7      1858.473          44.000
E26  23566108.156 8 123840726.861 8     -2268.535          50.000    23566111.953 8  94890953.352 8     -1738.192          51.000
> 2020 05 06 22 39 30.0000000  0 15        .000000000000
G01  23371422.391 8 122817639.001 8     -3484.434          48.000    23371426.539 8  95702061.035 8     -2715.140          48.000
G03  21003927.172 7 110376391.081 7     -1529.508          46.000    21003928.461 7  86007598.244 7     -1191.824          43.000
G04  20268825.953 8 106513465.191 8       332.480          51.000    20268826.484 8  82997510.304 8       259.076          51.000
G09  21557329.141 8 113284630.342 8      2484.777          51.000    21557330.766 8  88273691.200 8      1936.190          51.000
G17  22586682.023 6 118693803.842 6     -1804.738          37.000    22586681.211 6  92488667.508 6     -1406.290          38.000
G19  22269168.914 5 117025299.439 5      -921.844          33.000    22269173.523 4  91188549.342 4      -718.305          29.000
G31  23965857.703 5 125941418.960 5     -2106.410          33.000    23965857.492 5  98136183.559 5     -1641.356          33.000
R05  20273900.922 6 108375591.673 6     -2081.922          39.000    20273901.688 6  84292132.326 6     -1619.273          39.000
R20  21107215.711 6 112869775.032 6     -3692.211          38.000    21107219.742 7  87787596.743 7     -2871.723          47.000
C25  25168646.562 6 131059760.811 6      2578.680          40.000
C27  22857421.125 8 119024577.535 8     -1774.285          50.000
C28  25382520.289 4 132173450.438 4     -3456.699          29.000
E07  24325514.500 8 127831440.686 8     -1592.195          51.000    24325517.602 8  97948786.286 8     -1220.021          51.000
E19  27169103.445 6 142774588.835 6      2423.430          41.000    27169105.328 7 109398733.170 7      1857.048          44.000
E26  23579071.320 8 123908850.369 8     -2275.809          50.000    23579075.898 8  94943151.922 8     -1743.807          51.000
> 2020 05 06 22 40  0.0000000  0 15        .000000000000
G01  23391338.523 8 122922296.576 8     -3493.914          48.000    23391341.477 8  95783612.384 8     -2722.530          48.000
G03  21012689.055 7 110422436.228 7     -1541.074          47.000    21012689.117 6  86043477.569 6     -1200.837          40.000
G04  20266980.977 8 106503769.479 8       312.777          51.000    20266981.477 8  82989955.222 8       243.723          51.000
G09  21543184.875 8 113210298.468 8      2469.730          51.000    21543185.430 8  88215770.326 8      1924.465          51.000
G17  22597032.391 6 118748193.770 6     -1821.953          36.000    22597031.109 6  92531049.294 6     -1419.707          36.000
G31  23977935.727 5 126004880.675 5     -2124.883          35.000    23977934.000 5  98185634.232 5     -1655.753          35.000
R05  20285613.008 6 108438198.187 6     -2093.184          41.000    20285613.891 6  84340826.290 6     -1628.029          40.000
R14  22887782.602 5 122004761.113 5      -227.586          34.000    22887787.703 5  94892573.498 5      -177.017          30.000
R20  21127980.281 6 112980811.341 6     -3710.891          38.000    21127984.500 8  87873958.320 8     -2886.248          49.000
C25  25153815.539 6 130982530.099 6      2569.043          41.000
C27  22867690.500 8 119078048.944 8     -1791.434          50.000
C28  25402447.859 4 132277206.072 4     -3461.125          29.000
E07  24334624.953 8 127879317.207 8     -1600.559          51.000    24334628.445 8  97985470.899 8     -1226.363          51.000
E19  27155284.688 7 142701972.963 7      2416.699          42.000    27155285.828 7 109343092.498 7      1851.532          45.000
E26  23592096.828 8 123977297.871 8     -2288.344          51.000    23592100.961 8  94995598.725 8     -1753.400          51.000
> 2020 05 06 22 40 30.0000000  0 16        .000000000000
G01  23411290.930 8 123027144.604 8     -3494.684          49.000    23411292.281 8  95865312.161 8     -2723.130          49.000
G03  21021499.617 7 110468736.355 7     -1544.340          47.000    21021497.570 6  86079555.506 6     -1203.385          36.000
G04  20265230.484 8 106494571.309 8       301.688          51.000    20265231.094 8  82982787.841 8       235.081          51.000
G09  21529108.180 8 113136324.753 8      2463.293          51.000    21529108.938 8  88158128.498 8      1919.449          51.000
G17  22607464.422 6 118803013.782 6     -1831.078          40.000    22607463.773 6  92573766.170 6     -1426.814          40.000
G22  22867366.617 5 120168801.174 5     -2387.012          31.000
G31  23990104.250 5 126068821.694 5     -2136.164          32.000    23990101.977 5  98235458.366 5     -1664.546          33.000
R05  20297370.312 6 108501051.519 6     -2095.859          41.000    20297372.664 6  84389712.290 6     -1630.110          41.000
R14  22889121.148 6 122011890.402 6      -247.281          37.000    22889128.203 4  94898146.713 4      -192.330          29.000
R20  21148831.953 6 113092312.395 6     -3721.074          38.000    21148836.719 8  87960681.372 8     -2894.166          49.000
C25  25139022.562 6 130905499.794 6      2567.797          38.000
C27  22878040.805 8 119131940.866 8     -1800.055          51.000
E07  24343766.047 8 127927354.123 8     -1600.578          51.000    24343769.648 8  98022278.408 8     -1226.384          51.000
E19  27141489.969 7 142629481.550 7      2417.730          44.000    27141490.242 7 109287547.163 7      1852.520          45.000
E26  23605176.820 8 124046030.864 8     -2292.453          51.000    23605180.031 8  95048264.265 8     -1756.543          51.000
E33  23990848.156 6 126072753.784 6       416.105          39.000    23990851.078 6  96601210.924 6       318.996          41.000
> 2020 05 06 22 41  0.0000000  0 16        .000000000000
G01  23431274.039 8 123132154.521 8     -3504.625          49.000    23431274.633 8  95947138.068 8     -2730.877          49.000
G03  21030353.695 8 110515264.339 8     -1556.441          48.000    21030350.969 5  86115810.966 5     -1212.815          34.000
G04  20263569.367 8 106485843.452 8       281.414          51.000    20263570.148 8  82975986.923 8       219.284          51.000
G09  21515093.789 8 113062683.652 8      2447.465          49.000    21515095.438 8  88100745.810 8      1907.115          50.000
G17  22617972.852 7 118858234.803 7     -1848.840          42.000    22617972.375 6  92616795.479 6     -1440.654          41.000
G22  22881016.172 5 120240550.501 5     -2394.414          32.000
R05  20309169.336 7 108564122.809 7     -2107.699          42.000    20309172.164 6  84438767.719 6     -1639.322          41.000
R14  22890596.586 5 122019747.668 5      -276.000          35.000
R20  21169764.891 6 113204246.963 6     -3740.160          38.000    21169769.742 8  88047741.616 8     -2909.013          49.000
C25  25124262.695 6 130828645.835 6      2557.242          36.000
C27  22888466.242 8 119186225.150 8     -1817.574          51.000
C28  25442312.961 5 132484802.747 5     -3461.363          31.000
E07  24352932.492 8 127975523.659 8     -1609.531          51.000    24352935.891 8  98059187.539 8     -1233.274          51.000
E19  27127714.102 7 142557088.372 7      2409.918          45.000    27127713.789 7 109232077.099 7      1846.405          45.000
E26  23618305.602 8 124115021.456 8     -2305.676          51.000    23618307.945 8  95101127.180 8     -1766.639          51.000
E33  23988524.211 6 126060541.285 6       399.098          40.000    23988525.836 6  96591853.284 6       305.904          41.000
> 2020 05 06 22 41 30.0000000  0 16        .000000000000
G01  23451296.781 8 123237373.397 8     -3507.191          48.000    23451296.773 8  96029126.794 8     -2732.876          48.000
G03  21039260.398 8 110562068.684 8     -1561.242          48.000    21039260.883 5  86152281.788 5     -1216.552          35.000
G04  20262007.172 8 106477634.342 8       268.539          51.000    20262008.125 8  82969590.214 8       209.251          51.000
G09  21501152.492 8 112989425.207 8      2439.156          51.000    21501154.508 8  88043661.283 8      1900.641          51.000
G17  22628566.508 6 118913903.318 6     -1859.480          40.000    22628565.352 6  92660173.541 6     -1448.949          40.000
R05  20321018.492 6 108627460.137 6     -2111.957          39.000    20321021.375 6  84488030.063 6     -1642.636          40.000
R14  22892216.359 6 122028372.575 6      -297.148          36.000
R20  21190787.414 6 113316660.942 6     -3751.445          38.000    21190792.125 8  88135174.720 8     -2917.791          49.000
C24  25325632.625 5 131877225.338 5       247.656          31.000
C25  25109547.375 6 130752019.370 6      2553.844          36.000
C27  22898975.352 8 119240948.627 8     -1827.816          50.000
C28  25462251.078 5 132588641.102 5     -3458.719          33.000
E07  24362133.367 8 128023873.711 8     -1611.113          51.000    24362136.477 8  98096234.989 8     -1234.522          51.000
E19  27113966.102 7 142484842.624 7      2409.270          44.000    27113965.727 7 109176719.981 7      1846.112          45.000
E26  23631492.188 8 124184317.386 8     -2311.367          51.000    23631494.078 8  95154224.056 8     -1771.066          51.000
E33  23986281.195 6 126048754.243 6       389.199          40.000    23986280.711 6  96582821.688 6       298.421          40.000
> 2020 05 06 22 42  0.0000000  0 16        .000000000000
G01  23471360.484 8 123342808.032 8     -3516.988          48.000    23471359.750 8  96111283.644 8     -2740.510          48.000
G03  21048221.266 7 110609157.625 7     -1573.398          47.000    21048222.688 6  86188974.482 6     -1226.025          39.000
G04  20260545.312 8 106469952.096 8       248.438          51.000    20260546.227 8  82963604.053 8       193.588          51.000
G09  21487286.883 8 112916559.167 8      2423.496          51.000    21487288.242 8  87986882.552 8      1888.439          51.000
G17  22639246.750 7 118970025.932 7     -1877.176          43.000    22639244.789 7  92703905.446 7     -1462.731          42.000
R05  20332917.008 6 108691070.155 6     -2124.016          36.000    20332920.742 6  84537504.621 6     -1652.006          38.000
R14  22893981.336 5 122037793.043 5      -325.516          35.000    22893982.453 5  94918286.057 5      -253.176          31.000
R20  21211900.039 6 113429559.498 6     -3770.168          36.000    21211904.766 7  88222984.707 7     -2932.353          47.000
C24  25324270.883 5 131870160.809 5       228.117          30.000
C25  25094878.234 6 130675631.403 6      2543.598          36.000
C27  22909570.094 8 119296118.156 8     -1845.227          51.000
C28  25482200.984 5 132692534.622 5     -3463.055          34.000
E07  24371369.961 8 128072411.910 8     -1619.828          51.000    24371372.969 8  98133426.591 8     -1241.146          51.000
E19  27100247.766 7 142412753.272 7      2401.656          44.000    27100247.664 7 109121482.717 7      1840.125          45.000
E26  23644738.117 8 124253926.168 8     -2324.297          51.000    23644739.742 8  95207560.636 8     -1780.877          49.000
E33  23984121.383 6 126037402.075 6       372.453          41.000    23984120.156 6  96574123.308 6       285.290          40.000
> 2020 05 06 22 42 30.0000000  0 16        .000000000000
G01  23491471.984 7 123448495.758 7     -3522.996          47.000    23491471.648 7  96193637.691 7     -2745.192          47.000
G03  21057243.547 7 110656569.936 7     -1581.559          47.000    21057243.445 6  86225919.175 6     -1232.383          41.000
G04  20259191.094 8 106462835.336 8       231.922          51.000    20259191.859 8  82958058.525 8       180.715          51.000
G09  21473504.031 8 112844125.865 8      2411.371          51.000    21473504.656 8  87930441.046 8      1878.990          51.000
G17  22650020.086 7 119026639.520 7     -1891.223          44.000    22650018.586 7  92748019.900 7     -1473.677          42.000
G22  22922179.617 5 120456866.769 5     -2410.562          33.000
R05  20344873.734 6 108754991.453 6     -2131.504          39.000    20344877.133 5  84587221.164 5     -1657.836          35.000
R14  22895902.305 5 122048041.737 5      -350.480          33.000    22895903.008 5  94926253.434 5      -272.599          33.000
R20  21233109.148 5 113542978.255 5     -3785.301          33.000    21233114.117 7  88311199.312 7     -2944.123          46.000
C25  25080263.750 6 130599523.271 6      2536.289          39.000
C27  22920257.734 8 119351770.860 8     -1859.059          51.000
C28  25502169.672 6 132796519.890 6     -3463.336          36.000
E07  24380649.492 8 128121176.402 8     -1625.141          51.000    24380652.523 8  98170791.589 8     -1245.199          51.000
E19  27086566.664 7 142340860.048 7      2397.352          44.000    27086567.039 7 109066395.735 7      1836.842          44.000
E26  23658050.773 8 124323885.789 8     -2333.727          51.000    23658051.945 8  95261166.030 8     -1788.201          49.000
E33  23982051.742 6 126026524.709 6       358.645          39.000    23982050.562 6  96565788.716 6       274.812          40.000
> 2020 05 06 22 43  0.0000000  0 16        .000000000000
G01  23511603.766 7 123554292.539 7     -3525.684          46.000    23511604.641 7  96276076.705 7     -2747.286          46.000
G03  21066300.203 7 110704163.011 7     -1586.695          47.000    21066301.852 7  86263004.667 7     -1236.389          45.000
G04  20257917.398 8 106456141.296 8       218.664          51.000    20257917.969 8  82952842.394 8       170.391          51.000
G09  21459776.422 8 112771984.184 8      2402.453          50.000    21459776.508 8  87874226.787 8      1872.041          50.000
G17  22660859.461 7 119083599.157 7     -1901.750          44.000    22660858.609 6  92792404.071 6     -1481.883          41.000
R05  20356862.617 6 108819077.352 6     -2136.305          39.000    20356863.922 5  84637065.654 5     -1661.573          34.000
R14  22897942.219 5 122058910.245 5      -372.582          31.000    22897947.492 5  94934714.691 5      -289.789          31.000
R20  21254386.820 5 113656768.497 5     -3796.211          33.000    21254393.141 7  88399702.891 7     -2952.609          46.000
C24  25321841.633 5 131857459.648 5       199.859          32.000
C25  25065675.812 6 130523556.500 6      2532.539          38.000
C27  22931010.156 8 119407764.077 8     -1869.496          50.000
C28  25522128.766 6 132900453.895 6     -3460.816          36.000
E07  24389944.781 8 128170023.917 8     -1626.906          50.000    24389947.742 8  98208220.210 8     -1246.722          51.000
E19  27072895.773 7 142269020.963 7      2396.246          43.000    27072896.711 7 109011350.190 7      1836.133          44.000
E26  23671402.984 8 124394052.872 8     -2339.785          51.000    23671403.680 8  95314930.387 8     -1792.786          48.000
E33  23980044.844 6 126015980.670 6       348.309          39.000    23980044.414 6  96557709.496 6       267.035          40.000
> 2020 05 06 22 43 30.0000000  0 15        .000000000000
G01  23531781.008 7 123660329.165 7     -3538.492          46.000    23531783.477 7  96358702.630 7     -2757.267          46.000
G03  21075416.344 7 110752069.087 7     -1602.047          46.000    21075419.680 7  86300334.062 7     -1248.351          46.000
G04  20256749.141 8 106450002.098 8       195.395          51.000    20256749.523 8  82948058.626 8       152.255          51.000
G09  21446128.656 8 112700268.050 8      2383.270          48.000    21446129.125 8  87818344.068 8      1857.093          48.000
G17  22671789.414 7 119141034.963 7     -1922.531          47.000    22671788.711 6  92837159.258 6     -1498.073          41.000
R05  20368908.000 6 108883461.251 6     -2151.172          38.000    20368908.734 6  84687141.907 6     -1673.134          36.000
R20  21275760.445 6 113771061.601 6     -3818.375          36.000    21275766.703 7  88488597.540 7     -2969.847          46.000
C24  25320769.000 4 131851870.231 4       177.570          29.000
C25  25051139.750 6 130447865.109 6      2518.207          39.000
C27  22941852.430 8 119464227.532 8     -1889.965          50.000
C28  25542101.773 6 133004465.886 6     -3468.316          36.000
E07  24399280.977 8 128219086.108 8     -1638.969          50.000    24399283.617 8  98245813.320 8     -1255.902          51.000
E19  27059260.734 7 142197369.008 7      2385.195          43.000    27059262.172 7 108956448.027 7      1827.722          45.000
E26  23684819.688 8 124464558.880 8     -2355.844          51.000    23684820.188 8  95368954.447 8     -1805.076          50.000
E33  23978126.938 6 126005903.218 6       328.230          39.000    23978127.477 6  96549987.853 6       251.304          41.000
> 2020 05 06 22 44  0.0000000  0 16        .000000000000
G01  23551988.438 7 123766521.819 7     -3541.820          47.000    23551992.062 7  96441450.160 7     -2759.860          47.000
G03  21084576.391 7 110800205.817 7     -1607.781          45.000    21084579.375 7  86337843.181 7     -1252.817          45.000
G04  20255670.734 8 106444335.161 8       181.633          51.000    20255670.703 8  82943642.850 8       141.535          51.000
G09  21432546.711 8 112628896.440 8      2373.816          50.000    21432547.539 8  87762729.796 8      1849.727          50.000
G17  22682794.148 7 119198863.161 7     -1933.668          47.000    22682792.414 7  92882220.182 7     -1506.754          42.000
G31  24077848.203 5 126529935.884 5     -2250.262          34.000
R05  20380993.336 5 108948057.890 5     -2155.953          34.000    20380993.922 6  84737383.633 6     -1676.859          38.000
R14  22902474.594 5 122083029.136 5      -426.309          35.000    22902478.617 4  94953517.021 4      -331.570          24.000
R20  21297212.711 6 113885770.326 6     -3829.906          37.000    21297217.398 7  88577815.394 7     -2978.816          45.000
C25  25036642.117 6 130372370.420 6      2513.625          39.000
C27  22952769.492 8 119521078.249 8     -1900.930          50.000
C28  25562074.250 5 133108472.305 5     -3465.762          35.000
E07  24408642.297 8 128268279.981 8     -1641.348          51.000    24408644.633 8  98283507.322 8     -1257.662          51.000
E19  27045646.156 7 142125822.693 7      2383.922          44.000    27045648.078 7 108901626.850 7      1826.567          45.000
E26  23698284.773 8 124535320.663 8     -2362.461          51.000    23698285.820 8  95423174.499 8     -1810.143          50.000
E33  23976282.898 6 125996211.193 6       317.465          41.000    23976283.891 6  96542561.484 6       243.183          41.000
> 2020 05 06 22 44 30.0000000  0 17        .000000000000
G01  23572226.102 7 123872871.841 7     -3544.961          47.000    23572230.391 7  96524320.309 7     -2762.307          47.000
G03  21093780.883 7 110848576.076 7     -1613.746          45.000    21093782.836 7  86375534.314 7     -1257.464          45.000
G04  20254682.539 8 106439143.129 8       167.961          51.000    20254682.438 8  82939597.123 8       130.882          51.000
G09  21419031.828 8 112557873.606 8      2364.219          51.000    21419032.953 8  87707387.336 8      1842.248          51.000
G17  22693873.633 7 119257084.395 7     -1944.539          46.000    22693871.211 7  92927587.367 7     -1515.225          42.000
G19  22327617.562 5 117332426.620 5     -1120.633          33.000
G31  24090736.531 5 126597668.670 5     -2262.719          32.000
R14  22904946.500 6 122096245.259 6      -448.039          36.000    22904953.250 5  94963767.561 5      -348.475          33.000
R20  21318742.578 6 114000893.919 6     -3841.605          38.000    21318745.398 7  88667355.924 7     -2987.915          45.000
C24  25318878.664 5 131842032.881 5       151.246          33.000
C25  25022183.367 6 130297078.127 6      2509.145          39.000
C27  22963761.711 8 119578317.632 8     -1911.699          50.000
C28  25582046.727 5 133212474.199 5     -3463.691          33.000
E07  24418029.172 8 128317607.744 8     -1643.750          51.000    24418031.305 8  98321303.900 8     -1259.533          51.000
E19  27032052.523 7 142054385.464 7      2382.012          45.000    27032054.914 7 108846889.257 7      1825.205          46.000
E26  23711798.672 8 124606340.209 8     -2368.820          50.000    23711800.523 8  95477592.089 8     -1815.115          51.000
E33  23974512.945 7 125986908.472 7       306.324          42.000    23974513.750 6  96535433.409 6       234.647          41.000
> 2020 05 06 22 45  0.0000000  0 17        .000000000000
G01  23592508.703 7 123979457.973 7     -3564.340          46.000    23592513.273 7  96607374.420 7     -2777.408          46.000
G03  21103044.906 7 110897259.990 7     -1635.555          42.000    21103047.016 7  86413469.791 7     -1274.461          42.000
G04  20253799.945 8 106434505.933 8       137.699          51.000    20253800.078 8  82935983.729 8       107.298          51.000
G09  21405598.648 8 112487281.229 8      2338.375          51.000    21405600.477 8  87652380.307 8      1822.110          51.000
G17  22705042.273 7 119315776.942 7     -1971.910          46.000    22705040.117 7  92973321.801 7     -1536.550          44.000
G19  22334095.672 5 117366464.257 5     -1153.504          32.000
G22  22991386.969 5 120820549.351 5     -2446.910          34.000
R14  22907567.250 5 122110225.052 5      -487.320          30.000    22907575.188 5  94974640.849 5      -379.018          33.000
R20  21340364.125 6 114116510.110 6     -3869.766          38.000    21340366.102 7  88757279.585 7     -3009.818          46.000
C24  25318092.766 5 131837887.844 5       121.375          33.000
C25  25007779.117 6 130222070.608 6      2487.797          37.000
C27  22974843.750 8 119636023.800 8     -1938.824          51.000
C28  25602032.898 4 133316503.326 4     -3477.656          28.000
E07  24427456.602 8 128367148.978 8     -1662.504          51.000    24427458.844 8  98359264.047 8     -1273.816          51.000
E19  27018495.008 7 141983138.281 7      2364.227          45.000    27018497.641 7 108792297.287 7      1811.514          46.000
E26  23725376.875 8 124677696.950 8     -2391.727          50.000    23725379.859 8  95532268.033 8     -1832.613          51.000
E33  23972832.352 6 125978076.304 6       278.832          41.000    23972832.484 6  96528665.905 6       213.797          40.000
> 2020 05 06 22 45 30.0000000  0 17        .000000000000
G01  23612832.984 7 124086263.928 7     -3560.934          45.000    23612837.570 7  96690599.841 7     -2774.753          45.000
G03  21112365.922 6 110946242.799 6     -1634.727          41.000    21112368.219 6  86451638.164 6     -1273.813          41.000
G04  20253020.172 8 106430408.573 8       130.535          51.000    20253020.328 8  82932790.977 8       101.716          51.000
G09  21392244.531 8 112417106.040 8      2335.207          51.000    21392246.523 8  87597698.353 8      1819.642          51.000
G17  22716296.805 7 119374923.759 7     -1975.953          46.000    22716296.242 7  93019410.204 7     -1539.704          43.000
G22  23005331.891 5 120893823.107 5     -2442.598          35.000
R05  20417528.422 6 109143447.683 6     -2181.184          38.000    20417532.359 6  84889339.611 6     -1696.476          36.000
R14  22910338.773 5 122125000.591 5      -502.391          33.000    22910345.375 5  94986132.993 5      -390.751          33.000
R20  21362073.805 6 114232600.633 6     -3874.164          37.000    21362075.445 7  88847572.200 7     -3013.239          45.000
C24  25317399.852 5 131834265.260 5       114.816          33.000
C25  24993427.648 6 130147336.082 6      2489.090          37.000
C27  22986012.438 8 119694180.640 8     -1943.133          50.000
C28  25622029.844 4 133420632.129 4     -3468.535          28.000
E07  24436921.680 8 128416888.235 8     -1658.184          50.000    24436924.227 8  98397375.947 8     -1270.607          51.000
E19  27004970.641 7 141912067.080 7      2369.066          44.000    27004973.305 7 108737840.178 7      1815.295          45.000
E26  23739016.836 8 124749375.210 8     -2391.645          51.000    23739020.688 8  95587190.341 8     -1832.544          51.000
E33  23971238.266 6 125969701.030 6       274.305          41.000    23971238.172 6  96522248.481 6       210.373          40.000
> 2020 05 06 22 46  0.0000000  0 17        .000000000000
G01  23633180.242 7 124193192.158 7     -3567.578          44.000    23633184.750 7  96773920.578 7     -2779.928          44.000
G03  21121725.703 6 110995428.409 6     -1644.203          41.000    21121727.375 6  86489964.623 6     -1281.197          40.000
G04  20252324.750 8 106426754.783 8       113.180          51.000    20252325.062 8  82929943.867 8        88.192          51.000
G09  21378951.398 8 112347253.437 8      2321.855          49.000    21378952.656 8  87543267.776 8      1809.241          49.000
G17  22727619.500 7 119434426.792 7     -1990.562          47.000    22727619.750 7  93065776.230 7     -1551.088          43.000
G22  23019296.320 5 120967197.133 5     -2449.051          32.000
R05  20429794.312 6 109209010.636 6     -2189.473          37.000    20429796.758 5  84940332.980 5     -1702.923          35.000
R14  22913243.102 5 122140474.642 5      -528.848          34.000    22913247.805 5  94998168.291 5      -411.332          33.000
R20  21383851.992 5 114349064.075 5     -3889.551          35.000    21383854.086 7  88938154.875 7     -3025.209          45.000
C24  25316784.609 5 131831070.986 5        97.910          31.000
C25  24979110.883 6 130072782.204 6      2480.809          37.000
C27  22997249.016 8 119752691.614 8     -1957.469          50.000
C28  25642021.805 5 133524724.613 5     -3470.223          31.000
E07  24446406.047 8 128466728.892 8     -1664.215          50.000    24446408.875 8  98435565.542 8     -1275.157          51.000
E19  26991461.391 7 141841076.667 7      2363.719          43.000    26991463.766 7 108683444.954 7      1811.257          45.000
E26  23752699.953 8 124821278.183 8     -2401.645          51.000    23752704.258 8  95642284.820 8     -1840.260          51.000
E33  23969712.977 6 125961687.514 6       259.816          41.000    23969713.812 7  96516108.270 7       199.089          42.000
> 2020 05 06 22 46 30.0000000  0 16        .000000000000
G01  23653566.453 7 124300324.788 7     -3575.730          44.000    23653570.875 7  96857400.584 7     -2786.280          44.000
G03  21131140.016 5 111044900.529 5     -1655.113          34.000    21131141.562 5  86528514.247 5     -1289.702          34.000
G04  20251729.633 8 106423627.840 8        94.152          51.000    20251730.336 8  82927507.303 8        73.365          51.000
G09  21365736.016 8 112277808.444 8      2306.652          50.000    21365736.539 8  87489154.828 8      1797.391          50.000
G17  22739025.641 8 119494367.418 8     -2006.590          48.000    22739026.219 7  93112483.157 7     -1563.577          43.000
G22  23033293.750 5 121040774.175 5     -2456.562          33.000
R05  20442109.016 6 109274836.947 6     -2200.090          38.000    20442110.133 5  84991531.177 5     -1711.181          33.000
R14  22916294.492 5 122156732.080 5      -556.379          32.000    22916296.766 5  95010812.945 5      -432.739          30.000
R20  21405715.258 6 114465981.787 6     -3906.422          37.000    21405717.812 7  89029090.868 7     -3038.328          45.000
C25  24964844.578 6 129998494.750 6      2470.719          38.000
C27  23008569.477 8 119811638.099 8     -1973.410          51.000
C28  25662023.781 5 133628856.859 5     -3473.027          32.000
E07  24455925.492 8 128516753.900 8     -1671.855          51.000    24455928.531 8  98473896.399 8     -1281.047          51.000
E19  26977983.492 7 141770251.218 7      2356.879          43.000    26977985.312 7 108629176.133 7      1805.839          44.000
E26  23766441.633 8 124893488.564 8     -2413.398          51.000    23766445.758 8  95697614.845 8     -1849.263          51.000
E33  23968272.117 6 125954120.548 6       243.328          40.000    23968274.594 7  96510310.154 7       186.494          42.000
> 2020 05 06 22 47  0.0000000  0 17        .000000000000
G01  23673982.781 7 124407612.603 7     -3580.309          45.000    23673986.773 7  96941001.478 7     -2789.851          45.000
G03  21140599.586 5 111094611.241 5     -1662.699          33.000    21140601.117 5  86567249.852 5     -1295.613          33.000
G04  20251225.734 8 106420979.659 8        78.875          51.000    20251226.516 8  82925443.796 8        61.461          51.000
G09  21352590.086 8 112208724.657 8      2295.359          51.000    21352590.680 8  87435323.330 8      1788.592          51.000
G17  22750505.961 8 119554696.221 8     -2018.785          48.000    22750505.883 7  93159492.562 7     -1573.082          43.000
G19  22361156.812 4 117508673.931 4     -1224.586          28.000
G22  23047320.758 5 121114484.463 5     -2459.832          33.000
R05  20454463.203 6 109340876.158 6     -2206.402          36.000    20454463.688 5  85042894.945 5     -1716.094          32.000
R14  22919483.070 5 122173724.347 5      -580.934          30.000    22919483.711 4  95024029.242 4      -451.828          25.000
R20  21427654.695 6 114583301.733 6     -3918.961          39.000    21427657.508 7  89120339.686 7     -3048.084          46.000
C25  24950620.117 6 129924429.276 6      2463.387          39.000
C27  23019964.305 8 119870971.310 8     -1985.609          51.000
C28  25682022.727 4 133733031.761 4     -3472.172          28.000
E07  24465470.859 8 128566914.850 8     -1675.770          51.000    24465473.766 8  98512331.410 8     -1283.962          51.000
E19  26964528.133 7 141699543.946 7      2353.539          43.000    26964529.531 7 108574997.871 7      1803.358          44.000
E26  23780232.500 8 124965957.736 8     -2421.410          51.000    23780235.578 8  95753143.157 8     -1855.324          51.000
E33  23966907.703 6 125946953.205 6       230.867          41.000    23966910.484 6  96504818.286 6       176.979          41.000
> 2020 05 06 22 47 30.0000000  0 16        .000000000000
G01  23694425.250 7 124515036.362 7     -3581.164          46.000    23694427.938 7  97024708.275 7     -2790.520          46.000
G04  20250809.562 8 106418792.245 8        67.203          51.000    20250810.266 8  82923739.319 8        52.366          51.000
G09  21339510.180 8 112139985.791 8      2287.254          51.000    21339510.992 8  87381760.595 8      1782.276          51.000
G17  22762056.422 8 119615393.120 8     -2027.523          48.000    22762055.641 7  93206788.837 7     -1579.888          43.000
G19  22368192.594 5 117545637.181 5     -1239.496          33.000
G22  23061368.180 5 121188287.372 5     -2460.367          35.000
R05  20466853.430 4 109407109.108 4     -2209.895          29.000    20466854.523 5  85094409.439 5     -1718.804          31.000
R14  22922803.992 5 122191441.152 5      -600.031          33.000
R20  21449665.734 6 114701001.959 6     -3927.820          40.000    21449668.695 7  89211884.263 7     -3054.971          46.000
C24  25315500.344 5 131824448.891 5        53.184          35.000
C25  24936435.555 6 129850571.024 6      2460.379          39.000
C27  23031429.672 8 119930672.243 8     -1994.340          51.000
E07  24475038.641 8 128617193.436 8     -1676.020          50.000    24475041.398 8  98550856.564 8     -1284.208          51.000
E19  26951092.102 7 141628937.562 7      2353.613          42.000    26951093.156 7 108520896.901 7      1803.553          44.000
E26  23794068.875 8 125038667.161 8     -2425.758          51.000    23794070.727 8  95808855.554 8     -1858.701          50.000
E33  23965616.492 6 125940168.816 6       221.719          40.000    23965617.898 6  96499619.921 6       169.733          41.000
> 2020 05 06 22 48  0.0000000  0 16        .000000000000
G01  23714927.656 7 124622774.178 7     -3588.957          47.000    23714926.758 7  97108659.750 7     -2796.593          46.000
G04  20250515.141 8 106417244.896 8        48.441          51.000    20250515.945 8  82922533.603 8        37.747          51.000
G09  21326530.047 8 112071772.811 8      2272.445          51.000    21326531.148 8  87328607.643 8      1770.737          51.000
G17  22773710.484 8 119676635.624 8     -2042.980          50.000    22773709.992 7  93254510.258 7     -1591.933          42.000
G19  22375367.383 5 117583335.165 5     -1260.891          32.000
R05  20479311.820 5 109473717.176 5     -2218.809          35.000    20479316.352 5  85146215.815 5     -1725.740          30.000
R14  22926295.203 6 122210055.144 6      -627.426          38.000
R20  21471781.156 6 114819261.795 6     -3943.324          40.000    21471784.188 7  89303864.103 7     -3067.030          47.000
C24  25315280.672 5 131823307.514 5        35.262          32.000
C25  24922325.711 6 129777100.889 6      2449.754          38.000
C27  23042999.203 8 119990917.404 8     -2009.793          51.000
C28  25722030.219 5 133941351.750 5     -3469.980          33.000
E07  24484662.711 8 128667768.639 8     -1683.164          51.000    24484665.711 8  98589608.996 8     -1289.718          51.000
E19  26937709.328 7 141558612.488 7      2347.145          42.000    26937710.477 7 108467011.482 7      1798.378          45.000
E26  23807984.914 8 125111795.529 8     -2437.047          51.000    23807985.656 8  95864888.965 8     -1867.351          49.000
E33  23964432.078 6 125933948.093 6       205.641          39.000    23964433.273 7  96494853.383 7       157.476          42.000
> 2020 05 06 22 48 30.0000000  0 17        .000000000000
G01  23735436.086 7 124730543.509 7     -3593.348          47.000    23735432.633 7  97192635.780 7     -2800.011          47.000
G03  21169281.109 5 111245313.285 5     -1684.301          35.000    21169281.008 6  86684666.361 6     -1312.445          37.000
G04  20250288.953 8 106416056.239 8        33.246          51.000    20250289.930 8  82921607.379 8        25.909          51.000
G09  21313596.078 8 112003806.129 8      2261.004          50.000    21313597.664 8  87275646.603 8      1761.821          50.000
G17  22785414.562 8 119738140.610 8     -2054.906          50.000    22785414.609 7  93302436.204 7     -1601.226          44.000
G19  22382625.758 5 117621483.215 5     -1279.688          33.000    22382651.391 5  91653215.092 5      -997.159          31.000
R05  20491788.422 5 109540413.659 5     -2225.082          34.000    20491792.836 4  85198090.844 4     -1730.619          25.000
R14  22929902.242 6 122229259.902 6      -651.355          36.000
R20  21493946.945 6 114937791.653 6     -3955.938          40.000    21493950.125 7  89396053.981 7     -3076.843          47.000
C24  25315125.320 5 131822515.983 5        19.641          34.000
C25  24908237.188 6 129703743.211 6      2442.961          36.000
C27  23054619.211 8 120051426.815 8     -2021.840          51.000
C28  25742023.977 5 134045464.539 5     -3468.934          33.000
E07  24494289.547 8 128718358.817 8     -1687.016          50.000    24494292.852 8  98628372.894 8     -1292.666          50.000
E19  26924326.695 7 141488288.390 7      2343.391          43.000    26924328.188 7 108413126.768 7      1795.842          45.000
E26  23821926.961 8 125185060.941 8     -2444.867          51.000    23821927.469 8  95921027.380 8     -1873.379          50.000
E33  23963302.219 6 125928010.853 6       192.633          39.000    23963303.656 7  96490304.069 7       147.656          42.000
> 2020 05 06 22 49  0.0000000  0 17        .000000000000
G01  23755991.945 8 124838562.659 8     -3605.090          48.000    23755989.961 7  97276806.519 7     -2809.161          47.000
G03  21178946.039 5 111296104.229 5     -1698.324          35.000    21178946.258 5  86724243.660 5     -1323.373          34.000
G04  20250172.766 8 106415445.796 8        10.469          51.000    20250173.570 8  82921131.709 8         8.157          51.000
G09  21300750.773 8 111936306.949 8      2241.977          50.000    21300752.766 8  87223049.835 8      1746.995          50.000
G17  22797210.102 8 119800125.891 8     -2074.465          50.000    22797210.344 7  93350736.379 7     -1616.466          44.000
R05  20504322.852 4 109607420.572 4     -2238.750          28.000
R14  22933665.227 6 122249339.317 6      -682.934          38.000
R20  21516204.555 6 115056811.518 6     -3975.574          38.000    21516207.695 7  89488624.993 7     -3092.113          47.000
R21  19854035.234 5 106242958.585 5        61.047          35.000    19854039.555 5  82633426.461 5        47.478          31.000
C24  25315082.711 5 131822292.426 5        -2.422          35.000
C25  24894213.547 5 129630718.772 5      2428.098          35.000
C27  23066330.891 8 120112416.841 8     -2041.203          49.000
C28  25762029.648 4 134149651.166 4     -3474.641          29.000
E07  24503960.984 8 128769183.180 8     -1698.281          50.000    24503964.328 8  98667316.249 8     -1301.197          50.000
E19  26910986.359 7 141418185.716 7      2332.934          43.000    26910988.148 7 108359411.770 7      1787.447          45.000
E26  23835936.578 8 125258682.345 8     -2460.219          51.000    23835937.906 8  95977438.592 8     -1885.067          51.000
E33  23962268.898 6 125922577.929 6       172.398          38.000    23962269.305 7  96486141.203 7       132.178          42.000
> 2020 05 06 22 49 30.0000000  0 17        .000000000000
G01  23776580.461 7 124946754.414 7     -3608.273          47.000    23776581.016 7  97361111.775 7     -2811.642          47.000
G03  21188661.211 6 111347158.792 6     -1705.375          39.000    21188661.727 6  86764026.412 6     -1328.861          39.000
G04  20250152.219 8 106415337.441 8        -3.867          51.000    20250152.727 8  82921047.273 8        -3.013          51.000
G09  21287980.820 8 111869200.885 8      2231.227          51.000    21287982.852 8  87170759.401 8      1738.618          51.000
G17  22809082.125 8 119862513.652 8     -2085.207          49.000    22809081.930 7  93399350.188 7     -1624.837          45.000
R05  20516895.906 5 109674644.544 5     -2244.262          34.000
R07  23579967.359 5 126225409.958 5      3160.770          35.000    23579965.516 4  98175310.446 4      2458.382          26.000
R14  22937573.398 5 122270153.366 5      -705.414          35.000    22937574.039 4  95099023.421 4      -548.652          28.000
R20  21538538.102 6 115176241.088 6     -3986.965          38.000    21538542.008 7  89581514.656 7     -3100.973          47.000
R21  19853761.016 5 106241483.707 5        34.871          32.000    19853765.625 5  82632305.027 5        27.128          31.000
C24  25315135.727 5 131822562.711 5       -16.070          32.000
C25  24880240.922 6 129557955.223 6      2422.250          38.000
C27  23078120.109 7 120173810.927 7     -2052.316          47.000
E07  24513662.594 8 128820165.461 8     -1701.164          50.000    24513665.586 8  98706380.598 8     -1303.456          49.000
E19  26897674.172 7 141348229.542 7      2330.281          43.000    26897675.992 7 108305809.019 7      1785.609          45.000
E26  23849999.125 8 125332583.152 8     -2466.992          50.000    23850001.805 8  96034063.892 8     -1890.371          51.000
E33  23961316.641 6 125917574.624 6       160.316          36.000    23961316.781 7  96482307.524 7       122.858          42.000
> 2020 05 06 22 50  0.0000000  0 18        .000000000000
G01  23797177.375 7 125054991.603 7     -3610.328          47.000    23797179.664 7  97445452.439 7     -2813.243          47.000
G03  21198402.820 6 111398351.203 6     -1710.805          40.000    21198402.656 6  86803916.572 6     -1333.095          40.000
G04  20250203.328 8 106415605.076 8       -17.004          51.000    20250203.734 8  82921255.827 8       -13.250          51.000
G09  21275262.258 8 111802363.579 8      2221.566          51.000    21275264.188 8  87118678.412 8      1731.091          51.000
G17  22821006.211 8 119925175.847 8     -2095.156          49.000    22821005.539 7  93448177.885 7     -1632.586          45.000
G19  22405096.641 5 117739580.484 5     -1338.211          31.000
G31  24238440.242 5 127373858.580 5     -2431.980          31.000
R05  20529498.172 6 109741974.867 6     -2248.324          37.000
R07  23562247.492 5 126130564.420 5      3159.398          33.000
R20  21560923.703 6 115295948.448 6     -3996.840          38.000    21560928.141 7  89674620.374 7     -3108.653          47.000
R21  19853628.945 5 106240773.032 5         9.695          32.000    19853634.930 5  82631752.272 5         7.541          33.000
C24  25315258.945 4 131823202.894 4       -30.332          28.000
C25  24866295.734 6 129485330.994 6      2416.465          38.000
C27  23089962.812 7 120235483.048 7     -2062.242          46.000
E07  24523370.102 8 128871179.321 8     -1702.871          50.000    24523373.008 8  98745469.136 8     -1304.842          49.000
E19  26884366.227 7 141278294.789 7      2328.750          44.000    26884367.883 7 108252222.694 7      1784.517          45.000
E26  23864090.438 8 125406636.784 8     -2472.953          50.000    23864094.523 8  96090806.282 8     -1894.881          51.000
E33  23960422.453 6 125912876.166 6       149.578          38.000    23960423.305 7  96478707.363 7       114.654          43.000
> 2020 05 06 22 50 30.0000000  0 17        .000000000000
G01  23817821.734 7 125163479.521 7     -3619.605          46.000    23817824.930 7  97529988.501 7     -2820.472          46.000
G03  21208209.867 6 111449888.280 6     -1722.953          41.000    21208210.023 6  86844075.388 6     -1342.561          41.000
G04  20250365.195 8 106416455.165 8       -37.441          51.000    20250365.477 8  82921918.242 8       -29.175          51.000
G09  21262634.438 8 111736003.248 8      2204.762          51.000    21262636.180 8  87066969.095 8      1717.999          51.000
G17  22833021.352 8 119988317.192 8     -2111.988          49.000    22833020.539 7  93497378.947 7     -1645.702          45.000
G19  22412809.953 5 117780108.839 5     -1361.297          33.000
G31  24252385.234 5 127447144.591 5     -2450.895          32.000    24252383.195 5  99309481.095 5     -1909.788          31.000
R05  20542156.148 6 109809629.609 6     -2259.555          39.000
R14  22945776.969 5 122313886.661 5      -756.418          33.000
R20  21583400.211 6 115416140.428 6     -4013.879          38.000    21583405.094 7  89768103.018 7     -3121.906          47.000
R21  19853672.633 5 106241004.743 5       -22.551          33.000    19853673.844 4  82631932.609 4       -17.530          26.000
C25  24852416.328 6 129413053.802 6      2404.207          37.000
C27  23101899.016 8 120297636.622 8     -2079.219          49.000
E07  24533122.875 8 128922431.037 8     -1711.629          49.000    24533125.984 8  98784739.920 8     -1311.505          48.000
E19  26871101.781 7 141208589.101 7      2320.375          43.000    26871103.422 7 108198811.874 7      1778.027          44.000
E26  23878250.062 8 125481049.174 8     -2485.645          50.000    23878254.789 8  96147823.566 8     -1904.558          51.000
E33  23959626.273 6 125908690.268 6       131.379          37.000    23959626.906 7  96475499.991 7       100.900          42.000
> 2020 05 06 22 51  0.0000000  0 19        .000000000000
G01  23838497.852 7 125272135.924 7     -3624.707          45.000    23838501.641 7  97614655.844 7     -2824.447          45.000
G03  21218066.961 6 111501689.338 6     -1731.059          40.000    21218067.672 6  86884439.854 6     -1348.877          40.000
G04  20250622.453 8 106417806.582 8       -53.406          51.000    20250622.344 8  82922971.292 8       -41.615          51.000
G09  21250082.266 8 111670040.452 8      2192.082          51.000    21250083.930 8  87015569.540 8      1708.116          51.000
G17  22845112.047 8 120051854.727 8     -2124.449          50.000    22845111.508 7  93546888.701 7     -1655.415          45.000
G19  22420633.898 5 117821226.095 5     -1379.824          32.000
G22  23160599.586 5 121709816.732 5     -2501.898          33.000
G31  24266416.398 5 127520877.016 5     -2465.016          35.000    24266415.586 5  99366934.896 5     -1920.794          34.000
R05  20554856.891 5 109877513.290 5     -2266.914          33.000
R06  19975147.820 5 106591214.890 5      1301.512          30.000
R20  21605950.977 6 115536731.261 6     -4026.492          36.000    21605956.430 7  89861895.894 7     -3131.716          47.000
R21  19853875.922 5 106242097.687 5       -50.984          32.000    19853879.633 4  82632752.598 4       -39.664          29.000
C24  25315825.102 4 131826162.955 4       -66.012          29.000
C25  24838587.859 5 129341046.552 5      2395.504          35.000
C27  23113912.555 8 120360190.067 8     -2091.789          51.000
E07  24542905.422 8 128973839.202 8     -1716.176          48.000    24542908.805 8  98824130.588 8     -1315.010          48.000
E19  26857865.242 7 141139032.361 7      2315.918          43.000    26857867.359 7 108145515.187 7      1774.660          44.000
E26  23892462.797 8 125555738.659 8     -2494.184          51.000    23892467.164 8  96205053.168 8     -1911.170          51.000
E33  23958912.539 6 125904937.172 6       117.953          40.000    23958912.633 7  96472624.228 7        90.341          42.000
> 2020 05 06 22 51 30.0000000  0 16        .000000000000
G01  23859212.773 7 125380996.280 7     -3632.023          44.000    23859217.070 7  97699482.114 7     -2830.145          44.000
G03  21227981.383 6 111553791.298 6     -1741.344          38.000    21227982.180 6  86925038.832 6     -1356.891          38.000
G04  20250982.008 8 106419695.906 8       -71.680          51.000    20250981.766 8  82924443.513 8       -55.851          51.000
G09  21237613.078 8 111604513.554 8      2177.281          51.000    21237614.727 8  86964509.638 8      1696.583          51.000
G17  22857284.953 8 120115823.468 8     -2139.262          51.000    22857284.625 7  93596734.445 7     -1666.957          45.000
G22  23174911.164 5 121784979.707 5     -2507.930          31.000
G31  24280539.797 5 127595093.818 5     -2481.477          33.000    24280536.836 5  99424766.031 5     -1933.624          32.000
R20  21628582.430 6 115657754.838 6     -4041.305          36.000    21628588.445 7  89956025.381 7     -3143.234          45.000
R21  19854248.414 6 106244090.009 6       -81.242          37.000    19854251.336 4  82634302.118 4       -63.185          24.000
C24  25316250.242 5 131828408.788 5       -83.340          31.000
C25  24824817.062 5 129269348.717 5      2384.859          30.000
C27  23126009.523 8 120423178.520 8     -2106.598          50.000
E07  24552724.711 8 129025440.297 8     -1722.973          48.000    24552728.141 8  98863669.075 8     -1320.191          48.000
E19  26844664.086 7 141069662.211 7      2309.691          42.000    26844666.523 7 108092361.447 7      1769.608          43.000
E26  23906735.422 8 125630741.348 8     -2504.977          51.000    23906738.875 8  96262522.751 8     -1919.413          51.000
E33  23958288.125 6 125901654.746 6       101.801          40.000    23958288.938 7  96470109.112 7        78.063          43.000
> 2020 05 06 22 52  0.0000000  0 16        .000000000000
G01  23879949.273 7 125489969.383 7     -3644.668          44.000    23879954.188 7  97784396.232 7     -2840.001          44.000
G03  21237936.016 6 111606104.650 6     -1757.320          38.000    21237937.484 6  86965802.517 6     -1369.341          38.000
G04  20251426.750 8 106422033.014 8       -95.664          51.000    20251426.422 8  82926264.644 8       -74.543          51.000
G09  21225209.945 8 111539334.154 8      2156.539          51.000    21225211.664 8  86913720.500 8      1680.420          51.000
G17  22869522.438 8 120180131.405 8     -2159.617          50.000    22869522.133 7  93646844.488 7     -1682.819          45.000
G31  24294738.148 5 127669703.495 5     -2503.281          30.000    24294737.141 4  99482903.521 4     -1950.603          29.000
R14  22959187.094 4 122385399.171 4      -841.328          29.000    22959185.336 4  95188624.135 4      -654.357          28.000
R20  21651277.688 6 115779116.492 6     -4061.387          37.000    21651283.797 7  90050417.768 7     -3158.856          44.000
R21  19854772.422 5 106246890.987 5      -117.609          35.000    19854775.172 4  82636480.588 4       -91.477          29.000
C24  25316764.586 6 131831100.012 6      -107.293          36.000
C27  23138171.961 8 120486511.587 8     -2127.125          49.000
C28  25882053.016 5 134774634.109 5     -3481.246          32.000
E07  24562563.734 8 129077144.062 8     -1735.598          48.000    24562566.625 7  98903286.229 7     -1329.823          47.000
E19  26831481.766 7 141000389.607 7      2297.070          43.000    26831483.758 7 108039282.447 7      1759.979          43.000
E26  23921050.281 8 125705966.627 8     -2521.602          49.000    23921053.039 8  96320162.870 8     -1932.169          51.000
E33  23957735.914 6 125898754.282 6        79.918          40.000    23957737.602 7  96467886.630 7        61.284          42.000
> 2020 05 06 22 52 30.0000000  0 17        .000000000000
G01  23900732.328 7 125599185.381 7     -3640.633          43.000    23900737.461 7  97869499.597 7     -2836.857          43.000
G03  21247956.102 6 111658760.885 6     -1757.059          37.000    21247958.141 6  87006833.388 6     -1369.137          37.000
G04  20251981.750 8 106424949.071 8      -102.945          51.000    20251981.180 8  82928536.898 8       -80.217          51.000
G09  21212898.086 8 111474635.163 8      2152.672          51.000    21212900.023 8  86863305.688 8      1677.407          51.000
G17  22881849.031 8 120244907.977 8     -2163.012          50.000    22881848.516 7  93697319.731 7     -1685.464          44.000
G31  24309035.367 5 127744842.505 5     -2509.379          31.000    24309034.453 5  99541431.833 5     -1955.366          31.000
R05  20593220.391 6 110082566.399 6     -2288.699          37.000    20593237.547 5  85619806.383 5     -1780.102          30.000
R07  23474179.812 5 125659146.048 5      3131.051          30.000
R20  21674061.258 6 115900946.118 6     -4064.832          38.000    21674066.094 7  90145174.063 7     -3161.539          42.000
R21  19855472.094 5 106250635.167 5      -136.293          35.000    19855474.719 5  82639392.713 5      -106.003          31.000
C24  25317392.477 6 131834367.648 6      -114.812          38.000
C27  23150424.695 8 120550318.035 8     -2130.785          48.000
C28  25902071.273 5 134878865.887 5     -3471.422          34.000
E07  24572447.375 8 129129081.471 8     -1731.105          48.000    24572449.562 8  98943082.425 8     -1326.443          48.000
E19  26818343.750 7 140931347.194 7      2301.668          44.000    26818344.750 7 107986379.840 7      1763.565          43.000
E26  23935431.656 7 125781545.137 7     -2521.148          47.000    23935434.914 8  96378073.661 8     -1931.732          51.000
E33  23957282.000 7 125896368.131 7        75.125          42.000    23957283.164 7  96466058.300 7        57.491          43.000
> 2020 05 06 22 53  0.0000000  0 16        .000000000000
G01  23921529.578 7 125708474.472 7     -3645.527          43.000    23921534.586 7  97954659.923 7     -2840.671          43.000
G03  21258009.859 6 111711591.812 6     -1765.316          36.000    21258011.523 6  87048000.330 6     -1375.571          36.000
G04  20252614.719 8 106428275.341 8      -118.949          51.000    20252614.070 8  82931128.811 8       -92.688          51.000
G09  21200645.789 8 111410249.604 8      2139.797          51.000    21200647.789 8  86813135.141 8      1667.374          51.000
G17  22894232.125 8 120309982.739 8     -2175.434          49.000    22894231.547 7  93748027.321 7     -1695.146          45.000
R05  20606085.094 6 110151327.924 6     -2295.707          36.000    20606094.680 4  85673287.548 4     -1785.547          29.000
R20  21696900.008 6 116023069.259 6     -4076.684          37.000    21696902.141 7  90240158.653 7     -3170.757          42.000
R21  19856314.195 6 106255152.031 6      -164.832          37.000    19856319.047 4  82642905.892 4      -128.197          27.000
C24  25318099.906 6 131838045.560 6      -130.656          39.000
C25  24783818.445 5 129055833.935 5      2359.715          31.000
C27  23162735.656 8 120614429.633 8     -2143.320          48.000
C28  25922070.602 5 134983004.601 5     -3471.270          34.000
E07  24582343.219 7 129181083.734 7     -1735.672          47.000    24582345.242 8  98982928.315 8     -1329.954          48.000
E19  26805217.711 7 140862367.017 7      2297.117          44.000    26805218.016 7 107933524.944 7      1760.051          43.000
E26  23949847.211 7 125857307.732 7     -2529.723          45.000    23949852.594 8  96436125.551 8     -1938.392          51.000
E33  23956894.055 6 125894329.031 6        60.891          41.000    23956894.922 7  96464495.863 7        46.800          43.000
> 2020 05 06 22 53 30.0000000  0 18        .000000000000
G01  23942355.523 7 125817913.428 7     -3641.641          43.000    23942360.320 7  98039937.030 7     -2837.645          43.000
G03  21268111.656 5 111764675.543 5     -1764.723          35.000    21268112.969 5  87089364.296 5     -1375.106          35.000
G04  20253340.531 8 106432089.676 8      -126.348          51.000    20253339.898 8  82934101.024 8       -98.453          51.000
G09  21188468.305 8 111346257.079 8      2135.492          51.000    21188469.961 8  86763270.854 8      1664.020          51.000
G17  22906686.656 8 120375431.607 8     -2178.816          50.000    22906685.773 7  93799026.451 7     -1697.779          45.000
G19  22461404.719 5 118035488.224 5     -1465.449          33.000
G31  24337845.594 5 127896203.781 5     -2528.441          30.000
R05  20618988.586 6 110220301.123 6     -2293.328          38.000    20618994.102 4  85726933.387 4     -1783.703          28.000
R20  21719807.133 5 116145561.713 5     -4080.352          34.000    21719808.914 7  90335430.544 7     -3173.607          44.000
R21  19857315.930 5 106260521.750 5      -183.891          35.000    19857322.625 5  82647082.363 5      -143.032          32.000
C24  25318901.125 6 131842211.992 6      -137.836          37.000
C25  24770249.109 5 128985181.976 5      2359.605          32.000
C27  23175120.375 8 120678922.351 8     -2147.234          49.000
C28  25942064.953 5 135087126.036 5     -3461.625          32.000
E07  24592266.055 7 129233228.597 7     -1731.469          46.000    24592268.367 8  99022883.466 8     -1326.779          48.000
E19  26792118.672 7 140793528.202 7      2301.180          44.000    26792118.609 7 107880778.358 7      1763.245          44.000
E26  23964313.570 7 125933331.812 7     -2529.539          47.000    23964320.484 8  96494377.794 8     -1938.105          51.000
E33  23956586.461 6 125892716.149 6        55.773          41.000    23956587.906 7  96463260.000 7        42.532          43.000
> 2020 05 06 22 54  0.0000000  0 17        .000000000000
G01  23963210.328 7 125927503.321 7     -3662.824          43.000    23963214.648 7  98125331.754 7     -2854.149          43.000
G03  21278261.352 4 111818014.966 4     -1789.406          28.000    21278262.883 4  87130927.499 4     -1394.343          29.000
G04  20254159.594 8 106436394.222 8      -158.996          51.000    20254158.953 8  82937455.232 8      -123.893          51.000
G09  21176366.523 8 111282661.517 8      2105.984          51.000    21176367.609 8  86713715.886 8      1641.027          51.000
G17  22919212.609 8 120441255.101 8     -2207.602          51.000    22919211.461 7  93850317.481 7     -1720.209          45.000
R05  20631931.820 6 110289487.541 6     -2317.230          41.000    20631921.242 3  85780698.993 3     -1802.293          23.000
R14  22979029.594 5 122491152.926 5      -938.508          32.000    22979029.234 5  95270901.237 5      -729.951          31.000
R20  21742780.805 5 116268422.293 5     -4109.121          30.000    21742785.469 7  90430988.845 7     -3195.980          45.000
R21  19858478.836 6 106266747.385 6      -229.328          39.000    19858486.234 5  82651924.447 5      -178.366          31.000
C24  25319796.430 5 131846870.128 5      -171.055          32.000
C25  24756733.070 5 128914808.627 5      2333.961          33.000
C27  23187579.398 8 120743797.226 8     -2176.082          51.000
C28  25962056.195 5 135191231.134 5     -3477.039          34.000
E07  24602216.328 7 129285518.091 7     -1752.629          45.000    24602219.031 8  99062949.438 8     -1342.897          48.000
E19  26779046.930 7 140724834.145 7      2280.141          43.000    26779046.875 7 107828142.669 7      1747.091          44.000
E26  23978831.555 8 126009619.095 8     -2554.512          50.000    23978838.500 8  96552831.698 8     -1957.422          51.000
E33  23956361.305 7 125891532.950 7        25.051          43.000    23956362.195 7  96462353.360 7        19.162          43.000
> 2020 05 06 22 54 30.0000000  0 15        .000000000000
G01  23984096.484 6 126037259.040 6     -3659.824          40.000    23984100.430 6  98210855.693 6     -2851.811          41.000
G04  20255074.906 8 106441204.858 8      -167.309          51.000    20255074.297 8  82941203.779 8      -130.370          51.000
G09  21164343.727 8 111219480.534 8      2100.543          51.000    21164344.320 8  86664483.967 8      1636.787          51.000
G17  22931812.633 8 120507467.318 8     -2212.082          51.000    22931811.383 7  93901911.387 7     -1723.700          45.000
G22  23261306.133 4 122238991.296 4     -2537.648          29.000
R05  20644917.812 5 110358903.308 5     -2316.094          35.000    20644913.523 4  85834684.940 4     -1801.409          27.000
R20  21765826.703 5 116391664.084 5     -4112.355          33.000    21765833.031 7  90526843.641 7     -3198.499          44.000
R21  19859805.773 6 106273846.126 6      -249.668          39.000    19859809.367 4  82657445.732 4      -194.186          29.000
C24  25320787.156 5 131852036.655 5      -179.887          30.000
C27  23200115.289 8 120809068.920 8     -2180.934          51.000
C28  25982048.203 5 135295334.307 5     -3468.496          35.000
E07  24612197.094 7 129337967.999 7     -1749.652          45.000    24612200.039 8  99103138.352 8     -1340.556          48.000
E19  26766005.562 7 140656301.824 7      2283.316          43.000    26766006.156 7 107775630.899 7      1749.395          44.000
E26  23993403.047 8 126086184.972 8     -2555.316          51.000    23993409.250 8  96611499.062 8     -1958.027          51.000
E33  23956221.320 7 125890796.644 7        18.500          43.000    23956221.117 7  96461789.174 7        14.175          43.000
> 2020 05 06 22 55  0.0000000  0 13        .000000000000
G01  24005023.117 6 126147229.363 6     -3667.586          37.000    24005026.969 6  98296546.916 6     -2857.856          37.000
G04  20256096.094 8 106446571.432 8      -186.012          51.000    20256095.836 8  82945385.527 8      -144.944          51.000
G09  21152409.523 8 111156765.693 8      2084.855          51.000    21152410.062 8  86615615.305 8      1624.563          51.000
G17  22944495.641 8 120574116.513 8     -2226.668          50.000    22944494.250 7  93953845.784 7     -1735.066          46.000
G19  22487166.547 5 118170847.492 5     -1533.617          32.000
R05  20657956.359 5 110428597.849 5     -2325.156          35.000    20657961.281 5  85888913.797 5     -1808.452          31.000
R20  21788954.273 5 116515334.834 5     -4127.207          34.000    21788960.641 7  90623032.032 7     -3210.050          44.000
R21  19861305.695 6 106281869.618 6      -280.547          38.000    19861307.289 5  82663686.118 5      -218.209          32.000
C27  23212736.688 8 120874785.658 8     -2195.789          51.000
E07  24622217.906 7 129390628.158 7     -1756.617          43.000    24622220.961 7  99143488.381 7     -1346.030          47.000
E19  26753004.586 7 140587982.258 7      2275.832          43.000    26753006.047 7 107723282.130 7      1743.933          45.000
E26  24008036.781 8 126163078.827 8     -2566.430          51.000    24008042.047 8  96670417.742 8     -1966.527          51.000
E33  23956176.156 7 125890558.407 7         1.934          43.000    23956174.914 7  96461606.646 7         1.374          44.000
> 2020 05 06 22 55 30.0000000  0 15        .000000000000
G01  24025944.680 6 126257173.193 6     -3668.281          36.000    24025948.805 5  98382217.481 5     -2858.401          35.000
G04  20257177.289 8 106452253.842 8      -198.453          51.000    20257177.430 8  82949813.397 8      -154.639          51.000
G09  21140518.516 8 111094278.721 8      2075.227          51.000    21140519.336 8  86566924.161 8      1617.057          51.000
G17  22957215.711 8 120640960.977 8     -2235.160          49.000    22957214.273 7  94005932.371 7     -1741.683          47.000
G22  23290328.172 5 122391481.797 5     -2545.895          30.000
R05  20671000.812 5 110498326.637 5     -2328.273          34.000    20671008.016 5  85943147.372 5     -1810.873          32.000
R14  22995376.570 5 122578256.702 5     -1003.504          35.000
R20  21812116.078 5 116639187.021 5     -4135.562          34.000    21812122.273 7  90719361.525 7     -3216.549          43.000
R21  19862933.422 6 106290574.030 6      -305.301          39.000    19862934.273 5  82670456.241 5      -237.456          33.000
C24  25323051.922 5 131863750.883 5      -211.016          32.000
C27  23225397.055 8 120940708.420 8     -2204.578          51.000
E07  24632232.883 7 129443258.480 7     -1757.664          43.000    24632236.047 7  99183815.501 7     -1346.716          47.000
E19  26739998.711 7 140519636.685 7      2274.691          43.000    26740000.852 7 107670913.457 7      1743.014          46.000
E26  24022686.617 8 126240060.114 8     -2571.246          51.000    24022691.070 8  96729403.405 8     -1970.188          51.000
E33  23956180.352 7 125890579.522 7        -8.645          43.000    23956179.227 7  96461622.812 7        -6.761          46.000
> 2020 05 06 22 56  0.0000000  0 16        .000000000000
G01  24046913.609 6 126367362.548 6     -3674.703          38.000    24046917.484 6  98468079.347 6     -2863.405          38.000
G04  20258370.445 8 106458525.006 8      -216.352          51.000    20258370.570 8  82954700.027 8      -168.586          51.000
G09  21128722.961 8 111032294.254 8      2060.238          50.000    21128724.539 8  86518624.568 8      1605.380          51.000
G17  22970024.141 8 120708271.341 8     -2248.945          48.000    22970023.047 8  94058382.014 8     -1752.425          48.000
G22  23304887.375 5 122467996.024 5     -2552.207          30.000
R05  20684102.844 5 110568366.667 5     -2337.516          31.000    20684108.633 5  85997623.038 5     -1818.068          32.000
R07  23352044.055 5 125005275.796 5      3096.391          32.000    23352030.758 4  97226315.325 4      2408.307          26.000
R14  23001109.172 6 122608838.492 6     -1029.684          37.000    23001114.250 4  95362461.377 4      -800.865          24.000
R20  21835363.312 5 116763495.002 5     -4148.402          33.000    21835369.523 6  90816045.488 6     -3226.535          41.000
R21  19864739.211 6 106300238.162 6      -335.789          37.000    19864741.367 5  82677972.760 5      -261.169          33.000
C24  25324327.875 5 131870391.434 5      -228.477          33.000
C27  23238148.000 8 121007106.462 8     -2218.727          51.000
E07  24642294.203 7 129496131.778 7     -1763.957          43.000    24642297.156 7  99224328.833 7     -1351.741          46.000
E19  26727040.172 7 140451538.849 7      2267.992          42.000    26727042.641 7 107618734.607 7      1737.932          46.000
E26  24037404.383 8 126317401.324 8     -2581.695          51.000    24037408.078 8  96788664.858 8     -1978.212          51.000
E33  23956285.938 7 125891134.226 7       -24.930          43.000    23956286.031 7  96462047.825 7       -19.228          46.000
> 2020 05 06 22 56 30.0000000  0 17        .000000000000
G01  24067907.945 6 126477683.588 6     -3679.176          38.000    24067911.430 6  98554043.776 6     -2866.890          38.000
G03  21329747.688 5 112088584.570 5     -1824.211          32.000    21329748.398 5  87341751.461 5     -1421.463          35.000
G04  20259654.250 8 106465272.118 8      -232.469          51.000    20259654.477 8  82959957.522 8      -181.144          51.000
G09  21117002.094 8 110970701.240 8      2046.949          51.000    21117004.266 8  86470630.038 8      1595.028          51.000
G17  22982899.562 8 120775933.263 8     -2260.797          48.000    22982898.875 7  94111105.604 7     -1761.660          47.000
G22  23319472.312 4 122544654.239 4     -2557.211          27.000
R05  20697241.578 5 110638602.705 5     -2344.246          35.000    20697245.844 5  86052251.047 5     -1823.303          31.000
R07  23334708.414 5 124912476.363 5      3091.336          31.000
R14  23006975.562 6 122640103.351 6     -1054.641          37.000
R20  21858673.508 5 116888140.969 5     -4160.445          31.000    21858679.391 6  90912992.321 6     -3235.902          38.000
R21  19866702.539 6 106310747.934 6      -363.801          37.000    19866704.930 5  82686147.006 5      -282.953          31.000
C24  25325693.406 5 131877514.681 5      -245.137          34.000
C27  23250967.891 8 121073866.951 8     -2230.996          51.000
E07  24652380.562 7 129549135.270 7     -1768.645          42.000    24652383.070 7  99264941.916 7     -1355.207          46.000
E19  26714107.711 7 140383577.343 7      2263.438          42.000    26714110.430 7 107566660.244 7      1734.268          46.000
E26  24052168.562 8 126394989.252 8     -2589.988          51.000    24052171.648 8  96848115.332 8     -1984.578          50.000
E33  23956471.719 7 125892111.065 7       -39.289          44.000    23956472.594 7  96462796.270 7       -30.126          46.000
> 2020 05 06 22 57  0.0000000  0 13        .000000000000
G01  24088927.641 6 126588138.606 6     -3685.387          40.000    24088930.922 6  98640112.610 6     -2871.730          39.000
G03  21340187.289 6 112143449.336 6     -1834.406          40.000    21340188.711 6  87384503.179 6     -1429.401          40.000
G04  20261029.336 8 106472498.628 8      -250.133          51.000    20261029.828 8  82965588.615 8      -194.909          50.000
G09  21105356.961 8 110909504.926 8      2031.863          51.000    21105359.094 8  86422944.638 8      1583.270          51.000
G17  22995842.391 8 120843948.489 8     -2274.262          50.000    22995842.039 8  94164104.469 8     -1772.152          48.000
R14  23012979.492 5 122672115.603 5     -1080.828          35.000
R21  19868823.422 6 106322107.778 6      -394.418          37.000    19868826.562 5  82694982.396 5      -306.773          31.000
C24  25327155.000 6 131885125.004 6      -262.805          36.000
C27  23263858.062 8 121140992.243 8     -2244.875          51.000
E07  24662492.508 6 129602272.451 6     -1774.922          40.000    24662494.633 7  99305657.430 7     -1359.933          46.000
E19  26701201.984 7 140315756.874 7      2256.891          43.000    26701205.000 7 107514693.908 7      1729.333          46.000
E26  24066980.211 8 126472826.932 8     -2600.129          51.000    24066982.750 8  96907757.166 8     -1992.292          50.000
E33  23956739.234 7 125893514.768 7       -55.227          46.000    23956740.078 7  96463871.852 7       -42.457          47.000
> 2020 05 06 22 57 30.0000000  0 16        .000000000000
G01  24109984.148 6 126698788.177 6     -3689.551          38.000    24109987.359 6  98726333.080 6     -2874.975          38.000
G03  21350686.914 6 112198623.740 6     -1842.359          41.000    21350687.500 6  87427496.321 6     -1435.602          40.000
G04  20262507.352 8 106480265.729 8      -265.824          51.000    20262507.602 8  82971640.938 8      -207.136          50.000
G09  21093799.305 8 110848768.298 8      2018.988          51.000    21093801.195 8  86375617.410 8      1573.238          51.000
G17  23008863.969 8 120912376.590 8     -2285.902          51.000    23008863.609 7  94217425.057 7     -1781.226          46.000
R05  20723640.125 5 110779742.334 5     -2358.355          30.000    20723639.836 4  86162019.879 4     -1834.276          28.000
R06  19885864.805 5 106114783.944 5      1142.562          32.000
R14  23019135.305 5 122704932.132 5     -1104.664          32.000    23019137.602 4  95437189.676 4      -859.183          24.000
R21  19871116.664 6 106334380.778 6      -422.289          40.000    19871119.797 5  82704528.024 5      -328.447          32.000
C24  25328723.453 6 131893284.014 6      -279.562          38.000
C25  24663683.719 4 128430275.483 4      2272.520          28.000
C27  23276829.789 8 121208541.852 8     -2256.691          51.000
E07  24672641.508 6 129655604.577 6     -1778.922          41.000    24672643.602 7  99346522.280 7     -1362.941          46.000
E19  26688334.703 7 140248139.868 7      2252.539          43.000    26688338.055 7 107462883.471 7      1725.968          45.000
E26  24081851.266 8 126550975.106 8     -2607.965          51.000    24081853.352 8  96967636.919 8     -1998.332          50.000
E33  23957099.875 7 125895407.907 7       -69.246          47.000    23957101.320 8  96465322.438 8       -53.023          48.000
> 2020 05 06 22 58  0.0000000  0 16        .000000000000
G01  24131055.750 6 126809522.369 6     -3693.832          36.000    24131059.852 6  98812619.477 6     -2878.311          37.000
G03  21361224.609 6 112253999.774 6     -1850.328          41.000    21361226.602 6  87470646.481 6     -1441.814          41.000
G04  20264067.539 8 106488464.660 8      -281.711          51.000    20264067.492 8  82978029.725 8      -219.512          51.000
G09  21082308.641 8 110788384.351 8      2005.707          51.000    21082310.273 8  86328564.984 8      1562.889          51.000
G17  23021943.141 8 120981107.496 8     -2297.340          51.000    23021942.594 7  94270981.585 7     -1790.135          46.000
R07  23282868.633 5 124635007.655 5      3074.859          34.000
R14  23025423.172 6 122738436.247 6     -1129.551          36.000    23025425.492 4  95463250.631 4      -878.533          27.000
R15  22263211.406 5 118967847.944 5      2202.516          35.000    22263210.070 4  92530548.992 4      1713.068          28.000
R21  19873561.289 6 106347456.555 6      -450.605          41.000    19873564.453 5  82714698.046 5      -350.474          35.000
C24  25330376.312 6 131901884.863 6      -295.133          37.000
C25  24650613.547 4 128362219.449 4      2263.023          28.000
C27  23289862.258 8 121276406.898 8     -2268.684          50.000
E07  24682807.133 6 129709022.890 6     -1783.266          40.000    24682809.039 7  99387453.198 7     -1366.419          45.000
E19  26675485.742 7 140180619.031 7      2247.762          44.000    26675489.000 7 107411146.708 7      1722.398          44.000
E26  24096760.812 8 126629324.667 8     -2616.277          51.000    24096762.602 8  97027670.979 8     -2004.677          51.000
E33  23957532.836 7 125897683.073 7       -83.398          47.000    23957534.711 7  96467065.755 7       -63.963          47.000
> 2020 05 06 22 58 30.0000000  0 16        .000000000000
G01  24152153.156 6 126920393.548 6     -3698.812          38.000    24152157.961 6  98899012.620 6     -2882.189          38.000
G03  21371810.539 6 112309631.319 6     -1859.602          40.000    21371812.344 6  87513995.709 6     -1449.040          40.000
G04  20265720.023 8 106497148.652 8      -298.305          51.000    20265720.367 8  82984796.488 8      -232.442          51.000
G09  21070895.719 8 110728408.074 8      1991.602          51.000    21070897.125 8  86281830.217 8      1551.897          51.000
G17  23035089.531 8 121050192.096 8     -2309.391          50.000    23035088.742 7  94324813.751 7     -1799.525          46.000
R07  23265653.164 4 124542852.964 4      3068.961          29.000    23265661.984 4  96866680.802 4      2386.970          28.000
R14  23031848.438 5 122772681.796 5     -1154.559          34.000    23031852.664 5  95489886.161 5      -897.990          31.000
R15  22250903.531 4 118902073.560 4      2181.785          28.000    22250904.367 5  92479386.944 5      1696.944          33.000
R21  19876168.078 6 106361400.139 6      -479.418          41.000    19876168.172 5  82725534.252 5      -372.878          35.000
C24  25332123.438 5 131910981.449 5      -312.684          32.000
C25  24637603.547 5 128294470.829 5      2252.082          33.000
C27  23302965.477 8 121344639.077 8     -2281.164          50.000
E07  24692999.039 6 129762580.759 6     -1788.410          37.000    24693001.227 7  99428491.018 7     -1370.209          45.000
E19  26662665.727 7 140113248.486 7      2242.492          44.000    26662668.227 7 107359525.139 7      1718.297          43.000
E26  24111718.625 8 126707928.428 8     -2625.066          51.000    24111720.555 8  97087899.843 8     -2011.456          51.000
E33  23958048.805 8 125900394.846 8       -98.414          48.000    23958050.297 7  96469143.620 7       -75.408          47.000
> 2020 05 06 22 59  0.0000000  0 16        .000000000000
G01  24173274.117 6 127031388.627 6     -3697.648          39.000    24173279.352 6  98985502.356 6     -2881.284          39.000
G03  21382442.891 7 112365506.775 7     -1862.398          43.000    21382444.719 7  87557535.071 7     -1451.220          43.000
G04  20267462.719 8 106506305.672 8      -309.070          51.000    20267463.156 8  82991931.832 8      -240.834          51.000
G09  21059558.406 8 110668829.189 8      1983.426          51.000    21059559.609 8  86235405.125 8      1545.527          51.000
G17  23048300.461 8 121119616.516 8     -2315.605          51.000    23048299.805 7  94378910.712 7     -1804.365          46.000
G19  22560465.406 5 118556037.802 5     -1673.848          32.000
R05  20763547.812 5 110992987.547 5     -2374.113          34.000
R14  23038409.703 4 122807656.136 4     -1173.680          29.000    23038414.383 4  95517088.630 4      -912.856          24.000
R21  19878932.141 7 106376179.960 7      -502.508          42.000    19878931.469 6  82737029.750 6      -390.839          37.000
C24  25333961.703 5 131920562.924 5      -323.238          30.000
C25  24624652.852 5 128227017.009 5      2247.637          35.000
C27  23316136.867 8 121413225.377 8     -2288.059          49.000
E07  24703215.117 6 129816266.163 6     -1787.555          36.000    24703217.961 7  99469626.589 7     -1369.616          44.000
E19  26649872.648 7 140046017.530 7      2242.844          45.000    26649873.656 7 107308010.542 7      1718.387          42.000
E26  24126722.109 8 126786773.979 8     -2628.082          50.000    24126724.656 8  97148313.969 8     -2013.695          51.000
E33  23958645.930 8 125903532.533 8      -107.535          49.000    23958647.148 7  96471547.826 7       -82.490          47.000
> 2020 05 06 22 59 30.0000000  0 15        .000000000000
G01  24194416.609 6 127142496.134 6     -3704.156          39.000    24194422.227 6  99072079.624 6     -2886.356          40.000
G03  21393119.812 6 112421616.120 6     -1873.027          41.000    21393121.789 6  87601256.609 6     -1459.502          41.000
G04  20269293.320 8 106515924.837 8      -326.996          51.000    20269293.586 8  82999427.292 8      -254.802          51.000
G09  21048294.656 8 110609638.638 8      1967.965          51.000    21048295.961 8  86189282.646 8      1533.482          51.000
G17  23061573.875 8 121189368.421 8     -2329.156          51.000    23061573.148 7  94433262.838 7     -1814.927          45.000
G19  22570086.617 6 118606622.055 6     -1693.414          37.000
R07  23231290.195 4 124358942.130 4      3062.176          29.000
R21  19881849.320 6 106391795.585 6      -532.961          41.000    19881851.656 6  82749175.259 6      -414.522          37.000
C24  25335891.781 5 131930619.231 5      -341.820          34.000
C25  24611756.281 6 128159850.736 6      2235.543          38.000
C27  23329374.289 8 121482153.922 8     -2301.883          48.000
E07  24713453.070 5 129870072.230 5     -1794.004          33.000    24713456.789 7  99510851.626 7     -1374.608          44.000
E19  26637104.609 7 139978916.642 7      2235.863          45.000    26637103.828 7 107256595.623 7      1713.053          42.000
E26  24141769.500 8 126865850.106 8     -2638.391          50.000    24141772.750 8  97208904.757 8     -2021.624          51.000
E33  23959322.438 8 125907086.646 8      -124.078          49.000    23959323.062 7  96474271.078 7       -95.049          47.000
