     3.02           OBSERVATION DATA    M (MIXED)           RINEX VERSION / TYPE
SAVERINEX           SC600               20200512 085930 LCL PGM / RUN BY / DATE
       G = GPS       R = GLONASS       C = COMPASS          COMMENT
       S = SBAS      J = QZSS          E = GALILEO          COMMENT
BEAN                                                        MARKER NAME
1                                                           MARKER NUMBER
GEODETIC                                                    MARKER TYPE
Unige DICCA         GTER                                    OBSERVER / AGENCY
SC60291900056       SC600               2.12(191226)        REC # / TYPE / VERS
                    HEMA45          NONE                    ANT # / TYPE
  4509407.8091   693652.4678  4442337.6214                  APPROX POSITION XYZ
        0.0000        0.0000        0.0000                  ANTENNA: DELTA H/E/N
G    8 C1C L1C D1C S1C C2Y L2Y D2Y S2Y                      SYS / # / OBS TYPES
R    8 C1C L1C D1C S1C C2P L2P D2P S2P                      SYS / # / OBS TYPES
C    8 C1I L1I D1I S1I C7I L7I D7I S7I                      SYS / # / OBS TYPES
E    8 C1C L1C D1C S1C C7Q L7Q D7Q S7Q                      SYS / # / OBS TYPES
DBHZ                                                        COMMENT
     30.000                                                 INTERVAL
  2020    05    12    06    00    0.0000000     GPS         TIME OF FIRST OBS
  2020    05    12    06    59   30.0000000     GPS         TIME OF LAST OBS
     0                                                      RCV CLOCK OFFS APPL
G L1C  0.00000                                              SYS / PHASE SHIFT
G L2Y  0.00000                                              SYS / PHASE SHIFT
R L1C  0.00000                                              SYS / PHASE SHIFT
R L2P  0.25000                                              SYS / PHASE SHIFT
C L1I  0.00000                                              SYS / PHASE SHIFT
C L7I  0.00000                                              SYS / PHASE SHIFT
E L1C  0.50000                                              SYS / PHASE SHIFT
E L7Q -0.25000                                              SYS / PHASE SHIFT
 13 R03  5 R04  6 R05  1 R06 -4 R07  5 R09 -2 R10 -7 R14 -7 GLONASS SLOT / FRQ #
    R15  0 R16 -1 R17  4 R18 -3 R19  3                      GLONASS SLOT / FRQ #
 C1C   71.950 C2C   71.950 C2P   71.950                     GLONASS COD/PHS/BIS
    18                                                      LEAP SECONDS
*** Above antenna height is from mark to ANTENNA BOTTOM.    COMMENT
    17     4        0.0000        ANT MEASURE TYPE/HEIGT    COMMENT
    0.0000    0.0000    0.0458    0.0405    0.0000          COMMENT
                    BASE STATION                            COMMENT
                                                            END OF HEADER
> 2020 05 12 06 00  0.0000000  0 16        .000000000000
G13  20941606.273 8 110048870.739 8     -2039.254          51.000    20941605.961 8  85752352.838 8     -1589.032          49.000
G15  20376785.570 8 107080723.435 8      -638.375          51.000    20376783.445 8  83439524.475 8      -497.435          51.000
G19  23071110.375 7 121239518.921 7      2923.004          47.000    23071108.656 6  94472334.849 6      2277.665          41.000
R06  19977881.281 8 106605800.903 8     -2542.562          48.000
R09  21002239.477 4 112150848.499 4      2373.625          29.000    21002236.023 4  87228390.379 4      1846.150          28.000
R15  23419171.781 4 125144952.780 4     -3497.020          26.000
R16  19734278.719 5 105416971.303 5     -1568.465          34.000    19734280.680 4  81990986.984 4     -1219.914          29.000
R17  22809986.625 4 122060844.458 4       564.449          29.000
C05  39771563.648 5 207100966.974 5        23.762          34.000    39771557.844 5 160143582.661 5        17.700          35.000
C21  23617836.594 8 122984280.268 8     -2694.309          49.000
C26  22167688.531 5 115432955.968 5      1375.062          34.000
E02  23572942.461 8 123876644.233 8     -1089.605          51.000    23572943.820 8  94918529.133 8      -834.898          51.000
E03  27384292.555 5 143905427.807 5     -3064.105          34.000    27384300.648 6 110265213.305 6     -2347.953          38.000
E08  22003746.500 8 115630462.605 8     -1530.707          51.000    22003745.664 8  88599952.622 8     -1172.873          51.000
E25                                                                  27401579.336 5 110334789.990 5     -2021.292          35.000
E30  22907203.695 8 120378139.913 8      1459.594          51.000    22907205.977 8  92237790.176 8      1118.375          51.000
> 2020 05 12 06 00 30.0000000  0 14        .000000000000
G13  20953275.359 8 110110191.037 8     -2044.559          51.000    20953274.750 8  85800134.876 8     -1593.159          49.000
G15  20380468.344 8 107100076.723 8      -647.715          51.000    20380466.336 8  83454604.937 8      -504.713          51.000
G19  23054441.008 8 121151918.562 8      2921.168          48.000    23054438.172 6  94404074.797 6      2276.238          40.000
R06  19992225.148 8 106682339.231 8     -2555.879          48.000
R16  19743108.430 5 105464133.892 5     -1571.215          34.000    19743111.688 5  82027669.016 5     -1222.059          30.000
R17  22806881.281 5 122044200.151 5       548.293          33.000
C05                                                                  39771412.250 5 160142995.664 5        24.554          34.000
C21  23633372.539 8 123065182.432 8     -2695.203          50.000
C26  22159776.477 6 115391746.893 6      1376.172          39.000
E02  23579171.633 8 123909378.364 8     -1088.594          51.000    23579172.844 8  94943611.122 8      -834.105          51.000
E03                                                                  27401789.531 6 110335629.863 6     -2343.290          36.000
E08  22012504.859 8 115676487.673 8     -1533.559          51.000    22012503.945 8  88635218.580 8     -1175.076          51.000
E25                                                                  27416625.477 5 110395371.865 5     -2014.393          34.000
E30  22898882.883 8 120334411.162 8      1459.742          51.000    22898883.648 8  92204283.750 8      1118.507          51.000
> 2020 05 12 06 01  0.0000000  0 15        .000000000000
G13  20965011.562 8 110171864.172 8     -2065.328          51.000    20965010.500 8  85848191.868 8     -1609.347          48.000
G15  20384241.867 8 107119906.499 8      -672.586          51.000    20384239.836 8  83470056.704 8      -524.093          51.000
G19  23037819.492 7 121064569.648 7      2903.730          47.000    23037816.141 7  94336010.748 7      2262.647          42.000
R06  20006680.117 8 106759471.453 8     -2584.664          49.000
R09  20975650.266 5 112008784.264 5      2355.020          33.000    20975645.219 5  87117946.480 5      1831.679          30.000
R16  19751989.320 5 105511572.597 5     -1590.105          34.000    19751992.805 4  82064565.758 4     -1236.749          29.000
R17  22803904.461 5 122028251.868 5       516.465          35.000    22803901.609 4  94910896.256 4       401.695          26.000
C05  39771258.094 5 207099376.582 5        25.562          35.000
C21  23648952.133 8 123146306.699 8     -2711.461          51.000
C26  22151895.031 6 115350698.242 6      1362.285          38.000
E02  23585431.664 8 123942274.471 8     -1102.871          51.000    23585432.867 8  94968817.224 8      -845.042          51.000
E03                                                                  27419281.305 5 110406053.070 5     -2350.368          34.000
E08  22021316.516 8 115722791.756 8     -1551.727          51.000    22021315.406 8  88670698.326 8     -1189.027          51.000
E25                                                                  27431660.695 5 110455907.538 5     -2019.969          34.000
E30  22890596.711 8 120290869.839 8      1444.688          51.000    22890596.680 8  92170920.944 8      1106.980          51.000
> 2020 05 12 06 01 30.0000000  0 14        .000000000000
G12  23974741.430 5 125988132.284 5      3768.227          32.000    23974740.211 5  98172574.800 5      2936.283          33.000
G13  20976861.430 8 110234135.570 8     -2089.621          51.000    20976859.930 8  85896715.030 8     -1628.276          48.000
G15  20388152.922 8 107140458.745 8      -700.980          51.000    20388150.750 8  83486071.434 8      -546.219          51.000
G17  22598578.508 5 118756344.782 5      1132.578          31.000    22598582.406 5  92537396.015 5       882.531          30.000
G19  23021292.984 7 120977721.578 7      2882.707          46.000    23021289.234 6  94268336.997 6      2246.268          41.000
R06  20021292.453 8 106837444.643 8     -2617.098          49.000
R09  20962472.961 4 111938435.247 4      2334.473          27.000
R17  22801097.711 5 122013240.071 5       480.293          33.000
C21  23664621.258 8 123227894.913 8     -2731.211          51.000
C26  22144089.398 5 115310054.130 5      1343.762          35.000
E02  23591769.188 8 123975577.740 8     -1120.855          51.000    23591770.469 8  94994335.307 8      -858.867          51.000
E03                                                                  27436823.195 4 110476714.711 4     -2359.635          29.000
E08  22030227.984 8 115769620.522 8     -1573.668          51.000    22030226.898 8  88706580.093 8     -1205.827          51.000
E30  22882392.875 8 120247762.278 8      1425.645          51.000    22882393.148 8  92137890.461 8      1092.356          51.000
> 2020 05 12 06 02  0.0000000  0 16        .000000000000
G12  23953191.188 6 125874882.395 6      3775.523          36.000    23953189.133 6  98084328.171 6      2941.966          37.000
G13  20988778.641 8 110296761.311 8     -2091.238          51.000    20988776.758 7  85945514.304 7     -1629.536          47.000
G15  20392155.109 8 107161490.387 8      -706.992          51.000    20392152.812 8  83502459.726 8      -550.903          51.000
G17  22592111.070 5 118722345.646 5      1127.746          31.000    22592118.164 5  92510938.114 5       878.769          30.000
G19  23004816.383 7 120891135.028 7      2884.105          46.000    23004812.773 7  94200867.004 7      2247.358          43.000
R06  20036015.477 8 106916009.415 8     -2626.527          48.000
R09  20949346.078 5 111868325.789 5      2334.453          31.000    20949340.062 4  87008676.796 4      1815.680          27.000
R16  19769996.344 5 105607790.037 5     -1610.324          31.000    19769998.117 4  82139405.110 4     -1252.471          28.000
R17  22798419.641 5 121998919.003 5       467.980          34.000    22798420.438 5  94888065.829 5       363.985          30.000
C05  39770989.406 5 207097976.782 5        27.707          34.000
C21  23680332.547 8 123309704.265 8     -2728.457          51.000
C26  22136314.531 5 115269573.800 5      1348.543          34.000
E02  23598137.703 8 124009044.169 8     -1116.121          51.000    23598139.094 8  95019978.411 8      -855.189          51.000
E03  27454351.734 5 144273591.600 5     -3070.387          34.000
E08  22039192.961 8 115816730.455 8     -1572.844          51.000    22039192.125 8  88742677.287 8     -1205.208          51.000
E30  22874225.938 8 120204845.524 8      1429.445          51.000    22874226.781 8  92105006.174 8      1095.325          51.000
> 2020 05 12 06 02 30.0000000  0 15        .000000000000
G12  23931659.445 6 125761725.950 6      3767.898          38.000    23931653.719 6  97996154.424 6      2936.034          36.000
G13  21000765.133 8 110359751.397 8     -2108.180          51.000    21000763.062 7  85994597.488 7     -1642.737          47.000
G15  20396250.445 8 107183012.260 8      -728.082          51.000    20396248.336 8  83519230.006 8      -567.337          51.000
G17  22585731.578 5 118688829.962 5      1107.555          34.000    22585741.141 5  92484824.945 5       863.027          32.000
G19  22988392.055 7 120804824.080 7      2869.945          46.000    22988389.188 7  94133611.778 7      2236.324          43.000
R06  20050850.188 7 106995173.537 7     -2651.352          46.000
R16  19779080.695 5 105656313.407 5     -1624.605          31.000    19779080.945 4  82177119.510 4     -1263.579          27.000
R17  22795874.953 6 121985306.956 6       439.906          36.000    22795877.383 5  94877485.079 5       342.149          35.000
C05  39770836.719 5 207097181.869 5        24.879          34.000    39770831.203 5 160140656.366 5        19.298          34.000
C21  23696087.547 8 123391743.495 8     -2741.016          51.000
C26  22128573.711 5 115229268.356 5      1337.852          34.000
E02  23604539.148 8 124042683.711 8     -1126.723          51.000    23604540.547 8  95045754.161 8      -863.285          51.000
E03  27471897.500 5 144365795.564 5     -3075.707          33.000
E08  22048213.398 8 115864131.963 8     -1587.441          51.000    22048212.836 8  88778997.905 8     -1216.306          51.000
E30  22866097.695 8 120162130.612 8      1417.980          51.000    22866099.227 8  92072276.572 8      1086.487          51.000
> 2020 05 12 06 03  0.0000000  0 14        .000000000000
G12  23910156.594 6 125648722.981 6      3761.602          40.000    23910149.391 4  97908100.250 4      2931.118          28.000
G13  21012831.930 8 110423163.163 8     -2123.340          51.000    21012829.766 7  86044009.226 7     -1654.551          46.000
G15  20400450.117 8 107205082.202 8      -747.305          51.000    20400448.305 8  83536427.354 8      -582.315          51.000
G19  22972031.773 7 120718850.789 7      2857.539          46.000    22972029.859 7  94066619.622 7      2226.657          44.000
R06  20065807.250 7 107074993.331 7     -2674.211          45.000
R09  20923245.703 6 111728976.577 6      2308.465          36.000    20923251.891 5  86900328.490 5      1795.473          30.000
R16  19788228.711 5 105705178.681 5     -1637.305          34.000    19788232.148 4  82215125.791 4     -1273.465          28.000
R17  22793476.477 6 121972467.952 6       412.871          37.000    22793476.391 5  94867487.744 5       321.122          34.000
C05  39770683.492 5 207096384.186 5        24.195          34.000    39770678.000 5 160140039.545 5        18.821          34.000
C21  23711896.680 8 123474067.954 8     -2751.395          51.000
C26  22120875.945 5 115189195.184 5      1329.215          30.000
E02  23610984.469 8 124076553.410 8     -1135.410          51.000    23610985.594 8  95071706.254 8      -869.969          51.000
E08  22057300.258 8 115911882.525 8     -1600.039          51.000    22057299.938 8  88815585.985 8     -1226.001          51.000
E30  22858018.812 8 120119675.663 8      1408.254          51.000    22858020.742 8  92039746.172 8      1079.064          51.000
> 2020 05 12 06 03 30.0000000  0 14        .000000000000
G12  23888684.711 6 125535883.496 6      3758.578          40.000    23888677.711 5  97820173.536 5      2928.759          31.000
G13  21024980.562 8 110487004.110 8     -2135.121          51.000    21024978.156 7  86093755.396 7     -1663.731          45.000
G15  20404755.719 8 107227708.420 8      -763.406          51.000    20404754.180 8  83554058.171 8      -594.862          51.000
G19  22955737.914 7 120633226.555 7      2848.320          46.000    22955736.711 7  93999899.447 7      2219.470          43.000
R06  20080889.102 7 107155474.320 7     -2693.438          47.000
R09  20910291.922 5 111659822.370 5      2299.359          31.000    20910292.430 4  86846506.354 4      1788.388          26.000
R16  19797442.383 5 105754392.805 5     -1646.414          34.000    19797445.094 4  82253403.448 4     -1280.544          26.000
R17  22791215.953 5 121960386.273 5       389.750          35.000    22791216.141 4  94858090.792 4       303.136          29.000
C05  39770531.398 5 207095592.212 5        26.344          34.000    39770525.852 5 160139426.159 5        20.485          34.000
C21  23727761.586 8 123556684.007 8     -2758.664          50.000
C26  22113223.367 5 115149370.084 5      1323.523          32.000
E02  23617474.977 8 124110660.695 8     -1140.652          51.000    23617475.812 8  95097840.399 8      -874.015          51.000
E08  22066454.789 8 115959990.024 8     -1609.316          51.000    22066454.938 8  88852447.559 8     -1233.101          51.000
E30  22849991.000 8 120077489.180 8      1401.992          51.000    22849992.938 8  92007421.496 8      1074.257          51.000
> 2020 05 12 06 04  0.0000000  0 13        .000000000000
G12  23867245.844 6 125423217.524 6      3751.812          40.000    23867238.320 3  97732381.870 3      2923.481          23.000
G13  21037212.164 8 110551281.023 8     -2150.781          51.000    21037209.680 7  86143841.238 7     -1675.936          44.000
G15  20409168.586 8 107250898.350 8      -783.367          51.000    20409167.352 8  83572128.240 8      -610.416          51.000
G19  22939512.531 7 120547962.014 7      2835.168          45.000    22939511.852 7  93933459.573 7      2209.225          43.000
R06  20096096.562 8 107236621.067 8     -2716.973          48.000
R16  19806722.047 5 105803961.128 5     -1659.449          30.000    19806724.742 4  82291973.633 4     -1290.677          24.000
R17  22789108.039 5 121949046.887 5       363.039          31.000
C05  39770381.773 5 207094813.355 5        24.629          34.000    39770376.141 5 160138823.929 5        18.909          34.000
C21  23743683.867 8 123639596.836 8     -2769.645          51.000
C26  22105620.578 6 115109786.219 6      1314.160          37.000
E02  23624011.844 8 124145011.922 8     -1150.062          51.000    23624012.641 8  95124161.462 8      -881.247          51.000
E08  22075678.188 8 116008461.273 8     -1622.777          51.000    22075679.016 8  88889587.830 8     -1243.406          51.000
E30  22842015.820 8 120035578.605 8      1391.496          51.000    22842017.836 8  91975308.213 8      1066.211          51.000
> 2020 05 12 06 04 30.0000000  0 14        .000000000000
G12  23845838.820 6 125310719.079 6      3748.215          38.000
G13  21049525.086 8 110615985.094 8     -2162.836          51.000    21049522.617 7  86194259.933 7     -1685.330          45.000
G15  20413687.164 8 107274644.079 8      -799.734          51.000    20413686.375 8  83590631.396 8      -623.173          51.000
G17  22561186.109 6 118559832.548 6      1041.316          37.000    22561190.742 6  92384303.113 6       811.415          37.000
G19  22923354.844 7 120463053.514 7      2825.301          44.000    22923354.516 7  93867297.169 7      2201.536          42.000
R06  20111426.781 8 107318422.508 8     -2736.449          48.000
R09  20884591.359 5 111522560.903 5      2277.426          35.000
R16  19816066.453 5 105853866.215 5     -1668.762          33.000
C05  39770233.141 5 207094039.184 5        26.922          34.000    39770227.609 5 160138226.054 5        20.751          34.000
C21  23759661.891 8 123722796.812 8     -2777.047          51.000
C26  22098066.148 6 115070443.068 6      1308.438          39.000
E02  23630593.508 8 124179598.480 8     -1155.703          51.000    23630594.391 8  95150662.840 8      -885.521          51.000
E08  22084969.102 8 116057288.025 8     -1632.430          51.000    22084970.391 8  88927000.514 8     -1250.766          51.000
E30  22834091.812 8 119993936.359 8      1384.715          51.000    22834093.992 8  91943400.516 8      1061.045          51.000
> 2020 05 12 06 05  0.0000000  0 14        .000000000000
G12  23824448.102 5 125198305.103 5      3744.496          33.000
G13  21061902.570 8 110681029.888 8     -2174.590          51.000    21061900.625 7  86244944.154 7     -1694.486          45.000
G15  20418295.102 8 107298859.693 8      -815.762          51.000    20418294.734 8  83609500.674 8      -635.658          51.000
G19  22907249.320 7 120378418.235 7      2816.027          45.000    22907248.742 6  93801347.647 6      2194.307          41.000
G24  21403627.477 5 112476811.097 5      2110.289          35.000    21403614.266 5  87644236.300 5      1644.384          33.000
R06  20126862.508 7 107400788.786 7     -2755.625          47.000
R09  20871818.406 6 111454361.026 6      2268.328          36.000
R16  19825458.781 5 105904035.140 5     -1677.223          33.000    19825459.156 4  82369810.564 4     -1304.507          24.000
C05  39770069.547 5 207093186.988 5        28.980          34.000    39770063.938 5 160137567.070 5        22.585          34.000
C21  23775678.523 8 123806196.907 8     -2784.016          51.000
C26  22090543.508 6 115031255.996 6      1303.074          41.000
E02  23637203.492 8 124214333.689 8     -1161.020          51.000    23637204.336 8  95177278.123 8      -889.624          51.000
E08  22094311.266 8 116106384.020 8     -1641.715          50.000    22094312.586 8  88964619.539 8     -1257.973          51.000
E30  22826202.703 8 119952476.826 8      1378.195          51.000    22826204.922 8  91911632.820 8      1056.005          51.000
> 2020 05 12 06 05 30.0000000  0 15        .000000000000
G12  23803109.539 4 125086171.355 4      3740.508          29.000
G13  21074370.102 8 110746550.920 8     -2187.738          49.000    21074369.500 7  86295999.510 7     -1704.731          46.000
G15  20423018.531 8 107323681.089 8      -833.352          51.000    20423018.102 8  83628842.005 8      -649.365          51.000
G17  22549485.102 5 118498344.605 5      1010.191          35.000    22549483.672 5  92336362.690 5       787.159          34.000
G19  22891221.922 7 120294196.146 7      2804.598          42.000    22891221.562 6  93735720.075 6      2185.401          41.000
G24  21391619.648 5 112413719.511 5      2102.090          30.000
R06  20142428.938 7 107483855.835 7     -2776.207          44.000
R09  20859122.586 5 111386558.135 5      2257.652          32.000
R16  19834923.547 5 105954596.470 5     -1687.477          32.000    19834928.391 4  82409138.563 4     -1312.479          28.000
C05  39769916.703 5 207092390.803 5        30.102          34.000    39769910.969 5 160136950.460 5        22.974          34.000
C21  23791758.914 8 123889930.139 8     -2792.488          51.000
C26  22083076.461 6 114992360.247 6      1295.965          37.000
E02  23643867.422 8 124249352.864 8     -1167.910          51.000    23643868.188 8  95204110.981 8      -894.913          51.000
E08  22103730.250 8 116155885.043 8     -1652.695          49.000    22103731.375 8  89002548.915 8     -1266.342          51.000
E30  22818374.117 8 119911336.372 8      1370.109          51.000    22818376.141 8  91880109.607 8      1049.839          51.000
> 2020 05 12 06 06  0.0000000  0 16        .000000000000
G12  23781783.367 5 124974113.461 5      3731.840          32.000
G13  21086908.500 8 110812443.522 8     -2204.121          50.000    21086908.930 7  86347344.423 7     -1717.494          46.000
G15  20427837.531 8 107349004.661 8      -854.020          51.000    20427836.750 8  83648574.655 8      -665.470          51.000
G17  22543777.359 5 118468331.963 5       990.156          34.000    22543777.969 5  92313010.322 5       771.547          35.000
G19  22875253.320 6 120210287.119 6      2790.090          39.000    22875253.719 6  93670336.434 6      2174.099          39.000
G24  21379649.461 5 112350822.912 5      2091.109          32.000
G28  22725407.445 5 119422794.733 5     -2771.902          34.000
R06  20158105.617 7 107567514.557 7     -2799.883          43.000
R16  19844442.602 5 106005443.590 5     -1701.414          35.000    19844443.328 4  82448686.307 4     -1323.325          29.000
R17  22782070.094 5 121911451.984 5       262.609          34.000    22782073.094 5  94820027.420 5       204.255          31.000
C05  39769754.812 5 207091548.338 5        27.527          34.000    39769749.172 5 160136298.994 5        21.286          34.000
C21  23807882.844 8 123973891.777 8     -2803.996          51.000
C26  22075642.641 4 114953663.265 4      1284.137          27.000
E02  23650565.406 8 124284551.491 8     -1177.801          51.000    23650566.102 8  95231081.344 8      -902.504          51.000
E08  22113206.625 8 116205686.957 8     -1666.594          49.000    22113207.516 8  89040708.842 8     -1277.036          51.000
E30  22810586.023 8 119870411.547 8      1358.961          51.000    22810587.938 8  91848751.640 8      1041.276          51.000
> 2020 05 12 06 06 30.0000000  0 14        .000000000000
G12  23760483.750 5 124862183.168 5      3722.211          33.000
G13  21099521.562 8 110878724.661 8     -2222.586          51.000    21099521.766 7  86398992.062 7     -1731.885          47.000
G15  20432755.305 8 107374847.758 8      -876.871          51.000    20432754.352 8  83668712.115 8      -683.276          51.000
G17  22538169.922 6 118438837.635 6       968.445          36.000    22538166.789 5  92290027.669 5       754.627          35.000
G19  22859349.555 7 120126712.004 7      2773.312          43.000    22859349.320 6  93605212.958 6      2161.026          39.000
R06  20173896.891 7 107651780.120 7     -2825.793          46.000
R09  20833902.016 5 111251856.108 5      2227.027          30.000
R16  19854017.156 4 106056592.388 4     -1717.512          29.000    19854018.109 5  82488468.676 5     -1335.842          31.000
R17  22780659.969 5 121903914.500 5       231.871          31.000    22780661.898 5  94814164.975 5       180.341          30.000
C05  39769587.453 5 207090677.027 5        22.484          34.000    39769581.719 5 160135625.257 5        17.495          33.000
C21  23824052.828 8 124058097.103 8     -2817.551          49.000
E02  23657300.727 8 124319946.159 8     -1189.801          51.000    23657301.195 8  95258201.922 8      -911.689          51.000
E08  22122744.320 8 116255806.733 8     -1682.691          51.000    22122744.758 8  89079112.308 8     -1289.320          51.000
E30  22802842.211 8 119829719.954 8      1345.820          51.000    22802843.594 8  91817572.380 8      1031.198          51.000
> 2020 05 12 06 07  0.0000000  0 15        .000000000000
G12  23739246.320 5 124750582.416 5      3722.301          34.000
G13  21112244.203 8 110945580.328 8     -2230.898          51.000    21112243.984 7  86451087.369 7     -1738.362          46.000
G15  20437807.438 8 107401397.010 8      -889.547          51.000    20437806.539 8  83689399.824 8      -693.153          51.000
G17  22532687.695 5 118410052.296 5       956.188          30.000
G19  22843546.602 7 120043660.967 7      2766.773          45.000    22843544.727 6  93540497.878 6      2155.930          40.000
R06  20189837.789 7 107736839.090 7     -2841.145          47.000
R16  19863682.078 4 106108223.164 4     -1722.359          29.000    19863685.188 5  82528630.905 5     -1339.613          31.000
R17  22779431.633 5 121897326.203 5       211.477          33.000    22779428.359 5  94809019.782 5       164.476          31.000
C05  39769450.086 5 207089961.267 5        28.816          34.000    39769444.477 5 160135072.573 5        22.168          34.000
C21  23840304.055 8 124142729.317 8     -2820.922          48.000
C26  22060925.633 4 114877028.955 4      1270.727          27.000
E02  23664108.844 8 124355722.908 8     -1191.730          51.000    23664109.031 8  95285615.269 8      -913.162          51.000
E03  27630418.367 5 145198829.514 5     -3094.770          32.000
E08  22132378.461 8 116306430.747 8     -1688.668          51.000    22132378.516 8  89117902.135 8     -1293.858          51.000
E30  22795178.570 8 119789448.657 8      1342.598          51.000    22795179.688 8  91786715.156 8      1028.738          51.000
> 2020 05 12 06 07 30.0000000  0 14        .000000000000
G12  23718022.117 5 124639052.661 5      3711.949          34.000    23718033.391 5  97121363.001 5      2892.428          31.000
G13  21125026.234 8 111012748.542 8     -2247.781          51.000    21125025.398 7  86503426.176 7     -1751.521          47.000
G15  20442944.312 8 107428391.178 8      -910.914          51.000    20442943.203 8  83710434.230 8      -709.803          51.000
G19  22827794.562 7 119960876.908 7      2751.562          47.000    22827791.562 6  93475990.901 6      2144.078          40.000
R06  20205876.867 7 107822423.662 7     -2865.266          47.000
R16  19873393.211 5 106160078.952 5     -1735.668          32.000    19873389.398 4  82568968.420 4     -1349.970          28.000
R17  22778318.062 5 121891394.114 5       183.375          30.000    22778321.148 5  94804405.885 5       142.619          31.000
C05  39769293.250 5 207089144.807 5        24.996          34.000    39769287.406 5 160134440.206 5        19.474          34.000
C21  23856587.367 8 124227527.796 8     -2833.055          48.000
C26  22053632.383 4 114839052.416 4      1259.895          28.000
E02  23670939.750 8 124391619.804 8     -1202.215          51.000    23670940.047 8  95313120.684 8      -921.157          51.000
E03  27648097.117 5 145291729.863 5     -3099.625          34.000
E08  22142058.953 8 116357297.471 8     -1703.250          51.000    22142058.875 8  89156877.925 8     -1305.091          51.000
E30  22787545.141 8 119749336.792 8      1330.797          51.000    22787546.828 8  91755980.084 8      1019.654          51.000
> 2020 05 12 06 08  0.0000000  0 12        .000000000000
G13  21137903.000 8 111080415.155 8     -2267.477          51.000    21137901.422 7  86556153.355 7     -1766.868          47.000
G15  20448201.391 8 107456016.954 8      -935.125          51.000    20448200.078 8  83731960.831 8      -728.666          51.000
G19  22812129.172 8 119878549.895 8      2732.938          49.000    22812125.500 6  93411840.018 6      2129.565          39.000
R06  20222048.703 7 107908720.302 7     -2892.145          46.000
R16  19883178.227 4 106212351.144 4     -1753.215          28.000    19883175.008 4  82609602.475 4     -1363.612          26.000
C05  39769152.391 5 207088411.717 5        19.219          34.000    39769146.547 5 160133872.345 5        15.209          34.000
C21  23872938.938 8 124312675.489 8     -2847.629          49.000
C26  22046404.273 5 114801393.413 5      1245.918          33.000
E02  23677828.828 8 124427822.708 8     -1215.539          51.000    23677829.484 8  95340860.580 8      -931.366          51.000
E03  27665802.359 5 145384772.167 5     -3107.738          33.000
E08  22151820.828 8 116408593.083 8     -1720.660          51.000    22151820.969 8  89196182.334 8     -1318.437          51.000
E30  22779977.266 8 119709571.176 8      1316.195          51.000    22779980.109 8  91725510.321 8      1008.459          51.000
> 2020 05 12 06 08 30.0000000  0 12        .000000000000
G13  21150837.336 8 111148384.974 8     -2279.320          51.000    21150835.719 7  86609116.811 7     -1776.097          47.000
G15  20453541.391 8 107484079.346 8      -951.430          51.000    20453540.180 8  83753827.628 8      -741.377          51.000
G19  22796513.789 7 119796489.104 7      2722.215          47.000    22796510.359 6  93347896.618 6      2121.209          40.000
G28  22805031.555 5 119841249.187 5     -2812.008          33.000
R06  20238315.930 7 107995527.959 7     -2910.977          45.000
C05  39768990.703 5 207087569.608 5        20.863          34.000
C21  23889321.195 8 124397977.704 8     -2854.660          51.000
C26  22039198.328 5 114763862.506 5      1240.488          34.000
E02  23684739.008 8 124464136.237 8     -1221.062          51.000    23684739.766 8  95368685.234 8      -935.652          51.000
E03  27683498.508 5 145477765.834 5     -3107.957          33.000
E08  22161626.812 8 116460122.535 8     -1730.289          51.000    22161627.547 8  89235665.913 8     -1325.809          51.000
E30  22772438.672 8 119669957.441 8      1309.227          51.000    22772442.125 8  91695156.946 8      1003.108          51.000
> 2020 05 12 06 09  0.0000000  0 12        .000000000000
G13  21163834.891 8 111216688.147 8     -2275.102          51.000    21163834.086 8  86662340.024 8     -1772.809          48.000
G15  20458970.359 8 107512609.126 8      -951.562          51.000    20458969.469 8  83776058.619 8      -741.477          51.000
G19  22780954.938 7 119714728.624 7      2727.688          45.000    22780951.930 6  93284187.176 6      2125.471          40.000
G28  22821063.133 5 119925480.803 5     -2800.648          35.000
R06  20254684.102 7 108082875.496 7     -2913.270          45.000
R17  22775851.523 5 121878141.096 5       119.250          32.000    22775858.148 4  94794137.163 4        92.744          27.000
C05  39768813.938 5 207086648.469 5        39.172          34.000
C21  23905739.055 8 124483463.173 8     -2845.312          51.000
C26  22032020.531 5 114726488.639 5      1250.465          33.000
E02  23691676.016 8 124500590.598 8     -1210.223          51.000    23691676.625 8  95396617.798 8      -927.334          51.000
E08  22171482.875 8 116511916.423 8     -1723.641          51.000    22171484.250 8  89275352.124 8     -1320.700          51.000
E30  22764935.555 8 119630526.860 8      1318.527          51.000    22764938.672 8  91664943.905 8      1010.321          51.000
> 2020 05 12 06 09 30.0000000  0 13        .000000000000
G13  21176922.117 8 111285463.098 8     -2303.383          51.000    21176921.930 8  86715930.923 8     -1794.844          48.000
G15  20464514.898 8 107541745.501 8      -984.309          51.000    20464514.219 8  83798762.282 8      -766.994          51.000
G19  22765479.203 6 119633411.351 6      2699.488          41.000    22765477.383 6  93220823.112 6      2103.500          40.000
G28  22837126.570 5 120009905.008 5     -2822.027          32.000
R06  20271179.633 7 108170901.495 7     -2948.551          46.000
R16  19912817.578 4 106370692.975 4     -1779.836          29.000
R17  22775319.742 5 121875271.041 5        78.238          32.000    22775319.219 4  94791904.963 4        60.858          27.000
C05  39768648.805 5 207085788.587 5        24.875          34.000
C21  23922218.367 8 124569268.018 8     -2868.590          51.000
C26  22024898.852 5 114689410.164 5      1228.531          32.000
E02  23698666.227 8 124537324.283 8     -1232.168          51.000    23698666.758 8  95424764.385 8      -944.150          51.000
E08  22181415.289 8 116564113.541 8     -1749.691          51.000    22181417.227 8  89315347.293 8     -1340.703          51.000
E30  22757494.109 8 119591418.888 8      1295.133          51.000    22757496.391 8  91634978.070 8       992.383          51.000
> 2020 05 12 06 10  0.0000000  0 11        .000000000000
G13  21190138.281 8 111354914.724 8     -2322.125          51.000    21190138.320 8  86770049.102 8     -1809.448          48.000
G15  20470214.047 8 107571693.871 8     -1007.609          51.000    20470213.203 8  83822098.672 8      -785.150          51.000
G17  22501792.156 5 118247723.411 5       841.863          33.000
G19  22750128.273 6 119552746.233 6      2681.906          39.000    22750127.547 6  93157967.203 6      2089.794          39.000
R06  20287841.680 8 108259811.546 8     -2974.215          48.000
C05  39768534.484 5 207085194.133 5        19.941          34.000
C21  23938797.727 8 124655593.984 8     -2882.004          51.000
C26  22017872.117 5 114652837.238 5      1214.930          30.000
E02  23705748.570 8 124574542.118 8     -1244.340          51.000    23705749.219 8  95453281.932 8      -953.467          51.000
E08  22191463.406 8 116616919.004 8     -1766.039          51.000    22191465.547 8  89355808.601 8     -1353.214          51.000
E30  22750153.055 8 119552839.369 8      1281.508          51.000    22750154.844 8  91605417.148 8       981.994          51.000
> 2020 05 12 06 10 30.0000000  0 12        .000000000000
G13  21203371.203 8 111424453.251 8     -2327.613          51.000    21203371.367 8  86824234.973 8     -1813.725          48.000
G15  20475955.680 8 107601865.321 8     -1017.676          51.000    20475954.664 8  83845608.893 8      -792.994          51.000
G17  22496970.875 5 118222380.338 5       832.082          32.000
G19  22734789.805 6 119472148.379 6      2677.438          37.000    22734790.539 6  93095163.620 6      2086.309          36.000
R06  20304557.375 8 108349004.298 8     -2986.164          49.000
R17  22774723.188 6 121872126.648 6        29.484          36.000    22774725.211 5  94789437.587 5        22.929          31.000
C05  39768358.914 5 207084279.887 5        27.258          34.000
C21  23955364.219 8 124741855.642 8     -2882.387          51.000
C26  22010833.359 5 114616174.457 5      1215.008          35.000
E02  23712810.781 8 124611654.482 8     -1243.516          51.000    23712811.633 8  95481718.677 8      -952.866          51.000
E08  22201515.156 8 116669743.464 8     -1769.336          51.000    22201517.469 8  89396284.463 8     -1355.737          51.000
E30  22742800.227 8 119514199.627 8      1280.781          51.000    22742802.062 8  91575810.090 8       981.336          51.000
> 2020 05 12 06 11  0.0000000  0 12        .000000000000
G13  21216712.789 8 111494562.940 8     -2343.605          51.000    21216713.211 7  86878865.895 7     -1826.186          47.000
G15  20481831.891 8 107632744.351 8     -1038.184          51.000    20481830.844 8  83869670.453 8      -808.974          51.000
G19  22719557.914 6 119392106.144 6      2661.840          41.000    22719559.523 6  93032792.963 6      2074.161          39.000
G28  22885575.156 5 120264508.705 5     -2838.961          31.000
R06  20321417.641 8 108438969.315 8     -3008.652          49.000
R17  22774639.547 4 121871703.326 4         1.652          29.000    22774645.344 4  94789108.210 4         1.279          27.000
C05  39768214.477 5 207083527.613 5        25.449          34.000
C21  23972009.586 8 124828531.527 8     -2893.188          51.000
C26  22003871.445 5 114579908.684 5      1204.609          33.000
E02  23719945.055 8 124649145.501 8     -1253.035          51.000    23719945.961 8  95510445.551 8      -960.139          51.000
E08  22211662.844 8 116723071.410 8     -1783.004          51.000    22211665.031 8  89437146.101 8     -1366.213          51.000
E30  22735528.438 8 119475984.824 8      1269.668          51.000    22735530.016 8  91546528.618 8       972.907          51.000
> 2020 05 12 06 11 30.0000000  0  9        .000000000000
G13  21230156.609 8 111565210.865 8     -2351.293          51.000    21230156.945 7  86933916.184 7     -1832.179          47.000
G15  20487836.477 8 107664298.463 8     -1050.371          51.000    20487835.352 8  83894258.044 8      -818.471          51.000
G19  22704427.234 7 119312590.827 7      2654.547          44.000    22704428.648 7  92970833.048 7      2068.481          42.000
R06  20338415.281 8 108529670.994 8     -3022.680          48.000
C05  39768094.938 5 207082904.938 5        31.219          34.000
C21  23988727.203 8 124915587.903 8     -2895.758          49.000
E02  23727145.195 8 124686982.323 8     -1254.363          51.000    23727146.031 8  95539437.396 8      -961.124          51.000
E08  22221900.617 8 116776870.200 8     -1788.508          51.000    22221902.031 8  89478368.535 8     -1370.418          51.000
E30  22728331.703 8 119438163.066 8      1266.801          51.000    22728332.430 8  91517548.316 8       970.651          51.000
> 2020 05 12 06 12  0.0000000  0 12        .000000000000
G13  21243555.773 8 111635624.070 8     -2365.559          51.000    21243555.445 7  86988783.583 7     -1843.292          45.000
G15  20493822.664 8 107695755.428 8     -1069.273          51.000    20493821.445 8  83918769.952 8      -833.200          51.000
G19  22689251.039 7 119232833.771 7      2640.457          45.000    22689251.414 6  92908684.715 6      2057.499          41.000
G28  22918021.430 5 120434989.905 5     -2846.676          35.000
R06  20355402.844 7 108620321.730 7     -3043.438          47.000
R16  19963437.789 5 106641160.957 5     -1825.949          35.000    19963438.844 5  82943100.347 5     -1420.186          33.000
R17  22774851.875 5 121872783.665 5       -45.402          35.000    22774855.227 5  94789976.017 5       -35.313          33.000
C05  39767853.766 5 207081649.088 5        30.055          34.000
C21  24005369.609 7 125002257.660 7     -2904.707          47.000
E02  23734264.047 8 124724392.028 8     -1262.227          51.000    23734264.938 8  95568101.965 8      -967.134          51.000
E08  22232081.203 8 116830367.190 8     -1800.520          51.000    22232081.672 8  89519359.719 8     -1379.634          51.000
E30  22721062.828 8 119399962.397 8      1257.355          51.000    22721062.672 8  91488277.673 8       963.476          51.000
> 2020 05 12 06 12 30.0000000  0 13        .000000000000
G13  21257141.445 8 111707017.065 8     -2393.848          51.000    21257140.664 7  87044414.448 7     -1865.339          45.000
G15  20500021.508 8 107728330.549 8     -1102.242          51.000    20500020.484 8  83944153.149 8      -858.890          51.000
G19  22674260.477 7 119154054.149 7      2611.742          44.000    22674260.766 7  92847298.046 7      2035.124          43.000
R06  20372610.906 7 108712153.544 7     -3078.488          45.000
R09  20688025.188 5 110472890.805 5      2083.117          31.000    20688013.609 5  85923314.165 5      1620.208          32.000
R16  19973764.516 5 106696324.612 5     -1850.590          30.000    19973765.758 5  82986005.360 5     -1439.348          33.000
R17  22775221.672 6 121874769.518 6       -86.906          36.000    22775226.445 4  94791520.636 4       -67.588          28.000
C05  39767722.023 5 207080962.787 5        15.977          34.000
C21  24022168.180 7 125089743.376 7     -2927.551          46.000
C26  21983187.664 5 114472215.289 5      1172.277          33.000
E02  23741532.766 8 124762589.420 8     -1284.172          51.000    23741533.859 8  95597370.094 8      -983.964          51.000
E08  22242435.609 8 116884777.484 8     -1826.711          51.000    22242435.586 8  89561050.723 8     -1399.694          51.000
E30  22713952.906 8 119362598.579 8      1233.750          51.000    22713952.781 8  91459648.276 8       945.356          51.000
> 2020 05 12 06 13  0.0000000  0 13        .000000000000
G12  23486857.695 5 123424268.887 5      3648.516          33.000    23486849.070 5  96174719.527 5      2842.996          32.000
G13  21270790.648 8 111778744.497 8     -2393.633          51.000    21270789.781 7  87100305.895 7     -1865.171          45.000
G15  20506310.172 8 107761378.838 8     -1106.652          51.000    20506309.477 8  83969905.054 8      -862.327          51.000
G19  22659333.500 7 119075610.854 7      2611.957          45.000    22659333.578 7  92786173.446 7      2035.294          43.000
R06  20389916.984 7 108804507.661 7     -3084.191          45.000
R16  19984136.219 5 106751724.774 5     -1847.836          32.000    19984137.977 5  83029094.478 5     -1437.200          33.000
R17  22775726.328 5 121877466.265 5       -98.699          32.000
C05  39767577.422 5 207080209.697 5        29.160          33.000
C21  24039000.523 7 125177404.303 7     -2922.125          45.000
C26  21976407.148 6 114436888.682 6      1177.426          38.000
E02  23748828.531 8 124800929.071 8     -1277.508          51.000    23748829.727 8  95626747.221 8      -978.882          51.000
E08  22252840.891 8 116939455.853 8     -1824.270          51.000    22252840.820 8  89602947.134 8     -1397.841          51.000
E30  22706879.297 8 119325427.165 8      1238.680          51.000    22706879.875 8  91431166.299 8       949.103          51.000
> 2020 05 12 06 13 30.0000000  0 13        .000000000000
G12  23466054.648 5 123314951.946 5      3641.250          33.000    23466048.172 5  96089537.587 5      2837.341          34.000
G13  21284501.109 8 111850793.222 8     -2408.098          51.000    21284500.406 7  87156447.747 7     -1876.440          46.000
G15  20512686.305 8 107794887.477 8     -1125.719          51.000    20512686.000 8  83996015.684 8      -877.183          51.000
G19  22644468.742 7 118997494.857 7      2597.445          45.000    22644468.211 7  92725303.820 7      2023.983          42.000
R06  20407319.445 8 108897368.756 8     -3105.023          48.000
R16  19994549.086 5 106807347.664 5     -1858.836          34.000    19994552.516 5  83072356.707 5     -1445.761          33.000
R17  22776361.008 5 121880902.147 5      -125.953          34.000    22776363.133 4  94796264.236 4       -97.954          28.000
C05  39767417.461 5 207079376.782 5        28.961          33.000
C21  24055864.977 7 125265226.154 7     -2931.113          46.000
C26  21969654.531 6 114401717.163 6      1168.953          37.000
E02  23756148.859 8 124839397.794 8     -1285.594          51.000    23756149.984 8  95656223.241 8      -985.059          51.000
E08  22263294.562 8 116994389.418 8     -1836.527          51.000    22263294.562 8  89645039.080 8     -1407.203          51.000
E30  22699839.844 8 119288435.913 8      1228.871          51.000    22699841.164 8  91402822.363 8       941.579          51.000
> 2020 05 12 06 14  0.0000000  0 13        .000000000000
G13  21298284.109 8 111923224.469 8     -2422.727          51.000    21298284.023 7  87212887.683 7     -1887.842          47.000
G15  20519161.844 8 107828918.468 8     -1145.047          51.000    20519161.891 8  84022533.336 8      -892.244          51.000
G19  22629678.938 7 118919772.210 7      2582.086          46.000    22629677.578 7  92664740.707 7      2012.015          42.000
G28  22983388.242 5 120778525.586 5     -2872.969          32.000
R06  20424828.586 7 108990796.825 7     -3125.789          47.000
R16  20005014.594 5 106863255.175 5     -1870.234          32.000    20005020.133 5  83115840.407 5     -1454.624          32.000
R17  22777140.438 4 121885061.593 4      -153.746          28.000    22777139.828 5  94799499.343 5      -119.580          33.000
C05  39767254.016 5 207078525.885 5        26.531          34.000
C21  24072773.180 7 125353268.960 7     -2940.293          47.000
C26  21962939.273 5 114366763.084 5      1159.117          30.000
E02  23763505.492 8 124878057.327 8     -1293.750          51.000    23763506.594 8  95685845.469 8      -991.273          51.000
E08  22273808.461 8 117049640.106 8     -1848.879          51.000    22273808.500 8  89687374.023 8     -1416.685          51.000
E30  22692846.578 8 119251687.535 8      1218.977          51.000    22692848.203 8  91374664.507 8       934.039          51.000
> 2020 05 12 06 14 30.0000000  0 14        .000000000000
G13  21312141.391 8 111996047.452 8     -2432.973          50.000    21312142.078 7  87269632.853 7     -1895.826          46.000
G15  20525738.734 8 107863481.583 8     -1160.086          50.000    20525738.883 8  84049465.641 8      -903.963          50.000
G17  22462214.938 5 118039735.193 5       691.293          31.000
G19  22614966.758 7 118842456.207 7      2571.211          46.000    22614964.617 7  92604494.509 7      2003.544          42.000
G24  21183636.781 5 111320761.802 5      1949.035          33.000
G28  22999798.867 5 120864762.586 5     -2875.539          30.000
R06  20442445.047 7 109084798.849 7     -3142.066          46.000
R16  20015534.414 5 106919455.634 5     -1877.238          34.000    20015541.750 4  83159551.905 4     -1460.077          29.000
R17  22778055.055 4 121889972.089 4      -176.688          28.000
C21  24089725.961 8 125441540.467 8     -2945.238          49.000
C26  21956267.141 5 114332036.525 5      1154.445          32.000
E02  23770900.203 8 124916916.787 8     -1297.648          51.000    23770901.312 8  95715620.892 8      -994.323          51.000
E08  22284384.180 8 117105217.254 8     -1857.086          51.000    22284384.617 8  89729959.100 8     -1422.923          51.000
E30  22685901.336 8 119215192.070 8      1213.270          51.000    22685903.062 8  91346700.451 8       929.657          51.000
> 2020 05 12 06 15  0.0000000  0 14        .000000000000
G12  23403870.258 5 122988197.189 5      3604.500          33.000
G13  21326101.789 8 112069411.021 8     -2464.086          50.000    21326102.719 7  87326799.287 7     -1920.070          47.000
G15  20532445.297 8 107898725.890 8     -1195.707          50.000    20532445.312 8  84076928.727 8      -931.720          50.000
G19  22600360.828 7 118765699.722 7      2539.539          45.000    22600357.469 6  92544684.321 6      1978.862          40.000
R06  20460196.117 7 109179523.868 7     -3179.160          44.000
R09  20629954.836 5 110162806.440 5      2023.160          30.000
R16  20026138.383 6 106976100.182 6     -1905.227          36.000    20026143.703 4  83203608.662 4     -1481.846          26.000
R17  22779151.555 4 121895842.731 4      -221.828          29.000    22779158.102 5  94807894.101 5      -172.530          32.000
C05  39766951.758 5 207076952.554 5        11.574          34.000
C21  24106750.922 8 125530187.132 8     -2970.559          49.000
C26  21949668.969 5 114297686.126 5      1128.961          32.000
E02  23778361.375 8 124956125.202 8     -1322.410          51.000    23778362.312 8  95745663.696 8     -1013.293          51.000
E08  22295050.320 8 117161270.076 8     -1886.020          51.000    22295051.305 8  89772908.658 8     -1445.132          51.000
E30  22679032.695 8 119179099.440 8      1186.719          51.000    22679034.570 8  91319045.069 8       909.271          51.000
> 2020 05 12 06 15 30.0000000  0 13        .000000000000
G12  23383252.445 5 122879844.126 5      3621.980          34.000    23383266.578 5  95750547.599 5      2822.325          34.000
G13  21340146.305 8 112143215.318 8     -2452.848          51.000    21340147.289 7  87384309.114 7     -1911.310          47.000
G15  20539262.836 8 107934552.128 8     -1189.211          51.000    20539262.672 8  84104845.258 8      -926.658          51.000
G19  22585842.781 7 118689407.536 7      2549.910          42.000    22585838.797 6  92485235.934 6      1986.946          38.000
R06  20478062.188 7 109274867.438 7     -3173.418          42.000
R16  20036806.273 5 107033086.115 5     -1890.512          34.000    20036810.695 4  83247930.979 4     -1470.398          28.000
R17  22780407.133 5 121902498.469 5      -222.016          31.000    22780409.180 4  94813048.914 4      -172.676          29.000
C05  39766822.711 5 207076280.027 5        36.727          34.000
C21  24123828.570 8 125619108.824 8     -2954.109          50.000
C26  21943125.711 5 114263613.943 5      1145.293          31.000
E02  23785869.945 8 124995582.711 8     -1304.793          51.000    23785870.727 8  95775897.369 8      -999.779          51.000
E08  22305788.250 8 117217698.930 8     -1872.617          51.000    22305789.461 8  89816146.343 8     -1434.883          51.000
E30  22672222.180 8 119143310.747 8      1202.477          51.000    22672224.234 8  91291622.564 8       921.396          51.000
> 2020 05 12 06 16  0.0000000  0 15        .000000000000
G12  23362625.117 6 122771438.114 6      3606.605          37.000    23362638.547 6  95666075.436 6      2810.345          37.000
G13  21354216.992 8 112217156.051 8     -2475.168          51.000    21354217.555 7  87441925.252 7     -1928.702          47.000
G15  20546133.648 8 107970657.193 8     -1216.277          51.000    20546133.336 8  84132979.033 8      -947.749          51.000
G17  22450916.148 5 117980360.500 5       633.926          32.000
G19  22571354.438 6 118613280.210 6      2526.746          37.000    22571351.547 6  92425915.922 6      1968.887          36.000
R06  20495986.391 7 109370519.165 7     -3201.957          43.000
R09  20607185.281 5 110041202.148 5      2015.598          34.000
R16  20047480.039 5 107090104.266 5     -1909.574          34.000    20047483.305 5  83292269.433 5     -1485.224          30.000
R17  22781752.203 6 121909703.583 6      -257.000          37.000    22781758.469 5  94818652.707 5      -199.889          31.000
C05  39766644.211 5 207075350.642 5        27.301          34.000
C21  24140900.992 8 125708003.367 8     -2970.867          50.000
C26  21936579.828 5 114229520.336 5      1128.742          35.000
E02  23793368.055 8 125034985.605 8     -1320.637          51.000    23793368.875 8  95806089.193 8     -1011.875          51.000
E08  22316540.094 8 117274200.283 8     -1892.719          51.000    22316541.180 8  89859439.564 8     -1450.250          51.000
E30  22665412.242 8 119107523.227 8      1184.832          51.000    22665414.453 8  91264200.954 8       907.837          51.000
> 2020 05 12 06 16 30.0000000  0 14        .000000000000
G12  23342063.656 6 122663374.674 6      3598.262          37.000    23342075.641 6  95581870.211 6      2803.837          36.000
G13  21368388.445 8 112291626.287 8     -2489.344          51.000    21368388.484 7  87499953.978 7     -1939.751          47.000
G15  20553132.398 8 108007433.699 8     -1235.242          51.000    20553131.469 8  84161636.034 8      -962.526          51.000
G19  22556972.562 6 118537714.791 6      2511.492          38.000    22556971.633 6  92367033.710 6      1957.007          37.000
R06  20514044.062 7 109466875.158 7     -3221.789          46.000
R09  20595894.953 4 109980924.931 4      2002.387          29.000
R16  20058235.016 6 107147553.331 6     -1920.402          36.000    20058237.617 5  83336951.993 5     -1493.649          30.000
R17  22783268.547 5 121917849.793 5      -284.340          33.000    22783273.562 5  94825019.948 5      -221.153          33.000
C05  39766491.391 5 207074555.101 5        26.918          34.000
C21  24158042.320 8 125797258.667 8     -2979.324          49.000
C26  21930103.602 6 114195795.501 6      1119.977          36.000
E02  23800930.547 8 125074726.647 8     -1328.492          51.000    23800931.414 8  95836540.125 8     -1017.936          51.000
E08  22327380.742 8 117331167.077 8     -1904.766          51.000    22327381.031 8  89903089.412 8     -1459.529          51.000
E30  22658677.477 8 119072130.571 8      1174.984          51.000    22658679.773 8  91237081.900 8       900.298          51.000
> 2020 05 12 06 17  0.0000000  0 14        .000000000000
G12  23321536.492 5 122555498.410 5      3591.852          32.000    23321550.656 5  95497810.699 5      2798.836          32.000
G13  21382630.367 8 112366467.084 8     -2501.824          51.000    21382629.859 7  87558271.413 7     -1949.476          46.000
G15  20560228.953 8 108044723.746 8     -1252.496          51.000    20560227.414 8  84190693.208 8      -975.971          51.000
G19  22542670.570 7 118462556.525 7      2497.586          42.000    22542669.062 6  92308468.861 6      1946.171          36.000
R06  20532203.617 7 109563771.755 7     -3239.926          47.000
R09  20584669.430 5 109920969.722 5      1992.023          35.000
R16  20069040.273 5 107205271.011 5     -1929.023          35.000    20069041.711 5  83381843.487 5     -1500.352          30.000
R17  22784925.000 5 121926708.195 5      -310.137          32.000    22784925.203 5  94831905.277 5      -241.217          31.000
C05  39766334.328 5 207073737.004 5        26.578          34.000
C21  24175221.992 7 125886716.392 7     -2986.246          47.000
C26  21923668.258 5 114162283.365 5      1112.109          35.000
E02  23808527.266 8 125114647.299 8     -1334.578          51.000    23808528.109 8  95867128.667 8     -1022.611          51.000
E08  22338279.945 8 117388440.931 8     -1915.172          51.000    22338278.891 8  89946974.528 8     -1467.445          50.000
E30  22651987.648 8 119036975.071 8      1166.973          51.000    22651989.562 8  91210144.567 8       894.192          51.000
> 2020 05 12 06 17 30.0000000  0 13        .000000000000
G13  21396932.961 8 112441626.338 8     -2504.102          51.000    21396932.102 7  87616837.024 7     -1951.248          45.000
G15  20567413.125 8 108082475.343 8     -1259.492          51.000    20567411.531 8  84220110.041 8      -981.422          51.000
G19  22528437.461 7 118387757.459 7      2493.961          43.000    22528435.875 6  92250183.936 6      1943.349          38.000
R06  20550453.656 7 109661153.750 7     -3247.406          46.000
R09  20573492.188 5 109861283.666 5      1991.836          34.000
R16  20079885.094 5 107263204.095 5     -1927.777          35.000    20079887.383 5  83426902.546 5     -1499.385          31.000
R17  22786726.242 5 121936303.185 5      -325.223          30.000    22786723.148 4  94839370.833 4      -252.951          29.000
C05  39766163.578 5 207072847.424 5        37.441          34.000
C21  24192429.703 7 125976323.858 7     -2982.969          45.000
C26  21917264.531 6 114128933.501 6      1115.336          36.000
E02  23816148.297 8 125154695.711 8     -1330.520          51.000    23816149.242 8  95897815.111 8     -1019.477          51.000
E08  22349227.531 8 117445970.144 8     -1915.406          51.000    22349225.180 8  89991055.300 8     -1467.601          50.000
E30  22645333.305 8 119002005.812 8      1169.051          51.000    22645334.367 8  91183349.946 8       895.820          51.000
> 2020 05 12 06 18  0.0000000  0 12        .000000000000
G13  21411289.273 8 112517069.162 8     -2526.199          51.000    21411288.664 7  87675623.616 7     -1968.470          46.000
G15  20574678.414 8 108120654.669 8     -1286.520          51.000    20574677.062 8  84249860.154 8     -1002.483          51.000
G19  22514266.750 7 118313287.912 7      2470.098          43.000    22514264.586 6  92192155.748 6      1924.751          37.000
R06  20568786.359 7 109758983.373 7     -3275.191          44.000
R16  20090763.953 6 107321316.636 6     -1947.234          38.000    20090766.648 5  83472101.185 5     -1514.516          32.000
R17  22788639.883 5 121946567.504 5      -359.988          30.000    22788644.070 4  94847354.556 4      -279.994          28.000
C05  39765972.289 5 207071851.776 5        28.480          33.000
C21  24209658.375 7 126066045.559 7     -2999.324          43.000
C26  21910884.188 5 114095712.743 5      1099.023          32.000
E02  23823786.969 8 125194837.241 8     -1346.234          51.000    23823788.125 8  95928572.910 8     -1031.497          51.000
E08  22360216.734 8 117503720.244 8     -1935.328          51.000    22360214.172 8  90035305.331 8     -1482.914          50.000
E30  22638708.273 8 118967189.093 8      1151.418          51.000    22638708.523 8  91156672.208 8       882.261          51.000
> 2020 05 12 06 18 30.0000000  0 12        .000000000000
G13  21425737.930 8 112592997.665 8     -2537.129          50.000    21425737.594 7  87734788.660 7     -1976.984          46.000
G15  20582063.602 8 108159463.969 8     -1302.160          51.000    20582062.578 8  84280101.156 8     -1014.667          51.000
G19  22500198.016 7 118239353.830 7      2457.387          43.000    22500195.367 5  92134544.757 5      1914.847          35.000
G28  23132244.344 5 121560733.518 5     -2918.820          35.000    23132248.883 5  94722691.037 5     -2274.405          33.000
R06  20587240.484 7 109857462.930 7     -3291.574          44.000
R16  20101714.984 5 107379813.619 5     -1954.301          35.000    20101718.180 5  83517598.812 5     -1520.012          33.000
R17  22790720.023 4 121957712.232 4      -383.785          29.000    22790726.258 4  94856022.743 4      -298.500          27.000
C21  24226947.336 7 126156080.543 7     -3004.363          44.000
C26  21904566.633 5 114062822.461 5      1093.426          32.000
E02  23831481.797 8 125235274.090 8     -1350.828          51.000    23831483.055 8  95959556.991 8     -1035.041          51.000
E08  22371286.023 8 117561893.530 8     -1944.141          50.000    22371284.531 8  90079879.644 8     -1489.663          51.000
E30  22632150.820 8 118932727.946 8      1144.762          51.000    22632151.031 8  91130266.925 8       877.155          51.000
> 2020 05 12 06 19  0.0000000  0 13        .000000000000
G13  21440283.828 8 112669437.034 8     -2551.484          49.000    21440283.492 8  87794351.776 8     -1988.170          48.000
G15  20589573.266 8 108198928.341 8     -1321.320          51.000    20589572.570 8  84310852.611 8     -1029.603          51.000
G19  22486237.250 7 118165984.670 7      2441.465          42.000    22486233.562 5  92077373.971 5      1902.443          34.000
G28  23148944.875 6 121648504.552 6     -2925.023          37.000
R06  20605821.961 7 109956616.454 7     -3311.230          45.000
R16  20112742.844 5 107438719.994 5     -1964.285          34.000    20112746.227 5  83563414.873 5     -1527.777          35.000
R17  22792969.023 5 121969807.032 5      -412.070          31.000    22792978.430 4  94865423.603 4      -320.499          24.000
C05  39765650.383 5 207070175.112 5        29.238          33.000
C21  24244302.023 7 126246452.943 7     -3013.094          43.000
C26  21898318.375 5 114030289.014 5      1083.219          35.000
E02  23839237.703 8 125276031.812 8     -1358.910          51.000    23839238.930 8  95990786.924 8     -1041.258          51.000
E08  22382440.734 8 117620515.650 8     -1956.508          50.000    22382440.828 8  90124797.905 8     -1499.178          51.000
E30  22625665.664 8 118898648.820 8      1134.633          51.000    22625666.555 8  91104154.374 8       869.394          51.000
> 2020 05 12 06 19 30.0000000  0 13        .000000000000
G13  21454886.180 8 112746172.684 8     -2565.098          49.000    21454885.711 8  87854145.799 8     -1998.777          48.000
G15  20597166.656 8 108238834.205 8     -1339.930          51.000    20597166.188 8  84341948.087 8     -1044.101          51.000
G19  22472343.484 6 118092970.365 6      2425.695          41.000    22472339.633 5  92020479.785 5      1890.155          35.000
G28  23165657.312 5 121736336.838 5     -2931.219          35.000
R06  20624488.961 7 110056223.631 7     -3330.102          45.000
R16  20123805.789 5 107497817.462 5     -1975.086          33.000    20123809.578 5  83609379.625 5     -1536.175          35.000
R17  22795353.188 5 121982548.547 5      -438.953          33.000
C05  39765483.953 5 207069308.746 5        28.113          33.000
C21  24261680.969 7 126336949.082 7     -3020.926          43.000
C26  21892099.125 6 113997901.163 6      1074.809          38.000
E02  23847013.859 8 125316896.037 8     -1366.223          51.000    23847015.188 8  96022098.462 8     -1046.762          51.000
E08  22393640.102 8 117679372.399 8     -1968.023          50.000    22393642.070 8  90169895.957 8     -1507.999          51.000
E30  22619212.336 8 118864738.261 8      1125.332          51.000    22619213.969 8  91078170.982 8       862.267          51.000
> 2020 05 12 06 20  0.0000000  0 14        .000000000000
G12  23199173.281 5 121912528.842 5      3540.273          34.000    23199171.023 5  94996714.375 5      2758.652          33.000
G13  21469583.391 8 112823409.820 8     -2587.648          48.000    21469583.016 7  87914330.638 7     -2016.346          47.000
G15  20604883.234 8 108279387.360 8     -1367.242          51.000    20604883.055 8  84373547.936 8     -1065.384          51.000
G19  22458556.602 7 118020520.413 7      2400.684          42.000    22458553.000 6  91964025.307 6      1870.666          36.000
G28  23182420.656 6 121824435.116 6     -2945.711          37.000
R06  20643279.445 7 110156490.009 7     -3357.855          46.000
R16  20134943.500 6 107557313.991 6     -1995.086          36.000    20134946.250 5  83655654.754 5     -1551.730          34.000
R17  22797905.344 5 121996182.031 5      -474.664          35.000
C05  39765339.656 5 207068558.051 5        17.773          33.000
C21  24279122.523 6 126427771.336 6     -3037.406          41.000
C26  21885947.195 6 113965863.573 6      1057.359          38.000
E02  23854849.312 8 125358072.314 8     -1382.551          51.000    23854850.977 8  96053649.114 8     -1059.321          51.000
E08  22404923.594 8 117738669.408 8     -1988.633          51.000    22404926.891 8  90215331.336 8     -1523.782          51.000
E30  22612830.391 8 118831202.672 8      1106.863          51.000    22612832.070 8  91052474.887 8       848.104          51.000
> 2020 05 12 06 20 30.0000000  0 14        .000000000000
G12  23178937.180 6 121806197.469 6      3542.418          36.000    23178934.469 6  94913858.725 6      2760.323          37.000
G13  21484346.844 8 112900994.419 8     -2590.656          50.000    21484346.578 7  87974786.198 7     -2018.690          46.000
G15  20612693.852 8 108320433.801 8     -1375.188          51.000    20612694.000 8  84405532.164 8     -1071.575          51.000
G17  22422464.992 5 117830874.473 5       471.293          34.000    22422464.633 5  91816237.092 5       367.241          33.000
G19  22444848.727 7 117948485.295 7      2395.598          42.000    22444846.211 6  91907894.074 6      1866.699          40.000
G28  23199206.094 6 121912644.615 6     -2941.281          36.000
R06  20662163.547 7 110257256.786 7     -3365.930          46.000
R16  20146127.086 6 107617052.673 6     -1994.145          38.000    20146128.953 5  83702118.084 5     -1551.004          35.000
R17  22800595.023 5 122010575.583 5      -490.633          35.000
C21  24296596.578 6 126518765.920 6     -3034.871          40.000
C26  21879833.523 6 113934024.713 6      1059.352          38.000
E02  23862714.922 8 125399406.737 8     -1379.129          51.000    23862716.828 8  96085320.932 8     -1056.741          51.000
E08  22416262.188 8 117798252.881 8     -1989.570          51.000    22416265.625 8  90260986.203 8     -1524.503          51.000
E30  22606490.625 8 118797889.011 8      1108.062          51.000    22606492.227 8  91026948.843 8       849.035          51.000
> 2020 05 12 06 21  0.0000000  0 14        .000000000000
G12  23158740.047 5 121700066.855 5      3539.922          35.000    23158737.258 5  94831159.542 5      2758.381          35.000
G13  21499179.469 8 112978938.730 8     -2598.777          51.000    21499178.906 7  88035522.019 7     -2025.024          45.000
G15  20620600.797 8 108361986.164 8     -1388.188          51.000    20620601.047 8  84437910.607 8     -1081.705          51.000
G19  22431223.297 7 117876881.149 7      2384.961          43.000    22431221.117 6  91852098.704 6      1858.414          39.000
G28  23216015.148 5 122000976.806 5     -2941.602          35.000
R06  20681142.906 7 110358533.922 7     -3378.953          46.000
R16  20157358.297 6 107677045.647 6     -1998.480          37.000    20157360.734 5  83748779.242 5     -1554.374          35.000
R17  22803428.711 5 122025738.028 5      -511.895          34.000    22803427.125 5  94908909.656 5      -398.140          30.000
C05  39765032.906 5 207066960.886 5        33.133          33.000
C21  24314105.789 6 126609943.870 6     -3036.992          37.000
C26  21873760.789 6 113902398.026 6      1055.664          37.000
E02  23870613.117 8 125440911.777 8     -1380.914          51.000    23870614.914 8  96117123.476 8     -1058.106          51.000
E08  22427657.930 8 117858135.355 8     -1995.723          51.000    22427660.891 8  90306870.162 8     -1529.166          51.000
E30  22600195.555 8 118764810.598 8      1104.020          51.000    22600197.555 8  91001603.056 8       846.000          51.000
> 2020 05 12 06 21 30.0000000  0 12        .000000000000
G12  23138573.883 5 121594104.600 5      3527.234          35.000    23138571.781 6  94748591.654 6      2748.494          36.000
G13  21514074.094 8 113057207.094 8     -2616.152          51.000    21514072.969 7  88096510.315 7     -2038.563          45.000
G15  20628597.578 8 108404009.207 8     -1410.395          51.000    20628597.758 8  84470655.823 8     -1099.009          51.000
G19  22417674.227 7 117805676.909 7      2364.730          46.000    22417671.961 6  91796614.877 6      1842.644          37.000
G28  23232840.320 5 122089399.426 5     -2950.730          33.000
R06  20700210.336 7 110460282.897 7     -3401.418          46.000
R16  20168629.234 5 107737256.261 5     -2012.980          31.000    20168632.891 5  83795609.730 5     -1565.648          35.000
C21  24331643.414 6 126701268.998 6     -3048.613          36.000
C26  21867721.859 6 113870949.527 6      1043.582          38.000
E02  23878537.133 8 125482552.091 8     -1392.023          51.000    23878538.562 8  96149029.672 8     -1066.654          51.000
E08  22439103.836 8 117918281.558 8     -2011.004          51.000    22439106.203 8  90352956.212 8     -1540.950          51.000
E30  22593939.000 8 118731932.984 8      1090.730          51.000    22593941.664 8  90976411.128 8       835.784          51.000
> 2020 05 12 06 22  0.0000000  0 13        .000000000000
G12  23118478.641 6 121488510.907 6      3516.910          39.000    23118476.938 6  94666310.957 6      2740.449          39.000
G13  21529067.758 8 113135995.708 8     -2631.742          51.000    21529066.406 7  88157903.992 7     -2050.708          45.000
G15  20636721.719 8 108446699.907 8     -1430.883          51.000    20636721.680 8  84503921.293 8     -1114.974          51.000
G19  22404239.031 7 117735073.242 7      2346.734          43.000    22404236.609 6  91741599.064 6      1828.627          38.000
R06  20719403.156 7 110562700.827 7     -3421.613          46.000
R09  20475896.883 5 109340166.907 5      1875.629          33.000
R16  20179977.586 5 107797883.511 5     -2024.852          35.000    20179982.539 5  83842764.245 5     -1574.885          34.000
C21  24349246.766 5 126792935.014 5     -3057.738          35.000
C26  21861754.086 6 113839875.468 6      1032.945          37.000
E02  23886524.336 8 125524524.603 8     -1401.266          51.000    23886525.461 8  96181190.413 8     -1073.652          51.000
E08  22450637.109 8 117978888.508 8     -2024.602          51.000    22450639.141 8  90399395.280 8     -1551.267          51.000
E27  27629642.672 6 145194759.650 6      2551.184          38.000    27629643.773 5 111253123.140 5      1955.054          35.000
E30  22587758.703 8 118699453.929 8      1079.324          51.000    22587761.758 8  90951524.581 8       827.051          51.000
> 2020 05 12 06 22 30.0000000  0 15        .000000000000
G12  23098404.344 6 121383022.493 6      3513.770          39.000    23098402.023 6  94584112.256 6      2738.002          38.000
G13  21544109.625 8 113215038.718 8     -2639.805          51.000    21544108.367 7  88219495.906 7     -2056.991          46.000
G15  20644922.492 8 108489792.824 8     -1443.934          51.000    20644922.062 8  84537500.176 8     -1125.143          51.000
G17  22412570.062 5 117778877.167 5       398.969          35.000    22412574.242 5  91775719.408 5       310.873          35.000
G19  22390868.531 7 117664808.838 7      2335.574          44.000    22390865.906 5  91686847.632 5      1819.928          35.000
R06  20738670.328 7 110665514.981 7     -3434.512          46.000
R16  20191354.695 6 107858657.033 6     -2028.918          37.000    20191359.281 5  83890032.526 5     -1578.050          33.000
R17  22812782.266 5 122075767.484 5      -593.594          30.000    22812787.734 4  94947870.788 4      -461.684          25.000
C21  24366865.250 5 126884677.334 5     -3060.566          35.000
C24  25672594.859 6 133683942.553 6      2588.398          36.000
C26  21855808.305 6 113808913.429 6      1029.305          39.000
E02  23894524.125 8 125566563.496 8     -1403.215          51.000    23894525.062 8  96213402.016 8     -1075.200          51.000
E08  22462207.195 8 118039690.364 8     -2030.836          51.000    22462209.219 8  90445983.696 8     -1556.062          51.000
E27  27615069.242 6 145118182.173 6      2551.992          37.000    27615073.688 6 111194446.912 6      1955.500          37.000
E30  22581604.094 8 118667108.408 8      1075.109          51.000    22581606.766 8  90926740.343 8       823.773          51.000
> 2020 05 12 06 23  0.0000000  0 14        .000000000000
G12  23078372.961 6 121277755.719 6      3504.465          39.000    23078370.992 6  94502086.269 6      2730.755          39.000
G13  21559221.203 8 113294449.255 8     -2653.688          51.000    21559219.875 7  88281374.218 7     -2067.808          45.000
G15  20653221.383 8 108533401.357 8     -1462.785          51.000    20653220.492 8  84571480.851 8     -1139.833          51.000
G19  22377584.641 7 117595000.998 7      2318.656          42.000    22377580.703 5  91632451.931 5      1806.745          35.000
G24  21002041.594 4 110366472.854 4      1794.496          29.000
R06  20758033.164 7 110768838.023 7     -3453.070          47.000
R16  20202781.148 6 107919691.579 6     -2039.602          39.000    20202783.969 5  83937503.782 5     -1586.360          31.000
C21  24384520.852 6 126976607.062 6     -3067.910          36.000
C24  25657697.586 6 133606362.522 6      2584.078          36.000
C26  21849906.000 6 113778176.970 6      1020.254          40.000
E02  23902558.133 8 125608782.338 8     -1410.848          51.000    23902558.930 8  96245751.503 8     -1081.063          51.000
E08  22473836.211 8 118100800.733 8     -2042.762          51.000    22473838.141 8  90492808.522 8     -1565.206          51.000
E27  27600514.047 5 145041700.192 5      2547.273          35.000    27600521.250 6 111135843.858 6      1951.780          39.000
E30  22575496.711 8 118635010.839 8      1065.195          51.000    22575498.406 8  90902146.088 8       816.201          51.000
> 2020 05 12 06 23 30.0000000  0 14        .000000000000
G12  23058383.484 6 121172707.403 6      3496.566          37.000    23058381.391 6  94420230.542 6      2724.603          38.000
G13  21574401.281 8 113374221.448 8     -2666.699          51.000    21574400.234 7  88343534.333 7     -2077.947          45.000
G15  20661617.250 8 108577519.658 8     -1480.633          51.000    20661616.086 8  84605858.766 8     -1153.740          51.000
G19  22364386.742 6 117525648.129 6      2302.430          40.000    22364382.125 5  91578410.828 5      1794.104          33.000
R06  20777490.031 8 110872661.159 8     -3470.773          48.000
R16  20214255.016 6 107980980.479 6     -2048.801          40.000    20214256.172 5  83985172.862 5     -1593.515          32.000
R17  22819708.172 5 122112860.917 5      -647.059          30.000
C21  24402211.062 6 127068717.358 6     -3074.766          37.000
C24  25642810.711 5 133528857.921 5      2580.523          35.000
C26  21844045.359 6 113747661.444 6      1011.711          39.000
E02  23910625.250 8 125651175.340 8     -1417.648          51.000    23910625.961 8  96278234.447 8     -1086.274          51.000
E08  22485523.141 8 118162213.887 8     -2053.777          51.000    22485524.727 8  90539865.352 8     -1573.683          51.000
E27  27585976.859 5 144965287.396 5      2543.348          34.000    27585985.547 6 111077310.633 6      1948.712          40.000
E30  22569435.367 8 118603156.290 8      1056.145          51.000    22569436.281 8  90877738.066 8       809.221          51.000
> 2020 05 12 06 24  0.0000000  0 17        .000000000000
G12  23038443.078 6 121067914.075 6      3489.484          37.000    23038437.625 6  94338573.483 6      2719.085          36.000
G13  21589656.234 8 113454387.563 8     -2677.895          51.000    21589655.344 7  88406001.413 7     -2086.671          45.000
G15  20670116.180 8 108622180.624 8     -1496.789          51.000    20670114.852 8  84640659.536 8     -1166.329          51.000
G17  22406235.664 5 117745566.162 5       342.051          34.000    22406235.594 5  91749771.908 5       266.527          35.000
G19  22351282.336 6 117456786.763 6      2288.016          40.000    22351278.039 6  91524752.603 6      1782.869          36.000
G24  20981647.500 4 110259300.837 4      1777.402          29.000
R06  20797046.289 7 110977015.209 7     -3486.230          47.000
R09  20434191.023 5 109117419.259 5      1833.766          31.000    20434195.773 4  84869114.097 4      1426.268          28.000
R16  20225782.039 6 108042556.132 6     -2056.371          36.000    20225784.336 5  84033065.050 5     -1599.397          34.000
R17  22823399.344 4 122132619.117 4      -671.414          29.000
C21  24419942.125 6 127161039.296 6     -3079.949          37.000
C24  25627945.773 5 133451462.606 5      2579.070          32.000
C26  21838232.586 6 113717400.409 6      1005.047          36.000
E02  23918731.805 8 125693775.373 8     -1422.570          51.000    23918732.398 8  96310876.022 8     -1090.048          51.000
E08  22497273.977 8 118223962.709 8     -2063.031          51.000    22497274.992 8  90587179.373 8     -1580.749          51.000
E27  27571463.977 6 144889022.123 6      2540.793          37.000    27571473.414 6 111018873.557 6      1946.988          41.000
E30  22563426.523 8 118571578.438 8      1048.848          51.000    22563426.906 8  90853542.064 8       803.668          51.000
> 2020 05 12 06 24 30.0000000  0 15        .000000000000
G12  23018548.289 6 120963363.040 6      3481.551          38.000    23018539.289 6  94257105.085 6      2712.897          36.000
G13  21604983.086 8 113534932.167 8     -2690.828          51.000    21604982.305 7  88468763.432 7     -2096.746          46.000
G15  20678715.055 8 108667369.384 8     -1514.895          50.000    20678713.711 8  84675871.572 8     -1180.437          50.000
G17  22404337.211 5 117735588.566 5       323.602          32.000    22404338.180 5  91742020.042 5       252.157          32.000
G19  22338269.031 6 117388406.193 6      2271.680          40.000    22338266.133 5  91471469.026 5      1770.140          35.000
R06  20816698.414 7 111081881.731 7     -3503.852          47.000
R09  20423917.539 5 109062607.232 5      1821.652          34.000
R16  20237359.367 6 108104403.367 6     -2065.527          36.000    20237363.000 5  84081168.454 5     -1606.521          35.000
C21  24437710.523 6 127253556.987 6     -3086.656          38.000
C24  25613100.203 5 133374163.112 5      2574.762          32.000
C26  21832466.953 6 113687380.122 6       996.953          38.000
E02  23926874.820 8 125736567.522 8     -1429.227          51.000    23926875.406 8  96343664.802 8     -1095.077          51.000
E08  22509085.539 8 118286032.283 8     -2073.973          51.000    22509085.953 8  90634739.165 8     -1589.163          51.000
E27  27556972.742 6 144812868.774 6      2537.160          39.000    27556982.078 7 110960522.311 7      1944.019          42.000
E30  22557467.539 8 118540263.191 8      1039.781          51.000    22557467.562 8  90829547.268 8       796.769          51.000
> 2020 05 12 06 25  0.0000000  0 14        .000000000000
G12  22998687.469 6 120858989.830 6      3471.012          39.000    22998675.844 6  94175775.248 6      2704.681          38.000
G13  21620368.617 8 113615787.148 8     -2705.770          50.000    21620368.453 7  88531767.310 7     -2108.392          47.000
G15  20687401.180 8 108713018.112 8     -1534.785          50.000    20687399.969 8  84711442.001 8     -1195.940          50.000
G17  22402533.508 5 117726107.230 5       302.105          32.000    22402531.492 5  91734636.636 5       235.407          34.000
G19  22325334.500 6 117320442.271 6      2253.277          38.000    22325334.109 6  91418510.127 6      1755.801          38.000
R06  20836432.430 7 111187189.062 7     -3523.074          46.000
R16  20248975.062 6 108166452.201 6     -2077.543          38.000    20248978.992 5  84129428.664 5     -1615.867          35.000
C21  24455503.141 6 127346201.655 6     -3095.578          36.000
C24  25598262.141 4 133296893.323 4      2569.922          28.000
C26  21826736.016 6 113657534.286 6       986.578          40.000
E02  23935041.453 8 125779483.885 8     -1438.094          51.000    23935042.156 8  96376548.753 8     -1101.910          51.000
E08  22520945.047 8 118348354.697 8     -2087.137          51.000    22520944.852 8  90682492.673 8     -1599.259          51.000
E27  27542490.469 6 144736761.014 6      2530.441          41.000    27542499.164 7 110902205.975 7      1939.128          44.000
E30  22551545.383 8 118509143.436 8      1028.570          51.000    22551545.539 8  90805702.257 8       788.134          51.000
> 2020 05 12 06 25 30.0000000  0 13        .000000000000
G12  22978890.719 6 120754950.014 6      3466.188          39.000    22978878.703 6  94094705.290 6      2700.928          39.000
G13  21635841.797 7 113697105.435 7     -2714.742          46.000    21635842.852 7  88595132.203 7     -2115.384          46.000
G15  20696204.219 8 108759279.791 8     -1548.742          51.000    20696203.117 8  84747490.052 8     -1206.812          51.000
G19  22312510.180 6 117253052.612 6      2240.371          38.000    22312510.633 6  91365998.643 6      1745.744          37.000
G28  23368419.609 5 122801868.403 5     -2985.191          33.000
R06  20856277.320 7 111293090.303 7     -3536.195          45.000
R16  20260657.875 6 108228858.050 6     -2082.395          38.000    20260660.672 5  84177966.506 5     -1619.640          33.000
C21  24473348.164 5 127439123.959 5     -3098.160          35.000
C26  21821068.438 6 113628015.927 6       982.062          40.000
E02  23943260.914 8 125822677.790 8     -1440.793          51.000    23943261.938 8  96409645.380 8     -1103.969          51.000
E08  22532881.867 8 118411083.250 8     -2094.145          51.000    22532880.930 8  90730557.391 8     -1604.568          51.000
E27  27528046.453 7 144660853.551 7      2530.484          42.000    27528054.398 7 110844043.139 7      1939.020          43.000
E30  22545689.281 8 118478373.307 8      1023.430          51.000    22545690.383 8  90782125.135 8       784.204          51.000
> 2020 05 12 06 26  0.0000000  0 13        .000000000000
G12  22959109.328 6 120650992.267 6      3456.113          39.000    22959098.328 6  94013699.306 6      2693.078          39.000
G13  21651354.820 7 113778632.669 7     -2728.594          45.000    21651357.289 7  88658659.915 7     -2126.177          45.000
G15  20705075.719 8 108805900.302 8     -1567.594          51.000    20705074.891 8  84783817.723 8     -1221.502          51.000
G19  22299748.266 7 117185986.558 7      2222.477          42.000    22299747.852 6  91313739.379 6      1731.797          37.000
G28  23385453.430 5 122891383.465 5     -2990.863          32.000
R06  20876185.242 7 111399324.443 7     -3554.367          46.000
R16  20272358.984 6 108291362.100 6     -2092.723          36.000    20272360.055 5  84226580.720 5     -1627.673          32.000
C21  24491198.375 6 127532070.931 6     -3106.133          38.000
C26  21815415.062 6 113598574.388 6       972.746          37.000
E02  23951484.844 8 125865895.212 8     -1448.598          51.000    23951486.273 8  96442760.026 8     -1109.929          51.000
E08  22544847.523 8 118473963.921 8     -2106.160          51.000    22544846.094 8  90778738.655 8     -1613.793          50.000
E27  27513592.391 7 144584893.845 7      2525.242          43.000    27513599.742 7 110785840.258 7      1934.962          43.000
E30  22539851.719 8 118447699.593 8      1013.270          51.000    22539853.727 8  90758621.908 8       776.437          51.000
> 2020 05 12 06 26 30.0000000  0 15        .000000000000
G12  22939412.656 6 120547480.216 6      3441.688          40.000    22939401.922 6  93933040.630 6      2681.834          40.000
G13  21666976.867 7 113860728.898 7     -2746.996          46.000    21666979.820 7  88722631.023 7     -2140.516          46.000
G15  20714084.031 8 108853240.489 8     -1590.887          51.000    20714083.484 8  84820706.139 8     -1239.652          51.000
G19  22287117.656 7 117119608.846 7      2200.445          43.000    22287116.508 6  91262016.583 6      1714.639          36.000
G24  20931604.625 5 109996347.306 5      1722.602          33.000
G28  23402550.008 5 122981229.035 5     -3001.180          32.000
R06  20896224.336 7 111506255.305 7     -3576.906          46.000
R16  20284146.227 5 108354329.868 5     -2107.684          34.000    20284148.219 5  84275555.680 5     -1639.309          31.000
C21  24509121.625 6 127625398.613 6     -3118.309          37.000
C24  25553877.477 5 133065755.672 5      2556.020          33.000
C26  21809844.109 5 113569567.961 5       958.289          35.000
E02  23959781.859 8 125909496.816 8     -1460.723          51.000    23959783.555 8  96476169.053 8     -1119.288          51.000
E08  22556910.477 8 118537357.295 8     -2122.566          51.000    22556909.148 8  90827312.767 8     -1626.412          50.000
E27  27499197.078 7 144509243.945 7      2515.477          43.000    27499203.898 7 110727874.778 7      1927.434          43.000
E30  22534101.773 8 118417483.709 8       998.621          51.000    22534104.109 8  90735469.493 8       765.156          51.000
> 2020 05 12 06 27  0.0000000  0 16        .000000000000
G12  22919747.180 6 120444131.930 6      3450.980          37.000    22919735.852 6  93852509.562 6      2689.079          38.000
G13  21682653.641 8 113943108.856 8     -2742.039          48.000    21682655.562 7  88786823.182 7     -2136.657          45.000
G15  20723175.250 8 108901015.372 8     -1590.984          51.000    20723174.625 8  84857933.282 8     -1239.731          51.000
G19  22274564.445 7 117053638.580 7      2200.973          44.000    22274562.508 6  91210611.288 6      1715.047          36.000
G24  20921751.578 5 109944546.556 5      1730.477          31.000
G28  23419654.961 5 123071114.128 5     -2988.520          32.000
R06  20916339.234 7 111613590.379 7     -3575.785          46.000
R16  20295966.195 6 108417471.363 6     -2098.262          37.000    20295969.438 5  84324665.725 5     -1631.987          30.000
R17  22848641.125 6 122267601.489 6      -816.609          36.000
C21  24527062.125 6 127718823.280 6     -3107.062          37.000
C24  25539122.680 5 132988903.049 5      2570.828          33.000
C26  21804302.664 5 113540715.522 5       967.750          35.000
E02  23968097.766 8 125953197.645 8     -1449.520          51.000    23968099.547 8  96509654.105 8     -1110.659          51.000
E08  22569016.969 8 118600978.414 8     -2115.633          51.000    22569015.961 8  90876061.371 8     -1621.027          50.000
E27  27484806.531 7 144433620.313 7      2529.250          43.000    27484812.859 7 110669929.415 7      1938.039          42.000
E30  22528385.141 8 118387441.510 8      1007.309          51.000    22528387.492 8  90712450.157 8       771.870          51.000
> 2020 05 12 06 27 30.0000000  0 15        .000000000000
G12  22900114.727 6 120340944.633 6      3433.012          36.000    22900099.977 6  93772104.001 6      2675.077          36.000
G13  21698383.633 8 114025766.777 8     -2763.730          50.000    21698384.008 7  88851231.895 7     -2153.559          43.000
G15  20732348.375 8 108949219.668 8     -1617.871          51.000    20732347.570 8  84895495.032 8     -1260.679          51.000
G19  22262088.391 6 116988074.453 6      2174.770          41.000    22262085.727 6  91159522.418 6      1694.629          36.000
G24  20911945.594 5 109893028.909 5      1710.230          31.000    20911946.000 5  85630917.159 5      1332.647          31.000
R06  20936528.555 7 111721321.475 7     -3601.527          47.000
R16  20307818.078 6 108480780.943 6     -2117.211          37.000    20307823.406 5  84373906.483 5     -1646.720          30.000
R17  22853331.562 5 122292798.940 5      -852.477          35.000
C21  24545018.953 5 127812338.774 5     -3123.188          34.000
C24  25524369.445 5 132912056.907 5      2558.109          32.000
C26  21798789.602 5 113512012.995 5       950.211          32.000
E02  23976431.742 8 125996992.744 8     -1465.332          51.000    23976433.375 8  96543211.397 8     -1122.775          51.000
E08  22581166.438 8 118664822.224 8     -2135.715          51.000    22581165.750 8  90924980.633 8     -1636.451          51.000
E27  27470420.227 7 144358019.433 7      2515.922          43.000    27470426.094 7 110612001.497 7      1927.512          42.000
E30  22522700.695 8 118357568.783 8       989.027          51.000    22522702.992 8  90689560.693 8       757.826          51.000
> 2020 05 12 06 28  0.0000000  0 14        .000000000000
G12  22880540.414 5 120238065.883 5      3421.043          32.000    22880521.875 5  93691938.888 5      2665.757          33.000
G13  21714194.070 8 114108846.791 8     -2779.082          51.000    21714192.945 7  88915969.525 7     -2165.518          44.000
G15  20741630.703 8 108997997.457 8     -1638.090          51.000    20741629.445 8  84933503.658 8     -1276.434          51.000
G17  22393990.133 4 117681233.790 4       189.203          29.000
G19  22249717.211 5 116923064.510 5      2154.770          34.000    22249714.562 4  91108865.441 4      1679.038          29.000
G24  20902203.023 5 109841832.667 5      1698.402          34.000    20902199.703 5  85591024.008 5      1323.427          34.000
R06  20956819.023 7 111829592.209 7     -3620.633          46.000
R16  20319729.320 6 108544404.643 6     -2128.668          38.000    20319735.164 4  84423391.541 4     -1655.634          28.000
C21  24563019.719 5 127906086.401 5     -3131.895          32.000
C26  21793331.180 5 113483604.050 5       939.336          33.000
E02  23984811.211 8 126041026.238 8     -1474.379          51.000    23984812.656 8  96576951.345 8     -1129.725          51.000
E08  22593385.875 8 118729032.797 8     -2149.094          51.000    22593385.836 8  90974180.942 8     -1646.753          51.000
E27  27456065.672 7 144282598.815 7      2509.047          44.000    27456070.703 6 110554217.477 6      1922.537          41.000
E30  22517075.969 8 118328010.464 8       977.395          51.000    22517078.320 8  90666912.119 8       748.895          51.000
> 2020 05 12 06 28 30.0000000  0 14        .000000000000
G12  22861000.531 6 120135378.471 6      3417.215          36.000    22860979.250 6  93611922.870 6      2662.765          37.000
G13  21730061.898 8 114192228.372 8     -2786.801          51.000    21730060.008 7  88980942.151 7     -2171.533          45.000
G15  20750999.320 8 109047228.571 8     -1651.012          51.000    20750997.742 8  84971865.547 8     -1286.503          51.000
R06  20977186.711 7 111938277.339 7     -3632.070          44.000
R09  20344076.516 5 108636214.898 5      1730.801          34.000    20344083.648 5  84494864.777 5      1346.188          32.000
R10  23244274.312 5 123905054.666 5      3131.145          33.000
R16  20331676.062 5 108608220.199 5     -2132.875          34.000    20331681.289 4  84473025.837 4     -1658.906          27.000
R17  22863156.820 5 122345347.663 5      -902.410          35.000
C21  24581042.805 5 127999946.322 5     -3132.922          31.000
C26  21787910.383 6 113455371.318 6       935.770          38.000
E02  23993213.281 8 126085178.374 8     -1476.090          51.000    23993214.641 8  96610782.204 8     -1131.039          51.000
E08  22605651.930 8 118793490.295 8     -2155.137          51.000    22605653.125 8  91023570.441 8     -1651.324          51.000
E27  27441720.484 7 144207215.121 7      2509.500          44.000    27441726.328 6 110496454.736 6      1922.900          41.000
E30  22511488.578 8 118298647.548 8       973.031          51.000    22511490.836 8  90644413.259 8       745.623          51.000
> 2020 05 12 06 29  0.0000000  0 14        .000000000000
G13  21746029.555 8 114276134.564 8     -2808.906          51.000    21746027.367 7  89046323.572 7     -2188.758          46.000
G15  20760496.500 8 109097136.226 8     -1678.094          51.000    20760494.977 8  85010754.591 8     -1307.609          51.000
G19  22225270.711 6 116794586.264 6      2115.898          39.000    22225262.500 5  91008744.099 5      1648.758          34.000
R06  20997672.953 6 112047601.783 6     -3658.047          41.000
R09  20334406.547 5 108584589.842 5      1708.531          30.000    20334413.094 4  84454712.029 4      1328.861          28.000
R10  23226690.594 5 123811329.922 5      3115.605          34.000
R16  20343700.547 5 108672453.694 5     -2151.453          33.000    20343703.922 4  84522991.710 4     -1673.352          27.000
R17  22868316.062 6 122372986.316 6      -938.809          36.000    22868320.273 4  95178997.217 4      -730.184          28.000
C21  24599131.258 5 128094138.333 5     -3149.191          33.000
C26  21782566.953 6 113427537.003 6       918.012          38.000
E02  24001680.242 8 126129672.392 8     -1492.051          51.000    24001681.586 8  96644875.025 8     -1143.248          51.000
E08  22618006.828 8 118858417.877 8     -2175.355          51.000    22618009.570 8  91073320.136 8     -1666.810          51.000
E27  27427427.547 7 144132107.975 7      2495.746          45.000    27427434.359 7 110438907.376 7      1912.376          42.000
E30  22505980.930 8 118269704.031 8       954.605          51.000    22505983.125 8  90622235.769 8       731.424          51.000
> 2020 05 12 06 29 30.0000000  0 14        .000000000000
G12  22822103.078 5 119930981.049 5      3399.105          34.000    22822101.711 5  93452688.943 5      2648.654          34.000
G13  21762062.266 8 114360384.242 8     -2812.156          51.000    21762059.750 7  89111972.663 7     -2191.291          46.000
G15  20770087.992 8 109147539.903 8     -1686.543          51.000    20770086.648 8  85050030.158 8     -1314.192          51.000
G17  22391182.938 5 117666480.557 5       136.930          35.000    22391179.867 5  91688159.110 5       106.695          34.000
G19  22213201.922 6 116731168.630 6      2107.648          41.000    22213196.461 5  90959327.904 5      1642.320          34.000
R06  21018242.602 6 112157378.553 6     -3664.883          39.000
R16  20355768.625 5 108736921.168 5     -2151.195          32.000    20355770.359 4  84573126.607 4     -1673.152          27.000
R17  22873614.648 5 122401303.421 5      -956.109          33.000    22873618.055 5  95201035.818 5      -743.641          31.000
C21  24617249.578 5 128188482.316 5     -3145.785          34.000
C26  21777264.445 5 113399923.300 5       919.027          33.000
E02  24010177.875 8 126174327.962 8     -1489.352          51.000    24010179.031 8  96679091.633 8     -1141.165          51.000
E08  22630416.688 8 118923635.095 8     -2176.867          51.000    22630420.734 8  91123291.768 8     -1667.998          51.000
E27  27413153.391 7 144057095.434 7      2500.547          45.000    27413159.797 7 110381430.287 7      1916.192          42.000
E30  22500518.727 8 118241000.337 8       954.656          51.000    22500520.852 8  90600242.031 8       731.511          51.000
> 2020 05 12 06 30  0.0000000  0 14        .000000000000
G12  22802719.273 5 119829085.260 5      3395.973          34.000    22802715.242 5  93373305.754 5      2646.206          32.000
G13  21778142.398 8 114444885.377 8     -2818.375          51.000    21778140.070 7  89177817.695 7     -2196.136          46.000
G15  20779756.375 8 109198347.842 8     -1697.762          51.000    20779755.336 8  85089620.739 8     -1322.931          51.000
G17  22390451.000 5 117662607.008 5       123.789          30.000    22390455.977 5  91685169.682 5        96.459          32.000
G19  22201209.742 6 116668152.100 6      2096.238          38.000    22201205.953 6  90910224.122 6      1633.435          37.000
R06  21038881.039 7 112267512.433 7     -3674.332          42.000
R16  20367863.898 5 108801529.037 5     -2153.297          33.000    20367860.164 4  84623345.725 4     -1674.793          26.000
R17  22879034.398 5 122430256.348 5      -975.500          34.000    22879038.078 4  95223594.650 4      -758.722          26.000
C21  24635379.711 6 128282886.328 6     -3145.438          37.000
C26  21771984.453 4 113372437.489 4       916.973          27.000
E02  24018688.820 8 126219053.589 8     -1489.523          51.000    24018689.766 8  96713361.913 8     -1141.344          51.000
E08  22642864.352 8 118989050.328 8     -2181.297          51.000    22642869.141 8  91173415.134 8     -1671.407          51.000
E27  27398880.148 7 143982088.385 7      2502.664          45.000    27398886.242 7 110323957.373 7      1917.739          43.000
E30  22495084.930 8 118212445.711 8       951.879          51.000    22495086.703 8  90578362.513 8       729.341          51.000
> 2020 05 12 06 30 30.0000000  0 15        .000000000000
G12  22783380.336 6 119727432.075 6      3384.023          39.000    22783371.320 6  93294095.507 6      2636.907          38.000
G13  21794283.734 8 114529709.647 8     -2832.992          51.000    21794282.148 7  89243914.517 7     -2207.526          45.000
G15  20789515.305 8 109249632.105 8     -1717.496          51.000    20789514.625 8  85129582.503 8     -1338.309          51.000
G17  22389827.250 5 117659335.528 5       102.004          34.000
G19  22189308.195 6 116605612.551 6      2076.398          40.000    22189306.383 6  90861492.106 6      1617.976          38.000
R06  21059601.414 7 112378073.641 7     -3692.629          45.000
R09  20305735.844 4 108431527.202 4      1686.242          29.000
R16  20379999.016 5 108866350.417 5     -2164.715          34.000    20379999.156 4  84673774.873 4     -1683.667          27.000
R17  22884594.891 6 122460063.207 6     -1003.750          36.000
C21  24653535.141 6 128377420.574 6     -3153.305          39.000
C26  21766743.305 5 113345158.610 5       905.383          31.000
E02  24027226.875 8 126263921.442 8     -1498.090          51.000    24027227.719 8  96747741.160 8     -1147.836          51.000
E08  22655363.742 8 119054735.639 8     -2194.094          51.000    22655368.680 8  91223745.435 8     -1681.153          51.000
E27  27384622.016 7 143907160.360 7      2496.180          45.000    27384627.586 7 110266545.035 7      1912.732          44.000
E30  22489693.555 8 118184113.067 8       940.586          51.000    22489694.883 8  90556653.084 8       720.736          51.000
> 2020 05 12 06 31  0.0000000  0 15        .000000000000
G12  22764094.344 7 119626083.466 7      3375.207          42.000    22764086.734 7  93215122.677 7      2630.034          42.000
G13  21810500.672 8 114614932.420 8     -2845.145          51.000    21810499.531 7  89310321.869 7     -2216.996          44.000
G15  20799378.953 8 109301468.039 8     -1734.840          50.000    20799378.727 8  85169974.146 8     -1351.823          50.000
G19  22177512.492 6 116543629.536 6      2059.297          37.000    22177513.484 6  90813193.589 6      1604.644          36.000
R06  21080416.039 7 112489135.909 7     -3708.121          47.000
R07  19950880.078 6 106798630.146 6        79.867          37.000    19950880.172 4  83065594.481 4        62.119          27.000
R09  20296307.438 5 108381179.024 5      1673.914          33.000
R16  20392187.797 5 108931461.502 5     -2172.941          33.000    20392190.398 4  84724416.879 4     -1690.062          26.000
R17  22890304.547 5 122490654.030 5     -1029.625          34.000
C21  24671729.992 6 128472158.900 6     -3158.980          41.000
C26  21761559.078 5 113318159.226 5       896.961          34.000
E02  24035806.484 8 126309007.431 8     -1504.285          51.000    24035807.273 8  96782287.554 8     -1152.625          51.000
E08  22667929.352 8 119120766.799 8     -2204.520          51.000    22667933.586 8  91274340.736 8     -1689.255          51.000
E27  27370393.266 7 143832388.680 7      2491.859          45.000    27370398.672 7 110209252.465 7      1909.475          44.000
E30  22484359.078 8 118156079.010 8       931.762          51.000    22484360.188 8  90535172.451 8       713.959          51.000
> 2020 05 12 06 31 30.0000000  0 15        .000000000000
G12  22744864.953 7 119525036.318 7      3364.543          42.000    22744860.062 7  93136384.718 7      2621.725          42.000
G13  21826792.250 8 114700547.455 8     -2859.145          51.000    21826791.445 7  89377034.842 7     -2227.908          43.000
G15  20809346.461 8 109353849.604 8     -1753.953          50.000    20809346.516 8  85210790.967 8     -1366.714          50.000
G19  22165822.648 6 116482201.107 6      2039.695          39.000    22165823.188 5  90765327.253 5      1589.367          33.000
R06  21101322.648 7 112600689.992 7     -3725.391          46.000
R07  19950528.445 5 106796741.926 5        49.195          33.000    19950525.391 4  83064125.262 4        38.254          26.000
R10  23139164.094 5 123344761.002 5      3096.059          30.000
R16  20404428.930 5 108996856.204 5     -2182.844          32.000    20404432.984 4  84775279.427 4     -1697.770          24.000
C21  24689962.445 7 128567094.220 7     -3166.727          42.000
C24  25407051.289 5 132301180.000 5      2532.598          31.000
C26  21756429.828 6 113291434.828 6       887.516          36.000
E02  24044426.477 8 126354305.824 8     -1512.371          51.000    24044427.281 8  96816996.703 8     -1158.881          51.000
E08  22680560.008 8 119187137.956 8     -2216.953          51.000    22680562.680 8  91325196.528 8     -1698.710          51.000
E27  27356193.078 7 143757768.919 7      2486.082          44.000    27356198.977 7 110152076.296 7      1904.782          44.000
E30  22479080.234 8 118128338.532 8       920.938          51.000    22479081.555 8  90513916.778 8       705.668          51.000
> 2020 05 12 06 32  0.0000000  0 15        .000000000000
G12  22725674.117 6 119424200.404 6      3357.016          37.000    22725672.969 6  93057811.336 6      2615.859          37.000
G13  21843140.820 8 114786461.325 8     -2869.254          50.000    21843139.734 7  89443980.652 7     -2235.785          43.000
G15  20819400.555 8 109406683.723 8     -1769.152          51.000    20819400.477 8  85251960.441 8     -1378.560          51.000
G19  22154222.016 7 116421238.010 7      2023.617          42.000    22154221.344 5  90717823.573 5      1576.845          32.000
R06  21122302.461 7 112712639.426 7     -3738.602          44.000
R07  19950325.891 6 106795637.924 6        23.148          37.000    19950320.836 5  83063266.643 5        18.004          30.000
R10  23121746.266 5 123251934.770 5      3091.508          33.000
R16  20416705.508 5 109062439.067 5     -2189.809          32.000
C21  24708214.617 7 128662133.024 7     -3170.016          43.000
C24  25392467.938 5 132225217.638 5      2531.004          33.000
C26  21751336.109 6 113264894.418 6       881.449          37.000
E02  24053069.117 8 126399723.608 8     -1516.355          51.000    24053069.922 8  96851797.322 8     -1161.871          51.000
E08  22693237.750 8 119253755.943 8     -2225.129          51.000    22693238.117 8  91376241.446 8     -1704.978          49.000
E27  27342004.406 7 143683209.467 7      2483.824          45.000    27342011.180 7 110094946.340 7      1903.181          44.000
E30  22473839.430 8 118100799.396 8       914.191          51.000    22473841.164 8  90492815.371 8       700.442          51.000
> 2020 05 12 06 32 30.0000000  0 15        .000000000000
G12  22706532.711 6 119323623.579 6      3348.879          39.000    22706533.922 6  92979439.759 6      2609.513          38.000
G13  21859554.945 8 114872718.334 8     -2879.992          51.000    21859553.164 7  89511193.836 7     -2244.150          42.000
G15  20829549.430 8 109460014.535 8     -1785.137          51.000    20829548.875 8  85293516.934 8     -1391.013          51.000
G19  22142719.648 7 116360788.611 7      2007.258          43.000    22142716.352 5  90670720.203 5      1564.097          31.000
R06  21143363.422 7 112825025.953 7     -3752.531          44.000
R07  19950274.156 5 106795365.118 5        -3.918          33.000    19950271.117 4  83063054.471 4        -3.041          29.000
R09  20268418.266 5 108232228.785 5      1638.969          31.000    20268416.000 4  84180616.618 4      1274.753          29.000
R16  20429026.664 6 109128255.614 6     -2196.766          36.000
C21  24726494.727 7 128757318.451 7     -3174.504          42.000
C24  25377900.578 5 132149343.864 5      2528.324          30.000
C26  21746285.031 6 113238583.428 6       873.934          37.000
E02  24061743.047 8 126445305.667 8     -1521.262          51.000    24061743.859 8  96886723.830 8     -1165.696          51.000
E08  22705970.781 8 119320665.461 8     -2234.305          51.000    22705969.008 8  91427509.748 8     -1712.072          48.000
E27  27327836.383 7 143608756.502 7      2480.852          45.000    27327843.867 7 110037897.974 7      1900.921          44.000
E30  22468645.547 8 118073507.187 8       906.438          51.000    22468647.508 8  90471903.156 8       694.561          51.000
> 2020 05 12 06 33  0.0000000  0 15        .000000000000
G12  22687445.695 7 119223323.835 7      3339.320          42.000    22687446.891 7  92901284.082 7      2602.068          42.000
G13  21876037.461 8 114959333.363 8     -2892.594          51.000    21876035.305 7  89578686.032 7     -2253.969          44.000
G15  20839795.992 8 109513858.201 8     -1802.695          51.000    20839795.125 8  85335473.035 8     -1404.701          51.000
G19  22131318.344 7 116300872.310 7      1988.816          42.000    22131312.133 5  90624032.195 5      1549.721          35.000
R06  21164508.812 7 112937862.981 7     -3768.293          46.000
R07  19950380.031 5 106795940.909 5       -33.051          31.000    19950379.227 4  83063502.334 4       -25.706          29.000
R09  20259248.016 5 108183258.711 5      1626.887          32.000    20259249.055 5  84142516.762 5      1265.365          31.000
R10  23087007.984 4 123066766.552 4      3080.098          28.000
R16  20441394.562 5 109194320.934 5     -2205.418          35.000
C21  24744805.398 6 128852664.702 6     -3180.371          40.000
C26  21741279.812 5 113212518.380 5       865.531          34.000
E02  24070451.344 8 126491067.776 8     -1527.836          51.000    24070452.305 8  96921788.289 8     -1170.671          51.000
E08  22718761.867 8 119387882.104 8     -2245.098          51.000    22718759.078 8  91479013.386 8     -1720.276          49.000
E27  27313692.156 7 143534427.181 7      2476.148          45.000    27313700.000 7 109980944.370 7      1897.228          44.000
E30  22463501.922 8 118046478.353 8       897.117          51.000    22463503.820 8  90451192.751 8       687.404          51.000
> 2020 05 12 06 33 30.0000000  0 13        .000000000000
G12  22668407.406 7 119123279.245 7      3330.703          42.000    22668408.539 7  92823327.308 7      2595.356          43.000
G13  21892583.188 8 115046281.219 8     -2903.848          51.000    21892581.656 7  89646437.607 7     -2262.738          45.000
G15  20850135.203 8 109568189.150 8     -1819.117          51.000    20850134.211 8  85377808.822 8     -1417.494          51.000
G19  22120014.375 7 116241468.240 7      1971.539          42.000    22120008.375 5  90577743.387 5      1536.261          34.000
R06  21185733.547 8 113051122.041 8     -3782.219          48.000
R10  23069688.414 4 122974420.792 4      3074.418          29.000
R16  20453804.156 5 109260609.413 5     -2213.715          31.000    20453818.898 4  84980460.759 4     -1721.778          28.000
C21  24763141.391 6 128948145.808 6     -3184.430          36.000
C26  21736316.578 5 113186675.850 5       857.441          32.000
E02  24079189.188 8 126536985.134 8     -1533.125          51.000    24079190.562 8  96956971.703 8     -1174.711          51.000
E08  22731606.164 8 119455380.869 8     -2254.590          51.000    22731604.148 8  91530733.215 8     -1727.567          50.000
E27  27299567.117 7 143460198.029 7      2472.488          44.000    27299574.922 7 109924067.486 7      1894.636          44.000
E30  22458403.977 8 118019688.762 8       889.008          51.000    22458405.695 8  90430665.677 8       681.203          51.000
> 2020 05 12 06 34  0.0000000  0 15        .000000000000
G12  22649414.805 7 119023474.957 7      3324.305          42.000    22649415.867 7  92745557.801 7      2590.370          42.000
G13  21909188.641 8 115133543.336 8     -2912.363          51.000    21909188.008 7  89714434.059 7     -2269.374          47.000
G15  20860563.531 8 109622989.094 8     -1832.852          51.000    20860562.148 8  85420510.068 8     -1428.196          51.000
G19  22108804.539 6 116182561.825 6      1956.523          41.000    22108800.297 5  90531842.326 5      1524.564          35.000
R06  21207033.414 8 113164781.815 8     -3793.609          48.000
R07  19951050.625 5 106799528.679 5       -85.328          31.000
R16  20466252.539 4 109327037.938 4     -2219.039          29.000    20466258.477 4  85032163.049 4     -1725.919          27.000
R17  22927551.531 5 122689930.626 5     -1179.605          35.000    22927547.992 4  95425491.981 4      -917.471          28.000
C21  24781498.750 4 129043742.811 4     -3186.703          27.000
C24  25334287.242 5 131922249.177 5      2521.379          31.000
C26  21731393.703 6 113161039.053 6       852.738          37.000
E02  24087953.156 8 126583039.903 8     -1535.742          51.000    24087954.930 8  96992260.413 8     -1176.744          51.000
E08  22744500.266 8 119523143.748 8     -2261.434          51.000    22744499.961 8  91582655.421 8     -1732.868          51.000
E27  27285457.984 7 143386052.558 7      2471.758          43.000    27285465.242 7 109867254.738 7      1894.067          43.000
E30  22453348.359 8 117993121.330 8       883.496          51.000    22453350.016 8  90410308.812 8       677.027          51.000
> 2020 05 12 06 34 30.0000000  0 14        .000000000000
G12  22630475.539 7 118923947.767 7      3308.070          42.000    22630475.461 7  92668004.085 7      2577.714          42.000
G13  21925860.406 8 115221153.453 8     -2930.836          51.000    21925860.445 7  89782701.667 7     -2283.768          47.000
G15  20871087.211 8 109678292.045 8     -1856.477          51.000    20871085.578 8  85463603.257 8     -1446.608          51.000
G19  22097696.594 6 116124191.136 6      1932.004          38.000    22097693.875 6  90486358.644 6      1505.452          37.000
G24  20780568.453 5 109202624.753 5      1571.844          35.000    20780564.906 4  85092930.536 4      1224.813          29.000
R06  21228414.547 8 113278874.370 8     -3815.020          49.000
R07  19951627.039 6 106802580.530 6      -120.484          38.000
R16  20478742.734 4 109393764.065 4     -2233.324          29.000    20478747.500 4  85084064.920 4     -1737.027          27.000
C24  25319787.273 4 131846729.748 4      2511.090          29.000
C26  21726517.414 5 113135642.916 5       837.293          34.000
E02  24096749.734 8 126629266.333 8     -1548.320          51.000    24096751.617 8  97027680.658 8     -1186.423          51.000
E08  22757451.211 8 119591204.812 8     -2278.371          51.000    22757452.305 8  91634806.093 8     -1745.777          51.000
E27  27271371.203 7 143312026.344 7      2460.824          42.000    27271377.727 7 109810533.351 7      1885.713          42.000
E30  22448341.656 8 117966810.987 8       868.043          51.000    22448343.477 8  90390148.936 8       665.133          51.000
> 2020 05 12 06 35  0.0000000  0 13        .000000000000
G12  22611605.781 7 118824783.628 7      3303.277          45.000    22611604.398 7  92590733.332 7      2573.982          45.000
G13  21942613.852 8 115309194.642 8     -2937.996          49.000    21942614.492 7  89851305.198 7     -2289.348          46.000
G15  20881722.008 8 109734181.144 8     -1868.820          51.000    20881720.570 8  85507153.170 8     -1456.227          51.000
G17  22389042.781 5 117655213.694 5       -68.723          34.000
G19  22086706.906 6 116066443.385 6      1918.051          37.000    22086705.391 6  90441360.310 6      1494.579          37.000
R06  21249892.008 8 113393481.336 8     -3824.789          49.000
R07  19952371.766 6 106806562.535 6      -144.129          37.000    19952379.086 4  83071815.781 4      -112.100          28.000
R16  20491298.023 4 109460834.563 4     -2236.527          29.000    20491302.367 5  85136218.796 5     -1739.524          30.000
C26  21721702.023 5 113110571.209 5       834.289          30.000
E02  24105594.867 8 126675748.153 8     -1549.773          51.000    24105596.500 8  97063296.581 8     -1187.519          51.000
E08  22770475.203 8 119659647.529 8     -2283.953          51.000    22770477.016 8  91687249.188 8     -1749.979          51.000
E27  27257323.094 7 143238204.380 7      2461.168          43.000    27257328.914 7 109753968.517 7      1885.806          42.000
E30  22443400.023 8 117940842.102 8       863.840          51.000    22443401.969 8  90370250.698 8       661.906          51.000
> 2020 05 12 06 35 30.0000000  0 15        .000000000000
G12  22592772.297 8 118725810.134 8      3294.238          49.000    22592769.750 8  92513611.172 8      2566.942          49.000
G13  21959414.828 7 115397490.864 7     -2949.070          46.000    21959416.523 7  89920107.511 7     -2297.977          46.000
G15  20892435.078 8 109790480.576 8     -1885.191          50.000    20892433.695 8  85551022.848 8     -1468.980          50.000
G17  22389500.602 5 117657575.589 5       -87.902          35.000    22389481.234 5  91681207.048 5       -68.504          35.000
G19  22075803.320 6 116009146.799 6      1900.801          37.000    22075802.414 6  90396713.582 6      1481.143          37.000
R06  21271431.664 7 113508421.796 7     -3838.734          47.000
R07  19953254.359 6 106811297.544 6      -172.234          37.000    19953255.797 4  83075498.560 4      -133.957          29.000
R09  20214355.398 5 107943537.534 5      1569.355          34.000    20214367.820 5  83956103.398 5      1220.613          30.000
R16  20503879.695 5 109528033.807 5     -2244.539          33.000    20503885.016 5  85188485.254 5     -1745.753          31.000
C21  24836779.430 5 129331565.276 5     -3203.340          31.000
C26  21716915.961 5 113085651.702 5       826.145          35.000
E02  24114455.297 8 126722310.108 8     -1555.086          51.000    24114456.484 8  97098973.917 8     -1191.604          51.000
E08  22783538.734 8 119728296.402 8     -2293.457          51.000    22783540.805 8  91739850.265 8     -1757.354          51.000
E27  27243281.164 7 143164412.800 7      2457.387          45.000    27243286.094 7 109697426.929 7      1882.951          43.000
E30  22438490.188 8 117915040.094 8       855.543          51.000    22438492.016 8  90350480.326 8       655.561          51.000
> 2020 05 12 06 36  0.0000000  0 16        .000000000000
G12  22573993.094 8 118627122.880 8      3286.074          49.000    22573989.875 8  92436712.023 8      2560.577          49.000
G13  21976282.703 8 115486134.262 8     -2959.207          50.000    21976284.477 7  89989180.319 7     -2305.876          45.000
G15  20903243.750 8 109847282.865 8     -1900.457          48.000    20903242.656 8  85595284.362 8     -1480.876          48.000
G17  22390062.617 6 117660491.949 6      -105.184          36.000    22390039.672 5  91683479.202 5       -81.967          35.000
G19  22065003.984 6 115952397.668 6      1883.715          38.000    22065003.914 6  90352493.548 6      1467.833          37.000
R06  21293050.125 7 113623787.075 7     -3851.250          44.000
R07  19954296.969 6 106816880.687 6      -199.023          37.000    19954294.992 4  83079841.019 4      -154.793          28.000
R09  20205569.633 5 107896623.155 5      1559.402          34.000    20205577.719 4  83919614.414 4      1212.868          27.000
R16  20516504.961 5 109595471.669 5     -2250.531          34.000    20516508.758 5  85240936.943 5     -1750.413          31.000
R17  22955213.562 5 122837941.518 5     -1281.957          33.000
C21  24855256.492 4 129427741.041 4     -3207.484          28.000
C26  21712177.305 6 113060976.931 6       819.215          36.000
E02  24123348.695 8 126769044.973 8     -1559.383          51.000    24123349.508 8  97134783.736 8     -1194.885          51.000
E08  22796659.203 8 119797243.979 8     -2301.941          51.000    22796661.008 8  91792680.212 8     -1763.780          51.000
E27  27229263.141 7 143090745.640 7      2454.844          47.000    27229267.266 7 109640980.681 7      1880.900          43.000
E30  22433629.852 8 117889498.407 8       848.371          51.000    22433631.555 8  90330909.423 8       650.039          51.000
> 2020 05 12 06 36 30.0000000  0 12        .000000000000
G12  22555264.586 8 118528704.630 8      3275.906          49.000    22555262.258 8  92360022.500 8      2552.654          49.000
G13  21993213.742 8 115575104.625 8     -2971.398          51.000    21993214.711 7  90058507.840 7     -2315.375          44.000
G15  20914144.023 8 109904567.327 8     -1917.711          48.000    20914143.555 8  85639921.579 8     -1494.320          48.000
G17  22390728.352 6 117663965.841 6      -125.219          36.000    22390696.312 6  91686185.811 6       -97.585          36.000
G19  22054305.914 6 115896179.894 6      1864.766          39.000    22054306.547 6  90308687.579 6      1453.067          37.000
R06  21314743.164 7 113739553.558 7     -3865.891          42.000
R07  19955493.898 6 106823292.922 6      -227.812          37.000    19955491.148 5  83084828.311 5      -177.178          30.000
C26  21707481.789 6 113036528.295 6       810.980          36.000
E02  24132271.305 8 126815932.988 8     -1565.738          51.000    24132271.883 8  97170710.901 8     -1199.734          51.000
E08  22809832.750 8 119866470.247 8     -2312.391          51.000    22809833.742 8  91845723.711 8     -1771.892          50.000
E27  27215265.297 7 143017184.411 7      2449.953          47.000    27215268.836 7 109584615.607 7      1877.261          44.000
E30  22428815.422 8 117864197.939 8       839.078          51.000    22428817.102 8  90311523.352 8       642.906          51.000
> 2020 05 12 06 37  0.0000000  0 11        .000000000000
G12  22536581.781 8 118430526.668 8      3263.094          50.000    22536580.680 8  92283520.180 8      2542.667          50.000
G13  22010200.875 8 115664369.554 8     -2985.945          51.000    22010201.000 7  90128064.864 7     -2326.711          43.000
G15  20925130.633 8 109962302.790 8     -1937.559          50.000    20925130.102 8  85684910.221 8     -1509.786          50.000
G19  22043703.891 6 115840465.138 6      1843.082          37.000    22043703.414 5  90265273.465 5      1436.165          35.000
R06  21336505.078 7 113855686.229 7     -3882.695          43.000
R16  20541868.359 4 109730971.967 4     -2271.105          29.000    20541866.844 5  85346305.253 5     -1766.415          30.000
C26  21702824.055 6 113012275.738 6       799.438          36.000
E02  24141217.078 8 126862942.678 8     -1574.535          51.000    24141217.570 8  97206731.303 8     -1206.450          51.000
E08  22823053.367 8 119935943.476 8     -2325.387          51.000    22823053.242 8  91898956.411 8     -1781.730          49.000
E27  27201281.641 7 142943698.935 7      2442.844          46.000    27201284.773 7 109528308.573 7      1871.738          44.000
E30  22424041.016 8 117839107.872 8       827.352          51.000    22424042.727 8  90292298.488 8       633.951          51.000
> 2020 05 12 06 37 30.0000000  0 15        .000000000000
G12  22517967.672 8 118332708.427 8      3257.949          50.000    22517966.969 8  92207298.168 8      2538.662          50.000
G13  22027266.000 8 115754045.675 8     -2992.660          51.000    22027266.117 7  90197942.321 7     -2331.946          43.000
G15  20936225.625 8 110020605.666 8     -1949.508          51.000    20936224.781 8  85730341.028 8     -1519.097          51.000
G19  22033220.203 6 115785374.485 6      1829.555          36.000    22033219.438 6  90222345.747 6      1425.627          37.000
G24  20727608.641 4 108924329.662 4      1516.988          27.000
R06  21358359.375 7 113972301.128 7     -3891.570          45.000
R07  19958356.328 5 106838595.350 5      -282.789          34.000    19958359.219 5  83096721.319 5      -219.950          35.000
R10  22932310.453 5 122242117.461 5      3029.008          31.000
R16  20554622.938 4 109799109.136 4     -2273.977          29.000    20554626.086 5  85399306.585 5     -1768.648          32.000
C21  24910786.492 4 129716988.608 4     -3219.402          29.000
C26  21698226.375 6 112988336.416 6       796.141          37.000
E02  24150208.328 8 126910191.343 8     -1575.527          51.000    24150208.789 8  97242934.822 8     -1207.198          51.000
E08  22836343.250 8 120005780.732 8     -2330.461          51.000    22836341.680 8  91952468.043 8     -1785.720          48.000
E27  27187334.688 7 142870407.873 7      2443.258          45.000    27187337.453 7 109472150.509 7      1872.041          44.000
E30  22419328.875 8 117814346.170 8       823.379          51.000    22419330.859 8  90273325.240 8       630.889          51.000
> 2020 05 12 06 38  0.0000000  0 14        .000000000000
G12  22499397.586 8 118235120.830 8      3248.270          51.000    22499396.469 8  92131255.906 8      2531.122          51.000
G13  22044383.586 8 115844000.235 8     -3003.918          50.000    22044383.977 7  90268036.762 7     -2340.715          42.000
G15  20947403.422 8 110079343.161 8     -1966.055          51.000    20947402.312 8  85776110.474 8     -1531.994          51.000
G19  22022831.562 6 115730779.208 6      1810.656          39.000    22022830.633 6  90179804.041 6      1410.898          37.000
R06  21380278.945 7 114089260.907 7     -3905.277          47.000
R07  19960026.922 6 106847508.670 6      -310.941          37.000    19960024.969 5  83103653.881 5      -241.843          35.000
R10  22915278.859 5 122151352.736 5      3023.141          32.000
R16  20567413.500 5 109867419.575 5     -2280.688          34.000    20567413.227 5  85452440.038 5     -1773.868          30.000
C21  24929351.422 5 129813661.450 5     -3224.273          33.000
C26  21693664.758 6 112964580.372 6       787.938          40.000
E02  24159219.820 8 126957546.847 8     -1581.074          51.000    24159220.375 8  97279220.202 8     -1211.475          51.000
E08  22849677.086 8 120075849.571 8     -2340.258          51.000    22849674.578 8  92006157.108 8     -1793.256          48.000
E27  27173399.703 7 142797180.288 7      2439.102          45.000    27173402.094 7 109416041.078 7      1868.877          45.000
E30  22414654.273 8 117789781.340 8       814.688          51.000    22414656.422 8  90254502.834 8       624.262          51.000
> 2020 05 12 06 38 30.0000000  0 14        .000000000000
G12  22480883.469 8 118137827.027 8      3240.164          51.000    22480881.875 8  92055442.596 8      2524.806          51.000
G13  22061565.461 8 115934293.288 8     -3013.395          50.000    22061565.602 6  90338394.949 6     -2348.100          41.000
G15  20958675.453 8 110138575.585 8     -1980.715          51.000    20958674.516 8  85822265.600 8     -1543.414          51.000
G19  22012548.883 5 115676743.507 5      1793.652          34.000    22012548.328 5  90137698.284 5      1397.639          34.000
R06  21402274.086 7 114206624.344 7     -3916.852          47.000
R07  19961851.422 6 106857269.242 6      -337.645          36.000    19961846.773 5  83111245.414 5      -262.615          33.000
R16  20580246.703 5 109935964.562 5     -2287.188          34.000    20580244.117 5  85505752.761 5     -1778.927          30.000
C21  24947944.203 5 129910468.058 5     -3227.043          35.000
C24  25204458.914 5 131246245.067 5      2492.297          31.000
C26  21689150.703 6 112941068.883 6       781.461          40.000
E02  24168263.133 8 127005070.029 8     -1584.906          51.000    24168263.938 8  97315634.064 8     -1214.403          51.000
E08  22863066.367 8 120146210.570 8     -2348.254          51.000    22863064.039 8  92060070.032 8     -1799.279          49.000
E27  27159488.609 7 142724078.357 7      2436.652          44.000    27159490.734 7 109360027.934 7      1866.976          45.000
E30  22410028.742 8 117765474.815 8       807.898          51.000    22410030.781 8  90235878.357 8       619.042          51.000
> 2020 05 12 06 39  0.0000000  0 16        .000000000000
G12  22462419.695 8 118040798.856 8      3233.852          50.000    22462418.281 8  91979836.262 8      2519.887          50.000
G13  22078806.062 8 116024893.028 8     -3021.023          50.000    22078805.680 7  90408992.082 7     -2354.047          42.000
G15  20970035.523 8 110198271.385 8     -1993.480          51.000    20970035.023 8  85868781.792 8     -1553.361          51.000
G24  20701908.414 5 108789262.721 5      1490.812          32.000
R06  21424337.891 7 114324356.951 7     -3926.461          46.000
R07  19963827.086 6 106867846.044 6      -361.961          37.000    19963822.406 5  83119471.792 5      -281.525          31.000
R09  20154195.602 5 107622268.051 5      1494.254          34.000    20154200.047 4  83706230.332 4      1162.191          25.000
R16  20593117.094 5 110004707.944 5     -2290.418          34.000    20593112.656 5  85559219.764 5     -1781.439          31.000
R17  23000871.586 5 123082176.593 5     -1426.629          33.000    23000872.953 4  95730697.678 4     -1109.600          25.000
C21  24966554.562 5 130007375.835 5     -3227.949          33.000
C24  25190118.242 5 131171578.673 5      2491.566          32.000
C26  21684677.008 6 112917772.036 6       776.762          37.000
E02  24177332.391 8 127052729.752 8     -1586.754          51.000    24177333.508 8  97352152.542 8     -1215.806          51.000
E08  22876505.117 8 120216832.263 8     -2354.203          51.000    22876503.766 8  92114182.733 8     -1803.864          50.000
E27  27145595.773 7 142651072.241 7      2436.145          45.000    27145597.750 7 109304088.171 7      1866.653          45.000
E30  22405446.430 8 117741396.140 8       802.992          51.000    22405448.219 8  90217428.467 8       615.301          51.000
> 2020 05 12 06 39 30.0000000  0 14        .000000000000
G12  22444003.398 8 117944021.024 8      3220.629          50.000    22444002.633 8  91904424.967 8      2509.581          50.000
G13  22096101.672 8 116115781.078 8     -3035.414          51.000    22096100.812 6  90479813.876 6     -2365.258          40.000
G15  20981480.008 8 110258412.056 8     -2013.102          51.000    20981479.984 8  85915644.650 8     -1568.651          51.000
R06  21446466.352 7 114442436.767 7     -3942.812          45.000
R07  19965950.867 5 106879222.211 5      -393.508          34.000    19965946.258 4  83128319.848 4      -306.074          29.000
R10  22864371.398 5 121879973.960 5      3006.152          31.000
R16  20606020.430 5 110073631.260 5     -2301.301          33.000    20606017.227 5  85612826.780 5     -1789.901          32.000
R17  23008957.125 5 123125449.454 5     -1455.543          30.000    23008960.453 4  95764353.807 4     -1132.098          26.000
C21  24985180.898 5 130104365.626 5     -3234.969          35.000
C26  21680240.930 6 112894673.258 6       765.844          39.000
E02  24186424.258 8 127100508.401 8     -1595.625          51.000    24186425.664 8  97388762.156 8     -1222.595          51.000
E08  22889990.039 8 120287696.706 8     -2367.199          51.000    22889989.992 8  92168481.444 8     -1813.867          51.000
E27  27131718.117 7 142578145.468 7      2428.559          46.000    27131719.898 7 109248209.240 7      1860.835          44.000
E30  22400904.422 8 117717528.267 8       791.070          51.000    22400906.070 8  90199140.109 8       606.139          51.000
> 2020 05 12 06 40  0.0000000  0 14        .000000000000
G12  22425665.258 8 117847653.861 8      3211.004          50.000    22425665.156 8  91829333.659 8      2502.081          50.000
G13  22113481.773 8 116207114.351 8     -3046.180          49.000    22113480.422 6  90550982.610 6     -2373.650          39.000
G15  20993039.086 8 110319154.772 8     -2029.148          51.000    20993039.297 8  85962976.627 8     -1581.155          51.000
G19  21982333.047 5 115517940.179 5      1737.414          33.000    21982331.398 5  90013965.119 5      1353.835          30.000
R06  21468688.977 7 114561021.106 7     -3955.508          43.000
R07  19968253.867 5 106891558.469 5      -421.152          35.000    19968252.172 5  83137914.673 5      -327.569          32.000
R10  22847493.359 5 121790013.616 5      3000.555          34.000
R16  20618986.133 5 110142894.408 5     -2308.922          32.000    20618984.664 5  85666698.122 5     -1795.828          32.000
C21  25003854.133 5 130201592.411 5     -3239.352          35.000
C26  21675874.156 6 112871929.881 6       757.973          38.000
E02  24195568.789 8 127148563.629 8     -1600.859          51.000    24195570.383 8  97425583.701 8     -1226.653          51.000
E08  22903550.781 8 120358961.220 8     -2376.605          51.000    22903552.125 8  92223086.731 8     -1821.029          51.000
E27  27117885.922 7 142505457.009 7      2424.570          46.000    27117887.359 7 109192512.914 7      1857.707          44.000
E30  22396432.938 8 117694029.493 8       782.762          51.000    22396434.609 8  90181134.551 8       599.763          51.000
> 2020 05 12 06 40 30.0000000  0 14        .000000000000
G12  22407354.023 8 117751427.603 8      3202.988          51.000    22407353.570 8  91754352.159 8      2495.835          51.000
G13  22130894.406 8 116298619.861 8     -3055.441          48.000    22130892.312 6  90622285.592 6     -2380.863          40.000
G15  21004660.891 8 110380226.980 8     -2043.375          51.000    21004661.000 8  86010565.358 8     -1592.240          51.000
G19  21972456.289 6 115466041.985 6      1720.867          37.000    21972454.328 5  89973525.029 5      1340.939          33.000
R06  21490952.906 6 114679830.932 6     -3966.434          38.000
R07  19970685.047 6 106904578.630 6      -447.570          36.000    19970685.945 5  83148041.507 5      -348.104          32.000
R10  22830617.945 5 121700050.974 5      2995.926          35.000
C21  25022520.734 5 130298785.173 5     -3241.332          35.000
C24  25147228.859 5 130948251.260 5      2479.953          34.000
C26  21671523.516 6 112849273.204 6       751.867          38.000
E02  24204714.227 8 127196623.374 8     -1604.215          51.000    24204715.867 8  97462408.704 8     -1229.225          51.000
E08  22917135.969 8 120430353.450 8     -2384.074          51.000    22917138.219 8  92277789.878 8     -1826.773          51.000
E27  27104047.570 7 142432736.012 7      2422.383          46.000    27104048.852 7 109136791.654 7      1855.986          44.000
E30  22391980.141 8 117670628.386 8       776.199          51.000    22391981.617 8  90163203.819 8       594.780          51.000
> 2020 05 12 06 41  0.0000000  0 15        .000000000000
G12  22389118.883 8 117655601.620 8      3188.684          50.000    22389117.633 8  91679682.550 8      2484.689          50.000
G13  22148388.719 8 116390553.632 8     -3070.188          48.000    22148386.195 6  90693922.298 6     -2392.354          41.000
G15  21016394.008 8 110441884.624 8     -2063.660          51.000    21016393.891 8  86058610.248 8     -1608.047          51.000
G19  21962708.117 6 115414813.331 6      1697.738          38.000    21962706.094 5  89933606.630 5      1322.919          32.000
R06  21513305.703 5 114799122.890 5     -3983.250          33.000
R07  19973288.930 5 106918558.959 5      -480.352          34.000    19973295.180 5  83158910.301 5      -373.601          33.000
R10  22813797.008 5 121610376.549 5      2985.414          35.000
R16  20644999.945 5 110281877.654 5     -2325.855          34.000    20644997.453 5  85774797.914 5     -1808.996          31.000
C21  25041229.664 5 130396196.780 5     -3249.512          32.000
C24  25132961.992 5 130874019.573 5      2472.422          34.000
C26  21667237.859 6 112826958.437 6       739.590          38.000
E02  24213909.391 8 127244944.303 8     -1613.766          51.000    24213910.859 8  97499433.827 8     -1236.522          51.000
E08  22930794.539 8 120502129.704 8     -2397.629          51.000    22930797.062 8  92332787.267 8     -1837.156          51.000
E27  27090252.242 7 142360240.386 7      2414.062          45.000    27090253.688 7 109081243.077 7      1849.736          45.000
E30  22387594.789 8 117647582.136 8       763.598          51.000    22387595.805 8  90145545.005 8       585.082          51.000
> 2020 05 12 06 41 30.0000000  0 14        .000000000000
G12  22370939.656 8 117560071.393 8      3181.531          49.000    22370938.469 8  91605243.412 8      2479.115          49.000
G13  22165944.656 8 116482807.889 8     -3078.363          50.000    22165942.484 7  90765808.678 7     -2398.728          44.000
G15  21028217.969 8 110504019.802 8     -2076.918          51.000    21028217.461 8  86107027.247 8     -1618.378          51.000
G19  21953068.148 6 115364150.979 6      1681.465          38.000    21953065.719 5  89894129.494 5      1310.226          35.000
R07  19976056.398 6 106933362.288 6      -505.078          39.000    19976060.359 5  83170424.042 5      -392.836          30.000
R10  22797008.359 5 121520883.551 5      2982.574          31.000
R16  20658077.523 5 110351740.865 5     -2330.609          31.000    20658077.008 5  85829136.005 5     -1812.693          31.000
C21  25059959.398 5 130493784.234 5     -3249.758          30.000
C24  25118716.539 5 130799888.528 5      2471.340          33.000
C26  21662997.664 6 112804880.595 6       734.105          39.000
E02  24223133.914 8 127293419.354 8     -1616.188          51.000    24223135.055 8  97536577.039 8     -1238.356          51.000
E08  22944505.977 8 120574182.603 8     -2404.141          51.000    22944508.195 8  92387996.622 8     -1842.071          51.000
E27  27076479.773 7 142287864.322 7      2412.828          45.000    27076481.742 7 109025786.119 7      1848.808          46.000
E30  22383256.750 8 117624784.335 8       757.957          51.000    22383257.258 8  90128076.551 8       580.817          51.000
> 2020 05 12 06 42  0.0000000  0 15        .000000000000
G12  22352808.828 8 117464795.958 8      3171.184          49.000    22352808.273 8  91531002.813 8      2471.055          49.000
G13  22183553.477 8 116575338.194 8     -3089.371          51.000    22183551.328 7  90837910.172 7     -2407.302          45.000
G15  21040124.570 8 110566588.831 8     -2093.172          51.000    21040123.578 8  86155782.341 8     -1631.043          51.000
G19  21943528.414 6 115314014.430 6      1661.934          38.000    21943524.656 6  89855062.093 6      1295.019          36.000
G24  20652055.172 5 108527281.727 5      1425.371          32.000
R06  21558220.188 5 115038785.495 5     -4005.867          35.000
R07  19978970.500 6 106948959.282 6      -533.523          38.000    19978969.258 4  83182555.118 4      -414.957          24.000
R16  20671186.430 4 110421773.371 4     -2337.254          29.000    20671189.336 5  85883605.765 5     -1817.861          32.000
C21  25078701.812 5 130591373.659 5     -3254.301          32.000
C24  25104487.656 5 130725816.316 5      2468.219          31.000
C26  21658794.344 6 112782997.621 6       725.691          39.000
E02  24232379.555 8 127342005.175 8     -1621.668          51.000    24232380.414 8  97573805.123 8     -1242.541          51.000
E08  22958261.625 8 120646468.380 8     -2413.602          51.000    22958263.617 8  92443384.425 8     -1849.356          51.000
E27  27062721.945 7 142215565.692 7      2408.406          45.000    27062724.633 7 108970388.466 7      1845.465          47.000
E30  22378957.875 8 117602192.196 8       749.355          51.000    22378958.109 8  90110765.697 8       574.166          51.000
> 2020 05 12 06 42 30.0000000  0 13        .000000000000
G12  22334731.453 8 117369799.352 8      3163.016          50.000    22334731.258 8  91456979.502 8      2464.688          50.000
G13  22201218.531 8 116668165.276 8     -3098.098          51.000    22201216.305 7  90910242.949 7     -2414.102          45.000
G15  21052117.492 8 110629612.040 8     -2107.160          51.000    21052116.234 8  86204891.349 8     -1641.943          51.000
G19  21934092.945 7 115264428.167 7      1644.840          42.000    21934088.328 6  89816423.479 6      1281.690          37.000
R06  21580768.875 6 115159113.189 6     -4015.512          38.000
R07  19982036.586 6 106965371.964 6      -559.758          37.000
R16  20684332.180 5 110491996.685 5     -2342.871          32.000    20684336.438 5  85938223.772 5     -1822.236          32.000
C24  25090275.641 5 130651825.241 5      2465.949          30.000
C26  21654631.984 6 112761331.354 6       720.094          38.000
E02  24241650.242 8 127390722.936 8     -1625.008          51.000    24241651.125 8  97611134.305 8     -1245.133          51.000
E08  22972065.078 8 120719007.873 8     -2421.074          50.000    22972067.531 8  92498966.648 8     -1855.136          51.000
E27  27048982.883 7 142143366.873 7      2406.102          45.000    27048986.422 8 108915067.296 8      1843.660          48.000
E30  22374702.047 8 117579827.509 8       742.773          51.000    22374702.336 8  90093629.126 8       569.162          51.000
> 2020 05 12 06 43  0.0000000  0 15        .000000000000
G12  22316701.859 8 117275052.972 8      3160.562          50.000    22316701.539 8  91383151.202 8      2462.776          50.000
G13  22218933.469 8 116761257.716 8     -3100.887          50.000    22218931.625 7  90982782.491 7     -2416.275          44.000
G15  21064190.727 8 110693058.082 8     -2115.234          51.000    21064189.531 8  86254329.851 8     -1648.235          51.000
G19  21924756.812 7 115215364.777 7      1633.395          43.000    21924751.062 5  89778192.318 5      1272.778          34.000
G28  23976876.625 5 125999314.676 5     -3083.391          33.000
R06  21603376.250 6 115279748.473 6     -4019.375          39.000
R07  19985248.703 6 106982569.546 6      -579.715          37.000
R09  20089298.391 5 107275696.432 5      1407.621          32.000
R10  22746797.430 5 121253238.139 5      2973.422          33.000
R16  20697507.820 5 110562378.879 5     -2342.305          32.000    20697512.961 5  85992965.527 5     -1821.793          33.000
C26  21650505.867 6 112739852.691 6       719.328          38.000
E02  24250940.203 8 127439542.220 8     -1622.375          51.000    24250941.328 8  97648541.277 8     -1243.113          51.000
E08  22985910.609 8 120791770.218 8     -2422.543          49.000    22985913.859 8  92554719.629 8     -1856.267          51.000
E27  27035257.305 7 142071238.635 7      2409.676          45.000    27035261.555 8 108859800.222 8      1846.390          48.000
E30  22370483.469 8 117557660.373 8       742.277          51.000    22370484.000 8  90076643.936 8       568.683          51.000
> 2020 05 12 06 43 30.0000000  0 14        .000000000000
G12  22298725.875 8 117180587.823 8      3140.844          49.000    22298724.844 8  91309542.001 8      2447.411          49.000
G13  22236703.312 8 116854642.485 8     -3120.918          48.000    22236702.062 7  91055549.849 7     -2431.884          42.000
G15  21076349.625 8 110756954.189 8     -2140.613          51.000    21076348.922 8  86304119.022 8     -1668.010          51.000
G19  21915525.398 6 115166855.299 6      1604.488          41.000    21915519.930 5  89740392.724 5      1250.257          34.000
G28  23994525.023 5 126092051.901 5     -3095.531          35.000
R06  21626046.227 6 115400716.443 6     -4040.949          39.000
R07  19988612.531 5 107000580.749 5      -617.211          34.000
R10  22730129.367 5 121164340.102 5      2957.105          35.000
R16  20710718.523 5 110632947.946 5     -2358.770          31.000    20710724.320 5  86047852.551 5     -1834.602          32.000
C26  21646422.047 6 112718590.086 6       701.887          39.000
E02  24260254.820 8 127488490.831 8     -1637.043          51.000    24260256.203 8  97686047.343 8     -1254.349          51.000
E08  22999804.273 8 120864782.906 8     -2441.164          51.000    22999807.711 8  92610664.418 8     -1870.544          51.000
E27  27021550.781 7 141999210.016 7      2396.031          45.000    27021555.547 8 108804609.490 8      1835.878          48.000
E30  22366307.930 8 117535719.207 8       724.336          51.000    22366308.633 8  90059831.864 8       555.050          51.000
> 2020 05 12 06 44  0.0000000  0 15        .000000000000
G12  22280818.633 8 117086484.045 8      3132.891          48.000    22280817.406 8  91236214.380 8      2441.213          48.000
G13  22254542.977 7 116948396.729 7     -3128.961          46.000    22254542.469 7  91128605.094 7     -2438.151          42.000
G15  21088608.961 8 110821377.293 8     -2154.020          51.000    21088608.773 8  86354318.817 8     -1678.460          51.000
G19  21906414.039 6 115118980.730 6      1587.035          40.000    21906410.391 6  89703087.963 6      1236.654          36.000
G28  24012196.234 6 126184911.706 6     -3095.289          36.000
R06  21648792.227 6 115522092.556 6     -4050.602          36.000
R07  19992144.602 6 107019485.307 6      -642.844          36.000
R16  20723978.930 5 110703782.789 5     -2363.789          32.000    20723985.305 5  86102946.267 5     -1838.503          32.000
R17  23087960.805 5 123548311.051 5     -1673.344          32.000
C24  25047758.414 4 130430238.996 4      2455.535          29.000
C26  21642394.477 6 112697621.655 6       696.043          37.000
E02  24269608.898 8 127537646.625 8     -1639.785          51.000    24269610.383 8  97723712.151 8     -1256.429          51.000
E08  23013760.945 8 120938123.395 8     -2447.930          51.000    23013763.742 8  92666860.345 8     -1875.692          51.000
E27  27007878.062 7 141927360.100 7      2394.043          45.000    27007883.227 8 108749555.660 8      1834.483          49.000
E30  22362190.531 8 117514082.448 8       718.367          51.000    22362191.570 8  90043253.044 8       550.449          51.000
> 2020 05 12 06 44 30.0000000  0 15        .000000000000
G12  22262991.414 8 116992801.712 8      3123.871          48.000    22262990.758 8  91163215.163 8      2434.185          48.000
G13  22272464.500 8 117042577.064 8     -3138.273          48.000    22272464.438 6  91201992.344 6     -2445.411          41.000
G15  21100979.367 8 110886384.535 8     -2168.520          51.000    21100979.625 8  86404973.769 8     -1689.755          51.000
G17  22415855.008 5 117796133.290 5      -422.828          34.000    22415856.758 5  91789186.428 5      -329.480          33.000
G19  21897435.469 6 115071802.312 6      1569.082          39.000    21897431.523 5  89666325.528 5      1222.658          34.000
G28  24029901.172 5 126277950.464 5     -3096.766          34.000
R06  21671625.438 5 115643932.850 5     -4060.910          31.000
R07  19995854.164 6 107039341.913 6      -669.520          38.000
R16  20737301.383 5 110774963.160 5     -2368.586          30.000    20737307.242 5  86158318.722 5     -1842.230          31.000
R17  23097435.117 5 123599024.095 5     -1696.078          31.000
C26  21638434.070 5 112677005.692 5       689.207          33.000
E02  24279013.398 8 127587067.516 8     -1643.664          51.000    24279014.672 8  97761580.091 8     -1259.458          51.000
E08  23027791.172 8 121011849.138 8     -2455.852          51.000    23027792.695 8  92723351.462 8     -1881.774          51.000
E27  26994250.297 7 141855747.897 7      2391.141          45.000    26994255.938 8 108694684.008 8      1832.218          49.000
E30  22358142.203 8 117492808.483 8       711.145          51.000    22358143.930 8  90026952.234 8       544.879          51.000
> 2020 05 12 06 45  0.0000000  0 13        .000000000000
G12  22245192.258 8 116899265.665 8      3110.883          49.000    22245191.656 8  91090329.932 8      2424.065          49.000
G13  22290414.820 8 117136905.530 8     -3151.277          49.000    22290414.352 7  91275495.009 7     -2455.541          42.000
G15  21113407.953 8 110951697.721 8     -2186.598          51.000    21113408.188 8  86455867.138 8     -1703.842          51.000
G17  22418327.961 4 117809112.876 4      -445.844          29.000    22418329.219 4  91799321.163 4      -347.402          29.000
G19  21888536.703 5 115025045.475 5      1547.395          35.000    21888532.984 5  89629891.605 5      1205.750          30.000
G28  24047586.891 5 126370889.726 5     -3101.141          33.000
R07  19999689.461 5 107059868.206 5      -699.910          35.000    19999718.086 4  83268925.085 4      -544.387          24.000
R17  23107015.398 4 123650295.249 4     -1723.055          28.000    23107018.984 4  96172467.944 4     -1340.154          26.000
C26  21634490.141 5 112656468.058 5       678.984          33.000
E02  24288415.508 8 127636475.932 8     -1651.223          51.000    24288416.312 8  97799438.474 8     -1265.279          51.000
E08  23041841.828 8 121085682.166 8     -2467.449          51.000    23041842.070 8  92779924.772 8     -1890.643          51.000
E27  26980615.352 7 141784097.126 7      2384.426          45.000    26980621.320 8 108639782.777 8      1827.081          49.000
E30  22354110.242 8 117471620.370 8       700.242          51.000    22354112.516 8  90010717.189 8       536.600          51.000
> 2020 05 12 06 45 30.0000000  0 11        .000000000000
G12  22227454.477 8 116806051.777 8      3096.578          49.000    22227454.055 8  91017695.755 8      2412.921          50.000
G13  22308426.250 8 117231554.051 8     -3165.500          50.000    22308425.383 7  91349247.072 7     -2466.623          43.000
G15  21125927.422 8 111017488.874 8     -2206.219          50.000    21125927.078 8  86507132.952 8     -1719.131          50.000
G19  21879751.922 6 114978886.041 6      1522.727          37.000    21879749.930 6  89593923.307 6      1186.531          37.000
R06  21717419.156 5 115888349.681 5     -4090.133          30.000
R07  20003682.359 6 107081240.872 6      -731.562          37.000
C26  21630595.344 6 112636181.087 6       667.066          36.000
E02  24297848.156 8 127686044.777 8     -1660.172          51.000    24297848.656 8  97837419.777 8     -1272.041          51.000
E08  23055945.547 8 121159794.914 8     -2480.266          51.000    23055944.672 8  92836712.434 8     -1900.469          51.000
E27  26967006.359 7 141712581.789 7      2376.391          47.000    26967012.445 8 108584985.306 8      1820.871          49.000
E30  22350127.648 8 117450691.527 8       688.059          51.000    22350130.016 8  89994680.786 8       527.244          51.000
> 2020 05 12 06 46  0.0000000  0 13        .000000000000
G12  22209793.594 8 116713241.859 8      3099.008          49.000    22209793.266 8  90945376.355 8      2414.811          49.000
G13  22326513.734 8 117326601.188 8     -3162.863          51.000    22326512.656 7  91423309.761 7     -2464.569          44.000
G15  21138552.805 8 111083836.827 8     -2208.918          50.000    21138551.992 8  86558832.628 8     -1721.235          51.000
G19  21871097.211 6 114933406.755 6      1516.516          40.000    21871096.633 6  89558484.912 6      1181.697          37.000
G24  20588864.758 5 108195179.745 5      1349.523          35.000    20588858.078 5  84307949.596 5      1051.577          34.000
R06  21740437.820 5 116011148.626 5     -4088.176          33.000
R07  20007847.102 5 107103540.573 5      -746.699          32.000    20007849.133 4  83302785.876 4      -580.766          29.000
C21  25229264.516 4 131375404.738 4     -3271.816          29.000
C26  21626763.656 5 112616224.623 5       671.461          35.000
E02  24307326.469 8 127735853.697 8     -1652.238          51.000    24307327.133 8  97875585.044 8     -1265.998          51.000
E08  23070117.367 8 121234266.608 8     -2476.312          51.000    23070116.008 8  92893775.135 8     -1897.389          51.000
E27  26953438.602 8 141641282.738 8      2385.047          48.000    26953444.711 8 108530353.551 8      1827.581          49.000
E30  22346209.508 8 117430102.139 8       692.715          51.000    22346211.820 8  89978904.488 8       530.811          51.000
> 2020 05 12 06 46 30.0000000  0 14        .000000000000
G12  22192155.055 8 116620549.882 8      3083.809          48.000    22192154.133 8  90873148.838 8      2402.968          48.000
G13  22344622.109 8 117421757.935 8     -3177.629          51.000    22344621.109 7  91497457.848 7     -2476.074          46.000
G15  21151229.125 8 111150452.438 8     -2229.016          50.000    21151228.055 8  86610740.866 8     -1736.898          50.000
G19  21862518.062 6 114888322.589 6      1492.168          37.000    21862518.117 6  89523354.371 6      1162.725          36.000
G24  20581211.281 5 108154971.244 5      1334.258          33.000    20581205.844 5  84276618.239 5      1039.672          31.000
G28  24100717.352 5 126650101.892 5     -3102.371          32.000
R06  21763470.531 4 116134047.218 4     -4104.020          28.000
R16  20790849.898 5 111060986.758 5     -2394.984          32.000    20790857.906 5  86380794.577 5     -1862.766          32.000
C24  24977281.062 5 130063233.623 5      2441.426          33.000
C26  21622940.836 5 112596313.826 5       658.934          35.000
E02  24316795.680 8 127785614.426 8     -1661.828          51.000    24316796.789 8  97913713.384 8     -1273.355          51.000
E08  23084302.391 8 121308808.514 8     -2489.770          51.000    23084301.125 8  92950891.647 8     -1907.841          51.000
E27  26939857.391 8 141569912.839 8      2376.199          49.000    26939863.414 8 108475667.533 8      1820.691          49.000
E30  22342301.203 8 117409564.460 8       679.781          51.000    22342303.484 8  89963167.829 8       520.895          51.000
> 2020 05 12 06 47  0.0000000  0 17        .000000000000
G12  22174596.977 7 116528282.988 7      3069.922          46.000    22174595.719 7  90801252.563 7      2392.150          47.000
G13  22362808.859 8 117517327.509 8     -3190.977          51.000    22362807.938 7  91571927.630 7     -2486.475          46.000
G15  21164014.242 8 111217639.126 8     -2247.637          51.000    21164013.008 8  86663094.107 8     -1751.405          51.000
G17  22429321.984 4 117866881.974 4      -519.336          29.000
G19  21854072.109 6 114843940.461 6      1469.344          38.000    21854072.016 6  89488770.889 6      1144.940          37.000
G28  24118451.492 5 126743295.420 5     -3107.902          32.000
R06  21786590.469 5 116257416.026 5     -4118.184          32.000
R07  20016588.203 5 107150400.885 5      -810.098          35.000    20016594.547 4  83339215.019 4      -630.070          29.000
R10  22614419.992 5 120547658.564 5      2915.297          32.000
R16  20804335.953 5 111133017.704 5     -2405.355          30.000    20804339.250 5  86436818.702 5     -1870.832          31.000
C21  25267060.344 5 131572243.242 5     -3285.383          31.000
C24  24963246.922 5 129990135.385 5      2434.031          31.000
C26  21619186.000 5 112576751.288 5       647.613          35.000
E02  24326313.617 8 127835631.199 8     -1669.949          51.000    24326315.203 8  97952037.923 8     -1279.610          51.000
E08  23098558.320 8 121383724.404 8     -2501.875          51.000    23098557.555 8  93008294.716 8     -1917.036          51.000
E27  26926320.750 8 141498777.489 8      2368.758          48.000    26926326.414 8 108421161.224 8      1815.091          49.000
E30  22338460.938 8 117389383.235 8       668.305          51.000    22338463.008 8  89947704.297 8       512.102          51.000
> 2020 05 12 06 47 30.0000000  0 15        .000000000000
G12  22157099.266 8 116436333.387 8      3058.434          49.000    22157097.617 8  90729603.551 8      2383.195          49.000
G13  22381052.703 8 117613199.865 8     -3202.078          51.000    22381052.289 7  91646633.322 7     -2495.129          46.000
G15  21176887.109 8 111285286.420 8     -2263.789          51.000    21176885.914 8  86715806.271 8     -1763.991          51.000
G19  21845740.164 6 114800153.753 6      1448.520          36.000    21845739.961 6  89454651.304 6      1128.717          36.000
G28  24136198.047 5 126836544.872 5     -3110.762          34.000
R06  21809772.422 6 116381109.432 6     -4129.383          36.000
R16  20817858.531 5 111205249.514 5     -2412.184          31.000    20817859.375 5  86492998.970 5     -1876.143          30.000
C21  25285992.797 4 131670799.043 4     -3289.445          28.000
C24  24949237.438 5 129917226.027 5      2430.453          31.000
C26  21615475.961 6 112557429.105 6       638.941          36.000
E02  24335859.391 8 127885794.277 8     -1675.809          51.000    24335861.242 8  97990474.563 8     -1284.139          51.000
E07  24160446.484 6 126964010.191 6        89.914          39.000    24160447.773 6  97284105.433 6        68.985          38.000
E08  23112864.227 8 121458904.055 8     -2511.711          51.000    23112864.281 8  93065899.894 8     -1924.570          51.000
E27  26912808.148 8 141427768.094 8      2363.602          48.000    26912812.852 8 108366751.459 8      1811.050          49.000
E30  22334667.609 8 117369449.279 8       659.082          51.000    22334669.586 8  89932430.233 8       505.029          51.000
> 2020 05 12 06 48  0.0000000  0 15        .000000000000
G12  22139663.312 8 116344707.604 8      3046.934          49.000    22139661.578 8  90658206.834 8      2374.234          49.000
G13  22399354.414 8 117709377.535 8     -3212.914          50.000    22399354.250 7  91721576.917 7     -2503.569          45.000
G15  21189848.312 8 111353397.507 8     -2279.891          51.000    21189847.234 8  86768879.845 8     -1776.538          51.000
G19  21837522.539 6 114756969.352 6      1427.434          40.000    21837523.266 6  89421001.202 6      1112.286          37.000
G28  24153956.008 5 126929853.987 5     -3113.254          34.000
R06  21833015.000 6 116505127.106 6     -4140.969          38.000
R09  20013922.977 5 106873230.388 5      1281.297          31.000    20013927.547 5  83123642.562 5       996.564          31.000
R10  22581687.359 5 120373106.318 5      2900.629          31.000
R16  20831418.008 5 111277718.000 5     -2419.652          31.000    20831421.273 4  86549352.397 4     -1881.955          29.000
C26  21611812.547 6 112538352.345 6       629.945          38.000
E02  24345433.781 8 127936107.862 8     -1681.480          51.000    24345435.695 8  98029026.535 8     -1288.365          51.000
E07  24159966.602 6 126961488.618 6        74.887          39.000    24159967.859 6  97282173.260 6        57.575          38.000
E08  23127220.734 8 121534351.205 8     -2521.027          49.000    23127221.828 8  93123710.065 8     -1931.759          51.000
E27  26899320.719 8 141356890.054 8      2358.574          48.000    26899324.125 8 108312442.333 8      1807.297          49.000
E30  22330921.961 8 117349767.334 8       650.012          51.000    22330923.969 8  89917349.270 8       498.019          51.000
> 2020 05 12 06 48 30.0000000  0 14        .000000000000
G12  22122296.578 8 116253445.379 8      3034.258          50.000    22122295.281 8  90587093.425 8      2364.357          50.000
G13  22417721.227 8 117805896.843 8     -3224.605          50.000    22417720.758 7  91796786.734 7     -2512.680          44.000
G15  21202904.609 8 111422008.433 8     -2296.965          50.000    21202903.859 8  86822342.910 8     -1789.843          50.000
G19  21829427.773 7 114714427.623 7      1405.594          43.000    21829426.320 5  89387851.694 5      1095.262          30.000
G28  24171731.328 5 127023259.169 5     -3117.195          34.000    24171726.023 5  98979175.355 5     -2428.983          33.000
R06  21856323.797 6 116629503.889 6     -4153.477          38.000
R09  20006752.789 5 106834946.719 5      1268.766          35.000    20006749.188 5  83093856.337 5       986.815          30.000
R16  20845025.117 5 111350418.891 5     -2428.184          34.000    20845025.320 4  86605894.437 4     -1888.587          27.000
C26  21608203.703 6 112519558.808 6       619.988          39.000
E02  24355043.938 8 127986609.269 8     -1688.070          51.000    24355045.742 8  98067722.410 8     -1293.459          51.000
E07  24159575.352 6 126959436.363 6        58.922          39.000    24159577.500 6  97280600.695 6        45.295          39.000
E08  23141634.664 8 121610102.680 8     -2531.727          48.000    23141637.117 8  93181753.405 8     -1939.843          51.000
E27  26885865.570 8 141286181.761 8      2352.539          48.000    26885867.867 8 108258263.273 8      1802.649          48.000
E30  22327231.617 8 117330375.129 8       640.035          51.000    22327233.375 8  89902490.304 8       490.399          51.000
> 2020 05 12 06 49  0.0000000  0 14        .000000000000
G12  22104965.320 8 116162369.313 8      3030.438          51.000    22104964.102 8  90516125.032 8      2361.380          51.000
G13  22436119.109 8 117902577.038 8     -3227.621          51.000    22436117.992 7  91872121.932 7     -2515.029          43.000
G15  21216021.461 8 111490938.474 8     -2305.238          51.000    21216021.172 8  86876054.626 8     -1796.290          51.000
G17  22442041.453 5 117933699.326 5      -591.461          34.000
G19  21821421.359 6 114672351.534 6      1392.590          41.000    21821419.266 5  89355065.238 5      1085.147          34.000
R06  21879664.711 6 116754053.871 6     -4156.727          40.000
R16  20858641.727 5 111423156.473 5     -2427.801          33.000    20858637.734 4  86662408.631 4     -1888.293          25.000
R17  23188501.430 5 124086307.339 5     -1908.762          30.000
C26  21604614.719 6 112500871.126 6       619.016          37.000
E02  24364655.539 8 128037118.425 8     -1686.027          51.000    24364657.148 8  98106424.223 8     -1291.912          51.000
E07  24159240.641 6 126957674.563 6        51.410          41.000    24159243.648 6  97279250.745 6        39.566          40.000
E08  23156071.984 8 121685977.895 8     -2533.516          48.000    23156075.555 8  93239891.578 8     -1941.292          51.000
E27  26872408.508 8 141215464.263 8      2355.121          48.000    26872410.156 8 108204077.158 8      1804.561          48.000
E30  22323562.664 8 117311093.175 8       638.570          51.000    22323563.977 8  89887715.812 8       489.324          51.000
> 2020 05 12 06 49 30.0000000  0 13        .000000000000
G12  22087718.289 8 116071735.480 8      3017.617          51.000    22087716.789 8  90445501.266 8      2351.390          51.000
G13  22454595.516 8 117999670.821 8     -3239.391          50.000    22454594.016 7  91947779.395 7     -2524.204          42.000
G15  21229247.211 8 111560440.668 8     -2322.281          51.000    21229247.297 8  86930212.182 8     -1809.570          51.000
G19  21813552.359 6 114630997.572 6      1370.289          41.000    21813549.789 5  89322841.486 5      1067.764          34.000
R06  21903085.516 6 116879031.074 6     -4168.680          39.000
R07  20041222.180 5 107282245.536 5      -946.973          30.000    20041221.766 6  83441732.490 6      -736.534          38.000
R16  20872317.570 6 111496210.259 6     -2435.898          36.000    20872319.039 4  86719227.655 4     -1894.594          27.000
C26  21601093.125 6 112482541.669 6       609.113          36.000
E02  24374316.828 8 128087889.170 8     -1692.754          51.000    24374318.258 8  98145326.462 8     -1297.006          51.000
E07  24159009.734 6 126956458.382 6        35.461          40.000    24159013.219 6  97278318.854 6        27.180          39.000
E08  23170581.633 8 121762230.186 8     -2544.035          49.000    23170585.672 8  93298318.658 8     -1949.344          51.000
E27  26858998.367 8 141144992.539 8      2349.000          49.000    26858999.562 8 108150079.375 8      1799.868          48.000
E30  22319963.062 8 117292175.753 8       628.473          51.000    22319964.258 8  89873220.648 8       481.530          51.000
> 2020 05 12 06 50  0.0000000  0 15        .000000000000
G12  22070508.922 8 115981299.086 8      3013.535          51.000    22070506.844 8  90375031.346 8      2348.209          51.000
G13  22473103.141 8 118096930.707 8     -3242.438          49.000    22473101.305 6  92023566.340 6     -2526.575          41.000
G15  21242534.820 8 111630267.126 8     -2330.793          51.000    21242534.914 8  86984622.387 8     -1816.202          51.000
G19  21805774.086 6 114590121.753 6      1356.742          39.000    21805770.375 5  89290990.229 5      1057.199          35.000
G24  20529510.945 5 107883317.990 5      1261.562          35.000
R06  21926538.992 6 117004182.097 6     -4172.359          38.000
R09  19985571.578 5 106721805.791 5      1244.824          34.000    19985573.305 4  83005889.116 4       968.209          26.000
R16  20886005.672 5 111569329.385 5     -2436.098          33.000    20886006.883 4  86776098.001 4     -1894.746          26.000
R17  23210184.500 5 124202316.217 5     -1950.715          31.000
C26  21597594.250 6 112464326.764 6       607.773          36.000
E02  24383980.836 8 128138674.651 8     -1690.941          51.000    24383982.328 8  98184239.999 8     -1295.650          51.000
E07  24158835.078 6 126955542.217 6        27.949          37.000    24158838.609 6  97277616.873 6        21.122          39.000
E08  23185116.719 8 121838612.201 8     -2546.090          50.000    23185120.531 8  93356845.116 8     -1950.867          51.000
E27  26845588.164 8 141074520.889 8      2351.309          49.000    26845589.055 8 108096081.619 8      1801.628          48.000
E30  22316385.773 8 117273376.526 8       626.805          51.000    22316386.961 8  89858816.051 8       480.291          51.000
> 2020 05 12 06 50 30.0000000  0 15        .000000000000
G12  22053361.703 8 115891189.035 8      2996.742          51.000    22053359.906 8  90304815.732 8      2335.124          51.000
G13  22491665.547 7 118194481.842 7     -3257.980          47.000    22491664.312 7  92099580.223 7     -2538.686          42.000
G15  21255908.180 8 111700543.057 8     -2351.445          51.000    21255907.938 8  87039382.796 8     -1832.295          51.000
G19  21798111.359 6 114549853.317 6      1330.664          36.000    21798106.461 5  89259612.229 5      1036.881          33.000
G24  20522360.977 6 107845770.769 6      1245.738          36.000    20522356.336 5  84035632.554 5       970.702          32.000
R06  21950048.344 6 117129631.598 6     -4187.965          36.000
R09  19978631.617 5 106684759.818 5      1227.918          30.000
R16  20899729.594 5 111642641.703 5     -2448.449          35.000    20899729.766 4  86833137.696 4     -1904.349          28.000
C24  24865522.609 5 129481287.620 5      2410.688          33.000
C26  21594140.477 5 112446352.398 5       594.332          31.000
E02  24393671.688 8 128189601.133 8     -1701.305          51.000    24393673.289 8  98223261.576 8     -1303.576          51.000
E07  24158742.094 6 126955053.576 6         7.633          37.000    24158744.789 6  97277242.432 6         5.926          39.000
E08  23199701.086 8 121915249.675 8     -2560.270          51.000    23199703.875 8  93415567.315 8     -1961.765          51.000
E27  26832201.961 8 141004176.633 8      2341.254          48.000    26832202.500 7 108042181.478 7      1793.891          47.000
E30  22312855.164 8 117254822.240 8       612.977          51.000    22312856.078 8  89844599.129 8       469.674          51.000
> 2020 05 12 06 51  0.0000000  0 15        .000000000000
G12  22036280.492 8 115801425.677 8      2988.070          51.000    22036278.930 8  90234870.261 8      2328.366          51.000
G13  22510286.922 7 118292341.128 7     -3265.430          47.000    22510285.875 6  92175834.168 6     -2544.491          40.000
G15  21269370.406 8 111771285.556 8     -2364.262          51.000    21269369.656 8  87094506.756 8     -1842.285          51.000
G24  20515287.531 5 107808562.737 5      1236.457          30.000
G28  24260629.828 5 127490470.950 5     -3117.098          31.000
R06  21973616.547 5 117255394.117 5     -4195.770          33.000
R07  20057800.125 6 107370971.261 6     -1026.633          38.000    20057804.281 6  83510764.114 6      -798.492          41.000
R16  20913493.008 5 111716165.305 5     -2453.020          35.000    20913496.086 4  86890322.669 4     -1907.907          29.000
C24  24851641.539 5 129408977.332 5      2409.906          34.000
C26  21590737.586 5 112428637.423 5       587.867          31.000
E02  24403392.984 8 128240686.752 8     -1703.922          51.000    24403394.328 8  98262405.090 8     -1305.623          51.000
E07  24158734.195 6 126955011.703 6        -4.590          38.000    24158736.133 6  97277210.342 6        -3.298          40.000
E08  23214337.758 8 121992160.183 8     -2566.699          51.000    23214339.102 8  93474498.707 8     -1966.611          51.000
E27  26818843.719 8 140933979.017 8      2339.070          49.000    26818843.750 7 107988393.711 7      1792.227          47.000
E30  22309374.656 8 117236531.522 8       606.883          51.000    22309375.578 8  89830584.151 8       465.023          51.000
> 2020 05 12 06 51 30.0000000  0 15        .000000000000
G12  22019276.336 8 115712067.545 8      2967.250          51.000    22019275.047 8  90165240.586 8      2312.143          51.000
G13  22528977.961 8 118390563.930 8     -3284.762          48.000    22528977.094 7  92252371.336 7     -2559.555          42.000
G15  21282931.820 8 111842549.765 8     -2388.742          51.000    21282930.820 8  87150037.258 8     -1861.361          51.000
G19  21783154.117 6 114471234.255 6      1282.203          37.000    21783151.750 5  89198370.825 5       999.125          35.000
R06  21997253.305 5 117381524.358 5     -4215.254          31.000
R07  20063654.688 6 107402291.369 6     -1063.633          41.000    20063655.000 7  83535124.152 7      -827.273          42.000
R09  19964974.719 5 106611868.983 5      1196.414          31.000    19964976.266 4  82920331.915 4       930.544          25.000
R16  20927305.984 5 111789911.738 5     -2468.797          30.000    20927311.305 4  86947715.856 4     -1920.175          26.000
C24  24837795.484 5 129336851.464 5      2396.422          30.000
C26  21587398.133 6 112411238.472 6       570.141          37.000
E02  24413155.336 8 128291987.588 8     -1718.219          51.000    24413156.148 8  98301713.503 8     -1316.476          51.000
E07  24158822.156 6 126955473.894 6       -28.473          38.000    24158823.531 6  97277564.516 6       -21.682          40.000
E08  23229037.016 8 122069399.231 8     -2584.648          51.000    23229036.922 8  93533681.842 8     -1980.448          51.000
E27  26805524.484 8 140863985.229 8      2325.121          50.000    26805523.883 7 107934762.107 7      1781.604          46.000
E30  22305954.875 8 117218560.868 8       589.051          51.000    22305956.516 8  89816814.434 8       451.431          51.000
> 2020 05 12 06 52  0.0000000  0 17        .000000000000
G12  22002320.414 8 115622964.388 8      2966.664          50.000    22002318.953 8  90095809.566 8      2311.686          50.000
G13  22547709.242 8 118488996.566 8     -3283.750          49.000    22547709.242 7  92329072.012 7     -2558.769          44.000
G15  21296563.156 8 111914182.226 8     -2393.031          51.000    21296562.281 8  87205854.746 8     -1864.700          51.000
G17  22464249.328 5 118050426.111 5      -702.543          32.000
G19  21775845.242 6 114432818.258 6      1272.336          39.000    21775843.281 6  89168436.251 6       991.434          36.000
G28  24296238.125 4 127677593.056 4     -3118.855          29.000
R07  20069643.617 6 107434355.360 6     -1080.535          40.000    20069644.375 6  83560062.725 6      -840.416          41.000
R09  19958244.727 5 106575922.228 5      1195.996          30.000    19958238.547 4  82892363.347 4       930.216          26.000
R16  20941139.953 5 111863815.694 5     -2464.746          33.000
C21  25457006.133 5 132561351.388 5     -3304.969          32.000
C24  24823951.953 5 129264760.150 5      2403.684          33.000
C26  21584089.938 6 112394005.347 6       572.711          37.000
E02  24422929.688 8 128343351.221 8     -1712.305          51.000    24422930.109 8  98341070.053 8     -1312.053          51.000
E07  24158977.508 6 126956288.984 6       -32.246          40.000    24158978.328 6  97278189.079 6       -24.732          40.000
E08  23243769.406 8 122146813.904 8     -2582.551          51.000    23243768.055 8  93592999.539 8     -1978.817          50.000
E27  26792215.297 8 140794043.904 8      2331.289          49.000    26792214.156 7 107881170.698 7      1786.297          46.000
E30  22302567.125 8 117200758.373 8       591.391          51.000    22302569.500 8  89803173.569 8       453.179          51.000
> 2020 05 12 06 52 30.0000000  0 16        .000000000000
G12  21985403.969 8 115534069.202 8      2955.375          49.000    21985402.969 8  90026540.606 8      2302.890          49.000
G13  22566471.266 8 118587589.045 8     -3293.363          50.000    22566471.664 7  92405897.280 7     -2566.257          46.000
G15  21310254.781 8 111986132.601 8     -2407.922          51.000    21310254.188 8  87261919.968 8     -1876.303          51.000
G17  22468303.531 6 118071747.843 6      -721.184          36.000    22468302.484 5  92003928.263 5      -561.967          34.000
G19  21768627.969 6 114394893.067 6      1251.543          40.000    21768623.562 5  89138884.211 5       975.228          32.000
R06  22044641.336 5 117634408.315 5     -4223.879          31.000
R07  20075763.148 6 107467111.894 6     -1107.742          41.000    20075762.641 6  83585540.040 6      -861.577          41.000
R10  22436016.141 5 119596589.009 5      2849.746          35.000
C21  25476036.938 5 132660475.310 5     -3307.160          35.000
C24  24810104.492 5 129192656.024 5      2400.090          31.000
C26  21580804.367 5 112376890.141 5       564.020          35.000
E02  24432706.617 8 128394728.463 8     -1717.047          51.000    24432706.875 8  98380437.021 8     -1315.737          51.000
E07  24159191.273 6 126957408.925 6       -46.781          40.000    24159191.250 6  97279047.186 6       -35.663          40.000
E08  23258525.094 8 122224354.367 8     -2591.066          51.000    23258523.141 8  93652413.641 8     -1985.431          50.000
E27  26778906.984 8 140724106.931 8      2326.895          50.000    26778905.883 7 107827582.657 7      1782.837          46.000
E30  22299202.078 8 117183075.284 8       583.152          51.000    22299204.781 8  89789624.183 8       446.840          51.000
> 2020 05 12 06 53  0.0000000  0 14        .000000000000
G12  21968588.000 8 115445699.769 8      2942.848          51.000    21968587.320 8  89957681.299 8      2293.128          51.000
G13  22585323.711 8 118686655.470 8     -3304.203          51.000    22585324.281 7  92483091.871 7     -2574.704          47.000
G15  21324066.438 8 112058715.333 8     -2424.023          50.000    21324066.203 8  87318477.939 8     -1888.849          50.000
G19  21761565.438 6 114357776.526 6      1229.359          37.000    21761562.031 5  89109962.232 5       957.939          32.000
R06  22068435.766 5 117761375.842 5     -4233.953          31.000
R07  20082072.438 7 107500882.538 7     -1136.664          42.000    20082071.391 7  83611806.064 7      -884.075          43.000
R10  22420014.508 5 119511322.294 5      2842.008          35.000
C21  25495119.320 5 132759850.477 5     -3311.406          35.000
C26  21577600.117 6 112360206.022 6       554.793          36.000
E02  24442546.047 8 128446434.649 8     -1722.977          51.000    24442546.406 8  98420056.038 8     -1320.182          51.000
E07  24159523.164 6 126959150.192 6       -62.426          41.000    24159521.547 6  97280381.423 6       -47.997          38.000
E08  23273363.883 8 122302335.419 8     -2600.703          51.000    23273362.219 8  93712165.326 8     -1992.696          50.000
E27  26765659.750 8 140654490.751 8      2321.176          50.000    26765659.039 7 107774240.390 7      1778.599          47.000
E30  22295919.719 8 117165827.421 8       573.594          51.000    22295922.211 8  89776408.276 8       439.546          51.000
> 2020 05 12 06 53 30.0000000  0 18        .000000000000
G12  21951812.156 8 115357541.230 8      2932.812          49.000    21951811.938 8  89888986.344 8      2285.308          50.000
G13  22604206.070 8 118785877.806 8     -3312.270          51.000    22604206.453 8  92560407.977 8     -2580.989          48.000
G15  21337937.734 8 112131612.318 8     -2437.297          49.000    21337937.898 8  87375280.790 8     -1899.192          49.000
G17  22476779.367 6 118116305.276 6      -758.895          37.000    22476777.500 5  92038647.279 5      -591.356          33.000
G19  21754595.828 5 114321154.266 5      1210.148          35.000    21754593.945 5  89081425.488 5       942.979          32.000
G28  24349706.977 4 127958573.236 4     -3124.125          29.000
R06  22092268.992 4 117888574.936 4     -4241.543          29.000
R07  20088509.883 7 107535343.283 7     -1162.344          42.000    20088509.508 7  83638608.841 7      -904.048          42.000
R09  19938390.820 5 106469893.683 5      1160.562          31.000
R16  20982833.625 5 112086564.648 5     -2483.609          33.000
C21  25514190.391 5 132859161.347 5     -3311.613          33.000
C26  21574420.398 6 112343640.179 6       548.070          40.000
C29  24142369.258 6 125715656.044 6       366.793          37.000
E02  24452387.602 8 128498152.863 8     -1726.305          50.000    24452388.281 8  98459684.290 8     -1322.768          51.000
E07  24159912.859 7 126961196.943 7       -75.543          42.000    24159909.992 6  97281949.708 6       -57.785          39.000
E08  23288226.055 8 122380439.505 8     -2607.715          51.000    23288225.000 8  93772011.314 8     -1998.194          50.000
E27  26752413.227 8 140584879.480 8      2318.043          49.000    26752413.203 7 107720901.895 7      1776.193          47.000
E30  22292660.102 8 117148698.246 8       566.750          51.000    22292662.227 8  89763283.331 8       434.245          51.000
> 2020 05 12 06 54  0.0000000  0 15        .000000000000
G12  21935103.430 8 115269737.593 8      2921.297          49.000    21935103.531 8  89820567.963 8      2276.335          49.000
G13  22623144.797 8 118885397.029 8     -3321.844          51.000    22623144.797 8  92637955.420 8     -2588.450          48.000
G15  21351895.680 8 112204964.250 8     -2452.078          48.000    21351896.305 8  87432438.162 8     -1910.707          48.000
G19  21747748.797 6 114285171.113 6      1189.254          37.000    21747744.977 5  89053386.606 5       926.685          35.000
G24  20474096.617 5 107592109.458 5      1169.277          35.000    20474100.906 5  83838011.579 5       911.131          34.000
R07  20095101.297 6 107570637.953 6     -1189.934          37.000    20095102.344 6  83666060.292 6      -925.504          41.000
R16  20996809.898 5 112161188.561 5     -2489.797          30.000
C21  25533275.773 5 132958546.850 5     -3313.641          32.000
C26  21571290.258 6 112327333.822 6       539.684          41.000
C29  24140316.219 5 125704929.205 5       348.180          32.000
E02  24462258.367 8 128550024.843 8     -1731.203          50.000    24462259.305 8  98499430.361 8     -1326.461          50.000
E07  24160388.164 7 126963692.023 7       -90.207          43.000    24160385.172 6  97283861.555 6       -69.266          39.000
E08  23303139.094 8 122458807.838 8     -2616.234          51.000    23303138.375 8  93832059.748 8     -2004.650          51.000
E27  26739194.703 8 140515415.924 8      2313.395          49.000    26739195.070 7 107667676.601 7      1772.595          47.000
E30  22289450.422 8 117131829.995 8       558.293          51.000    22289452.422 8  89750358.318 8       427.804          51.000
> 2020 05 12 06 54 30.0000000  0 16        .000000000000
G12  21918456.500 8 115182257.451 8      2912.090          49.000    21918455.516 8  89752401.635 8      2269.161          49.000
G13  22642133.070 8 118985178.262 8     -3328.824          51.000    22642132.820 7  92715707.020 7     -2593.889          47.000
G15  21365933.828 8 112278736.237 8     -2464.531          49.000    21365934.883 8  87489922.845 8     -1920.414          49.000
G17  22485658.398 6 118162915.406 6      -794.758          38.000    22485660.375 6  92074995.177 6      -619.292          38.000
G19  21741018.000 5 114249795.459 5      1170.648          34.000    21741014.258 5  89025821.191 5       912.203          33.000
G24  20467450.211 6 107557182.986 6      1160.191          38.000    20467458.242 6  83810796.272 6       904.051          37.000
R07  20101839.258 6 107606731.661 6     -1214.820          38.000    20101844.227 6  83694133.145 6      -944.860          40.000
R16  21010802.539 5 112235969.546 5     -2494.043          34.000
C21  25552369.688 5 133057972.279 5     -3313.703          30.000
C26  21568202.375 6 112311254.434 6       534.156          38.000
C29  24138332.797 5 125694622.787 5       334.016          30.000
E02  24472152.055 8 128602016.871 8     -1733.664          49.000    24472153.031 8  98539268.422 8     -1328.374          50.000
E07  24160942.133 6 126966602.825 6      -102.559          41.000    24160939.281 6  97286091.938 6       -78.599          38.000
E08  23318096.352 8 122537406.093 8     -2622.305          51.000    23318095.516 8  93892284.351 8     -2009.307          50.000
E27  26725998.016 8 140446067.487 8      2311.195          49.000    26725998.312 7 107614539.486 7      1770.898          47.000
E30  22286284.039 8 117115189.374 8       552.375          51.000    22286286.023 8  89737607.729 8       423.248          51.000
> 2020 05 12 06 55  0.0000000  0 19        .000000000000
G12  21901864.414 8 115095064.293 8      2899.367          51.000    21901862.398 8  89684458.947 8      2259.247          51.000
G13  22661162.891 8 119085181.710 8     -3339.316          48.000    22661162.883 7  92793631.737 7     -2602.068          45.000
G15  21380044.586 8 112352888.506 8     -2480.266          50.000    21380045.695 8  87547703.825 8     -1932.675          50.000
G17  22490248.352 5 118187028.082 5      -814.145          35.000    22490250.641 5  92093784.257 5      -634.398          34.000
G19  21734395.352 6 114214991.382 6      1148.398          38.000    21734391.133 6  88998701.120 6       894.856          36.000
G24  20460860.727 5 107522543.763 5      1147.480          35.000    20460868.203 5  83783804.743 5       894.144          34.000
R06  22164022.172 5 118271444.157 5     -4267.840          30.000
R07  20108719.516 5 107643584.032 5     -1243.652          34.000    20108727.102 6  83722796.111 6      -967.291          38.000
R09  19919119.484 4 106366981.954 4      1126.297          28.000    19919117.805 5  82729870.021 5       876.006          30.000
R16  21024823.375 4 112310880.138 4     -2502.617          28.000
C21  25571464.273 5 133157397.632 5     -3315.902          30.000
C24  24741258.273 5 128834237.922 5      2381.145          30.000
C26  21565149.352 6 112295364.455 6       524.191          39.000
C29  24136467.188 5 125684855.399 5       315.961          33.000
E02  24482061.359 8 128654090.198 8     -1739.320          49.000    24482062.094 8  98579168.767 8     -1332.705          49.000
E07  24161567.258 6 126969891.700 6      -118.051          39.000    24161565.438 6  97288611.996 6       -90.592          38.000
E08  23333089.922 8 122616194.878 8     -2631.676          51.000    23333088.867 8  93952654.934 8     -2016.473          50.000
E27  26712816.023 8 140376796.369 8      2305.504          49.000    26712816.328 7 107561461.630 7      1766.585          46.000
E30  22283153.367 8 117098738.041 8       543.027          51.000    22283155.180 8  89725002.163 8       416.098          51.000
> 2020 05 12 06 55 30.0000000  0 13        .000000000000
G12  21885348.867 8 115008274.242 8      2886.840          49.000    21885346.891 8  89616830.354 8      2249.486          49.000
G13  22680255.242 6 119185520.229 6     -3349.715          41.000    22680256.398 6  92871817.563 6     -2610.167          41.000
G15  21394249.445 8 112427533.965 8     -2495.750          51.000    21394250.406 8  87605869.108 8     -1944.740          51.000
G17  22494954.219 5 118211760.943 5      -834.570          34.000    22494952.430 5  92113056.554 5      -650.321          33.000
G19  21727903.266 6 114180874.881 6      1126.371          37.000    21727900.211 5  88972116.877 5       877.695          35.000
R06  22188042.023 4 118399642.161 4     -4278.094          29.000
C21  25590580.609 4 133256934.385 4     -3319.684          29.000
C26  21562155.859 7 112279777.850 7       515.246          42.000
E02  24492007.859 8 128706358.882 8     -1744.906          49.000    24492008.336 8  98619218.796 8     -1336.934          49.000
E07  24162286.359 6 126973673.701 6      -133.629          41.000    24162286.117 6  97291509.903 6      -102.400          37.000
E08  23348141.086 8 122695287.580 8     -2640.797          51.000    23348140.016 8  94013258.399 8     -2023.486          50.000
E27  26699670.789 8 140307717.640 8      2300.035          49.000    26699671.086 7 107508531.189 7      1762.421          46.000
E30  22280080.406 8 117082590.479 8       533.898          51.000    22280081.898 8  89712629.354 8       409.067          50.000
> 2020 05 12 06 56  0.0000000  0 12        .000000000000
G12  21868886.641 7 114921769.266 7      2876.457          44.000    21868885.750 7  89549423.845 7      2241.392          44.000
G13  22699385.789 5 119286072.340 5     -3357.523          35.000    22699390.016 5  92950169.936 5     -2616.249          35.000
G15  21408525.086 8 112502551.120 8     -2509.047          51.000    21408526.047 8  87664324.015 8     -1955.101          51.000
G19  21721519.609 6 114147328.844 6      1106.484          36.000    21721516.375 5  88945977.080 5       862.208          31.000
R07  20122952.328 6 107719742.303 6     -1297.312          38.000    20122959.234 6  83782044.339 6     -1009.021          38.000
C26  21559198.523 7 112264376.214 7       507.910          42.000
C29  24133018.234 5 125666976.627 5       280.988          35.000
E02  24501968.617 8 128758702.589 8     -1748.387          48.000    24501969.008 8  98659326.302 8     -1339.649          49.000
E07  24163077.250 7 126977829.546 7      -146.914          42.000    24163077.344 6  97294694.301 6      -112.933          36.000
E08  23363226.633 8 122774563.257 8     -2647.840          51.000    23363226.109 8  94074002.058 8     -2028.843          51.000
E27  26686539.586 8 140238712.063 8      2296.598          49.000    26686540.156 7 107455656.808 7      1759.761          47.000
E30  22277042.422 8 117066626.759 8       526.852          51.000    22277043.992 8  89700397.411 8       403.632          51.000
> 2020 05 12 06 56 30.0000000  0 14        .000000000000
G12  21852506.664 7 114835693.440 7      2864.922          46.000    21852505.805 7  89482351.727 7      2232.407          46.000
G13  22718587.125 7 119386979.147 7     -3366.781          42.000    22718591.617 7  93028798.624 7     -2623.466          42.000
G15  21422898.102 8 112578080.562 8     -2523.211          51.000    21422899.180 8  87723178.101 8     -1966.138          51.000
G19  21715270.875 5 114114497.176 5      1085.461          31.000    21715287.234 5  88920468.730 5       845.805          30.000
R06  22236213.969 5 118656669.087 5     -4291.812          30.000
R07  20130309.297 6 107759113.564 6     -1324.238          39.000    20130314.328 6  83812666.392 6     -1029.963          38.000
R09  19900437.555 5 106267240.644 5      1091.723          32.000
C26  21556303.117 6 112249301.045 6       499.785          41.000
C29  24131439.211 5 125658842.756 5       263.949          34.000
E02  24511970.641 8 128811263.187 8     -1752.621          48.000    24511971.008 8  98699599.995 8     -1342.914          48.000
E07  24163966.898 7 126982502.225 7      -161.340          42.000    24163965.578 5  97298274.636 5      -123.570          35.000
E08  23378373.414 8 122854163.124 8     -2655.727          51.000    23378374.031 8  94134994.147 8     -2034.964          51.000
E27  26673449.352 8 140169922.481 8      2292.289          49.000    26673451.062 7 107402947.931 7      1756.450          47.000
E30  22274066.344 8 117050989.206 8       518.781          50.000    22274068.500 8  89688415.395 8       397.472          51.000
> 2020 05 12 06 57  0.0000000  0 16        .000000000000
G12  21836178.000 8 114749883.555 8      2856.668          50.000    21836177.023 8  89415486.927 8      2225.975          50.000
G13  22737825.648 7 119488073.789 7     -3372.152          46.000    22737829.367 6  93107573.612 6     -2627.651          39.000
G15  21437336.953 8 112653955.692 8     -2534.055          51.000    21437337.609 8  87782301.573 8     -1974.588          51.000
G17  22509695.211 5 118289259.496 5      -885.488          35.000
G19  21709127.961 6 114082217.081 6      1067.492          37.000
G24  20435174.250 5 107387576.634 5      1105.688          33.000    20435182.906 5  83678641.996 5       861.581          33.000
R06  22260359.859 5 118785544.801 5     -4298.520          31.000
R07  20137802.836 7 107799209.738 7     -1347.836          43.000    20137805.234 6  83843852.236 6     -1048.317          38.000
R17  23376141.406 5 125090451.996 5     -2268.195          30.000
C26  21553438.031 6 112234389.205 6       495.410          40.000
C29  24129955.016 4 125651146.547 4       249.973          28.000
E02  24521982.336 8 128863875.311 8     -1753.852          48.000    24521982.781 7  98739913.191 7     -1343.902          47.000
E07  24164923.383 6 126987527.327 6      -172.512          41.000    24164921.461 6  97302125.043 6      -132.499          36.000
E08  23393549.938 8 122933921.225 8     -2660.621          49.000    23393551.961 8  94196107.473 8     -2038.616          51.000
E27  26660368.938 8 140101184.554 8      2291.176          49.000    26660371.734 7 107350278.626 7      1755.600          47.000
E30  22271120.828 8 117035512.818 8       513.941          50.000    22271123.578 8  89676556.882 8       393.805          51.000
> 2020 05 12 06 57 30.0000000  0 16        .000000000000
G12  21819897.008 8 114664323.416 8      2837.355          50.000    21819895.984 8  89348816.703 8      2210.926          50.000
G13  22757096.219 7 119589336.873 7     -3388.566          47.000    22757098.570 6  93186479.833 6     -2640.441          37.000
G15  21451837.898 8 112730156.893 8     -2555.895          51.000    21451837.953 8  87841679.130 8     -1991.609          51.000
G19  21703087.055 4 114050472.218 4      1039.219          29.000
G24  20428890.922 5 107354576.251 5      1086.168          34.000    20428900.953 5  83652935.238 5       846.365          34.000
R06  22284536.867 5 118914562.562 5     -4313.867          31.000
R07  20145427.516 7 107840010.606 7     -1382.434          44.000    20145427.984 6  83875586.265 6     -1075.226          38.000
R10  22277454.867 5 118751386.981 5      2779.152          33.000
R16  21095472.242 5 112688224.719 5     -2535.555          32.000
C26  21550602.695 7 112219623.493 7       479.535          42.000
C29  24128568.469 4 125643785.082 4       225.035          28.000
E02  24532000.445 7 128916520.506 7     -1765.789          47.000    24532000.922 7  98780251.705 7     -1353.034          47.000
E07  24165943.195 6 126992887.340 6      -194.570          41.000    24165942.289 6  97306232.076 6      -149.520          38.000
E08  23408752.875 8 123013818.371 8     -2676.047          48.000    23408756.320 8  94257327.370 8     -2050.457          51.000
E27  26647294.992 8 140032480.872 8      2279.090          49.000    26647298.305 7 107297635.547 7      1746.363          47.000
E30  22268202.773 8 117020179.572 8       498.316          50.000    22268205.594 8  89664808.019 8       381.860          51.000
> 2020 05 12 06 58  0.0000000  0 13        .000000000000
G12  21803706.742 8 114579241.646 8      2833.355          49.000    21803705.953 8  89282519.214 8      2207.809          49.000
G13  22776441.547 7 119690993.897 7     -3389.906          47.000    22776442.383 6  93265693.013 6     -2641.488          38.000
G15  21466443.641 8 112806909.686 8     -2562.379          51.000    21466443.211 8  87901486.473 8     -1996.662          51.000
G17  22520026.969 5 118343530.813 5      -922.574          35.000
G19  21697192.281 6 114019505.884 6      1025.137          39.000
G24  20422703.398 5 107322038.659 5      1082.105          32.000    20422704.945 5  83627581.300 5       843.199          33.000
R07  20153225.258 7 107881746.325 7     -1401.340          43.000    20153225.086 6  83908047.347 6     -1089.934          39.000
C26  21547838.953 7 112205229.308 7       478.758          42.000
E02  24542067.992 7 128969425.419 7     -1762.609          46.000    24542068.570 7  98820789.222 7     -1350.577          46.000
E07  24167069.414 6 126998809.901 6      -201.504          40.000    24167071.258 6  97310770.120 6      -154.297          40.000
E08  23424025.672 8 123094080.539 8     -2676.273          48.000    23424030.070 8  94318826.979 8     -2050.621          51.000
E27  26634270.602 7 139964039.051 7      2282.297          47.000    26634274.164 7 107245193.123 7      1748.725          47.000
E30  22265355.594 8 117005216.477 8       497.828          51.000    22265358.016 8  89653342.784 8       381.456          51.000
> 2020 05 12 06 58 30.0000000  0 14        .000000000000
G12  21787555.836 8 114494368.733 8      2820.723          49.000    21787554.938 8  89216384.450 8      2197.966          49.000
G13  22795809.984 8 119792772.051 8     -3399.469          49.000    22795809.625 6  93345000.624 6     -2648.937          38.000
G15  21481102.156 8 112883941.139 8     -2577.176          51.000    21481101.398 8  87961510.930 8     -2008.192          51.000
G17  22525336.250 6 118371462.261 6      -941.480          36.000    22525333.453 6  92237491.995 6      -733.624          36.000
G19  21691392.031 5 113989020.685 5      1002.961          35.000
R06  22333057.656 5 119173446.084 5     -4322.520          30.000
R07  20161144.719 7 107924138.884 7     -1429.008          43.000    20161144.375 6  83941019.313 6     -1111.454          39.000
C26  21545093.969 6 112190938.269 6       469.750          39.000
C29  24126114.555 6 125631019.367 6       197.031          36.000
E02  24552133.195 7 129022318.326 7     -1767.844          44.000    24552133.758 7  98861317.541 7     -1354.582          46.000
E07  24168250.820 6 127005024.288 6      -216.723          39.000    24168255.609 6  97315531.797 6      -166.150          41.000
E08  23439316.711 8 123174435.394 8     -2684.867          48.000    23439321.188 8  94380397.596 8     -2057.278          51.000
E27  26621244.273 7 139895588.378 7      2276.918          46.000    26621248.289 7 107192743.900 7      1744.717          47.000
E30  22262527.539 8 116990352.203 8       488.961          51.000    22262529.352 8  89641953.282 8       374.664          51.000
> 2020 05 12 06 59  0.0000000  0 12        .000000000000
G12  21771482.781 8 114409904.958 8      2809.664          51.000    21771481.039 8  89150568.568 8      2189.352          50.000
G13  22815239.031 8 119894868.292 8     -3407.430          51.000    22815238.531 6  93424556.064 6     -2655.143          40.000
G15  21495851.203 8 112961448.283 8     -2590.418          51.000    21495850.391 8  88021906.078 8     -2018.508          51.000
G19  21685720.844 6 113959235.816 6       982.059          36.000
R07  20169223.039 6 107967389.252 6     -1454.812          41.000    20169223.398 6  83974658.460 6     -1131.524          38.000
C26  21542405.555 6 112176947.651 6       462.180          37.000
C29  24125024.070 5 125625345.228 5       180.297          33.000
E02  24562233.859 7 129075397.561 7     -1771.219          42.000    24562234.578 7  98901988.659 7     -1357.344          46.000
E07  24169526.227 6 127011729.734 6      -230.523          40.000    24169532.570 6  97320669.778 6      -176.761          41.000
E08  23454663.469 8 123255080.572 8     -2691.984          50.000    23454667.453 8  94442190.651 8     -2062.683          51.000
E27  26608254.508 7 139827328.223 7      2273.254          45.000    26608259.172 7 107140440.653 7      1741.847          47.000
E30  22259756.023 8 116975785.471 8       481.691          51.000    22259757.398 8  89630791.772 8       369.067          51.000
> 2020 05 12 06 59 30.0000000  0 13        .000000000000
G12  21755481.508 8 114325817.981 8      2792.355          51.000    21755479.516 8  89085046.290 8      2175.864          50.000
G13  22834721.875 8 119997247.162 8     -3421.504          51.000    22834721.156 7  93504331.761 7     -2666.107          42.000
G15  21510683.781 8 113039395.349 8     -2609.797          51.000    21510683.273 8  88082644.035 8     -2033.608          51.000
G19  21680177.719 6 113930109.394 6       955.418          39.000    21680180.688 5  88776720.708 5       744.478          30.000
R07  20177455.570 7 108011461.256 7     -1487.066          44.000    20177455.305 6  84008936.679 6     -1156.607          38.000
C24  24618609.234 5 128195547.717 5      2343.934          31.000
C26  21539769.812 6 112163223.995 6       448.773          39.000
C29  24124040.828 4 125620214.615 4       157.066          29.000
E02  24572363.492 6 129128628.545 6     -1781.203          41.000    24572364.422 7  98942776.017 7     -1364.830          45.000
E07  24170889.484 6 127018892.573 6      -250.809          40.000    24170896.328 7  97326158.209 7      -192.172          42.000
E08  23470058.938 8 123335980.701 8     -2705.219          50.000    23470062.023 8  94504179.059 8     -2072.845          51.000
E27  26595294.930 7 139759224.832 7      2263.082          43.000    26595299.898 7 107088257.552 7      1734.050          46.000
E30  22257034.305 8 116961482.024 8       468.094          51.000    22257035.562 8  89619831.995 8       358.618          51.000
