     3.02           OBSERVATION DATA    M (MIXED)           RINEX VERSION / TYPE
SAVERINEX           SC600               20200519 055931 LCL PGM / RUN BY / DATE
       G = GPS       R = GLONASS       C = COMPASS          COMMENT
       S = SBAS      J = QZSS          E = GALILEO          COMMENT
BEAN                                                        MARKER NAME
1                                                           MARKER NUMBER
GEODETIC                                                    MARKER TYPE
Unige DICCA         GTER                                    OBSERVER / AGENCY
SC60291900056       SC600               2.12(191202)        REC # / TYPE / VERS
                    HEMA45          NONE                    ANT # / TYPE
  4509407.8091   693652.4678  4442337.6214                  APPROX POSITION XYZ
        0.0000        0.0000        0.0000                  ANTENNA: DELTA H/E/N
G    8 C1C L1C D1C S1C C2Y L2Y D2Y S2Y                      SYS / # / OBS TYPES
R    8 C1C L1C D1C S1C C2P L2P D2P S2P                      SYS / # / OBS TYPES
C    8 C1I L1I D1I S1I C7I L7I D7I S7I                      SYS / # / OBS TYPES
E    8 C1C L1C D1C S1C C7Q L7Q D7Q S7Q                      SYS / # / OBS TYPES
DBHZ                                                        COMMENT
     30.000                                                 INTERVAL
  2020    05    19    03    00    0.0000000     GPS         TIME OF FIRST OBS
  2020    05    19    03    59   30.0000000     GPS         TIME OF LAST OBS
     0                                                      RCV CLOCK OFFS APPL
G L1C  0.00000                                              SYS / PHASE SHIFT
G L2Y  0.00000                                              SYS / PHASE SHIFT
R L1C  0.00000                                              SYS / PHASE SHIFT
R L2P  0.25000                                              SYS / PHASE SHIFT
C L1I  0.00000                                              SYS / PHASE SHIFT
C L7I  0.00000                                              SYS / PHASE SHIFT
E L1C  0.50000                                              SYS / PHASE SHIFT
E L7Q -0.25000                                              SYS / PHASE SHIFT
 12 R01  1 R02 -4 R03  5 R04  6 R10 -5 R12 -1 R13 -2 R14 -7 GLONASS SLOT / FRQ #
    R15  0 R17  4 R18 -3 R23  3                             GLONASS SLOT / FRQ #
 C1C   71.950 C2C   71.950 C2P   71.950                     GLONASS COD/PHS/BIS
    18                                                      LEAP SECONDS
*** Above antenna height is from mark to ANTENNA BOTTOM.    COMMENT
    17     4        0.0000        ANT MEASURE TYPE/HEIGT    COMMENT
    0.0000    0.0000    0.0458    0.0405    0.0000          COMMENT
                    BASE STATION                            COMMENT
                                                            END OF HEADER
> 2020 05 19 03 00  0.0000000  0 13        .000000000000
G05  20789252.375 8 109248245.335 8     -1251.859          51.000    20789250.945 8  85128512.204 8      -975.475          51.000
G07  22751905.164 6 119562028.365 6     -2544.750          36.000    22751880.445 5  93165148.682 5     -1982.916          34.000
G28  21536328.961 8 113174154.340 8      1993.824          49.000    21536328.008 7  88187671.783 7      1553.626          45.000
G30  20703654.047 8 108798434.380 8     -1262.250          51.000    20703655.031 8  84778064.289 8      -983.571          51.000
R03  21519267.570 7 115194383.065 7     -3272.281          45.000    21519266.609 7  89595590.199 7     -2545.108          46.000
R04  19187553.508 8 102748444.061 8        47.906          49.000    19187554.320 8  79915475.948 8        37.260          48.000
R14  19151830.953 8 102090055.748 8       -83.523          51.000    19151834.930 8  79403444.179 8       -64.963          49.000
R15  21220771.562 8 113397400.443 8      3519.848          51.000    21220773.086 7  88197959.565 7      2737.659          46.000
C05  39814216.359 6 207323072.234 6         7.125          36.000    39814213.938 6 160315336.704 6         5.440          40.000
C22  22235934.391 8 115788341.735 8     -1440.270          51.000
E05  24174659.953 8 127038686.170 8     -1370.512          51.000    24174663.719 8  97341325.112 8     -1050.180          51.000
E24                                                                  22709929.852 7  91443455.753 7      -859.645          42.000
E25  24206384.062 8 127205466.218 8      1809.379          51.000    24206389.055 8  97469104.853 8      1386.395          51.000
> 2020 05 19 03 00 30.0000000  0 12        .000000000000
G05  20796459.875 8 109286120.941 8     -1272.570          51.000    20796458.492 8  85158025.665 8      -991.613          51.000
G28  21524997.312 8 113114609.143 8      1976.473          49.000    21524996.836 7  88141272.906 7      1540.109          44.000
G30  20710901.352 8 108836518.366 8     -1276.094          51.000    20710902.242 8  84807740.113 8      -994.359          51.000
R03  21537648.617 7 115292783.510 7     -3287.062          42.000    21537649.695 8  89672123.949 8     -2556.601          48.000
R04  19187350.758 8 102747357.912 8        25.094          50.000    19187351.227 7  79914631.155 7        19.517          47.000
R14  19152376.055 8 102092960.111 8      -109.449          51.000    19152379.750 8  79405703.140 8       -85.127          49.000
R15  21201058.117 8 113292055.328 8      3503.691          50.000    21201059.719 7  88116024.503 7      2725.096          47.000
C05  39814182.812 5 207322896.679 5         5.414          35.000    39814180.383 6 160315201.721 6         3.942          40.000
C22  22244278.375 8 115831791.885 8     -1455.801          51.000
E05  24182515.117 8 127079962.913 8     -1380.574          51.000    24182518.500 8  97372952.733 8     -1057.831          51.000
E24  22716366.812 6 119375313.643 6     -1136.664          37.000    22716378.258 7  91469422.771 7      -870.950          42.000
E25  24196096.258 8 127151403.655 8      1795.457          51.000    24196101.594 8  97427680.262 8      1375.737          51.000
> 2020 05 19 03 01  0.0000000  0 13        .000000000000
G05  20803781.398 8 109324595.943 8     -1290.750          51.000    20803779.844 8  85188006.190 8     -1005.779          51.000
G07  22781044.719 5 119715165.449 5     -2556.586          35.000
G28  21513761.500 8 113055565.504 8      1961.410          50.000    21513760.688 7  88095264.888 7      1528.372          44.000
G30  20718223.656 8 108874996.983 8     -1287.410          51.000    20718224.359 8  84837723.446 8     -1003.177          51.000
R03  21556107.430 6 115391607.708 6     -3299.355          40.000    21556111.680 7  89748987.291 7     -2566.165          47.000
R04  19187271.828 8 102746934.358 8         4.895          51.000    19187272.023 7  79914301.723 7         3.807          47.000
R14  19153062.750 8 102096619.873 8      -132.746          51.000    19153066.391 8  79408549.641 8      -103.244          49.000
R15  21181430.273 7 113187175.768 7      3490.070          47.000    21181433.570 7  88034451.503 7      2714.499          47.000
C05  39814156.062 6 207322757.456 6         6.098          36.000    39814153.602 6 160315094.057 6         4.449          40.000
C22  22252708.266 8 115875687.363 8     -1468.809          51.000
E05  24190423.125 8 127121517.489 8     -1388.043          51.000    24190426.055 8  97404793.242 8     -1063.512          51.000
E24  22722893.633 6 119409616.474 6     -1148.609          41.000    22722905.578 7  91495706.712 7      -880.103          42.000
E25  24185882.305 8 127097730.750 8      1784.453          51.000    24185887.492 8  97386554.230 8      1367.281          51.000
> 2020 05 19 03 01 30.0000000  0 14        .000000000000
G05  20811212.320 8 109363645.929 8     -1309.516          51.000    20811210.766 8  85218434.761 8     -1020.402          51.000
G07  22795660.875 6 119791983.699 6     -2561.660          37.000
G28  21502617.602 8 112997002.275 8      1945.816          51.000    21502616.219 7  88049631.223 7      1516.221          43.000
G30  20725616.234 8 108913845.553 8     -1299.387          51.000    20725617.094 8  84867995.066 8     -1012.509          51.000
R03  21574642.453 7 115490830.352 7     -3312.180          46.000    21574647.172 7  89826160.485 7     -2576.137          45.000
R04  19187311.969 8 102747151.278 8       -16.098          51.000    19187312.328 7  79914470.426 7       -12.520          46.000
R14  19153886.367 8 102101009.979 8      -156.836          51.000    19153890.000 8  79411964.195 8      -121.984          49.000
R15  21161884.539 7 113082740.854 7      3475.488          45.000    21161890.086 7  87953224.289 7      2703.158          46.000
C05  39814131.695 6 207322630.460 6         6.543          36.000    39814129.250 6 160314995.884 6         4.365          40.000
C19  25521184.102 6 132895480.698 6     -3254.941          36.000
C22  22261219.258 8 115920004.667 8     -1482.570          51.000
E05  24198379.562 8 127163326.700 8     -1396.168          51.000    24198382.102 8  97436828.861 8     -1069.746          51.000
E24  22729495.336 6 119444308.458 6     -1161.164          41.000    22729507.844 6  91522288.901 6      -889.675          41.000
E25  24175738.422 8 127044425.058 8      1772.523          51.000    24175742.609 8  97345709.600 8      1358.122          51.000
> 2020 05 19 03 02  0.0000000  0 14        .000000000000
G05  20818743.094 8 109403221.453 8     -1328.539          50.000    20818742.039 8  85249272.821 8     -1035.225          50.000
G07  22810300.398 5 119868920.718 5     -2567.129          35.000    22810297.914 5  93404363.379 5     -2000.360          35.000
G28  21491556.453 8 112938873.077 8      1929.746          51.000    21491554.484 7  88004335.764 7      1503.698          44.000
G30  20733069.797 8 108953014.453 8     -1311.637          51.000    20733070.789 8  84898516.280 8     -1022.055          51.000
R03  21593244.102 8 115590400.494 8     -3325.398          49.000    21593247.453 7  89903603.913 7     -2586.421          44.000
R04  19187462.977 8 102747960.606 8       -37.492          51.000    19187463.539 7  79915099.869 7       -29.161          46.000
R14  19154837.617 8 102106080.482 8      -180.980          51.000    19154841.188 8  79415907.945 8      -140.763          49.000
R15  21142414.820 7 112978703.875 7      3460.508          46.000    21142420.531 7  87872306.614 7      2691.506          45.000
C05                                                                  39814098.094 6 160314870.257 6         4.492          40.000
C19  25539950.992 6 132993190.950 6     -3258.812          38.000
C22  22269802.289 8 115964695.534 8     -1496.543          51.000
E05  24206374.992 8 127205342.420 8     -1404.551          51.000    24206377.188 8  97469022.713 8     -1076.232          51.000
E24  22736162.641 7 119479340.154 7     -1173.938          43.000    22736174.250 6  91549131.397 6      -899.549          39.000
E25  24165655.320 8 126991439.252 8      1760.195          51.000    24165658.383 8  97305110.101 8      1348.769          51.000
> 2020 05 19 03 02 30.0000000  0 13        .000000000000
G05  20826382.664 8 109443368.948 8     -1347.914          51.000    20826382.133 8  85280556.558 8     -1050.326          51.000
G28  21480587.078 8 112881227.244 8      1913.273          51.000    21480584.859 7  87959416.945 7      1490.862          43.000
G30  20740593.039 8 108992549.535 8     -1324.059          51.000    20740593.969 8  84929322.828 8     -1031.734          51.000
R03  21611919.570 8 115690364.549 8     -3338.816          51.000    21611920.305 7  89981353.657 7     -2596.860          42.000
R04  19187734.008 8 102749412.183 8       -59.352          51.000    19187734.430 7  79916228.834 7       -46.162          45.000
R14  19155925.008 8 102111877.643 8      -205.543          51.000    19155928.609 8  79420416.855 8      -159.867          49.000
R15  21123030.398 8 112875115.154 8      3445.246          49.000    21123034.898 7  87791737.634 7      2679.639          45.000
C05  39814071.383 5 207322317.432 5         4.961          35.000    39814069.102 6 160314753.417 6         3.749          40.000
C19  25558740.820 6 133091030.196 6     -3263.723          41.000
C22  22278465.742 8 116009806.308 8     -1510.859          51.000
E05  24214418.469 8 127247611.962 8     -1413.336          51.000    24214420.578 8  97501411.050 8     -1082.880          51.000
E24  22742902.477 7 119514757.738 7     -1187.086          44.000    22742912.758 6  91576269.512 6      -909.630          38.000
E25  24155642.328 8 126938821.477 8      1747.738          51.000    24155644.445 8  97264792.611 8      1339.212          51.000
> 2020 05 19 03 03  0.0000000  0 13        .000000000000
G05  20834125.719 8 109484058.639 8     -1363.438          51.000    20834125.477 8  85312262.805 8     -1062.416          51.000
G28  21469704.367 8 112824038.263 8      1900.625          50.000    21469702.070 7  87914854.103 7      1481.006          44.000
G30  20748180.211 8 109032420.962 8     -1332.711          51.000    20748181.047 8  84960391.490 8     -1038.476          51.000
R03  21630662.672 8 115790691.891 8     -3348.277          51.000    21630662.055 7  90059385.911 7     -2604.219          43.000
R04  19188119.930 8 102751478.095 8       -77.102          51.000    19188119.844 7  79917835.646 7       -59.968          45.000
R14  19157142.914 8 102118371.460 8      -226.125          51.000    19157146.695 8  79425467.640 8      -175.875          49.000
R15  21103726.023 8 112771948.611 8      3433.816          51.000    21103728.461 7  87711497.022 7      2670.746          45.000
C05  39814039.336 5 207322150.561 5         8.270          35.000    39814036.852 6 160314623.599 6         5.981          40.000
C19  25577549.258 7 133188968.921 7     -3264.410          42.000
C22  22287203.742 8 116055308.333 8     -1521.332          51.000
E05  24222504.898 8 127290106.973 8     -1418.371          51.000    24222506.648 8  97533972.176 8     -1086.789          51.000
E24  22749709.852 7 119550531.472 7     -1196.480          43.000    22749720.102 6  91603680.539 6      -916.517          37.000
E25  24145694.273 8 126886544.192 8      1738.730          51.000    24145695.977 8  97224736.014 8      1332.259          51.000
> 2020 05 19 03 03 30.0000000  0 14        .000000000000
G05  20841972.125 8 109525291.228 8     -1386.184          50.000    20841972.156 8  85344392.087 8     -1080.143          50.000
G07  22854390.703 5 120100595.158 5     -2583.684          35.000
G28  21458909.289 8 112767309.665 8      1880.562          51.000    21458907.047 7  87870650.003 7      1465.373          44.000
G30  20755831.508 8 109072628.967 8     -1348.746          51.000    20755832.297 8  84991722.407 8     -1050.971          51.000
R03  21649473.109 8 115891382.331 8     -3365.223          50.000    21649472.836 7  90137700.638 7     -2617.398          43.000
R04  19188621.125 8 102754161.505 8      -102.656          50.000    19188621.016 7  79919922.719 7       -79.844          46.000
R14  19158491.750 8 102125562.387 8      -254.117          51.000    19158495.336 8  79431060.589 8      -197.647          48.000
R15  21084501.336 8 112669208.108 8      3414.738          51.000    21084501.914 7  87631587.780 7      2655.911          45.000
C05  39814004.094 5 207321966.059 5         3.254          35.000    39814001.719 6 160314482.069 6         2.697          40.000
C19  25596376.273 6 133287007.401 6     -3272.535          41.000
C22  22296016.906 8 116101202.691 8     -1539.129          51.000
E05  24230634.414 8 127332829.152 8     -1430.715          51.000    24230636.016 8  97566707.367 8     -1096.217          51.000
E24  22756585.109 7 119586661.765 7     -1213.199          44.000    22756596.422 5  91631364.802 5      -929.322          35.000
E25  24135811.625 8 126834609.844 8      1722.688          51.000    24135813.336 8  97184942.188 8      1319.972          51.000
> 2020 05 19 03 04  0.0000000  0 14        .000000000000
G05  20849931.320 8 109567117.226 8     -1402.234          49.000    20849931.297 8  85376983.757 8     -1092.650          50.000
G07  22869150.125 5 120178150.011 5     -2586.371          34.000    22869167.391 5  93645410.067 5     -2015.357          32.000
G28  21448212.281 8 112711095.242 8      1866.930          51.000    21448210.016 7  87826846.564 7      1454.750          46.000
G30  20763556.539 8 109113223.998 8     -1357.801          51.000    20763557.453 8  85023354.891 8     -1058.027          51.000
R03  21668360.062 8 115992486.930 8     -3375.176          48.000    21668359.836 7  90216337.631 7     -2625.131          43.000
R04  19189248.047 8 102757516.489 8      -121.223          50.000    19189247.945 7  79922532.144 7       -94.284          46.000
R14  19159980.945 8 102133501.497 8      -275.242          51.000    19159984.539 8  79437235.477 8      -214.077          49.000
R15  21065365.594 8 112566949.075 8      3402.383          51.000    21065365.852 7  87552052.987 7      2646.298          46.000
C05  39813975.969 5 207321820.258 5         5.828          35.000    39813973.500 6 160314368.544 6         4.534          40.000
C19  25615231.828 7 133385195.582 7     -3273.648          42.000
C22  22304915.125 8 116147540.159 8     -1550.164          51.000
E05  24238816.961 8 127375830.355 8     -1436.266          51.000    24238818.742 8  97599656.341 8     -1100.500          51.000
E24  22763537.641 7 119623199.221 7     -1222.883          44.000    22763548.242 5  91659360.971 5      -937.275          33.000
E25  24126004.508 8 126783071.047 8      1713.152          51.000    24126006.281 8  97145451.454 8      1312.669          51.000
> 2020 05 19 03 04 30.0000000  0 14        .000000000000
G05  20857992.750 8 109609479.416 8     -1421.418          50.000    20857992.141 8  85409993.246 8     -1107.598          50.000
G07  22883934.508 5 120255832.924 5     -2591.688          30.000    22883944.094 4  93705942.233 4     -2019.503          29.000
G28  21437602.805 8 112655340.779 8      1850.328          51.000    21437600.836 8  87783401.538 8      1441.817          48.000
G30  20771344.297 8 109154148.726 8     -1370.082          51.000    20771345.211 8  85055244.292 8     -1067.596          51.000
R03  21687312.672 7 116093946.936 7     -3388.324          46.000    21687313.047 7  90295251.065 7     -2635.360          42.000
R04  19189989.750 8 102761487.274 8      -143.051          49.000    19189989.680 7  79925620.525 7      -111.262          46.000
R14  19161599.836 8 102142130.796 8      -299.559          50.000    19161603.297 8  79443947.188 8      -232.990          49.000
R15  21046308.211 8 112465117.053 8      3386.816          49.000    21046309.812 7  87472850.280 7      2634.191          47.000
C05  39813944.062 6 207321653.298 6         5.441          36.000    39813941.602 6 160314240.211 6         4.138          40.000
C19  25634105.188 7 133483476.713 7     -3277.895          43.000
C22  22313887.266 8 116194264.932 8     -1564.520          50.000
E05  24247042.336 8 127419054.813 8     -1445.023          51.000    24247044.078 8  97632776.376 8     -1107.274          51.000
E24  22770557.008 7 119660086.737 7     -1235.891          44.000    22770567.930 5  91687625.351 5      -946.676          35.000
E25  24116262.211 8 126731872.820 8      1700.355          51.000    24116263.922 8  97106221.670 8      1302.834          51.000
> 2020 05 19 03 05  0.0000000  0 13        .000000000000
G05  20866158.352 8 109652388.192 8     -1439.543          51.000    20866156.844 8  85443428.636 8     -1121.722          51.000
G28  21427083.070 8 112600059.928 8      1834.648          50.000    21427081.617 8  87740325.576 8      1429.596          48.000
G30  20779196.711 8 109195413.284 8     -1381.242          51.000    20779197.461 8  85087398.501 8     -1076.290          51.000
R03  21706333.469 7 116195772.358 7     -3400.324          47.000    21706335.359 7  90374448.635 7     -2644.697          42.000
R04  19190849.055 8 102766086.950 8      -163.828          50.000    19190848.797 7  79929198.060 7      -127.422          47.000
R14  19163350.078 8 102151460.429 8      -322.613          50.000    19163353.430 8  79451203.573 8      -250.921          49.000
R15  21027333.195 8 112363726.149 8      3372.191          50.000    21027336.367 7  87393990.678 7      2622.816          47.000
C05  39813910.672 6 207321479.663 6         6.211          36.000    39813908.242 6 160314105.953 6         4.452          40.000
C19  25652998.375 7 133581860.896 7     -3281.328          43.000
C22  22322936.000 8 116241387.842 8     -1577.508          50.000
E05  24255312.641 8 127462514.028 8     -1452.602          51.000    24255314.211 8  97666076.302 8     -1113.020          51.000
E24  22777645.023 7 119697334.570 7     -1247.750          44.000    22777658.805 6  91716165.890 6      -956.161          36.000
E25  24106586.891 8 126681027.455 8      1688.977          51.000    24106588.664 8  97067262.255 8      1294.082          51.000
> 2020 05 19 03 05 30.0000000  0 13        .000000000000
G05  20874431.250 8 109695860.807 8     -1457.535          51.000    20874428.891 8  85477303.406 8     -1135.742          51.000
G28  21416657.258 8 112545273.301 8      1818.754          50.000    21416656.344 7  87697634.702 7      1417.211          47.000
G30  20787117.086 8 109237035.036 8     -1392.465          51.000    20787117.734 8  85119831.032 8     -1085.038          51.000
R03  21725425.875 7 116297980.352 7     -3412.332          46.000    21725428.781 7  90453943.654 7     -2654.039          43.000
R04  19191829.195 8 102771335.715 8      -184.766          49.000    19191828.867 7  79933280.454 7      -143.707          47.000
R14  19165234.742 8 102161507.943 8      -345.902          49.000    19165238.445 8  79459018.317 8      -269.035          50.000
R15  21008445.398 8 112262797.970 8      3357.426          50.000    21008449.031 7  87315490.988 7      2611.331          46.000
C05  39813879.414 6 207321317.063 6         6.598          36.000    39813877.055 6 160313980.221 6         4.600          40.000
C19  25671914.422 7 133680365.288 7     -3284.691          43.000
C22  22332065.383 8 116288926.939 8     -1590.625          51.000
E05  24263631.078 8 127506226.937 8     -1460.410          51.000    24263632.594 8  97699570.602 8     -1119.051          51.000
E24  22784804.695 7 119734960.295 7     -1259.602          44.000    22784819.195 5  91744995.954 5      -965.212          35.000
E25  24096982.195 8 126630554.620 8      1676.988          51.000    24096983.992 8  97028588.270 8      1284.974          51.000
> 2020 05 19 03 06  0.0000000  0 13        .000000000000
G05  20882806.797 8 109739874.292 8     -1476.035          51.000    20882804.359 8  85511599.631 8     -1150.157          51.000
G28  21406321.578 8 112490961.155 8      1802.520          50.000    21406321.047 7  87655313.537 7      1404.561          47.000
G30  20795101.023 8 109278990.993 8     -1403.984          51.000    20795101.602 8  85152523.984 8     -1094.014          51.000
R03  21744586.203 7 116400547.342 7     -3424.715          46.000    21744588.984 7  90533717.935 7     -2663.667          43.000
R04  19192926.664 8 102777212.982 8      -206.406          50.000    19192926.648 8  79937851.659 8      -160.535          48.000
R14  19167249.867 8 102172250.107 8      -369.621          48.000    19167253.750 8  79467373.323 8      -287.483          50.000
R15  20989640.734 8 112162312.886 8      3342.152          50.000    20989643.703 7  87237335.936 7      2599.452          45.000
C05  39813846.188 6 207321144.016 6         6.078          36.000    39813843.844 6 160313846.398 6         4.606          40.000
C19  25690849.391 7 133778967.144 7     -3288.266          43.000
C22  22341270.742 8 116336860.278 8     -1604.227          51.000
E05  24271993.797 8 127550171.920 8     -1468.684          51.000    24271994.984 8  97733242.735 8     -1125.358          51.000
E24  22792032.328 7 119772941.038 7     -1271.699          45.000    22792045.641 6  91774098.068 6      -974.610          36.000
E25  24087444.297 8 126580433.454 8      1664.930          51.000    24087445.758 8  96990183.729 8      1275.704          51.000
> 2020 05 19 03 06 30.0000000  0 13        .000000000000
G05  20891285.617 8 109784431.627 8     -1493.785          51.000    20891283.484 8  85546319.644 8     -1163.988          51.000
G28  21396077.148 8 112437128.772 8      1786.848          50.000    21396076.680 7  87613366.213 7      1392.349          46.000
G30  20803148.961 8 109321283.218 8     -1414.859          51.000    20803149.445 8  85185478.956 8     -1102.488          51.000
R03  21763813.242 7 116503475.006 7     -3436.543          46.000    21763816.820 7  90613772.807 7     -2672.867          45.000
R04  19194142.164 8 102783723.317 8      -227.188          50.000    19194142.445 7  79942915.260 7      -176.701          47.000
R14  19169395.984 8 102183688.581 8      -392.469          50.000    19169399.406 8  79476269.902 8      -305.253          51.000
R15  20970920.211 8 112062276.911 8      3327.352          49.000    20970922.219 7  87159530.219 7      2587.940          46.000
C05  39813811.477 5 207320963.048 5         6.461          35.000    39813809.266 6 160313707.235 6         4.791          40.000
C19  25709803.836 7 133877668.451 7     -3291.160          43.000
C22  22350552.055 8 116385190.719 8     -1617.227          50.000
E05  24280401.094 8 127594352.514 8     -1476.215          51.000    24280402.125 8  97767095.402 8     -1131.156          51.000
E24  22799327.930 7 119811279.055 7     -1283.469          45.000    22799341.586 6  91803473.933 6      -983.602          38.000
E25  24077974.039 8 126530668.238 8      1653.340          51.000    24077975.234 8  96952051.929 8      1266.797          51.000
> 2020 05 19 03 07  0.0000000  0 13        .000000000000
G05  20899868.484 8 109829536.356 8     -1512.922          51.000    20899866.906 8  85581466.200 8     -1178.900          51.000
G28  21385925.641 8 112383783.334 8      1769.781          50.000    21385925.102 7  87571798.332 7      1379.053          45.000
G30  20811261.641 8 109363915.732 8     -1427.039          51.000    20811262.109 8  85218699.087 8     -1111.978          51.000
R03  21783109.570 8 116606766.831 8     -3449.309          48.000    21783113.188 7  90694110.916 7     -2682.796          45.000
R04  19195476.922 8 102790873.408 8      -249.344          50.000    19195477.578 8  79948476.446 8      -193.934          48.000
R14  19171673.367 8 102195827.657 8      -416.555          49.000    19171676.617 8  79485711.426 8      -323.987          50.000
R15  20952284.914 8 111962697.842 8      3311.312          49.000    20952287.422 7  87082079.854 7      2575.465          47.000
C05  39813776.625 5 207320781.529 5         5.773          35.000    39813774.414 6 160313566.843 6         4.479          40.000
C19  25728778.477 7 133976473.270 7     -3295.297          43.000
C22  22359910.594 8 116433923.032 8     -1631.418          51.000
E05  24288854.008 8 127638774.166 8     -1485.062          51.000    24288854.914 8  97801132.777 8     -1137.923          51.000
E24  22806691.984 7 119849978.432 7     -1296.340          44.000    22806705.695 6  91833126.661 6      -993.123          38.000
E25  24068572.445 8 126481265.149 8      1640.277          51.000    24068574.047 8  96914197.615 8      1256.863          51.000
> 2020 05 19 03 07 30.0000000  0 13        .000000000000
G05  20908557.953 8 109875202.035 8     -1531.543          50.000    20908557.078 8  85617049.852 8     -1193.410          50.000
G28  21375870.242 8 112330941.432 8      1752.977          50.000    21375868.859 7  87530622.826 7      1365.956          43.000
G30  20819441.500 8 109406901.727 8     -1438.707          51.000    20819442.133 8  85252194.670 8     -1121.070          51.000
R03  21802476.844 8 116710436.072 8     -3461.891          49.000    21802479.672 7  90774742.599 7     -2692.579          45.000
R04  19196934.234 8 102798679.203 8      -271.117          51.000    19196935.406 8  79954547.616 8      -210.869          48.000
R14  19174084.969 8 102208680.480 8      -440.309          50.000    19174087.469 8  79495708.055 8      -342.465          50.000
R15  20933738.359 8 111863593.119 8      3295.551          49.000    20933742.125 8  87004998.394 8      2563.206          48.000
C05  39813744.250 6 207320612.992 6         5.379          36.000    39813742.062 6 160313436.514 6         4.292          40.000
C19  25747775.719 7 134075394.701 7     -3299.293          44.000
C22  22369349.766 8 116483071.099 8     -1645.211          51.000
E05  24297355.664 8 127683451.566 8     -1493.480          51.000    24297356.578 8  97835366.110 8     -1144.310          51.000
E24  22814127.836 7 119889052.551 7     -1308.688          45.000    22814140.711 6  91863066.549 6     -1002.641          39.000
E25  24059242.445 8 126432239.591 8      1627.977          51.000    24059245.125 8  96876632.585 8      1247.423          51.000
> 2020 05 19 03 08  0.0000000  0 13        .000000000000
G05  20917351.328 8 109921413.554 8     -1549.516          51.000    20917350.688 8  85653058.804 8     -1207.415          51.000
G28  21365908.516 8 112278591.049 8      1736.762          50.000    21365906.477 7  87489830.347 7      1353.321          44.000
G30  20827685.688 8 109450226.180 8     -1449.727          51.000    20827686.523 8  85285953.967 8     -1129.657          51.000
R03  21821911.242 8 116814466.818 8     -3473.691          48.000    21821913.297 7  90855655.405 7     -2701.757          43.000
R04  19198511.508 8 102807127.967 8      -292.344          50.000    19198512.977 7  79961118.875 7      -227.378          47.000
R14  19176626.898 8 102222231.522 8      -463.371          49.000    19176629.789 8  79506247.755 8      -360.400          51.000
R15  20915278.125 8 111764951.064 8      3280.281          48.000    20915283.172 8  86928276.768 8      2551.330          49.000
C05  39813711.805 6 207320444.475 6         5.711          36.000    39813709.586 6 160313305.819 6         4.392          40.000
C19  25766792.312 7 134174417.839 7     -3302.395          43.000
C22  22378866.367 8 116532620.855 8     -1658.363          51.000
E05  24305903.398 8 127728371.106 8     -1501.387          51.000    24305904.359 8  97869784.967 8     -1150.362          51.000
E24  22821632.141 7 119928486.560 7     -1320.535          44.000    22821645.320 6  91893282.199 6     -1011.842          41.000
E25  24049982.070 8 126383578.753 8      1615.852          51.000    24049985.773 8  96839347.019 8      1238.120          51.000
> 2020 05 19 03 08 30.0000000  0 13        .000000000000
G05  20926247.812 8 109968164.682 8     -1567.492          51.000    20926246.688 8  85689488.248 8     -1221.422          51.000
G28  21356039.641 8 112226729.119 8      1720.492          49.000    21356037.477 7  87449418.482 7      1340.646          44.000
G30  20835993.133 8 109493882.779 8     -1460.887          51.000    20835994.047 8  85319972.091 8     -1138.353          51.000
R03  21841411.812 8 116918852.548 8     -3485.484          49.000    21841412.031 6  90936844.286 6     -2710.935          40.000
R04  19200208.156 8 102816215.707 8      -313.656          49.000    19200209.930 7  79968187.110 7      -243.955          47.000
R14  19179298.758 8 102236474.143 8      -486.352          49.000    19179301.727 8  79517325.337 8      -378.273          50.000
R15  20896904.359 8 111666768.961 8      3264.895          49.000    20896909.602 8  86851912.904 8      2539.362          48.000
C05  39813678.422 6 207320270.693 6         5.793          36.000    39813676.102 6 160313171.046 6         4.434          40.000
C19  25785826.961 6 134273536.531 6     -3305.914          40.000
C22  22388458.805 8 116582566.844 8     -1671.570          51.000
E05  24314496.234 8 127773527.973 8     -1509.297          51.000    24314497.312 8  97904385.657 8     -1156.435          51.000
E24  22829203.422 6 119968274.189 6     -1332.277          41.000    22829216.859 6  91923768.814 6     -1020.788          41.000
E25  24040790.641 8 126335278.442 8      1604.074          51.000    24040794.992 8  96802337.711 8      1229.015          51.000
> 2020 05 19 03 09  0.0000000  0 13        .000000000000
G05  20935245.562 8 110015447.082 8     -1584.793          51.000    20935243.953 8  85726331.661 8     -1234.904          51.000
G28  21346262.375 8 112175350.445 8      1704.656          49.000    21346260.734 7  87409383.202 7      1328.304          44.000
G30  20844362.281 8 109537863.113 8     -1471.359          51.000    20844363.219 8  85354242.481 8     -1146.514          51.000
R03  21860977.602 8 117023583.836 8     -3496.578          49.000    21860973.586 5  91018301.906 5     -2719.564          35.000
R04  19202023.438 8 102825936.495 8      -334.531          49.000    19202025.219 7  79975747.709 7      -260.191          46.000
R14  19182098.594 8 102251399.646 8      -508.770          51.000    19182101.461 8  79528934.053 8      -395.713          50.000
R15  20878616.414 8 111569042.106 8      3249.996          49.000    20878621.258 8  86775903.171 8      2527.778          48.000
C05  39813642.656 6 207320084.185 6         6.738          36.000    39813640.156 6 160313026.812 6         5.105          40.000
C19  25804878.172 6 134372742.358 6     -3308.289          37.000
C22  22398125.438 8 116632901.438 8     -1684.250          51.000
E05  24323132.945 8 127818915.103 8     -1516.598          51.000    24323134.352 8  97939162.792 8     -1162.119          51.000
E24  22836840.836 6 120008407.113 6     -1343.324          41.000    22836853.359 6  91954520.033 6     -1029.238          41.000
E25  24031667.055 8 126287332.396 8      1592.457          51.000    24031671.375 8  96765599.848 8      1220.170          51.000
> 2020 05 19 03 09 30.0000000  0 15        .000000000000
G05  20944346.250 8 110063269.919 8     -1602.754          51.000    20944344.352 8  85763596.195 8     -1248.899          51.000
G07  23033230.414 5 121040437.932 5     -2636.914          34.000    23033231.484 5  94317228.905 5     -2054.741          33.000
G13  20928846.297 5 109981829.424 5      1727.414          30.000
G28  21336579.664 8 112124467.848 8      1688.293          49.000    21336577.883 7  87369734.403 7      1315.553          44.000
G30  20852794.953 8 109582176.964 8     -1482.191          51.000    20852795.875 8  85388772.755 8     -1154.954          51.000
R03  21880608.695 7 117128670.433 7     -3508.289          45.000    21880600.547 5  91100035.852 5     -2728.672          35.000
R04  19203959.398 8 102836302.693 8      -355.777          48.000    19203960.953 7  79983810.296 7      -276.716          46.000
R14  19185028.539 8 102267017.739 8      -531.680          50.000    19185031.445 8  79541081.463 8      -413.529          50.000
R15  20860416.570 8 111471784.241 8      3234.598          50.000    20860420.820 7  86700258.181 7      2515.798          47.000
C05  39813606.711 6 207319896.635 6         7.023          36.000    39813604.125 6 160312881.800 6         5.268          40.000
C19  25823947.570 5 134472045.050 5     -3311.590          35.000
C22  22407868.148 8 116683635.101 8     -1697.324          51.000
E05  24331815.484 8 127864543.765 8     -1524.484          51.000    24331817.523 8  97974124.994 8     -1168.159          51.000
E24  22844545.594 6 120048895.426 6     -1355.156          41.000    22844557.867 6  91985543.505 6     -1038.349          41.000
E25  24022613.602 8 126239752.592 8      1580.262          51.000    24022617.062 8  96729142.603 8      1210.832          51.000
> 2020 05 19 03 10  0.0000000  0 14        .000000000000
G05  20953547.688 8 110111622.362 8     -1621.422          51.000    20953545.781 8  85801273.424 8     -1263.446          51.000
G07  23048299.883 5 121119629.954 5     -2642.625          34.000    23048297.531 5  94378929.435 5     -2059.179          33.000
G28  21326989.656 8 112074072.992 8      1670.770          50.000    21326988.109 7  87330465.692 7      1301.898          43.000
G30  20861288.898 8 109626812.791 8     -1494.105          51.000    20861289.711 8  85423553.915 8     -1164.238          51.000
R03  21900300.852 6 117234100.005 6     -3521.082          39.000    21900298.016 7  91182036.647 7     -2738.619          42.000
R04  19206014.438 8 102847304.934 8      -378.305          48.000    19206015.453 7  79992367.594 7      -294.237          46.000
R14  19188086.242 8 102283316.307 8      -555.602          51.000    19188088.891 8  79553758.139 8      -432.135          49.000
R15  20842302.992 8 111374987.262 8      3217.930          51.000    20842306.211 7  86624971.623 7      2502.834          46.000
C05  39813568.578 6 207319698.065 6         5.988          36.000    39813565.961 6 160312728.253 6         4.476          40.000
C19  25843032.445 4 134571433.180 4     -3315.250          29.000
C22  22417685.008 8 116734757.166 8     -1711.453          51.000
E05  24340541.797 8 127910403.816 8     -1533.395          51.000    24340544.758 8  98009264.499 8     -1174.894          51.000
E24  22852315.242 6 120089727.509 6     -1367.707          40.000    22852327.719 6  92016830.417 6     -1047.879          40.000
E25  24013628.055 8 126192529.568 8      1567.309          51.000    24013630.375 8  96692958.722 8      1200.946          51.000
> 2020 05 19 03 10 30.0000000  0 13        .000000000000
G05  20962850.695 8 110160508.810 8     -1639.180          51.000    20962848.836 8  85839366.764 8     -1277.283          51.000
G07  23063392.125 5 121198942.929 5     -2646.410          35.000    23063388.805 5  94440727.834 5     -2062.153          30.000
G28  21317494.203 8 112024173.515 8      1654.250          50.000    21317492.508 7  87291583.011 7      1289.029          43.000
G30  20869845.008 8 109671775.183 8     -1504.875          51.000    20869845.812 8  85458589.550 8     -1172.630          51.000
R03  21920059.375 7 117339876.939 7     -3532.348          44.000    21920061.453 7  91264307.579 7     -2747.382          46.000
R04  19208189.320 8 102858950.334 8      -399.531          48.000    19208190.156 7  80001425.145 7      -310.747          46.000
R14  19191272.227 8 102300299.753 8      -578.223          51.000    19191274.922 8  79566967.490 8      -449.726          49.000
R15  20824277.492 8 111278659.691 8      3202.359          51.000    20824279.477 7  86550050.173 7      2490.724          45.000
C05  39813529.484 6 207319494.389 6         6.520          36.000    39813526.820 6 160312570.721 6         4.927          40.000
C22  22427577.570 8 116786272.891 8     -1724.438          51.000
E05  24349313.812 8 127956501.285 8     -1541.230          51.000    24349317.156 8  98044585.954 8     -1180.970          51.000
E24  22860151.438 6 120130908.153 6     -1379.301          39.000    22860163.273 6  92048384.372 6     -1056.711          40.000
E25  24004711.562 8 126145670.078 8      1555.160          51.000    24004712.906 8  96657053.406 8      1191.616          51.000
> 2020 05 19 03 11  0.0000000  0 13        .000000000000
G05  20972250.164 8 110209902.544 8     -1657.086          51.000    20972248.516 8  85877855.385 8     -1291.236          51.000
G28  21308088.828 8 111974745.275 8      1637.535          51.000    21308086.633 7  87253067.497 7      1275.998          45.000
G30  20878458.109 8 109717037.139 8     -1515.922          51.000    20878459.156 8  85493858.618 8     -1181.238          51.000
R03  21939880.039 7 117445973.051 7     -3544.012          47.000    21939883.438 8  91346826.785 8     -2756.457          48.000
R04  19210479.227 8 102871213.852 8      -421.375          48.000    19210480.617 7  80010963.421 7      -327.736          46.000
R14  19194581.648 8 102317940.454 8      -601.172          51.000    19194584.602 8  79580688.051 8      -467.575          48.000
R15  20806335.242 8 111182777.870 8      3186.355          51.000    20806335.898 7  86475475.464 7      2478.276          45.000
C05  39813484.641 6 207319261.323 6         6.484          36.000    39813481.891 6 160312389.766 6         4.540          40.000
C19  25881260.531 5 134770524.679 5     -3321.172          31.000
C22  22437540.750 8 116838156.233 8     -1737.707          51.000
E05  24358126.695 8 128002810.610 8     -1549.461          51.000    24358130.016 8  98080069.736 8     -1187.321          51.000
E24  22868049.227 6 120172410.375 6     -1390.957          38.000    22868060.156 6  92080184.768 6     -1065.774          41.000
E25  23995859.469 8 126099149.209 8      1542.809          51.000    23995859.852 8  96621407.548 8      1182.122          51.000
> 2020 05 19 03 11 30.0000000  0 13        .000000000000
G05  20981762.461 8 110259890.081 8     -1674.262          51.000    20981760.820 8  85916806.713 8     -1304.620          51.000
G28  21298790.570 8 111925878.795 8      1621.391          51.000    21298788.102 7  87214989.746 7      1263.421          47.000
G30  20887144.797 8 109762685.790 8     -1526.168          51.000    20887146.062 8  85529429.001 8     -1189.222          51.000
R03  21959777.109 7 117552476.812 7     -3554.996          47.000    21959780.672 8  91429663.015 8     -2764.997          49.000
R04  19212901.961 8 102884186.627 8      -442.266          49.000    19212903.227 7  80021053.363 7      -343.984          46.000
R14  19198030.617 8 102336326.429 8      -623.332          51.000    19198033.297 7  79594988.258 7      -484.814          47.000
R15  20788493.242 8 111087433.666 8      3171.211          50.000    20788493.430 7  86401318.894 7      2466.500          45.000
C05  39813450.875 6 207319084.678 6         6.410          36.000    39813447.984 6 160312253.110 6         5.180          41.000
C19  25900404.562 5 134870215.445 5     -3323.570          33.000
C22  22447591.562 8 116890494.288 8     -1750.219          51.000
E05  24366996.781 8 128049420.342 8     -1556.695          51.000    24367000.289 8  98115783.681 8     -1192.852          51.000
E24  22876024.297 6 120214321.531 6     -1401.973          40.000    22876035.070 7  92112298.454 7     -1074.176          42.000
E25  23987088.477 8 126053056.226 8      1531.160          51.000    23987088.289 8  96586089.543 8      1173.236          51.000
> 2020 05 19 03 12  0.0000000  0 14        .000000000000
G05  20991370.961 8 110310384.156 8     -1691.012          51.000    20991369.297 8  85956152.726 8     -1317.671          51.000
G28  21289582.938 8 111877489.536 8      1605.539          51.000    21289580.219 7  87177283.864 7      1251.069          47.000
G30  20895888.477 8 109808633.691 8     -1536.000          51.000    20895889.617 8  85565232.567 8     -1196.883          51.000
R03  21979733.445 7 117659298.441 7     -3565.367          45.000    21979736.305 8  91512746.565 8     -2773.060          48.000
R04  19215440.633 8 102897781.790 8      -462.969          48.000    19215442.188 7  80031627.385 7      -360.087          46.000
R14  19201602.867 8 102355368.281 8      -645.000          51.000    19201605.414 7  79609798.610 7      -501.667          47.000
R15  20770735.031 8 110992542.284 8      3156.090          49.000    20770736.484 7  86327514.495 7      2454.734          47.000
C05  39813411.602 5 207318881.125 5         7.363          35.000    39813408.719 6 160312094.917 6         6.210          40.000
C19  25919562.508 5 134969968.988 5     -3324.977          33.000
C22  22457713.477 8 116943201.076 8     -1762.453          51.000
E03  23638848.453 6 124222982.965 6       950.457          39.000    23638849.023 6  95183847.444 6       728.440          40.000
E05  24375907.516 8 128096244.494 8     -1563.723          51.000    24375911.000 8  98151661.912 8     -1198.186          51.000
E24  22884060.578 6 120256554.142 6     -1412.488          40.000    22884071.680 7  92144658.492 7     -1082.380          43.000
E25  23978382.156 8 126007305.735 8      1519.824          51.000    23978382.062 8  96551033.989 8      1164.565          51.000
> 2020 05 19 03 12 30.0000000  0 14        .000000000000
G05  21001078.922 8 110361401.247 8     -1709.590          51.000    21001077.484 8  85995906.289 8     -1332.145          51.000
G28  21280469.609 8 111829597.172 8      1587.770          51.000    21280466.398 7  87139965.173 7      1237.223          46.000
G30  20904692.312 8 109854897.542 8     -1547.621          51.000    20904693.055 8  85601282.316 8     -1205.939          51.000
R03  21999750.859 7 117766454.420 7     -3577.637          45.000    21999754.141 7  91596090.192 7     -2782.603          46.000
R04  19218098.789 8 102912018.690 8      -485.742          48.000    19218101.062 7  80042700.531 7      -377.799          46.000
R14  19205301.289 8 102375082.941 8      -668.594          51.000    19205304.016 7  79625132.267 7      -520.017          46.000
R15  20753065.047 8 110898124.085 8      3139.043          48.000    20753068.039 7  86254078.074 7      2441.478          47.000
C05  39813370.391 6 207318666.737 6         7.426          36.000    39813367.500 6 160311929.161 6         5.371          40.000
C19  25938735.031 5 135069801.987 5     -3329.125          31.000
C22  22467909.789 8 116996293.826 8     -1776.480          51.000
E03  23633446.594 6 124194604.154 6       941.965          38.000    23633448.016 6  95162102.629 6       721.927          39.000
E05  24384862.391 8 128143301.081 8     -1572.812          51.000    24384865.242 8  98187718.265 8     -1205.151          51.000
E24  22892161.945 6 120299125.028 6     -1425.227          40.000    22892173.438 7  92177277.713 7     -1091.877          43.000
E25  23969744.430 8 125961916.552 8      1506.648          51.000    23969744.445 8  96516255.268 8      1154.418          51.000
> 2020 05 19 03 13  0.0000000  0 15        .000000000000
G05  21010891.367 8 110412966.557 8     -1727.344          51.000    21010890.352 8  86036087.048 8     -1345.982          51.000
G07  23139213.383 5 121597404.777 5     -2667.898          30.000
G28  21271455.969 8 111782230.368 8      1570.641          51.000    21271452.258 7  87103055.973 7      1223.876          46.000
G30  20913561.086 8 109901502.671 8     -1558.637          51.000    20913561.594 8  85637598.007 8     -1214.522          51.000
R03  22019835.812 7 117873970.030 7     -3589.199          47.000    22019839.320 7  91679713.414 7     -2791.602          44.000
R04  19220882.094 8 102926925.448 8      -507.508          48.000    19220885.078 7  80054294.650 7      -394.731          46.000
R14  19209130.672 8 102395495.323 8      -691.535          51.000    19209133.031 7  79641008.578 7      -537.861          46.000
R15  20735489.727 8 110804208.504 8      3122.637          50.000    20735493.266 7  86181032.606 7      2428.717          47.000
C05  39813332.445 5 207318469.072 5         6.535          35.000    39813329.539 6 160311776.288 6         5.494          40.000
C19  25957926.312 5 135169739.518 5     -3332.457          31.000
C22  22478185.117 8 117049798.302 8     -1789.812          51.000
E03  23628093.477 6 124166480.287 6       933.832          39.000    23628095.883 6  95140553.179 6       715.495          39.000
E05  24393866.320 8 128190616.861 8     -1580.977          51.000    24393868.992 8  98223973.214 8     -1211.377          51.000
E24  22900332.109 6 120342059.612 6     -1436.793          40.000    22900344.328 7  92210175.594 7     -1100.686          44.000
E25  23961180.641 8 125916916.059 8      1494.012          51.000    23961180.938 8  96481774.367 8      1144.786          51.000
> 2020 05 19 03 13 30.0000000  0 13        .000000000000
G05  21020809.078 8 110465084.654 8     -1745.469          51.000    21020808.469 8  86076698.546 8     -1360.106          51.000
G28  21262543.391 8 111735396.789 8      1553.215          51.000    21262539.523 7  87066562.269 7      1210.297          45.000
G30  20922495.633 8 109948453.937 8     -1569.773          51.000    20922496.289 8  85674183.405 8     -1223.200          51.000
R03  22039989.664 8 117981849.674 8     -3601.008          50.000    22039991.438 6  91763619.716 6     -2800.787          40.000
R04  19223792.102 7 102942509.341 7      -529.773          47.000    19223795.266 7  80066415.470 7      -412.046          46.000
R14  19213091.836 8 102416610.031 8      -714.551          51.000    19213094.203 7  79657431.165 7      -555.759          46.000
R15  20718011.094 8 110710804.147 8      3105.934          51.000    20718013.953 7  86108384.766 7      2415.729          47.000
C05  39813298.977 6 207318294.921 6         6.176          36.000    39813295.938 6 160311641.219 6         4.954          40.000
C22  22488540.586 8 117103720.044 8     -1803.348          51.000
E03  23622791.570 6 124138618.702 6       924.922          40.000    23622793.852 6  95119204.678 6       709.236          39.000
E05  24402920.516 8 128238198.146 8     -1589.449          51.000    24402923.414 8  98260431.587 8     -1217.908          51.000
E24  22908571.984 6 120385362.767 6     -1448.445          38.000    22908584.859 7  92243355.920 7     -1110.024          44.000
E25  23952692.258 8 125872311.246 8      1481.219          51.000    23952693.172 8  96447596.665 8      1134.993          51.000
> 2020 05 19 03 14  0.0000000  0 13        .000000000000
G05  21030818.516 8 110517683.626 8     -1762.062          51.000    21030818.039 8  86117684.730 8     -1373.039          51.000
G28  21253718.852 8 111689026.921 8      1537.211          50.000    21253715.164 7  87030429.902 7      1197.824          45.000
G30  20931482.227 8 109995679.052 8     -1579.441          51.000    20931483.062 8  85710982.186 8     -1230.737          51.000
R03  22060197.188 8 118090019.324 8     -3611.195          50.000    22060195.656 6  91847751.606 6     -2808.707          37.000
R04  19226815.070 7 102958698.953 7      -550.508          46.000    19226818.531 7  80079007.356 7      -428.176          46.000
R14  19217170.875 8 102438353.240 8      -735.980          51.000    19217172.805 7  79674342.556 7      -572.429          46.000
R15  20700615.133 8 110617841.040 8      3090.625          51.000    20700617.430 7  86036080.128 7      2403.819          47.000
C05  39813256.328 5 207318072.499 5         7.469          35.000    39813253.352 6 160311469.603 6         5.872          40.000
C22  22498962.820 8 117157988.004 8     -1815.438          51.000
E03  23617526.648 6 124110949.478 6       918.312          41.000    23617528.453 6  95098003.625 6       703.471          39.000
E05  24412011.734 8 128285973.988 8     -1596.422          51.000    24412014.438 8  98297039.062 8     -1223.283          51.000
E24  22916869.211 6 120428962.303 6     -1458.875          39.000    22916881.898 7  92276763.350 7     -1117.893          44.000
E25  23944266.164 8 125828031.809 8      1469.848          51.000    23944267.414 8  96413668.289 8      1126.223          51.000
> 2020 05 19 03 14 30.0000000  0 13        .000000000000
G05  21040929.797 8 110570816.201 8     -1779.480          51.000    21040928.867 8  86159086.717 8     -1386.608          51.000
G28  21244993.445 8 111643177.409 8      1519.988          50.000    21244990.023 7  86994703.008 7      1184.406          45.000
G30  20940531.078 8 110043231.350 8     -1590.219          51.000    20940531.828 8  85748035.902 8     -1239.131          51.000
R03  22080467.633 7 118198532.612 7     -3622.359          47.000    22080465.156 6  91932150.762 6     -2817.394          38.000
R04  19229962.180 8 102975550.684 8      -572.305          48.000    19229965.469 7  80092114.250 7      -445.123          46.000
R14  19221377.781 8 102460778.332 8      -758.410          51.000    19221379.852 7  79691784.310 7      -589.872          46.000
R15  20683312.023 8 110525377.085 8      3074.277          50.000    20683313.930 7  85964163.758 7      2391.105          47.000
C05  39813215.047 6 207317857.564 6         7.848          36.000    39813212.078 6 160311303.408 6         5.685          40.000
C22  22509461.648 8 117212655.668 8     -1828.547          51.000
E03  23612309.227 7 124083528.397 7       910.352          43.000    23612310.617 6  95076992.693 6       697.345          39.000
E05  24421150.453 8 128333999.085 8     -1604.531          51.000    24421152.820 8  98333837.525 8     -1229.500          51.000
E24  22925233.383 6 120472911.619 6     -1470.328          38.000    22925245.391 7  92310438.771 7     -1126.705          44.000
E25  23935912.688 8 125784133.142 8      1457.262          51.000    23935913.664 8  96380031.659 8      1116.603          51.000
> 2020 05 19 03 15  0.0000000  0 13        .000000000000
G05  21051140.367 8 110624470.709 8     -1797.406          51.000    21051138.836 8  86200895.424 8     -1400.576          51.000
G28  21236365.781 8 111597840.088 8      1502.473          50.000    21236362.781 7  86959375.211 7      1170.758          45.000
G30  20949640.117 8 110091099.835 8     -1601.160          51.000    20949640.680 8  85785335.992 8     -1247.657          51.000
R03  22100798.758 7 118307377.838 7     -3633.992          45.000    22100797.992 6  92016808.156 6     -2826.438          38.000
R04  19233231.422 8 102993055.594 8      -594.520          48.000    19233233.984 7  80105729.159 7      -462.404          46.000
R14  19225710.609 8 102483873.961 8      -781.219          51.000    19225712.883 7  79709747.599 7      -607.615          46.000
R15  20666099.594 7 110433404.775 7      3057.301          47.000    20666101.070 7  85892629.807 7      2377.904          45.000
C05  39813173.367 6 207317640.316 6         6.879          36.000    39813170.359 6 160311135.381 6         5.461          40.000
C22  22520034.727 8 117267712.801 8     -1841.938          51.000
E03  23607137.273 7 124056346.965 7       901.812          42.000    23607138.742 6  95056165.360 6       690.984          40.000
E05  24430334.688 8 128382263.915 8     -1613.102          51.000    24430336.969 8  98370819.659 8     -1236.025          51.000
E24  22933660.734 5 120517199.680 5     -1482.234          33.000    22933672.562 7  92344373.832 7     -1135.690          44.000
E25  23927629.891 8 125740606.286 8      1444.508          51.000    23927630.320 8  96346679.928 8      1106.858          51.000
> 2020 05 19 03 15 30.0000000  0 14        .000000000000
G05  21061451.195 8 110678653.668 8     -1814.238          51.000    21061449.594 8  86243115.902 8     -1413.692          51.000
G07  23215626.812 6 121998925.926 6     -2686.371          36.000    23215632.086 5  95064122.421 5     -2093.276          35.000
G28  21227837.336 8 111553023.367 8      1485.848          50.000    21227835.258 7  86924453.097 7      1157.803          47.000
G30  20958810.375 8 110139290.191 8     -1611.035          51.000    20958811.102 8  85822886.903 8     -1255.352          51.000
R03  22121192.891 7 118416560.132 7     -3644.312          43.000    22121194.078 6  92101727.763 6     -2834.465          40.000
R04  19236624.453 8 103011221.700 8      -615.973          49.000    19236626.344 7  80119858.336 7      -479.093          47.000
R14  19230170.117 8 102507645.113 8      -802.949          51.000    19230172.133 7  79728236.288 7      -624.516          46.000
R15  20648979.031 7 110341933.338 7      3041.422          46.000    20648982.258 7  85821485.345 7      2365.550          45.000
C05  39813132.414 5 207317426.689 5         7.660          35.000    39813129.586 6 160310970.967 6         5.926          40.000
C22  22530683.422 8 117323165.666 8     -1854.309          51.000
E03  23602012.312 7 124029413.328 7       894.238          42.000    23602013.945 6  95035527.872 6       685.468          40.000
E05  24439566.031 8 128430775.531 8     -1620.500          51.000    24439568.094 8  98407990.882 8     -1241.673          51.000
E24  22942154.016 6 120561832.349 6     -1492.992          37.000    22942165.234 7  92378572.916 7     -1143.769          44.000
E25  23919419.289 8 125697458.986 8      1432.570          51.000    23919419.391 8  96313619.035 8      1097.681          51.000
> 2020 05 19 03 16  0.0000000  0 14        .000000000000
G05  21071860.336 8 110733354.866 8     -1832.238          51.000    21071858.961 8  86285740.190 8     -1427.721          51.000
G07  23230975.039 5 122079587.659 5     -2690.766          34.000    23230974.320 5  95126975.692 5     -2096.697          30.000
G28  21219406.766 8 111508720.673 8      1467.934          50.000    21219405.336 7  86889931.509 7      1143.844          47.000
G30  20968040.164 8 110187793.057 8     -1622.227          51.000    20968041.219 8  85860681.348 8     -1264.073          51.000
R03  22141649.758 7 118526069.484 7     -3655.930          44.000    22141651.969 7  92186901.761 7     -2843.501          43.000
R04  19240139.555 8 103030041.523 8      -638.453          50.000    19240140.977 7  80134495.956 7      -496.578          47.000
R14  19234754.391 8 102532081.777 8      -825.953          51.000    19234756.102 7  79747242.588 7      -642.405          47.000
R15  20631953.891 8 110250956.876 8      3023.992          51.000    20631957.703 7  85750725.857 7      2351.994          47.000
C05  39813090.891 6 207317210.999 6         6.430          36.000    39813088.156 6 160310804.155 6         5.528          40.000
C22  22541406.711 8 117379005.650 8     -1868.066          51.000
E03  23596933.273 7 124002720.498 7       885.672          43.000    23596934.617 6  95015074.948 6       678.563          40.000
E05  24448842.906 8 128479525.940 8     -1629.199          51.000    24448844.617 8  98445345.074 8     -1248.383          51.000
E24  22950710.812 5 120606800.406 5     -1504.637          34.000    22950722.594 7  92413028.916 7     -1152.939          44.000
E25  23911279.531 8 125654683.859 8      1419.410          51.000    23911279.547 8  96280843.319 8      1087.588          51.000
> 2020 05 19 03 16 30.0000000  0 13        .000000000000
G05  21082367.172 8 110788569.450 8     -1848.820          51.000    21082365.867 8  86328764.531 8     -1440.639          51.000
G28  21211074.000 8 111464930.506 8      1451.254          51.000    21211072.898 8  86855809.291 8      1130.847          48.000
G30  20977328.609 8 110236603.843 8     -1631.875          51.000    20977329.734 8  85898715.723 8     -1271.591          51.000
R03  22162168.117 8 118635900.649 8     -3666.238          48.000    22162170.844 7  92272325.982 7     -2851.519          44.000
R04  19243776.414 8 103049512.493 8      -659.734          51.000    19243776.820 7  80149640.022 7      -513.130          46.000
R14  19239462.344 8 102557178.524 8      -847.387          50.000    19239464.453 7  79766762.288 7      -659.079          47.000
R15  20615022.781 8 110160473.989 8      3007.977          51.000    20615026.078 8  85680350.290 8      2339.537          48.000
C05  39813048.172 5 207316989.022 5         7.285          35.000    39813045.484 6 160310632.490 6         6.147          40.000
C22  22552203.961 8 117435228.661 8     -1880.258          51.000
E03  23591899.430 6 123976266.326 6       877.980          41.000    23591900.141 6  94994804.886 6       672.807          41.000
E05  24458164.766 8 128528511.875 8     -1636.453          51.000    24458166.094 8  98482879.730 8     -1253.846          51.000
E24  22959329.359 5 120652089.951 5     -1515.133          33.000    22959342.914 7  92447738.283 7     -1161.024          43.000
E25  23903210.070 8 125612278.266 8      1407.609          51.000    23903210.203 8  96248350.749 8      1078.600          51.000
> 2020 05 19 03 17  0.0000000  0 14        .000000000000
G05  21092972.289 8 110844301.700 8     -1867.293          50.000    21092971.312 8  86372192.238 8     -1455.033          51.000
G07  23261739.461 5 122241259.926 5     -2698.652          35.000
G28  21202840.086 8 111421660.074 8      1432.750          51.000    21202839.242 8  86822092.080 8      1116.432          48.000
G30  20986676.383 8 110285726.747 8     -1643.504          51.000    20986677.398 8  85936993.297 8     -1280.652          51.000
R03  22182747.641 8 118746057.047 8     -3678.227          49.000    22182750.102 7  92358003.125 7     -2860.846          44.000
R04  19247535.938 8 103069640.991 8      -682.898          51.000    19247535.516 7  80165295.528 7      -531.143          47.000
R14  19244294.938 8 102582939.184 8      -870.754          50.000    19244296.906 8  79786798.345 8      -677.253          48.000
R15  20598185.461 8 110070492.640 8      2990.043          51.000    20598188.242 8  85610364.835 8      2325.589          48.000
C05  39813005.469 5 207316766.363 5         6.465          35.000    39813002.805 6 160310460.318 6         4.930          40.000
C22  22563075.805 8 117491839.481 8     -1894.379          51.000
E03  23586911.484 6 123950057.463 6       868.555          39.000    23586912.070 6  94974722.776 6       665.447          41.000
E05  24467532.664 8 128577738.951 8     -1645.914          51.000    24467533.383 8  98520599.172 8     -1261.155          51.000
E24  22968013.281 6 120697723.579 6     -1527.605          40.000    22968026.219 7  92482704.277 7     -1170.602          43.000
E25  23895212.227 8 125570248.449 8      1393.695          51.000    23895212.477 8  96216146.113 8      1067.893          51.000
> 2020 05 19 03 17 30.0000000  0 13        .000000000000
G05  21103677.094 8 110900559.369 8     -1883.523          50.000    21103676.727 8  86416029.359 8     -1467.681          50.000
G28  21194707.031 8 111378920.314 8      1416.223          51.000    21194706.250 7  86788788.374 7      1103.550          46.000
G30  20996085.008 8 110335169.960 8     -1652.953          51.000    20996086.094 8  85975520.487 8     -1288.015          51.000
R03  22203389.133 8 118856546.507 8     -3688.070          49.000    22203391.133 7  92443939.307 7     -2868.502          44.000
R04  19251419.773 8 103090437.355 8      -703.871          51.000    19251418.914 7  80181470.466 7      -547.458          47.000
R14  19249253.305 8 102609371.323 8      -891.832          49.000    19249255.664 8  79807356.681 8      -693.644          48.000
R15  20581443.742 8 109981024.606 8      2974.164          51.000    20581446.078 8  85540778.611 8      2313.239          48.000
C05                                                                  39812961.781 6 160310295.071 6         5.667          40.000
C22  22574023.602 8 117548846.899 8     -1906.363          51.000
E03  23581971.953 6 123924104.570 6       861.250          40.000    23581972.922 6  94954836.775 6       659.874          41.000
E05  24476948.031 8 128627216.760 8     -1653.074          51.000    24476948.906 8  98558510.726 8     -1266.677          51.000
E24  22976762.438 6 120743700.343 6     -1537.848          40.000    22976775.148 7  92517933.205 7     -1178.351          43.000
E25  23887287.875 8 125528604.612 8      1382.133          51.000    23887288.328 8  96184237.213 8      1059.022          51.000
> 2020 05 19 03 18  0.0000000  0 13        .000000000000
G05  21114477.430 8 110957318.641 8     -1900.473          49.000    21114477.422 8  86460257.369 8     -1480.888          49.000
G28  21186671.070 8 111336690.492 8      1398.914          51.000    21186670.133 7  86755882.024 7      1090.063          46.000
G30  21005550.164 8 110384910.253 8     -1663.141          51.000    21005551.492 8  86014279.176 8     -1295.954          51.000
R03  22224087.648 8 118967344.919 8     -3698.641          49.000    22224089.617 7  92530115.819 7     -2876.720          45.000
R04  19255424.391 8 103111880.083 8      -725.660          51.000    19255423.141 7  80198148.137 7      -564.402          46.000
R14  19254333.227 8 102636450.821 8      -913.582          50.000    19254335.672 8  79828418.505 8      -710.567          48.000
R15  20564793.461 8 109892049.680 8      2957.473          49.000    20564795.688 7  85471575.864 7      2300.253          47.000
C05  39812921.086 6 207316326.284 6         7.707          36.000    39812918.352 6 160310120.009 6         5.830          40.000
C22  22585043.039 8 117606228.421 8     -1919.133          51.000
E03  23577077.227 6 123898386.834 6       852.988          39.000    23577078.422 6  94935130.964 6       653.774          41.000
E05  24486406.758 8 128676923.383 8     -1660.875          51.000    24486408.297 8  98596597.609 8     -1272.645          51.000
E24  22985572.703 6 120789997.049 6     -1548.645          41.000    22985585.852 7  92553407.324 7     -1186.717          43.000
E25  23879432.656 8 125487325.457 8      1369.641          51.000    23879433.523 8  96152607.748 8      1049.483          51.000
> 2020 05 19 03 18 30.0000000  0 13        .000000000000
G05  21125374.750 8 111014585.751 8     -1917.047          50.000    21125374.805 8  86504881.106 8     -1493.803          50.000
G28  21178733.820 8 111294980.260 8      1381.887          50.000    21178732.680 7  86723380.574 7      1076.795          45.000
G30  21015073.258 8 110434954.410 8     -1672.922          51.000    21015074.633 8  86053274.607 8     -1303.579          51.000
R03  22244844.906 8 119078458.130 8     -3708.789          49.000    22244846.719 7  92616537.203 7     -2884.611          44.000
R04  19259550.930 8 103133977.923 8      -747.262          50.000    19259549.453 7  80215335.356 7      -581.204          46.000
R14  19259535.703 8 102664183.298 8      -935.074          50.000    19259538.344 8  79849988.229 8      -727.280          49.000
R15  20548236.219 8 109803578.280 8      2940.844          48.000    20548239.203 7  85402764.720 7      2287.323          46.000
C05  39812876.695 5 207316095.316 5         8.023          35.000    39812874.008 6 160309941.386 6         6.292          40.000
C22  22596135.102 8 117663991.225 8     -1931.473          51.000
E03  23572228.984 6 123872913.391 6       845.047          40.000    23572230.023 6  94915612.361 6       647.638          41.000
E05  24495910.523 8 128726866.871 8     -1668.402          51.000    24495912.461 8  98634865.988 8     -1278.404          51.000
E24  22994445.414 6 120836620.458 6     -1559.090          41.000    22994458.742 7  92589131.746 7     -1194.696          43.000
E25  23871648.336 8 125446419.640 8      1357.574          51.000    23871649.789 8  96121264.349 8      1040.222          51.000
> 2020 05 19 03 19  0.0000000  0 13        .000000000000
G05  21136368.836 8 111072358.695 8     -1934.781          51.000    21136368.602 8  86549899.002 8     -1507.619          51.000
G28  21170895.297 8 111253790.368 8      1363.797          49.000    21170893.859 7  86691284.582 7      1062.699          44.000
G30  21024653.789 8 110485300.309 8     -1683.734          51.000    21024655.125 8  86092505.159 8     -1312.001          51.000
R03  22265660.969 8 119189883.620 8     -3719.891          48.000    22265661.758 7  92703201.506 7     -2893.248          43.000
R04  19263799.375 8 103156730.827 8      -769.863          50.000    19263798.195 7  80233032.035 7      -598.783          45.000
R14  19264860.359 8 102692566.282 8      -957.398          51.000    19264862.922 8  79872063.902 8      -744.643          49.000
R15  20531773.508 8 109715611.731 8      2923.199          50.000    20531776.344 7  85334346.302 7      2273.599          45.000
C05  39812831.430 6 207315860.249 6         7.355          36.000    39812828.648 6 160309758.839 6         5.745          40.000
C22  22607300.023 8 117722133.857 8     -1944.957          51.000
E03  23567427.203 6 123847684.594 6       836.371          40.000    23567428.633 7  94896281.223 7       640.835          42.000
E05  24505459.172 8 128777046.542 8     -1677.098          51.000    24505461.719 8  98673315.343 8     -1285.031          51.000
E24  23003379.391 6 120883568.519 6     -1570.910          41.000    23003392.867 7  92625104.904 7     -1203.394          42.000
E25  23863935.156 8 125405887.102 8      1344.387          51.000    23863937.070 8  96090206.964 8      1030.079          51.000
> 2020 05 19 03 19 30.0000000  0 14        .000000000000
G05  21147456.906 8 111130624.145 8     -1952.160          51.000    21147456.375 8  86595300.643 8     -1521.164          51.000
G07  23339005.273 5 122647291.455 5     -2717.402          34.000
G28  21163153.695 8 111213110.448 8      1345.828          48.000    21163152.344 7  86659585.965 7      1048.700          46.000
G30  21034289.180 8 110535934.554 8     -1694.199          51.000    21034290.359 8  86131960.407 8     -1320.155          51.000
R03  22286532.344 7 119301607.231 7     -3730.742          46.000    22286533.102 7  92790097.674 7     -2901.688          43.000
R04  19268168.297 8 103180126.914 8      -792.332          50.000    19268167.023 7  80251228.979 7      -616.258          45.000
R14  19270304.258 8 102721585.322 8      -979.637          50.000    19270306.672 8  79894634.264 8      -761.940          50.000
R15  20515404.430 8 109628139.626 8      2905.762          51.000    20515406.500 7  85266312.515 7      2260.040          46.000
C05  39812782.711 6 207315606.128 6         7.227          36.000    39812780.055 6 160309563.147 6         5.380          40.000
C22  22618535.789 8 117780643.459 8     -1958.176          51.000
E03  23562670.070 6 123822689.554 6       827.477          39.000    23562672.688 7  94877129.182 7       634.094          43.000
E05  24515050.328 8 128827450.336 8     -1685.684          50.000    24515053.406 8  98711936.427 8     -1291.583          51.000
E24  23012372.406 7 120930827.807 7     -1582.133          42.000    23012385.734 7  92661316.584 7     -1212.370          42.000
E25  23856290.820 8 125365716.351 8      1331.258          51.000    23856293.133 8  96059426.790 8      1020.016          51.000
> 2020 05 19 03 20  0.0000000  0 14        .000000000000
G05  21158634.695 8 111189360.446 8     -1963.895          51.000    21158633.742 8  86641069.177 8     -1530.307          51.000
G07  23354510.086 5 122728768.053 5     -2715.910          32.000    23354515.664 5  95632837.052 5     -2116.294          30.000
G28  21155505.953 8 111172922.279 8      1333.270          49.000    21155505.156 7  86628270.517 7      1038.911          47.000
G30  21043975.430 8 110586836.362 8     -1699.309          51.000    21043976.469 8  86171624.129 8     -1324.137          51.000
R03  22307453.883 7 119413606.742 7     -3735.977          45.000    22307456.016 7  92877208.425 7     -2905.760          43.000
R04  19272653.664 8 103204147.015 8      -809.203          50.000    19272652.359 7  80269911.262 7      -629.383          45.000
R14  19275863.406 8 102751218.615 8      -995.984          51.000    19275865.852 8  79917682.367 8      -774.655          50.000
R15  20499125.211 8 109541144.169 8      2893.824          51.000    20499127.414 8  85198649.412 8      2250.755          48.000
C05  39812727.242 6 207315317.521 6        11.703          36.000    39812724.641 6 160309339.524 6         9.143          40.000
C22  22629838.352 8 117839499.969 8     -1965.730          51.000
E03  23557954.484 6 123797909.899 6       824.137          38.000    23557957.844 7  94858142.145 7       631.499          43.000
E05  24524680.695 8 128878058.809 8     -1688.566          51.000    24524683.742 8  98750714.354 8     -1293.908          51.000
E24  23021420.938 7 120978377.557 7     -1588.016          43.000    23021433.641 6  92697750.796 6     -1216.872          41.000
E25  23848711.711 8 125325888.496 8      1323.750          51.000    23848714.180 8  96028909.351 8      1014.260          51.000
> 2020 05 19 03 20 30.0000000  0 13        .000000000000
G05  21169930.742 8 111248719.269 8     -1984.145          51.000    21169929.359 8  86687322.793 8     -1546.087          51.000
G28  21147981.352 8 111133380.342 8      1312.129          49.000    21147980.977 8  86597458.630 8      1022.441          48.000
G30  21053741.539 8 110638157.718 8     -1712.793          51.000    21053742.727 8  86211614.772 8     -1334.644          51.000
R03  22328456.047 7 119526036.500 7     -3749.840          47.000    22328458.508 7  92964653.776 7     -2916.542          42.000
R04  19277284.984 8 103228947.823 8      -834.699          50.000    19277283.789 7  80289200.747 7      -649.211          45.000
R14  19281566.375 8 102781619.522 8     -1021.102          50.000    19281569.023 8  79941327.495 8      -794.190          50.000
R15  20482964.422 8 109454783.636 8      2873.055          51.000    20482967.367 8  85131480.115 8      2234.598          49.000
C05  39812693.992 6 207315143.752 6         8.312          36.000    39812691.328 6 160309205.508 6         6.763          40.000
C22  22641236.945 8 117898854.550 8     -1981.953          51.000
E03  23553309.695 6 123773500.021 6       812.293          40.000    23553312.992 7  94839438.421 7       622.457          43.000
E05  24534379.531 8 128929025.263 8     -1699.941          51.000    24534382.453 8  98789766.570 8     -1302.523          51.000
E24  23030553.383 7 121026369.733 7     -1602.188          44.000    23030565.430 6  92734524.000 6     -1227.614          41.000
E25  23841227.102 8 125286557.468 8      1307.625          51.000    23841229.602 8  95998772.583 8      1001.940          51.000
> 2020 05 19 03 21  0.0000000  0 13        .000000000000
G05  21181307.328 8 111308502.895 8     -2001.973          51.000    21181305.664 8  86733907.433 8     -1559.982          51.000
G28  21140542.938 8 111094290.332 8      1293.348          51.000    21140542.680 8  86566998.870 8      1007.803          49.000
G30  21063549.953 8 110689701.397 8     -1723.910          50.000    21063551.328 8  86251778.676 8     -1343.304          50.000
R03  22349501.664 7 119638694.808 7     -3761.219          47.000    22349502.758 6  93052276.854 6     -2925.392          41.000
R04  19282024.852 8 103254330.253 8      -857.883          50.000    19282023.703 7  80308942.630 7      -667.242          46.000
R14  19287375.695 8 102812587.155 8     -1043.750          51.000    19287378.406 8  79965413.436 8      -811.806          50.000
R15  20466884.461 8 109368860.618 8      2854.668          49.000    20466888.555 8  85064651.054 8      2220.294          48.000
C05  39812645.750 5 207314893.816 5         7.715          35.000    39812643.000 6 160309011.082 6         6.002          40.000
C22  22652693.969 8 117958512.297 8     -1995.707          51.000
E03  23548698.273 7 123749265.062 7       803.004          42.000    23548701.141 7  94820868.782 7       615.370          43.000
E05  24544109.289 8 128980153.789 8     -1708.926          51.000    24544112.156 8  98828942.957 8     -1309.386          51.000
E24  23039732.383 7 121074607.127 7     -1613.965          44.000    23039743.727 6  92771485.086 6     -1236.573          40.000
E25  23833799.820 8 125247527.953 8      1293.988          51.000    23833802.609 8  95968866.847 8       991.492          51.000
> 2020 05 19 03 21 30.0000000  0 13        .000000000000
G05  21192782.125 8 111368804.265 8     -2017.918          51.000    21192780.641 8  86780895.500 8     -1572.404          51.000
G28  21133208.969 8 111055748.003 8      1276.301          51.000    21133208.555 8  86536965.866 8       994.517          49.000
G30  21073418.461 8 110741560.756 8     -1733.102          49.000    21073419.695 8  86292188.572 8     -1350.469          49.000
R03  22370607.711 7 119751676.272 7     -3770.734          46.000    22370607.711 7  93140151.304 7     -2932.793          42.000
R04  19286891.625 8 103280391.300 8      -879.285          50.000    19286890.430 7  80329212.334 7      -683.888          46.000
R14  19293309.102 8 102844215.433 8     -1064.527          51.000    19293311.695 8  79990013.215 8      -827.966          50.000
R15  20450904.312 8 109283473.512 8      2837.934          50.000    20450908.945 7  84998238.834 7      2207.282          46.000
C05  39812600.562 6 207314657.770 6         8.098          36.000    39812597.711 6 160308828.910 6         6.419          40.000
C22  22664227.148 8 118018566.103 8     -2007.715          51.000
E03  23544138.305 6 123725300.823 6       795.258          41.000    23544140.617 7  94802506.594 7       609.201          43.000
E05  24553887.891 8 129031539.065 8     -1716.410          51.000    24553890.758 8  98868316.068 8     -1315.180          51.000
E24  23048976.125 7 121123183.035 7     -1623.930          45.000    23048987.273 6  92808705.591 6     -1244.474          40.000
E25  23826448.125 8 125208895.141 8      1281.840          51.000    23826451.148 8  95939265.082 8       982.186          51.000
> 2020 05 19 03 22  0.0000000  0 13        .000000000000
G05  21204350.039 8 111429597.310 8     -2034.852          49.000    21204349.219 8  86828266.678 8     -1585.599          49.000
G28  21125974.875 8 111017730.729 8      1258.344          51.000    21125974.156 8  86507342.016 8       980.528          49.000
G30  21083342.156 8 110793710.432 8     -1743.453          48.000    21083343.297 8  86332824.693 8     -1358.535          48.000
R03  22391768.484 7 119864954.184 7     -3781.105          45.000    22391769.438 7  93228256.289 7     -2940.863          44.000
R04  19291880.500 8 103307106.826 8      -901.691          50.000    19291879.672 7  80349991.086 7      -701.316          47.000
R14  19299361.422 8 102876477.508 8     -1086.211          51.000    19299364.039 8  80015105.942 8      -844.831          50.000
R15  20435021.867 8 109198599.578 8      2820.297          51.000    20435024.758 7  84932225.825 7      2193.567          45.000
C05  39812553.828 6 207314414.331 6         8.566          36.000    39812551.000 6 160308640.655 6         6.546          40.000
C22  22675831.266 8 118078991.281 8     -2020.648          51.000
E03  23539625.664 7 123701584.437 7       786.152          42.000    23539627.516 7  94784334.257 7       602.613          43.000
E05  24563710.844 8 129083157.005 8     -1724.766          51.000    24563713.508 8  98907867.457 8     -1321.460          51.000
E24  23058279.555 7 121172072.121 7     -1634.887          44.000    23058291.461 6  92846166.006 6     -1252.732          40.000
E25  23819167.516 8 125170635.545 8      1268.824          51.000    23819170.742 8  95909949.283 8       972.249          51.000
> 2020 05 19 03 22 30.0000000  0 15        .000000000000
G05  21216011.250 8 111490880.641 8     -2052.227          49.000    21216010.867 8  86876019.900 8     -1599.138          49.000
G07  23432410.492 5 123138114.688 5     -2737.676          35.000    23432412.438 5  95951816.172 5     -2133.248          32.000
G28  21118840.750 8 110980240.033 8      1239.551          51.000    21118839.789 8  86478128.499 8       965.884          48.000
G30  21093320.852 8 110846149.186 8     -1753.977          49.000    21093322.094 8  86373686.079 8     -1366.735          48.000
R03  22412983.891 7 119978526.573 7     -3791.973          45.000    22412986.352 7  93316590.353 7     -2949.315          44.000
R04  19296991.914 8 103334477.445 8      -924.562          51.000    19296991.172 7  80371279.354 7      -719.104          47.000
R14  19305532.164 8 102909371.489 8     -1108.281          51.000    19305534.867 8  80040690.158 8      -861.997          50.000
R15  20419236.117 8 109114241.048 8      2802.047          51.000    20419237.312 7  84866613.702 7      2179.373          45.000
C05  39812505.695 6 207314163.335 6         7.223          36.000    39812502.930 6 160308446.542 6         5.739          40.000
C22  22687506.266 8 118139787.153 8     -2033.914          51.000
C26  25611491.773 6 133365756.113 6      3086.242          39.000
E03  23535160.211 7 123678117.029 7       776.723          42.000    23535162.055 7  94766352.750 7       595.352          43.000
E05  24573577.945 8 129135007.786 8     -1733.547          51.000    24573580.266 8  98947597.264 8     -1328.323          51.000
E24  23067642.320 7 121221273.081 7     -1646.637          44.000    23067654.477 6  92883865.441 6     -1261.409          40.000
E25  23811957.797 8 125132749.831 8      1255.453          51.000    23811961.641 8  95880919.972 8       961.953          51.000
> 2020 05 19 03 23  0.0000000  0 15        .000000000000
G05  21227769.594 8 111552671.213 8     -2067.348          51.000    21227768.984 8  86924168.416 8     -1610.920          51.000
G07  23448047.383 5 123220280.986 5     -2739.844          35.000    23448043.664 5  96015841.915 5     -2134.934          34.000
G28  21111810.430 8 110943296.087 8      1223.082          50.000    21111809.281 7  86449340.988 7       953.048          46.000
G30  21103357.984 8 110898894.645 8     -1762.430          48.000    21103359.211 8  86414786.432 8     -1373.322          48.000
R03  22434257.258 7 120092410.451 7     -3800.449          45.000    22434261.211 7  93405166.733 7     -2955.905          45.000
R04  19302229.297 8 103362522.592 8      -945.277          51.000    19302228.539 7  80393092.242 7      -735.216          46.000
R14  19311824.750 8 102942914.047 8     -1128.102          51.000    19311827.344 8  80066778.804 8      -877.412          50.000
R15  20403550.281 8 109030418.844 8      2785.852          51.000    20403550.828 7  84801418.685 7      2166.773          46.000
C05  39812459.664 5 207313924.568 5         8.301          35.000    39812456.945 6 160308261.146 6         6.533          40.000
C22  22699256.031 8 118200971.515 8     -2045.176          51.000
C26  25593720.328 7 133273211.461 7      3083.523          44.000
E03  23530745.953 7 123654918.606 7       769.492          43.000    23530747.289 7  94748577.339 7       589.572          43.000
E05  24583492.883 8 129187110.170 8     -1740.234          51.000    24583494.719 8  98987519.850 8     -1333.429          51.000
E24  23077067.945 7 121270803.468 7     -1655.758          45.000    23077079.117 6  92921817.284 6     -1268.820          40.000
E25  23804822.750 8 125095257.391 8      1243.809          51.000    23804827.297 8  95852192.020 8       953.021          51.000
> 2020 05 19 03 23 30.0000000  0 16        .000000000000
G05  21239616.273 8 111614924.195 8     -2083.809          51.000    21239615.398 8  86972677.240 8     -1623.747          51.000
G07  23463697.422 6 123302515.997 6     -2742.965          36.000    23463689.164 5  96079921.108 5     -2137.369          31.000
G15  22422350.828 5 117830270.201 5      2888.523          35.000
G28  21104875.719 8 110906856.719 8      1205.199          48.000    21104874.609 7  86420946.624 7       939.116          45.000
G30  21113445.117 7 110951902.005 7     -1772.277          47.000    21113445.969 7  86456090.878 7     -1380.995          47.000
R03  22455579.781 7 120206559.822 7     -3810.512          43.000    22455585.852 7  93493949.612 7     -2963.731          45.000
R04  19307584.266 8 103391198.604 8      -967.457          51.000    19307583.547 7  80415395.776 7      -752.470          46.000
R14  19318230.164 8 102977059.019 8     -1149.246          51.000    19318232.859 8  80093336.004 8      -893.858          50.000
R15  20387956.484 8 108947090.900 8      2768.289          51.000    20387957.031 7  84736608.068 7      2153.114          47.000
C05  39812407.500 5 207313652.052 5         8.898          35.000    39812404.766 6 160308051.164 6         6.851          40.000
C22  22711071.891 8 118262500.484 8     -2057.707          51.000
C26  25575966.672 7 133180756.481 7      3079.301          44.000
E03  23526374.789 7 123631946.811 7       760.895          42.000    23526375.523 7  94730975.600 7       582.927          43.000
E05  24593447.312 8 129239420.717 8     -1748.164          51.000    24593448.938 8  99027601.942 8     -1339.511          51.000
E24  23086547.648 7 121320618.513 7     -1666.164          45.000    23086558.750 6  92959987.224 6     -1276.755          40.000
E25  23797754.562 8 125058115.339 8      1231.246          51.000    23797759.570 8  95823732.534 8       943.425          51.000
> 2020 05 19 03 24  0.0000000  0 17        .000000000000
G05  21251556.406 8 111677668.159 8     -2098.203          51.000    21251554.898 8  87021568.652 8     -1634.963          51.000
G07  23479362.398 5 123384882.122 5     -2745.254          33.000
G15  22405873.047 5 117743697.004 5      2884.285          34.000
G28  21098043.211 8 110870953.824 8      1189.266          49.000    21098042.125 7  86392970.346 7       926.704          44.000
G30  21123587.750 7 111005201.169 7     -1779.793          46.000    21123588.328 7  86497622.698 7     -1386.852          46.000
R03  22476957.734 7 120321004.125 7     -3818.145          44.000    22476965.336 7  93582961.849 7     -2969.671          45.000
R04  19313063.234 8 103420537.477 8      -987.562          51.000    19313061.969 7  80438214.879 7      -768.104          46.000
R14  19324754.258 8 103011835.768 8     -1168.285          51.000    19324756.891 8  80120384.575 8      -908.666          50.000
R15  20372460.828 8 108864290.749 8      2752.625          50.000    20372462.492 8  84672207.918 8      2140.931          48.000
C05  39812355.344 6 207313380.992 6        10.586          36.000    39812352.555 6 160307840.755 6         8.267          40.000
C22  22722959.484 8 118324404.074 8     -2068.230          51.000
C26  25558235.734 6 133088423.046 6      3077.219          41.000
E02  26727591.500 6 140454441.076 6      3044.422          40.000    26727594.938 5 107620945.790 5      2332.562          34.000
E03  23522052.758 7 123609234.017 7       754.102          43.000    23522053.609 7  94713572.282 7       577.785          44.000
E05  24603447.102 8 129291970.618 8     -1754.148          51.000    24603449.055 8  99067867.428 8     -1344.064          51.000
E24  23096087.125 7 121370748.039 7     -1674.613          44.000    23096099.547 6  92998398.169 6     -1283.280          41.000
E25  23790759.156 8 125021355.391 8      1220.441          51.000    23790764.445 8  95795565.830 8       935.176          51.000
> 2020 05 19 03 24 30.0000000  0 17        .000000000000
G05  21263589.828 8 111740902.188 8     -2117.336          51.000    21263587.758 8  87070841.913 8     -1649.872          51.000
G07  23495048.102 5 123467295.029 5     -2750.922          33.000    23495047.117 5  96208271.092 5     -2143.575          33.000
G15  22389436.617 5 117657284.453 5      2874.164          32.000
G28  21091314.062 8 110835589.696 8      1168.469          51.000    21091311.891 7  86365413.890 7       910.495          42.000
G30  21133785.703 7 111058791.146 7     -1792.539          47.000    21133786.172 7  86539381.130 7     -1396.787          47.000
R03  22498391.898 7 120435741.777 7     -3830.773          46.000    22498398.305 6  93672202.222 6     -2979.493          40.000
R04  19318665.852 8 103450539.879 8     -1012.609          51.000    19318664.680 7  80461550.052 7      -787.585          46.000
R14  19331396.422 8 103047242.337 8     -1192.176          51.000    19331398.938 8  80147923.015 8      -927.248          49.000
R15  20357064.688 8 108782020.693 8      2732.113          51.000    20357067.352 7  84608220.058 7      2124.977          47.000
C05  39812303.070 5 207313109.205 5         7.516          35.000    39812300.305 6 160307630.185 6         5.920          40.000
C22  22734918.875 8 118386681.715 8     -2083.531          51.000
C26  25540527.336 6 132996212.804 6      3070.410          40.000
E02  26710233.383 6 140363219.290 6      3037.332          40.000    26710235.719 5 107551048.597 5      2327.244          34.000
E03  23517780.297 7 123586781.549 7       742.652          44.000    23517781.586 7  94696368.447 7       569.120          44.000
E05  24613492.562 8 129344760.184 8     -1765.047          51.000    24613494.586 8  99108316.573 8     -1352.447          51.000
E24  23105686.164 7 121421191.039 7     -1688.090          45.000    23105699.727 6  93037049.280 6     -1293.283          40.000
E25  23783836.508 8 124984978.365 8      1204.801          50.000    23783841.875 8  95767692.540 8       923.132          51.000
> 2020 05 19 03 25  0.0000000  0 17        .000000000000
G05  21275718.781 8 111804639.279 8     -2133.344          51.000    21275716.594 8  87120507.179 8     -1662.346          51.000
G15  22373041.039 5 117571129.404 5      2867.297          34.000    22373030.141 5  91613817.698 5      2234.257          32.000
G28  21084690.789 8 110800780.456 8      1150.680          51.000    21084687.008 6  86338289.850 6       896.637          41.000
G30  21144041.617 7 111112685.873 7     -1801.891          47.000    21144042.039 8  86581377.000 8     -1404.071          48.000
R03  22519884.203 8 120550785.849 8     -3840.266          48.000    22519885.680 6  93761680.839 6     -2986.879          37.000
R04  19324395.008 8 103481221.750 8     -1034.406          50.000    19324394.102 7  80485413.721 7      -804.538          46.000
R14  19338159.227 8 103083291.587 8     -1212.688          51.000    19338161.586 8  80175961.317 8      -943.201          49.000
R15  20341771.828 8 108700297.839 8      2714.527          51.000    20341774.203 7  84544657.914 7      2111.302          46.000
C05  39812253.727 6 207312851.445 6         7.723          36.000    39812250.828 6 160307431.262 6         5.941          40.000
C21  22283962.133 6 116038440.846 6      1037.328          36.000
C22  22746952.969 8 118449347.497 8     -2095.680          51.000
C26  25522844.703 7 132904141.860 7      3066.250          42.000
E02  26692902.945 7 140272142.063 7      3033.152          42.000    26692903.914 5 107481262.123 5      2323.748          34.000
E03  23513560.523 7 123564605.748 7       734.195          45.000    23513562.133 7  94679376.602 7       562.676          45.000
E05  24623586.461 8 129397804.569 8     -1772.758          51.000    24623588.219 8  99148960.967 8     -1358.341          51.000
E24  23115347.250 7 121471961.310 7     -1698.117          45.000    23115360.797 6  93075951.167 6     -1301.292          40.000
E25  23776989.672 8 124948999.908 8      1192.355          50.000    23776995.008 8  95740124.638 8       913.638          51.000
> 2020 05 19 03 25 30.0000000  0 16        .000000000000
G05  21287940.445 8 111868865.063 8     -2148.203          51.000    21287938.742 8  87170553.222 8     -1673.925          51.000
G28  21078170.742 8 110766514.089 8      1133.848          51.000    21078165.922 7  86311588.836 7       883.518          43.000
G30  21154352.781 7 111166871.034 7     -1810.254          46.000    21154353.180 7  86623599.195 7     -1410.587          46.000
R03  22541430.930 8 120666121.194 8     -3848.641          49.000    22541429.992 6  93851386.009 6     -2993.387          40.000
R04  19330248.250 8 103512569.801 8     -1055.340          48.000    19330248.180 8  80509795.555 8      -820.820          48.000
R14  19345039.781 8 103119968.250 8     -1232.301          51.000    19345042.008 8  80204487.615 8      -958.456          49.000
R15  20326579.367 8 108619111.007 8      2697.941          51.000    20326580.844 7  84481512.667 7      2098.399          46.000
C05  39812204.742 6 207312596.493 6         9.004          36.000    39812201.906 6 160307234.103 6         7.014          40.000
C21  22278022.969 6 116007520.894 6      1024.055          37.000
C22  22759059.055 8 118512387.720 8     -2106.914          51.000
C26  25505186.609 7 132812198.341 7      3063.469          44.000
E02  26675597.797 7 140181197.875 7      3030.027          42.000    26675597.758 5 107411577.570 5      2321.829          35.000
E03  23509390.836 7 123542694.765 7       726.742          45.000    23509392.773 7  94662587.672 7       556.753          45.000
E05  24633726.477 8 129451090.762 8     -1779.512          51.000    24633728.102 8  99189790.648 8     -1363.465          51.000
E24  23125067.844 7 121523044.565 7     -1707.328          45.000    23125080.898 6  93115092.830 6     -1308.072          41.000
E25  23770216.742 8 124913407.612 8      1180.566          50.000    23770221.812 8  95712852.626 8       904.680          51.000
> 2020 05 19 03 26  0.0000000  0 16        .000000000000
G05  21300251.617 8 111933562.317 8     -2164.523          51.000    21300250.531 8  87220966.631 8     -1686.642          51.000
G28  21071751.344 8 110732777.392 8      1115.680          51.000    21071746.039 7  86285300.554 7       869.364          44.000
G30  21164716.117 7 111221330.663 7     -1819.820          46.000    21164716.422 7  86666035.267 7     -1418.042          46.000
R03  22563029.039 8 120781730.716 8     -3858.270          49.000    22563028.945 7  93941304.469 7     -3000.879          43.000
R04  19336222.977 7 103544569.579 7     -1077.457          46.000    19336224.375 8  80534684.277 8      -838.022          48.000
R14  19352034.820 8 103157254.982 8     -1253.020          51.000    19352037.125 8  80233488.408 8      -974.571          49.000
R15  20311484.031 8 108538447.262 8      2680.051          50.000    20311486.164 7  84418774.186 7      2084.481          47.000
C05  39812153.445 5 207312329.499 5         9.191          35.000    39812150.625 6 160307027.605 6         7.068          40.000
C21  22272164.398 5 115977017.585 5      1009.344          32.000
C22  22771233.992 8 118575786.966 8     -2119.320          51.000
C26  25487551.047 7 132720368.991 7      3059.062          46.000
E02  26658315.328 7 140090373.537 7      3025.348          42.000    26658314.336 5 107341984.880 5      2318.121          35.000
E03  23505268.641 7 123521035.036 7       717.742          44.000    23505270.945 7  94645991.247 7       549.979          46.000
E05  24643909.883 8 129504604.071 8     -1787.598          51.000    24643911.641 8  99230794.344 8     -1369.688          51.000
E24  23134845.000 7 121574424.771 7     -1717.852          43.000    23134857.930 6  93154462.063 6     -1316.249          41.000
E25  23763514.852 8 124878187.263 8      1167.871          49.000    23763519.516 8  95685865.620 8       894.814          51.000
> 2020 05 19 03 26 30.0000000  0 17        .000000000000
G05  21312655.273 8 111998744.519 8     -2179.773          51.000    21312654.227 8  87271757.939 8     -1698.525          51.000
G07  23557964.453 5 123797938.381 5     -2761.230          34.000
G28  21065435.375 8 110699586.227 8      1098.328          51.000    21065430.055 7  86259437.325 7       855.840          45.000
G30  21175134.242 7 111276078.236 7     -1828.613          46.000    21175134.445 7  86708695.693 7     -1424.893          45.000
R03  22584680.633 8 120897627.472 8     -3866.891          48.000    22584681.594 7  94031446.397 7     -3007.582          44.000
R04  19342322.852 8 103577236.175 8     -1098.926          48.000    19342325.172 8  80560091.658 8      -854.717          49.000
R14  19359146.523 8 103195164.362 8     -1272.914          51.000    19359148.688 8  80262973.463 8      -990.044          49.000
R15  20296489.133 8 108458323.136 8      2662.867          51.000    20296492.766 8  84356455.373 8      2071.119          48.000
C05  39812102.531 5 207312064.188 5         9.926          35.000    39812099.852 6 160306823.240 6         7.715          40.000
C21  22266388.852 5 115946946.921 5       995.934          35.000
C22  22783480.734 8 118639558.900 8     -2130.789          51.000
C26  25469940.977 7 132628669.468 7      3055.512          47.000
E02  26641058.750 6 139999685.171 6      3021.879          41.000    26641056.031 6 107272496.399 6      2315.259          36.000
E03  23501197.430 7 123499642.400 7       709.676          45.000    23501199.961 7  94629599.469 7       543.718          46.000
E05  24654139.297 8 129558359.227 8     -1794.832          51.000    24654140.898 8  99271983.350 8     -1375.270          51.000
E24  23144681.469 7 121626115.263 7     -1727.180          42.000    23144693.898 6  93194069.071 6     -1323.328          41.000
E25  23756886.555 8 124843354.053 8      1155.723          50.000    23756890.719 8  95659175.248 8       885.566          51.000
> 2020 05 19 03 27  0.0000000  0 16        .000000000000
G05  21325149.312 8 112064401.587 8     -2196.227          51.000    21325147.930 8  87322919.289 8     -1711.345          51.000
G28  21059221.625 8 110666933.669 8      1079.707          51.000    21059216.938 7  86233993.770 7       841.330          47.000
G30  21185605.312 7 111331104.746 7     -1838.691          44.000    21185605.836 7  86751573.476 7     -1432.747          45.000
R03  22606383.219 7 121013801.154 7     -3876.809          46.000    22606385.023 7  94121803.749 7     -3015.293          44.000
R04  19348546.258 8 103610561.984 8     -1121.629          48.000    19348549.125 8  80586011.749 8      -872.378          49.000
R14  19366372.969 8 103233686.293 8     -1293.961          51.000    19366375.203 8  80292934.946 8     -1006.414          49.000
R15  20281594.805 8 108378732.623 8      2644.266          51.000    20281598.711 8  84294551.623 8      2056.651          48.000
C05  39812050.836 6 207311795.121 6         9.301          36.000    39812048.188 6 160306615.141 6         7.189          40.000
C21  22260695.945 6 115917302.564 6       981.188          38.000
C22  22795797.664 8 118703694.852 8     -2143.738          51.000
C26  25452354.734 8 132537093.255 8      3050.754          48.000
E02  26623826.703 6 139909126.566 6      3016.766          41.000    26623822.445 6 107203107.335 6      2311.533          38.000
E03  23497176.211 7 123478510.170 7       700.398          45.000    23497178.648 7  94613407.245 7       536.600          46.000
E05  24664413.258 8 129612348.391 8     -1803.316          51.000    24664414.852 8  99313351.659 8     -1381.762          51.000
E24  23154574.727 7 121678106.975 7     -1737.766          43.000    23154586.992 6  93233906.853 6     -1331.574          41.000
E25  23750330.680 8 124808900.739 8      1142.320          51.000    23750334.203 8  95632775.955 8       875.269          51.000
> 2020 05 19 03 27 30.0000000  0 17        .000000000000
G05  21337734.859 8 112130541.348 8     -2212.742          48.000    21337733.266 8  87374456.761 8     -1724.215          48.000
G15  22291652.898 6 117143423.227 6      2833.570          36.000
G28  21053112.312 8 110634830.860 8      1060.801          51.000    21053108.695 8  86208978.590 8       826.598          48.000
G30  21196130.914 7 111386418.462 7     -1848.789          44.000    21196132.141 7  86794675.078 7     -1440.615          44.000
R03  22628138.133 7 121130259.646 7     -3886.828          44.000    22628140.711 7  94212382.630 7     -3023.089          43.000
R04  19354894.898 8 103644556.980 8     -1144.441          49.000    19354897.914 8  80612452.278 8      -890.121          48.000
R14  19373715.797 8 103272827.930 8     -1315.188          51.000    19373718.344 8  80323378.450 8     -1022.921          49.000
R15  20266802.961 8 108299687.212 8      2625.562          51.000    20266805.883 7  84233071.856 7      2042.104          47.000
C05  39812000.148 6 207311530.888 6         8.598          36.000    39811997.484 6 160306410.798 6         6.648          40.000
C21  22255087.070 6 115888095.618 6       965.672          38.000
C22  22808186.453 8 118768203.472 8     -2156.535          51.000
C26  25434794.336 8 132445651.039 8      3045.742          48.000
E02  26606621.086 6 139818708.790 6      3011.453          40.000    26606615.578 6 107133826.180 6      2307.306          38.000
E03  23493206.859 7 123457649.165 7       690.746          46.000    23493208.875 7  94597422.826 7       529.261          47.000
E05  24674733.664 8 129666581.179 8     -1811.957          51.000    24674735.398 8  99354906.646 8     -1388.392          51.000
E24  23164527.031 6 121730408.229 6     -1748.645          41.000    23164539.508 6  93273981.806 6     -1339.990          40.000
E25  23743849.109 8 124774837.384 8      1128.859          51.000    23743852.102 8  95606675.456 8       864.988          51.000
> 2020 05 19 03 28  0.0000000  0 18        .000000000000
G05  21350399.570 8 112197097.621 8     -2229.711          48.000    21350397.984 8  87426318.788 8     -1737.437          48.000
G13  20600841.156 4 108258135.681 4      1366.898          28.000
G15  22275484.125 6 117058452.549 6      2825.953          37.000    22275476.930 5  91214308.618 5      2202.051          32.000
G28  21047095.523 8 110603214.267 8      1041.465          51.000    21047092.758 8  86184342.268 8       811.531          49.000
G30  21206698.727 7 111441953.831 7     -1859.090          44.000    21206700.656 7  86837949.396 7     -1448.644          44.000
R03  22649933.648 7 121246935.419 7     -3897.039          46.000    22649936.672 7  94303130.437 7     -3031.033          43.000
R04  19361356.594 8 103679155.781 8     -1167.555          50.000    19361359.266 7  80639362.445 7      -908.098          47.000
R14  19381162.234 8 103312521.783 8     -1336.559          51.000    19381164.672 8  80354251.443 8     -1039.546          49.000
R15  20252100.930 8 108221123.485 8      2606.457          51.000    20252102.719 7  84171966.780 7      2027.247          46.000
C05  39811938.156 6 207311207.918 6         7.684          36.000    39811935.469 6 160306161.042 6         5.787          40.000
C21  22249550.734 6 115859263.797 6       950.531          40.000
C22  22820634.250 8 118833020.057 8     -2169.816          51.000
C26  25417247.719 8 132354280.179 8      3040.227          48.000
E02  26589429.391 6 139728368.954 6      3005.676          40.000    26589423.312 6 107064604.741 6      2303.059          38.000
E03  23489277.062 7 123436996.118 7       680.715          46.000    23489278.719 7  94581597.759 7       521.452          47.000
E05  24685087.977 8 129720993.201 8     -1820.898          51.000    24685089.820 8  99396598.967 8     -1395.324          51.000
E24  23174526.227 6 121782953.195 6     -1759.969          39.000    23174539.250 6  93314243.529 6     -1348.368          41.000
E25  23737429.633 8 124741100.108 8      1114.883          51.000    23737432.086 8  95580824.824 8       854.249          51.000
> 2020 05 19 03 28 30.0000000  0 17        .000000000000
G05  21363174.672 8 112264231.279 8     -2243.652          50.000    21363173.141 8  87478630.730 8     -1748.301          50.000
G15  22259377.148 6 116973800.704 6      2820.520          37.000
G28  21041202.523 8 110572248.378 8      1024.941          51.000    21041200.398 8  86160212.986 8       798.656          49.000
G30  21217339.664 7 111497872.740 7     -1866.844          44.000    21217341.898 7  86881522.570 7     -1454.683          43.000
R03  22671801.250 7 121363992.238 7     -3904.453          47.000    22671804.164 7  94394174.603 7     -3036.797          44.000
R04  19367961.961 8 103714524.709 8     -1188.008          50.000    19367964.219 7  80666871.587 7      -924.006          46.000
R14  19388742.953 8 103352930.606 8     -1355.133          51.000    19388745.477 8  80385680.529 8     -1053.992          49.000
R15  20237519.797 8 108143208.806 8      2590.066          51.000    20237521.125 7  84111366.524 7      2014.496          45.000
C05  39811896.000 6 207310989.071 6         9.191          36.000    39811893.219 6 160305991.042 6         7.071          40.000
C21  22244117.711 6 115830970.322 6       937.750          39.000
C22  22833172.016 8 118898305.326 8     -2180.277          51.000
C26  25399746.352 7 132263143.483 7      3037.539          46.000
E02  26572283.328 6 139638271.702 6      3002.883          41.000    26572278.172 6 106995569.157 6      2301.162          39.000
E03  23485417.953 7 123416715.261 7       673.531          47.000    23485419.516 8  94566057.877 8       516.112          48.000
E05  24695507.500 8 129775747.582 8     -1827.148          51.000    24695509.273 8  99438553.616 8     -1399.978          51.000
E24  23184602.383 6 121835903.749 6     -1767.891          40.000    23184616.000 6  93354816.049 6     -1354.743          41.000
E25  23731103.281 8 124707852.501 8      1103.809          51.000    23731105.250 8  95555349.385 8       845.787          51.000
> 2020 05 19 03 29  0.0000000  0 18        .000000000000
G05  21376027.070 8 112331768.503 8     -2259.355          51.000    21376025.367 8  87531257.115 8     -1760.540          51.000
G07  23637039.852 5 124213481.807 5     -2777.184          32.000
G15  22243297.266 5 116889297.243 5      2812.719          32.000    22243280.125 4  91082526.040 4      2191.732          27.000
G28  21035400.742 8 110541761.544 8      1006.875          51.000    21035399.219 8  86136457.001 8       784.578          49.000
G30  21228020.625 7 111554001.435 7     -1875.648          42.000    21228022.617 7  86925259.195 7     -1461.547          42.000
R03  22693706.703 7 121481252.299 7     -3913.426          46.000    22693709.602 7  94485376.824 7     -3043.779          42.000
R04  19374677.961 8 103750488.229 8     -1210.117          50.000    19374680.062 7  80694843.164 7      -941.202          46.000
R14  19396424.492 8 103393877.352 8     -1375.301          51.000    19396427.219 8  80417528.013 8     -1069.678          49.000
R15  20223027.938 8 108065769.687 8      2571.977          51.000    20223029.398 7  84051136.084 7      2000.423          45.000
C05  39811840.836 5 207310701.604 5         9.152          35.000    39811838.016 6 160305768.727 6         7.201          40.000
C21  22238755.492 6 115803045.544 6       923.309          40.000
C22  22845766.320 8 118963887.400 8     -2192.359          51.000
C26  25382256.977 7 132172071.121 7      3033.332          44.000
E02  26555150.844 6 139548246.006 6      2998.086          40.000    26555147.172 6 106926588.423 6      2297.345          38.000
E03  23481597.109 8 123396635.265 8       664.609          48.000    23481598.539 8  94550671.912 8       509.177          48.000
E05  24705959.305 8 129830671.786 8     -1835.129          51.000    24705960.945 8  99480638.382 8     -1406.093          51.000
E24  23194722.625 6 121889086.091 6     -1777.961          38.000    23194735.703 6  93395566.139 6     -1362.528          41.000
E25  23724837.180 8 124674922.489 8      1090.973          51.000    23724838.922 8  95530117.302 8       835.955          51.000
> 2020 05 19 03 29 30.0000000  0 17        .000000000000
G05  21388970.789 8 112399785.068 8     -2274.699          51.000    21388968.594 8  87584256.985 8     -1772.493          51.000
G15  22227259.266 5 116805021.754 5      2805.945          34.000    22227244.242 5  91016856.992 5      2186.448          32.000
G28  21029705.289 8 110511832.865 8       988.652          50.000    21029704.062 8  86113135.946 8       770.378          49.000
G30  21238756.227 6 111610416.763 6     -1884.895          41.000    21238757.727 6  86969219.179 6     -1468.749          40.000
R03  22715664.078 7 121598792.900 7     -3922.203          45.000    22715666.703 6  94576797.255 6     -3050.602          40.000
R04  19381519.789 8 103787125.759 8     -1232.043          49.000    19381521.719 7  80723338.970 7      -958.256          46.000
R14  19404221.367 8 103435438.474 8     -1395.137          51.000    19404224.008 8  80449853.310 8     -1085.106          49.000
R15  20208640.859 8 107988887.118 8      2553.824          51.000    20208642.250 7  83991338.515 7      1986.308          46.000
C05  39811787.492 6 207310424.060 6         9.461          36.000    39811784.719 6 160305554.099 6         7.400          40.000
C21  22233479.648 6 115775568.389 6       909.031          39.000
C22  22858431.695 8 119029842.662 8     -2204.309          50.000
C26  25364793.906 7 132081141.645 7      3028.941          43.000
E02  26538047.188 6 139458371.339 6      2993.684          41.000    26538044.281 6 106857723.404 6      2293.766          38.000
E03  23477829.344 8 123376835.343 8       655.672          48.000    23477830.828 8  94535500.532 8       502.431          48.000
E05  24716457.945 8 129885843.841 8     -1842.773          51.000    24716459.352 8  99522913.068 8     -1411.971          51.000
E24  23204901.844 6 121942576.804 6     -1787.730          37.000    23204913.695 6  93436552.558 6     -1369.778          41.000
E25  23718646.344 8 124642388.631 8      1078.273          51.000    23718648.109 8  95505188.771 8       826.201          51.000
> 2020 05 19 03 30  0.0000000  0 17        .000000000000
G05  21402003.047 8 112468267.269 8     -2290.324          51.000    21402000.180 8  87637619.696 8     -1784.668          51.000
G07  23668754.242 4 124380142.293 4     -2782.645          29.000
G28  21024114.055 8 110482451.766 8       970.285          50.000    21024113.141 8  86090241.586 8       756.066          48.000
G30  21249544.102 7 111667105.812 7     -1894.066          42.000    21249544.961 7  87013392.432 7     -1475.899          42.000
R03  22737670.430 6 121716600.292 6     -3931.172          41.000    22737673.000 6  94668425.208 6     -3057.581          39.000
R04  19388485.398 8 103824425.470 8     -1254.176          50.000    19388486.852 7  80752349.843 7      -975.470          46.000
R14  19412130.758 8 103477599.930 8     -1415.211          51.000    19412133.703 8  80482645.551 8     -1100.720          49.000
R15  20194356.195 8 107912551.006 8      2535.562          51.000    20194357.727 8  83931965.987 8      1972.104          48.000
C05  39811733.930 6 207310145.095 6         9.316          36.000    39811731.164 6 160305338.354 6         7.219          40.000
C21  22228287.039 6 115748528.748 6       894.375          38.000
C22  22871166.008 8 119096158.605 8     -2216.406          50.000
C26  25347355.266 6 131990344.568 6      3024.641          41.000
E02  26520970.898 7 139368637.580 7      2988.691          42.000    26520967.742 6 106788966.309 6      2290.105          38.000
E03  23474112.672 8 123357304.886 8       646.578          48.000    23474114.094 8  94520535.644 8       495.421          49.000
E05  24727001.375 8 129941252.011 8     -1850.656          51.000    24727002.891 8  99565368.679 8     -1418.116          51.000
E24  23215136.914 6 121996363.008 6     -1797.617          40.000    23215148.938 6  93477765.340 6     -1377.419          41.000
E25  23712528.750 8 124610239.640 8      1065.457          51.000    23712530.617 8  95480555.139 8       816.353          51.000
> 2020 05 19 03 30 30.0000000  0 16        .000000000000
G05  21415121.234 8 112537202.568 8     -2305.062          51.000    21415117.766 8  87691335.509 8     -1796.153          51.000
G28  21018625.148 8 110453608.609 8       952.746          49.000    21018624.648 8  86067766.390 8       742.397          48.000
G30  21260381.828 7 111724056.751 7     -1902.336          42.000    21260382.305 7  87057769.731 7     -1482.340          42.000
R03  22759722.094 6 121834661.104 6     -3939.574          39.000    22759726.945 6  94760250.304 6     -3064.110          39.000
R04  19395572.727 8 103862376.460 8     -1275.613          50.000    19395573.789 8  80781867.285 8      -992.144          48.000
R14  19420150.320 8 103520348.263 8     -1434.375          51.000    19420153.398 8  80515894.247 8     -1115.628          49.000
R15  20180171.555 8 107836752.146 8      2517.902          51.000    20180173.602 8  83873011.308 8      1958.368          49.000
C05  39811678.055 6 207309854.272 6        10.059          36.000    39811675.398 6 160305113.439 6         7.986          40.000
C21  22223175.805 6 115721917.539 6       880.062          39.000
C22  22883967.922 8 119162823.749 8     -2227.621          51.000
C26  25329941.359 6 131899670.591 6      3020.543          41.000
E02  26503920.047 7 139279035.533 7      2984.715          42.000    26503915.945 6 106720310.181 6      2287.049          38.000
E03  23470445.445 8 123338034.479 8       638.383          48.000    23470446.953 8  94505769.995 8       489.165          49.000
E05  24737587.734 8 129996885.704 8     -1857.867          51.000    24737589.812 8  99607997.070 8     -1423.582          51.000
E24  23225426.125 6 122050432.717 6     -1806.848          39.000    23225439.242 7  93519195.365 7     -1384.384          42.000
E25  23706482.125 8 124578465.358 8      1053.125          51.000    23706484.211 8  95456208.635 8       806.937          51.000
> 2020 05 19 03 31  0.0000000  0 16        .000000000000
G05  21428327.258 8 112606603.065 8     -2321.102          49.000    21428324.023 8  87745413.817 8     -1808.651          49.000
G28  21013241.672 8 110425318.926 8       933.781          49.000    21013241.438 8  86045722.479 8       727.622          48.000
G30  21271271.516 6 111781282.779 6     -1912.508          41.000    21271272.336 6  87102361.427 6     -1490.266          40.000
R03  22781825.555 7 121952988.165 7     -3948.566          43.000    22781831.414 6  94852282.514 6     -3071.107          41.000
R04  19402784.109 8 103900993.756 8     -1298.352          50.000    19402785.188 8  80811902.956 8     -1009.829          48.000
R14  19428282.188 8 103563695.796 8     -1454.906          51.000    19428285.109 8  80549608.998 8     -1131.594          48.000
R15  20166089.742 8 107761507.001 8      2499.039          50.000    20166092.609 8  83814487.266 8      1943.697          48.000
C05  39811622.781 6 207309566.250 6         9.379          36.000    39811620.086 6 160304890.683 6         7.503          40.000
C21  22218150.078 6 115695750.438 6       864.750          41.000
C22  22896839.891 8 119229851.491 8     -2240.305          51.000
C26  25312555.000 7 131809135.065 7      3015.648          42.000
E02  26486897.766 7 139189581.204 7      2979.402          42.000    26486892.109 6 106651767.203 6      2282.832          38.000
E03  23466830.812 8 123319039.712 8       628.684          49.000    23466832.602 8  94491215.555 8       481.659          49.000
E05  24748219.758 8 130052759.335 8     -1866.469          51.000    24748222.273 8  99650809.299 8     -1430.130          51.000
E24  23235771.602 6 122104799.038 6     -1817.023          41.000    23235785.992 6  93560852.688 6     -1392.417          41.000
E25  23700509.367 8 124547080.683 8      1039.723          51.000    23700511.742 8  95432160.656 8       796.644          51.000
> 2020 05 19 03 31 30.0000000  0 16        .000000000000
G05  21441621.008 8 112676467.417 8     -2336.582          48.000    21441618.406 8  87799853.556 8     -1820.713          48.000
G28  21007963.906 8 110397583.385 8       915.262          51.000    21007963.328 7  86024110.370 7       713.191          47.000
G30  21282212.992 6 111838782.479 6     -1921.281          38.000    21282214.375 6  87147166.410 6     -1497.102          39.000
R03  22803980.414 7 122071579.365 7     -3957.516          45.000    22803985.312 6  94944520.118 6     -3078.068          40.000
R04  19410120.297 8 103940276.969 8     -1320.562          51.000    19410120.945 8  80842456.586 8     -1027.104          48.000
R14  19436526.039 8 103607639.786 8     -1474.770          51.000    19436528.625 8  80583787.657 8     -1147.043          48.000
R15  20152112.383 8 107686817.185 8      2480.367          51.000    20152115.227 8  83756395.179 8      1929.174          48.000
C05  39811567.922 5 207309280.936 5         9.695          35.000    39811565.352 6 160304670.072 6         7.307          40.000
C21  22213210.594 6 115670028.794 6       849.801          41.000
C22  22909782.164 8 119297240.598 8     -2252.320          51.000
C26  25295195.672 7 131718739.008 7      3010.891          42.000
E02  26469904.289 7 139100275.869 7      2974.434          42.000    26469897.242 6 106583338.398 6      2279.147          38.000
E03  23463268.938 8 123300321.550 8       619.195          50.000    23463270.930 8  94476873.064 8       474.508          50.000
E05  24758897.625 8 130108872.642 8     -1874.500          51.000    24758900.094 8  99693805.206 8     -1436.254          51.000
E24  23246173.383 6 122159460.526 6     -1827.016          41.000    23246187.742 6  93602736.124 6     -1399.753          41.000
E25  23694610.820 8 124516085.834 8      1026.695          51.000    23694613.375 8  95408411.374 8       786.707          51.000
> 2020 05 19 03 32  0.0000000  0 17        .000000000000
G05  21455001.414 8 112746785.334 8     -2351.293          48.000    21454999.078 8  87854646.720 8     -1832.176          48.000
G07  23732445.891 6 124714792.892 6     -2792.719          37.000    23732439.117 6  97180392.232 6     -2176.141          36.000
G28  21002790.469 8 110370395.035 8       897.363          51.000    21002789.383 7  86002924.650 7       699.244          47.000
G30  21293204.930 6 111896546.691 6     -1929.523          40.000    21293206.758 6  87192177.509 6     -1503.525          40.000
R03  22826183.547 7 122190424.212 7     -3965.414          44.000    22826186.141 6  95036954.978 6     -3084.211          38.000
R04  19417579.234 8 103980218.116 8     -1342.008          51.000    19417579.930 8  80873521.919 8     -1043.784          48.000
R14  19444879.570 8 103652169.881 8     -1493.793          51.000    19444882.375 8  80618422.190 8     -1161.839          48.000
R15  20138238.492 8 107612675.892 8      2462.406          51.000    20138240.477 8  83698729.746 8      1915.208          48.000
C05  39811512.164 6 207308989.777 6         9.812          36.000    39811509.633 6 160304445.679 6         7.721          40.000
C21  22208355.594 6 115644746.007 6       835.996          41.000
C22  22922792.398 8 119364982.231 8     -2263.617          51.000
C26  25277862.125 7 131628475.640 7      3006.680          42.000
E02  26452938.078 6 139011112.971 6      2969.996          41.000    26452929.781 6 106515018.732 6      2275.627          39.000
E03  23459758.445 8 123281873.117 8       610.707          50.000    23459760.523 8  94462737.242 8       467.908          50.000
E05  24769619.625 8 130165217.630 8     -1881.730          51.000    24769621.984 8  99736978.632 8     -1441.869          51.000
E24  23256629.609 6 122214407.747 6     -1836.039          39.000    23256642.977 6  93644838.526 6     -1406.871          41.000
E25  23688785.141 8 124485473.251 8      1014.289          51.000    23688787.453 8  95384955.001 8       777.162          51.000
> 2020 05 19 03 32 30.0000000  0 17        .000000000000
G05  21468467.133 8 112817548.020 8     -2367.199          50.000    21468465.086 8  87909786.473 8     -1844.571          50.000
G07  23748398.961 5 124798625.454 5     -2797.246          32.000    23748387.258 5  97245716.284 5     -2179.672          32.000
G28  20997719.992 8 110343748.153 8       878.066          51.000    20997718.906 7  85982160.883 7       684.208          47.000
G30  21304245.922 6 111954567.614 6     -1939.410          41.000    21304247.961 6  87237388.636 6     -1511.229          41.000
R03  22848431.758 7 122309513.875 7     -3974.828          43.000    22848433.641 6  95129580.252 6     -3091.533          36.000
R04  19425159.602 8 104020810.154 8     -1364.996          51.000    19425160.383 7  80905093.494 7     -1061.664          47.000
R14  19453341.422 8 103697276.376 8     -1514.199          50.000    19453344.484 8  80653505.021 8     -1177.711          48.000
R15  20124466.258 8 107539078.186 8      2443.121          51.000    20124467.586 8  83641487.103 8      1900.205          48.000
C05                                                                  39811451.703 6 160304212.501 6         7.228          40.000
C21  22203583.969 6 115619897.037 6       819.895          40.000
C22  22935868.625 8 119433068.794 8     -2276.371          51.000
C26  25260552.969 7 131538339.555 7      3001.430          42.000
E02  26435998.148 6 138922087.382 6      2964.332          38.000    26435989.078 6 106446804.290 6      2271.317          39.000
E03  23456298.258 8 123263688.949 8       600.707          50.000    23456300.227 8  94448803.905 8       460.285          51.000
E05  24780384.477 8 130221787.628 8     -1890.434          50.000    24780387.172 8  99780324.475 8     -1448.499          51.000
E24  23267138.672 6 122269632.768 6     -1846.473          38.000    23267151.523 6  93687153.796 6     -1414.782          41.000
E25  23683031.078 8 124455236.675 8      1000.637          51.000    23683032.703 8  95361786.729 8       766.698          51.000
> 2020 05 19 03 33  0.0000000  0 16        .000000000000
G05  21482021.172 8 112888772.816 8     -2381.020          51.000    21482019.664 8  87965286.300 8     -1855.340          51.000
G28  20992756.367 8 110317663.307 8       860.980          51.000    20992755.117 7  85961835.034 7       670.894          46.000
G30  21315339.227 6 112012863.565 6     -1946.578          40.000    21315341.125 6  87282814.054 6     -1516.814          41.000
R03  22870728.617 7 122428865.923 7     -3981.672          44.000    22870729.711 5  95222409.600 5     -3096.856          33.000
R04  19432864.945 8 104062072.906 8     -1385.723          50.000    19432865.883 7  80937186.745 7     -1077.787          46.000
R14  19461914.594 8 103742977.000 8     -1532.441          50.000    19461917.742 8  80689049.951 8     -1191.899          48.000
R15  20110799.180 8 107466045.498 8      2425.902          51.000    20110800.812 8  83584683.924 8      1886.813          49.000
C05  39811398.102 6 207308396.589 6        10.160          36.000    39811395.438 6 160303985.789 6         7.887          40.000
C21  22198899.195 6 115595502.650 6       806.453          39.000
C22  22949013.734 8 119501518.699 8     -2286.828          51.000
C26  25243271.633 7 131448351.246 7      2997.941          43.000
E02  26419088.086 6 138833220.193 6      2960.223          38.000    26419078.820 6 106378711.200 6      2268.241          39.000
E03  23452892.305 8 123245789.700 8       592.742          51.000    23452894.094 8  94435088.898 8       454.122          51.000
E05  24791195.633 8 130278602.128 8     -1897.047          50.000    24791199.195 8  99823857.661 8     -1453.548          51.000
E24  23277704.367 6 122325153.794 6     -1854.805          40.000    23277717.242 7  93729695.892 7     -1421.166          42.000
E25  23677352.594 8 124425396.072 8       988.891          51.000    23677353.695 8  95338921.867 8       757.682          51.000
> 2020 05 19 03 33 30.0000000  0 16        .000000000000
G05  21495658.141 8 112960432.694 8     -2395.156          51.000    21495657.203 8  88021125.140 8     -1866.356          51.000
G28  20987895.055 8 110292116.473 8       843.363          51.000    20987893.508 7  85941928.412 7       657.166          46.000
G30  21326480.016 6 112071408.707 6     -1955.289          40.000    21326481.406 6  87328433.675 6     -1523.599          41.000
R03  22893069.148 7 122548453.133 7     -3989.359          45.000    22893069.055 5  95315421.813 5     -3102.838          33.000
R04  19440690.266 8 104103981.296 8     -1406.910          49.000    19440692.086 7  80969782.123 7     -1094.263          45.000
R14  19470594.102 8 103789244.057 8     -1550.809          49.000    19470597.383 8  80725035.432 8     -1206.184          48.000
R15  20097232.961 8 107393554.316 8      2408.117          51.000    20097234.977 8  83528301.893 8      1872.980          48.000
C05  39811338.688 5 207308086.955 5        11.188          35.000    39811336.125 6 160303746.702 6         8.802          40.000
C21  22194297.406 6 115571539.660 6       792.246          40.000
C22  22962223.203 8 119570306.457 8     -2297.742          51.000
C26  25226014.438 7 131358487.317 7      2994.035          45.000
E02  26402202.586 5 138744511.125 5      2956.172          33.000    26402193.641 6 106310721.594 6      2265.283          39.000
E03  23449536.023 8 123228151.836 8       584.348          51.000    23449537.781 8  94421574.171 8       447.765          51.000
E05  24802048.461 8 130335636.409 8     -1904.035          49.000    24802052.703 8  99867559.245 8     -1458.882          51.000
E24  23288321.422 7 122380944.866 7     -1863.434          42.000    23288334.492 7  93772444.860 7     -1427.766          42.000
E25  23671745.008 8 124395927.108 8       976.898          51.000    23671745.891 8  95316341.760 8       748.568          51.000
> 2020 05 19 03 34  0.0000000  0 18        .000000000000
G05  21509379.609 8 113032536.319 8     -2410.191          51.000    21509379.031 8  88077309.778 8     -1878.071          51.000
G07  23796331.516 5 125050565.700 5     -2803.121          34.000
G13  20511358.367 5 107787901.936 5      1243.062          33.000
G28  20983138.094 8 110267118.613 8       824.863          50.000    20983136.461 7  85922449.572 7       642.751          46.000
G30  21337670.023 6 112130211.609 6     -1963.699          40.000    21337670.953 6  87374254.137 6     -1530.155          39.000
R03  22915455.531 7 122668283.456 7     -3997.707          46.000    22915453.422 5  95408623.090 5     -3109.331          34.000
R04  19448638.367 8 104146545.001 8     -1429.027          48.000    19448640.648 7  81002887.180 7     -1111.466          44.000
R14  19479381.219 8 103836084.745 8     -1570.125          49.000    19479384.719 7  80761467.068 7     -1221.208          47.000
R15  20083770.422 8 107321616.338 8      2389.293          51.000    20083772.289 8  83472350.114 8      1858.339          48.000
C05  39811278.297 5 207307771.875 5        11.102          35.000    39811275.609 6 160303503.031 6         8.829          40.000
C21  22189780.984 6 115548019.290 6       777.059          41.000
C22  22975499.078 8 119639440.816 8     -2309.562          50.000
C26  25208783.984 7 131268758.684 7      2989.352          46.000
E02                                                                  26385336.109 6 106242844.263 6      2261.294          40.000
E03  23446231.461 8 123210786.353 8       574.957          51.000    23446233.172 8  94408268.141 8       440.590          51.000
E05  24812945.273 8 130392900.243 8     -1911.887          49.000    24812949.648 8  99911436.724 8     -1464.991          51.000
E24  23298991.117 7 122437014.449 7     -1872.832          42.000    23299004.281 6  93815407.223 6     -1434.970          41.000
E25  23666210.203 8 124366840.017 8       963.855          51.000    23666210.719 8  95294054.257 8       738.575          51.000
> 2020 05 19 03 34 30.0000000  0 16        .000000000000
G05  21523188.719 8 113105101.228 8     -2426.113          51.000    21523188.188 8  88133853.865 8     -1890.478          51.000
G28  20978489.391 8 110242690.232 8       805.129          49.000    20978487.344 7  85903414.456 7       627.373          46.000
G30  21348912.578 6 112189290.799 6     -1973.492          41.000    21348913.336 6  87420289.837 6     -1537.786          41.000
R03  22937890.617 7 122788374.684 7     -4007.004          46.000    22937886.938 5  95502027.319 5     -3116.562          34.000
R04  19456713.047 8 104189783.895 8     -1452.152          48.000    19456715.266 7  81036517.387 7     -1129.452          44.000
R14  19488279.242 8 103883516.581 8     -1590.430          50.000    19488282.312 7  80798358.488 7     -1237.001          47.000
R15  20070415.758 8 107250252.804 8      2369.566          51.000    20070418.000 8  83416845.157 8      1842.999          48.000
C05  39811220.484 6 207307470.411 6        10.121          36.000    39811217.781 6 160303269.939 6         7.790          39.000
C21  22185353.461 6 115524962.279 6       761.191          39.000
C22  22988845.461 8 119708940.088 8     -2322.293          50.000
C26  25191583.469 7 131179185.932 7      2983.559          47.000
E02                                                                  26368510.773 6 106175095.245 6      2256.543          39.000
E03  23442982.664 8 123193713.972 8       564.664          51.000    23442984.234 8  94395186.697 8       432.665          51.000
E05  24823889.852 8 130450413.206 8     -1920.773          50.000    24823893.891 8  99955505.079 8     -1471.782          51.000
E24  23309716.852 6 122493380.776 6     -1883.316          39.000    23309730.070 6  93858596.988 6     -1443.058          40.000
E25  23660751.852 8 124338154.760 8       949.836          51.000    23660752.078 8  95272074.654 8       727.829          51.000
> 2020 05 19 03 35  0.0000000  0 16        .000000000000
G05  21537079.266 8 113178095.891 8     -2440.262          51.000    21537078.523 8  88190732.826 8     -1901.503          51.000
G28  20973943.477 8 110218802.883 8       787.258          48.000    20973941.711 7  85884800.922 7       613.448          47.000
G30  21360201.938 7 112248615.995 7     -1981.656          42.000    21360202.453 7  87466517.234 7     -1544.151          42.000
R03  22960367.625 7 122908694.829 7     -4014.598          43.000    22960364.102 5  95595609.634 5     -3122.465          34.000
R04  19464908.164 8 104233668.143 8     -1473.617          49.000    19464910.234 7  81070649.557 7     -1146.147          46.000
R14  19497282.445 8 103931507.554 8     -1609.039          50.000    19497285.523 7  80835684.780 7     -1251.478          47.000
R15  20057163.500 8 107179435.783 8      2351.445          51.000    20057165.969 7  83361765.274 7      1828.905          47.000
C05  39811159.797 5 207307155.092 5        10.930          35.000    39811157.062 6 160303025.303 6         8.246          40.000
C21  22181008.445 6 115502341.321 6       746.777          39.000
C22  23002256.180 8 119778774.502 8     -2333.410          50.000
C26  25174406.859 7 131089741.352 7      2979.219          47.000
E02  26351715.820 5 138479200.180 5      2940.145          33.000    26351712.148 6 106107453.503 6      2252.766          39.000
E03  23439784.344 8 123176906.790 8       555.746          51.000    23439785.695 8  94382308.469 8       425.766          51.000
E05  24834876.586 8 130508146.209 8     -1928.145          51.000    24834880.008 8  99999742.018 8     -1477.448          51.000
E24  23320493.508 5 122550013.400 5     -1892.242          35.000    23320506.297 6  93901990.857 6     -1450.029          39.000
E25  23655364.508 8 124309842.607 8       937.570          51.000    23655364.727 8  95250380.938 8       718.380          51.000
> 2020 05 19 03 35 30.0000000  0 16        .000000000000
G05  21551054.648 8 113251537.739 8     -2455.621          51.000    21551053.875 8  88247960.242 8     -1913.471          50.000
G28  20969504.258 8 110195476.725 8       768.137          49.000    20969502.992 7  85866624.696 7       598.548          47.000
G30  21371541.461 7 112308205.308 7     -1990.500          43.000    21371541.781 7  87512950.413 7     -1551.039          43.000
R03  22982889.383 6 123029261.495 6     -4022.852          39.000    22982888.047 5  95689383.685 5     -3128.888          34.000
R04  19473228.000 8 104278217.315 8     -1496.152          50.000    19473229.523 7  81105298.915 7     -1163.674          47.000
R14  19506393.484 8 103980074.725 8     -1628.594          49.000    19506396.594 7  80873459.242 7     -1266.684          46.000
R15  20044017.352 8 107109186.522 8      2332.031          51.000    20044019.711 7  83307126.944 7      1813.802          46.000
C05  39811099.961 5 207306843.264 5        10.180          35.000    39811097.188 6 160302784.132 6         7.899          40.000
C21  22176750.359 6 115480176.809 6       731.180          38.000
C22  23015734.938 8 119848962.223 8     -2345.602          51.000
C26  25157258.094 7 131000445.279 7      2973.980          47.000
E02  26334949.039 6 138391082.673 6      2934.473          39.000    26334944.477 6 106039934.895 6      2248.432          38.000
E03  23436640.328 8 123160385.246 8       545.852          51.000    23436641.578 8  94369649.106 8       418.235          51.000
E05  24845909.055 8 130566118.449 8     -1936.441          51.000    24845911.547 8 100044162.290 8     -1483.770          51.000
E24  23331324.469 6 122606930.381 6     -1902.012          38.000    23331336.578 6  93945602.579 6     -1457.209          39.000
E25  23650051.945 8 124281923.278 8       923.965          51.000    23650052.383 8  95228988.206 8       707.991          51.000
> 2020 05 19 03 36  0.0000000  0 17        .000000000000
G05  21565112.773 8 113325415.214 8     -2470.781          50.000    21565112.008 8  88305527.096 8     -1925.284          50.000
G07  23860479.305 5 125387622.813 5     -2813.836          34.000    23860484.695 5  97704673.984 5     -2192.599          34.000
G28  20965170.703 8 110172703.420 8       748.875          50.000    20965169.250 7  85848879.227 7       583.536          47.000
G30  21382929.297 7 112368048.375 7     -1999.785          42.000    21382929.664 7  87559581.344 7     -1558.274          42.000
R03  23005454.703 6 123150063.014 6     -4031.168          36.000    23005455.531 5  95783340.409 5     -3135.353          33.000
R04  19481670.094 8 104323421.627 8     -1518.656          51.000    19481670.969 8  81140457.820 8     -1181.177          48.000
R14  19515610.594 8 104029205.990 8     -1648.023          49.000    19515613.367 7  80911672.434 7     -1281.796          45.000
R15  20030975.805 8 107039497.047 8      2312.691          51.000    20030978.297 7  83252924.019 7      1798.760          47.000
C05  39811039.242 6 207306527.965 6         9.418          36.000    39811036.477 6 160302539.531 6         7.301          40.000
C21  22172579.164 6 115458460.987 6       715.855          41.000
C22  23029279.961 8 119919493.024 8     -2357.691          51.000
C26  25140136.039 7 130911289.733 7      2968.504          47.000
E02  26318211.773 7 138303118.110 7      2928.520          42.000    26318206.070 5 105972533.456 5      2244.107          35.000
E03  23433549.195 8 123144141.293 8       535.871          51.000    23433550.469 8  94357202.426 8       410.635          51.000
E05  24856985.125 8 130624320.692 8     -1944.871          51.000    24856987.023 8 100088758.782 8     -1490.259          51.000
E24  23342207.375 6 122664121.243 6     -1911.941          40.000    23342219.156 6  93989424.119 6     -1464.994          39.000
E25  23644812.195 8 124254387.857 8       910.496          51.000    23644813.250 8  95207889.644 8       697.635          51.000
> 2020 05 19 03 36 30.0000000  0 16        .000000000000
G05  21579254.875 8 113399735.212 8     -2482.152          49.000    21579254.320 8  88363438.795 8     -1934.145          48.000
G28  20960944.414 8 110150493.005 8       733.438          51.000    20960943.172 8  85831572.400 8       571.510          48.000
G30  21394366.906 6 112428153.243 6     -2005.277          41.000    21394367.852 7  87606416.290 7     -1562.554          42.000
R03  23028066.484 5 123271106.779 5     -4036.668          32.000    23028068.906 5  95877485.477 5     -3139.634          34.000
R04  19490236.055 8 104369290.129 8     -1537.430          51.000    19490236.422 8  81176133.338 8     -1195.779          49.000
R14  19524934.617 8 104078908.108 8     -1663.684          49.000    19524937.555 7  80950329.647 7     -1293.976          45.000
R15  20018040.891 8 106970378.139 8      2296.980          51.000    20018043.719 8  83199164.871 8      1786.540          48.000
C05  39810979.492 5 207306216.569 5        12.988          35.000    39810976.688 6 160302298.740 6         9.898          39.000
C21  22168497.305 6 115437204.263 6       703.383          41.000
C22  23042892.203 8 119990375.035 8     -2366.164          51.000
C26  25123043.109 8 130822284.859 8      2966.770          48.000
E02  26301504.633 7 138215317.224 7      2926.332          43.000    26301498.367 5 105905257.456 5      2242.347          33.000
E03  23430512.867 8 123128185.265 8       529.527          51.000    23430514.406 8  94344976.375 8       405.787          51.000
E05  24868106.477 8 130682762.072 8     -1949.551          51.000    24868107.914 8 100133538.506 8     -1493.809          51.000
E24  23353143.938 6 122721593.775 6     -1918.098          40.000    23353155.898 6  94033461.464 6     -1469.675          39.000
E25  23639647.148 8 124227245.889 8       900.691          51.000    23639648.781 8  95187092.561 8       690.179          51.000
> 2020 05 19 03 37  0.0000000  0 16        .000000000000
G05  21593475.961 8 113474471.018 8     -2499.066          48.000    21593475.883 8  88421674.484 8     -1947.324          48.000
G28  20956820.664 8 110128821.393 8       712.402          51.000    20956819.734 8  85814685.449 8       555.119          48.000
G30  21405849.305 6 112488493.965 6     -2016.133          41.000    21405850.445 6  87653435.002 6     -1571.013          41.000
R03  23050721.891 5 123392302.393 5     -4046.652          32.000    23050722.320 5  95971797.623 5     -3147.399          33.000
R04  19498921.203 8 104415797.527 8     -1561.895          51.000    19498921.539 8  81212305.759 8     -1214.807          49.000
R14  19534360.789 8 104129153.333 8     -1684.832          50.000    19534363.406 7  80989409.271 7     -1310.425          45.000
R15  20005208.289 8 106901806.142 8      2275.625          51.000    20005211.477 8  83145831.123 8      1769.931          48.000
C05  39810915.930 6 207305885.905 6         9.754          36.000    39810913.180 6 160302042.993 6         7.844          40.000
C21  22164499.391 6 115416383.482 6       685.602          40.000
C22  23056566.594 8 120061582.599 8     -2379.973          51.000
C26  25105975.109 8 130733407.251 8      2959.438          49.000
E02  26284824.047 7 138127656.635 7      2918.637          44.000    26284818.297 5 105838068.989 5      2236.538          33.000
E03  23427526.680 8 123112493.501 8       517.602          51.000    23427528.773 8  94332952.812 8       396.610          51.000
E05  24879268.531 8 130741417.716 8     -1959.660          51.000    24879269.523 8 100178482.421 8     -1501.576          51.000
E24  23364129.328 6 122779321.830 6     -1929.457          40.000    23364141.844 6  94077694.644 6     -1478.313          39.000
E25  23634552.359 8 124200472.933 8       885.199          51.000    23634554.305 8  95166578.209 8       678.296          51.000
> 2020 05 19 03 37 30.0000000  0 17        .000000000000
G05  21607779.148 8 113549635.756 8     -2512.645          50.000    21607779.195 8  88480244.405 8     -1957.905          50.000
G15  21976503.359 5 115487261.341 5      2683.000          35.000
G28  20952802.500 8 110107704.120 8       694.711          51.000    20952801.273 8  85798230.415 8       541.333          48.000
G30  21417379.375 6 112549084.269 6     -2023.664          39.000    21417380.062 6  87700648.213 6     -1576.881          39.000
R03  23073417.156 5 123513788.453 5     -4053.211          34.000    23073417.367 5  96066286.795 5     -3152.494          30.000
R04  19507728.148 8 104462958.362 8     -1582.801          51.000    19507728.852 8  81248986.412 8     -1231.064          48.000
R14  19543891.047 8 104179954.221 8     -1702.629          49.000    19543892.695 7  81028921.064 7     -1324.267          43.000
R15  19992481.414 8 106833797.562 8      2257.527          51.000    19992484.500 7  83092935.602 7      1755.855          46.000
C05  39810851.617 6 207305550.782 6        11.316          36.000    39810848.859 6 160301783.826 6         8.832          40.000
C21  22160587.852 6 115396014.637 6       671.562          40.000
C22  23070305.727 8 120133129.368 8     -2390.527          51.000
C26  25088935.000 8 130644672.728 8      2955.426          49.000
E02  26268172.914 7 138040152.700 7      2914.195          44.000    26268170.617 5 105771023.596 5      2232.847          33.000
E03  23424593.711 8 123097081.988 8       509.043          51.000    23424596.375 8  94321143.980 8       390.091          51.000
E05  24890474.055 8 130800302.407 8     -1966.590          51.000    24890474.539 8 100223601.860 8     -1506.859          51.000
E24  23375165.977 6 122837318.973 6     -1937.551          40.000    23375178.938 6  94122134.001 6     -1484.662          37.000
E25  23629530.523 8 124174084.133 8       873.312          51.000    23629533.148 8  95146358.217 8       669.194          51.000
> 2020 05 19 03 38  0.0000000  0 16        .000000000000
G05  21622172.219 8 113625270.417 8     -2527.883          51.000    21622171.898 8  88539180.505 8     -1969.779          51.000
G28  20948898.156 8 110087185.421 8       675.062          51.000    20948896.602 8  85782241.844 8       526.023          48.000
G30  21428964.625 6 112609966.711 6     -2033.258          38.000    21428965.555 6  87748089.047 6     -1584.357          37.000
R03  23096160.680 6 123635544.323 6     -4062.043          36.000    23096160.672 4  96160985.698 4     -3159.373          28.000
R04  19516665.008 8 104510817.026 8     -1605.789          50.000    19516666.047 7  81286209.805 7     -1248.947          47.000
R14  19553533.422 8 104231352.443 8     -1722.070          49.000    19553534.586 7  81068897.443 7     -1339.388          44.000
R15  19979868.586 8 106766398.104 8      2237.641          51.000    19979871.586 7  83040513.817 7      1740.387          47.000
C05  39810794.711 5 207305254.217 5        10.402          35.000    39810792.039 6 160301554.879 6         7.965          39.000
C21  22156771.969 6 115376142.358 6       655.395          41.000
C22  23084118.344 8 120205057.525 8     -2402.844          51.000
C26  25071930.992 8 130556125.740 8      2949.430          48.000
E02  26251559.953 7 137952850.549 7      2907.859          43.000    26251561.906 5 105704129.823 5      2228.010          34.000
E03  23421722.609 8 123081995.572 8       498.566          51.000    23421725.656 8  94309584.243 8       382.066          51.000
E05  24901731.234 8 130859459.768 8     -1975.387          51.000    24901731.852 8 100268930.196 8     -1513.587          51.000
E24  23386262.383 6 122895627.568 6     -1947.773          40.000    23386274.703 6  94166812.002 6     -1492.456          37.000
E25  23624590.094 8 124148123.494 8       859.258          51.000    23624593.445 8  95126466.312 8       658.410          51.000
> 2020 05 19 03 38 30.0000000  0 16        .000000000000
G05  21636641.711 8 113701305.453 8     -2541.695          51.000    21636640.766 8  88598428.583 8     -1980.542          51.000
G28  20945094.891 8 110067198.199 8       656.863          51.000    20945093.055 7  85766667.412 7       511.842          47.000
G30  21440592.305 6 112671071.917 6     -2041.352          40.000    21440593.297 6  87795703.503 6     -1590.661          40.000
R03  23118941.227 5 123757498.754 5     -4069.312          34.000    23118940.992 4  96255838.998 4     -3165.027          25.000
R04  19525719.414 8 104559303.429 8     -1627.129          51.000    19525720.602 7  81323921.448 7     -1265.545          46.000
R14  19563274.258 8 104283276.003 8     -1740.172          48.000    19563276.320 7  81109282.456 7     -1353.467          44.000
R15  19967356.883 8 106699539.985 8      2219.020          51.000    19967360.570 8  82988513.054 8      1725.901          49.000
C05  39810732.531 6 207304930.459 6        10.492          36.000    39810729.695 6 160301304.102 6         8.297          40.000
C21  22153038.898 7 115356700.339 7       640.324          43.000
C22  23097991.477 8 120277298.454 8     -2413.695          51.000
C26  25054949.906 8 130467699.811 8      2944.945          48.000
E02  26234972.211 7 137865683.503 7      2902.875          43.000    26234975.820 5 105637339.524 5      2224.266          35.000
E03  23418900.820 8 123067167.219 8       489.453          51.000    23418903.961 8  94298222.247 8       375.083          51.000
E05  24913027.266 8 130918821.578 8     -1982.645          51.000    24913028.039 8 100314415.189 8     -1519.145          51.000
E24  23397404.672 6 122954178.078 6     -1956.191          39.000    23397416.297 6  94211675.348 6     -1498.891          36.000
E25  23619718.297 8 124122523.150 8       846.816          51.000    23619721.852 8  95106850.458 8       648.868          51.000
> 2020 05 19 03 39  0.0000000  0 16        .000000000000
G05  21651192.195 8 113777766.132 8     -2555.500          51.000    21651190.758 8  88658008.307 8     -1991.299          51.000
G28  20941398.078 8 110047770.772 8       638.469          51.000    20941395.922 8  85751529.167 8       497.508          48.000
G30  21452267.539 7 112732426.501 7     -2049.344          42.000    21452268.781 7  87843512.260 7     -1596.891          42.000
R03  23141764.117 5 123879677.136 5     -4076.367          34.000    23141768.211 4  96350866.646 4     -3170.505          29.000
R04  19534896.211 8 104608445.515 8     -1648.840          51.000    19534897.867 7  81362143.017 7     -1282.431          46.000
R14  19573118.328 8 104335750.515 8     -1758.160          48.000    19573119.797 7  81150095.945 7     -1367.458          44.000
R15  19954951.797 8 106633252.566 8      2200.184          51.000    19954956.203 8  82936956.189 8      1711.254          49.000
C05  39810670.172 6 207304605.605 6        11.242          36.000    39810667.375 6 160301052.923 6         8.560          40.000
C21  22149394.055 7 115337717.356 7       625.113          42.000
C22  23111929.828 8 120349878.533 8     -2424.824          50.000
C26  25037997.180 7 130379423.568 7      2940.211          47.000
E02  26218415.539 7 137778680.687 7      2897.609          43.000    26218419.500 6 105570675.079 6      2220.243          38.000
E03  23416133.664 8 123052625.722 8       480.059          51.000    23416136.711 8  94287080.053 8       367.828          51.000
E05  24924367.492 8 130978415.425 8     -1990.152          51.000    24924368.203 8 100360077.982 8     -1524.880          51.000
E24  23408597.156 6 123012996.833 6     -1964.699          37.000    23408609.430 6  94256744.278 6     -1505.506          36.000
E25  23614920.367 8 124097311.042 8       834.133          51.000    23614923.875 8  95087532.090 8       639.165          51.000
> 2020 05 19 03 39 30.0000000  0 16        .000000000000
G05  21665822.086 8 113854645.050 8     -2567.293          51.000    21665820.508 8  88717913.932 8     -2000.488          51.000
G28  20937806.844 8 110028898.728 8       622.066          51.000    20937804.711 8  85736823.692 8       484.727          48.000
G30  21463989.367 7 112794024.382 7     -2055.031          43.000    21463991.320 7  87891510.585 7     -1601.323          43.000
R03  23164630.469 5 124002072.663 5     -4081.207          35.000    23164634.781 5  96446063.179 5     -3174.272          31.000
R04  19544194.477 8 104658237.697 8     -1668.191          49.000    19544196.281 7  81400870.215 7     -1297.482          46.000
R14  19583064.422 8 104388768.232 8     -1773.961          48.000    19583065.922 7  81191331.951 7     -1379.747          43.000
R15  19942653.328 8 106567532.438 8      2183.508          51.000    19942657.484 8  82885840.560 8      1698.284          48.000
C05  39810606.867 5 207304275.699 5        13.207          35.000    39810603.992 6 160300797.761 6        10.354          40.000
C21  22145836.766 7 115319189.761 7       612.352          44.000
C22  23125931.719 8 120422791.758 8     -2433.777          48.000
C26  25021072.078 7 130291293.206 7      2937.465          46.000
E02  26201889.602 7 137691838.636 7      2894.129          42.000    26201893.234 6 105504133.802 6      2217.714          41.000
E03  23413420.383 8 123038367.308 8       472.742          51.000    23413423.078 8  94276154.764 8       362.237          51.000
E05  24935750.930 8 131038236.329 8     -1995.512          51.000    24935751.711 8 100405914.737 8     -1529.076          51.000
E24  23419839.438 6 123072077.649 6     -1971.582          37.000    23419853.148 6  94302013.985 6     -1510.561          36.000
E25  23610195.555 8 124072482.593 8       823.332          51.000    23610198.992 8  95068507.694 8       630.874          51.000
> 2020 05 19 03 40  0.0000000  0 16        .000000000000
G05  21680530.953 8 113931939.676 8     -2583.516          51.000    21680529.484 8  88778143.496 8     -2013.129          51.000
G28  20934321.242 8 110010582.423 8       601.199          51.000    20934318.867 8  85722551.232 8       468.467          48.000
G30  21475757.336 6 112855864.123 6     -2065.305          40.000    21475759.922 6  87939697.378 6     -1609.328          40.000
R03  23187537.523 6 124124682.903 6     -4090.711          37.000    23187540.109 5  96541426.663 5     -3181.664          33.000
R04  19553614.016 8 104708679.299 8     -1692.273          49.000    19553615.734 7  81440102.582 7     -1316.210          47.000
R14  19593111.797 8 104442326.225 8     -1794.242          48.000    19593113.000 7  81232988.140 7     -1395.522          42.000
R15  19930460.961 8 106502380.344 8      2162.203          51.000    19930463.992 7  82835166.737 7      1681.714          46.000
C05  39810542.438 6 207303940.469 6        11.043          36.000    39810539.648 6 160300538.512 6         8.711          40.000
C21  22142366.992 7 115301118.498 7       594.898          44.000
C22  23139997.102 7 120496036.702 7     -2447.102          47.000
C26  25004174.727 7 130203309.516 7      2930.242          46.000
E02  26185394.492 7 137605158.420 7      2886.547          43.000    26185397.078 7 105437716.544 7      2211.770          42.000
E03  23410761.164 8 123024392.780 8       461.082          51.000    23410763.539 8  94265447.011 8       353.339          51.000
E05  24947177.656 8 131098283.841 8     -2005.430          51.000    24947178.766 8 100451925.121 8     -1536.640          51.000
E24  23431131.391 6 123131418.824 6     -1982.348          39.000    23431147.156 5  94347483.123 5     -1518.696          35.000
E25  23605543.820 8 124048037.658 8       808.484          51.000    23605547.070 8  95049777.156 8       619.503          51.000
> 2020 05 19 03 40 30.0000000  0 17        .000000000000
G05  21695319.945 8 114009656.934 8     -2597.613          50.000    21695318.828 8  88838702.389 8     -2024.114          50.000
G13  20424494.914 5 107331440.836 5      1096.930          35.000
G28  20930943.047 8 109992831.185 8       582.242          50.000    20930940.625 8  85708719.077 8       453.695          49.000
G30  21487572.969 6 112917953.466 6     -2073.656          39.000    21487575.695 6  87988078.672 6     -1615.836          40.000
R03  23210484.016 5 124247514.319 5     -4098.055          35.000    23210486.344 5  96636962.205 5     -3187.376          33.000
R04  19563156.391 8 104759778.801 8     -1714.277          49.000    19563158.711 8  81479846.646 8     -1333.327          48.000
R14  19603261.500 7 104496430.911 7     -1812.637          47.000    19603263.000 7  81275069.550 7     -1409.826          42.000
R15  19918376.703 8 106437806.879 8      2142.770          51.000    19918379.047 7  82784942.938 7      1666.599          47.000
C05  39810478.742 6 207303609.147 6        10.629          36.000    39810476.031 6 160300282.288 6         8.479          40.000
C21  22138986.266 7 115283513.697 7       578.898          44.000
C22  23154128.539 8 120569621.115 8     -2458.555          48.000
C26  24987308.125 7 130115482.384 7      2924.840          46.000
E02  26168932.188 7 137518650.401 7      2880.828          42.000    26168933.312 7 105371431.235 7      2207.151          42.000
E03  23408157.828 8 123010712.160 8       451.121          51.000    23408160.219 8  94254964.456 8       345.637          51.000
E05  24958649.227 8 131158566.783 8     -2013.391          51.000    24958650.680 8 100498115.907 8     -1542.734          51.000
E24  23442474.188 6 123191027.987 6     -1991.559          38.000    23442492.172 5  94393157.632 5     -1525.892          34.000
E25  23600966.898 8 124023985.448 8       795.121          51.000    23600969.789 8  95031347.531 8       609.252          51.000
> 2020 05 19 03 41  0.0000000  0 17        .000000000000
G05  21710187.492 8 114087789.430 8     -2611.109          48.000    21710187.023 8  88899584.861 8     -2034.631          49.000
G13  20418261.453 5 107298686.121 5      1086.219          33.000    20418258.555 5  83609358.604 5       846.404          30.000
G28  20927671.133 8 109975640.257 8       563.910          49.000    20927669.242 8  85695323.533 8       439.407          48.000
G30  21499434.766 6 112980286.053 6     -2081.812          41.000    21499436.758 6  88036649.479 6     -1622.192          41.000
R03  23233468.992 6 124370559.434 6     -4105.129          36.000    23233471.812 5  96732663.957 5     -3192.875          33.000
R04  19572820.328 8 104811530.494 8     -1735.656          50.000    19572823.031 8  81520097.945 8     -1349.955          48.000
R14  19613512.422 7 104551074.020 7     -1830.172          46.000    19613513.844 7  81317569.730 7     -1423.467          42.000
R15  19906400.445 8 106373807.599 8      2123.930          51.000    19906402.766 8  82735165.728 8      1651.945          48.000
C05  39810414.930 6 207303276.536 6        11.719          36.000    39810412.148 6 160300025.089 6         8.805          40.000
C21  22135694.031 7 115266371.293 7       564.074          44.000
C22  23168324.344 8 120643538.617 8     -2469.219          50.000
C26  24970471.844 7 130027807.610 7      2920.098          47.000
E02  26152501.875 7 137432310.743 7      2875.570          42.000    26152501.516 7 105305274.902 7      2203.227          42.000
E03  23405609.633 8 122997321.254 8       441.691          51.000    23405612.102 8  94244703.881 8       338.490          51.000
E05  24970164.469 8 131219079.722 8     -2020.672          50.000    24970166.391 8 100544482.943 8     -1548.274          51.000
E24  23453866.773 4 123250901.387 4     -1999.988          28.000    23453884.344 5  94439074.307 5     -1532.285          31.000
E25  23596463.867 8 124000320.866 8       782.633          51.000    23596466.414 8  95013214.925 8       599.680          51.000
> 2020 05 19 03 41 30.0000000  0 18        .000000000000
G05  21725131.195 7 114166324.504 7     -2620.910          46.000    21725131.602 7  88960781.050 7     -2042.268          46.000
G13  20412091.023 5 107266264.476 5      1078.566          32.000
G15  21855536.961 5 114851616.888 5      2618.316          34.000    21855538.336 5  89494751.392 5      2040.247          31.000
G28  20924503.984 8 109958999.892 8       549.031          49.000    20924502.305 8  85682356.967 8       427.817          48.000
G30  21511340.156 6 113042849.904 6     -2085.680          39.000    21511341.273 6  88085400.483 6     -1625.208          39.000
R03  23256491.234 6 124493804.864 6     -4108.242          38.000    23256494.211 6  96828521.625 6     -3195.296          36.000
R04  19582603.977 8 104863922.536 8     -1753.504          50.000    19582606.359 8  81560847.327 8     -1363.839          48.000
R14  19623861.750 7 104606242.114 7     -1844.090          45.000    19623862.977 7  81360478.258 7     -1434.292          42.000
R15  19894529.773 8 106310372.955 8      2108.680          51.000    19894532.320 8  82685827.688 8      1640.084          49.000
C05  39810348.867 6 207302932.373 6        15.258          36.000    39810346.094 6 160299758.930 6        11.738          39.000
C21  22132488.648 7 115249681.829 7       552.305          45.000
C22  23182581.680 8 120717777.385 8     -2476.418          51.000
C26  24953663.508 7 129940275.595 7      2918.859          47.000
E02  26136101.680 6 137346130.126 6      2873.609          40.000    26136099.562 7 105239240.419 7      2201.812          43.000
E03  23403114.781 8 122984210.395 8       435.949          51.000    23403117.258 8  94234657.888 8       334.084          51.000
E05  24981721.000 8 131279811.744 8     -2024.441          48.000    24981723.367 8 100591017.890 8     -1551.141          51.000
E24                                                                  23465320.227 5  94485124.922 5     -1536.116          30.000
E25  23592032.609 8 123977033.403 8       773.645          51.000    23592034.961 8  94995371.280 8       592.787          51.000
> 2020 05 19 03 42  0.0000000  0 18        .000000000000
G05  21740146.852 7 114245236.172 7     -2638.566          46.000    21740147.984 7  89022270.697 7     -2056.026          47.000
G13  20405980.180 5 107234154.108 5      1062.715          32.000
G15  21840631.578 5 114773275.992 5      2604.988          33.000    21840624.289 5  89433706.364 5      2029.864          32.000
G28  20921437.516 8 109942887.315 8       526.230          48.000    20921436.195 8  85669801.690 8       410.050          48.000
G30  21523284.836 6 113105620.833 6     -2098.172          36.000    21523285.289 5  88134312.924 5     -1634.942          35.000
R03  23279547.383 6 124617224.990 6     -4119.098          40.000    23279549.867 6  96924515.095 6     -3203.743          39.000
R04  19592502.281 8 104916930.952 8     -1779.355          49.000    19592505.008 8  81602076.078 8     -1383.943          48.000
R14  19634304.852 7 104661909.011 7     -1865.809          44.000    19634305.664 6  81403774.709 6     -1451.184          41.000
R15  19882760.102 8 106247480.699 8      2085.309          51.000    19882763.109 8  82636911.492 8      1621.907          49.000
C05  39810276.227 6 207302553.936 6        11.641          36.000    39810273.430 6 160299466.263 6         8.708          39.000
C21  22129366.336 7 115233423.599 7       532.719          47.000
C22  23196895.906 8 120792313.361 8     -2491.480          51.000
C26  24936878.297 7 129852864.625 7      2909.734          46.000
E02  26119726.984 6 137260086.908 6      2863.602          38.000    26119724.375 7 105173311.187 7      2194.269          44.000
E03  23400669.031 8 122971357.628 8       422.152          51.000    23400671.484 8  94224809.654 8       323.431          51.000
E05  24993313.781 7 131340739.649 7     -2036.230          46.000    24993317.461 8 100637702.944 8     -1560.190          51.000
E24  23476791.008 6 123371372.146 6     -2017.375          37.000    23476800.898 5  94531348.723 5     -1545.928          32.000
E25  23587668.680 8 123954100.171 8       756.484          51.000    23587670.805 8  94977799.056 8       579.602          51.000
> 2020 05 19 03 42 30.0000000  0 17        .000000000000
G05  21755262.930 8 114324671.470 8     -2651.902          48.000    21755264.133 8  89084168.360 8     -2066.417          48.000
G13  20399957.305 6 107202505.639 6      1051.273          36.000    20399955.047 5  83534397.813 5       819.186          31.000
G28  20918500.125 8 109927452.029 8       507.723          48.000    20918499.242 7  85657774.186 7       395.628          47.000
G30  21535297.414 5 113168747.003 5     -2105.824          32.000    21535297.500 5  88183502.115 5     -1640.902          32.000
R03  23302664.719 6 124740969.652 6     -4125.344          41.000    23302666.578 6  97020760.907 6     -3208.604          38.000
R04  19602543.570 8 104970707.179 8     -1800.637          48.000    19602547.078 7  81643902.020 7     -1400.495          47.000
R14  19644868.969 7 104718223.286 7     -1883.262          45.000    19644870.844 7  81447574.702 7     -1464.759          42.000
R15  19871120.375 8 106185283.794 8      2066.328          51.000    19871123.711 8  82588536.148 8      1607.144          48.000
C05  39810225.461 6 207302289.375 6        11.574          36.000    39810222.656 6 160299261.668 6         9.010          40.000
C21  22126355.617 7 115217745.655 7       517.625          46.000
C22  23211295.562 8 120867293.267 8     -2502.137          51.000
C26  24920143.961 7 129765723.656 7      2904.895          43.000
E02  26103406.047 5 137174331.652 5      2858.586          35.000    26103404.617 7 105107602.618 7      2190.136          45.000
E03  23398301.039 8 122958913.286 8       412.547          51.000    23398303.383 8  94215274.359 8       316.146          51.000
E05  25004972.781 7 131402012.603 7     -2043.504          47.000    25004977.500 8 100684652.399 8     -1565.886          51.000
E24  23488343.305 6 123432089.162 6     -2025.633          37.000    23488355.875 5  94577872.047 5     -1551.725          33.000
E25  23583400.602 8 123931670.602 8       743.945          51.000    23583402.383 8  94960612.751 8       570.054          51.000
> 2020 05 19 03 43  0.0000000  0 19        .000000000000
G05  21770430.031 8 114404372.638 8     -2662.230          51.000    21770430.719 8  89146273.157 8     -2074.465          51.000
G07  24086576.945 5 126575795.939 5     -2841.184          33.000    24086572.797 5  98630499.394 5     -2213.909          32.000
G13  20393974.289 6 107171064.567 6      1043.207          37.000    20393971.422 5  83509898.238 5       812.886          34.000
G15  21810984.977 5 114617532.908 5      2591.219          35.000    21810981.719 5  89312308.649 5      2019.131          33.000
G28  20915643.133 7 109912438.926 7       492.266          47.000    20915641.914 7  85646075.646 7       383.584          46.000
G30  21547328.211 4 113231976.380 4     -2109.898          28.000    21547329.203 4  88232708.876 4     -1644.065          28.000
R03  23325793.539 7 124864776.094 7     -4129.082          42.000    23325794.922 6  97117054.755 6     -3211.511          37.000
R04  19612679.602 7 105024989.992 7     -1818.934          47.000    19612684.062 8  81686121.968 8     -1414.726          48.000
R14  19655505.438 7 104774922.928 7     -1897.531          43.000    19655507.516 6  81491674.408 6     -1475.858          40.000
R15  19859562.617 8 106123523.264 8      2050.352          51.000    19859565.617 7  82540500.181 7      1594.718          47.000
C05  39810148.000 6 207301886.471 6        14.258          36.000    39810145.164 6 160298949.313 6        11.264          39.000
C21  22123408.109 8 115202395.747 8       505.055          48.000
C22  23225731.609 8 120942462.497 8     -2509.945          51.000
C26  24903410.516 6 129678600.387 6      2902.328          40.000
E02  26087091.688 5 137088594.068 5      2855.766          35.000    26087091.438 7 105041919.809 7      2188.190          44.000
E03  23395962.398 8 122946622.653 8       405.922          51.000    23395964.578 8  94205856.859 8       311.052          51.000
E05  25016650.008 8 131463374.718 8     -2048.062          50.000    25016654.438 8 100731670.122 8     -1569.265          51.000
E24  23499918.844 5 123492921.622 5     -2030.758          34.000    23499934.891 5  94624483.894 5     -1556.089          35.000
E25  23579179.766 8 123909489.102 8       734.074          51.000    23579181.297 8  94943616.535 8       562.484          51.000
> 2020 05 19 03 43 30.0000000  0 17        .000000000000
G05  21785694.219 8 114484583.069 8     -2680.750          51.000    21785693.617 8  89208774.753 8     -2088.896          51.000
G07  24102827.320 4 126661212.969 4     -2847.906          28.000    24102824.258 4  98697031.824 4     -2219.148          28.000
G13  20388077.906 6 107140078.225 6      1027.109          36.000    20388074.609 5  83485753.020 5       800.333          32.000
G28  20912913.383 8 109898094.378 8       468.375          48.000    20912911.984 7  85634898.058 7       364.968          45.000
R03  23348979.930 6 124988892.198 6     -4140.703          41.000    23348980.680 5  97213589.473 5     -3220.547          35.000
R04  19622957.492 7 105080029.047 7     -1845.750          47.000    19622962.438 8  81728930.114 8     -1435.583          48.000
R14  19666260.570 7 104832254.064 7     -1920.086          45.000    19666261.219 6  81536265.310 6     -1493.400          40.000
R15  19848133.844 8 106062450.088 8      2025.738          51.000    19848136.172 7  82492998.842 7      1575.574          47.000
C05  39810090.406 6 207301587.015 6         9.477          36.000    39810087.578 6 160298717.729 6         7.258          39.000
C21  22120570.883 8 115187618.619 8       484.363          48.000
C22  23240250.328 8 121018063.430 8     -2525.781          51.000
C26  24886728.250 7 129591739.273 7      2892.441          42.000
E02  26070830.672 5 137003143.335 5      2844.781          35.000    26070831.969 7 104976452.265 7      2179.785          44.000
E03  23393699.945 8 122934732.648 8       391.094          51.000    23393702.016 8  94196746.324 8       299.663          51.000
E05  25028391.438 8 131525071.644 8     -2060.777          51.000    25028394.820 8 100778944.363 8     -1579.004          51.000
E24                                                                  23511581.281 5  94671371.533 5     -1566.508          35.000
E25  23575052.859 8 123887801.663 8       716.059          51.000    23575054.367 8  94926998.908 8       548.671          51.000
> 2020 05 19 03 44  0.0000000  0 16        .000000000000
G05  21801027.352 8 114565155.415 8     -2692.262          51.000    21801025.141 8  89271558.338 8     -2097.866          51.000
G13  20382240.445 5 107109402.363 5      1016.145          31.000    20382236.500 4  83461849.762 4       791.810          29.000
G28  20910283.664 8 109884272.973 8       451.523          49.000    20910282.242 7  85624128.134 7       351.836          46.000
R03  23372195.594 6 125113167.555 6     -4145.738          39.000    23372195.695 5  97310247.963 5     -3224.469          35.000
R04  19633349.812 8 105135675.529 8     -1865.535          49.000    19633354.047 8  81772210.718 8     -1450.972          49.000
R14  19677106.570 7 104890066.796 7     -1935.570          46.000    19677107.070 6  81581230.774 6     -1505.444          40.000
R15  19836806.648 8 106001917.539 8      2008.270          51.000    19836808.148 7  82445917.976 7      1561.987          47.000
C05  39810025.266 6 207301247.069 6        11.121          36.000    39810022.516 6 160298455.600 6         8.805          39.000
C21  22117816.016 8 115173271.202 8       470.492          48.000
C22  23254823.742 8 121093950.711 8     -2534.840          51.000
C26  24870070.875 7 129504997.240 7      2888.875          43.000
E02  26054595.852 5 136917839.280 5      2840.910          34.000    26054598.984 7 104911089.432 7      2176.726          43.000
E03  23391486.219 8 122923098.856 8       383.098          51.000    23391488.062 8  94187832.108 8       293.524          51.000
E05  25040168.797 8 131586957.711 8     -2066.445          51.000    25040171.133 8 100826363.497 8     -1583.344          51.000
E24                                                                  23523264.750 5  94718422.412 5     -1571.282          34.000
E25  23570992.172 8 123866462.956 8       705.066          51.000    23570993.539 8  94910648.480 8       540.264          51.000
> 2020 05 19 03 44 30.0000000  0 17        .000000000000
G05  21816432.078 8 114646104.136 8     -2704.570          51.000    21816428.234 8  89334635.199 8     -2107.460          51.000
G13  20376465.016 4 107079045.411 4      1008.035          29.000
G28  20907757.008 8 109870992.520 8       433.734          50.000    20907755.000 7  85613779.740 7       337.975          45.000
G30  21583734.422 4 113423289.559 4     -2136.590          29.000    21583732.773 4  88381778.218 4     -1664.875          29.000
R03  23395442.969 5 125237617.208 5     -4151.535          34.000    23395443.500 5  97407042.046 5     -3228.975          34.000
R04  19643859.305 8 105191946.090 8     -1885.988          51.000    19643862.562 8  81815976.684 8     -1466.880          49.000
R14  19688045.242 7 104948375.490 7     -1951.812          47.000    19688045.461 6  81626581.956 6     -1518.076          39.000
R15  19825583.922 8 105941944.212 8      1989.746          51.000    19825584.570 7  82399272.053 7      1547.580          47.000
C05  39809955.891 6 207300885.787 6        12.516          36.000    39809953.141 6 160298176.238 6         9.436          39.000
C21  22115146.797 8 115159371.595 8       455.832          48.000
C22  23269454.773 8 121170140.036 8     -2544.695          51.000
C26  24853440.617 7 129418392.235 7      2884.586          44.000
E02  26038390.242 5 136832690.509 5      2835.566          33.000    26038395.875 7 104845845.574 7      2172.722          43.000
E03  23389324.734 8 122911739.427 8       374.020          51.000    23389326.352 8  94179128.126 8       286.550          51.000
E05  25051985.250 8 131649049.845 8     -2073.172          51.000    25051986.336 8 100873940.510 8     -1588.540          51.000
E24  23534979.570 5 123677169.519 5     -2058.449          34.000    23534989.656 5  94765650.656 5     -1577.065          35.000
E25  23567001.016 8 123845490.219 8       692.898          51.000    23567002.102 8  94894578.455 8       530.904          51.000
> 2020 05 19 03 45  0.0000000  0 18        .000000000000
G05  21831912.250 8 114727450.692 8     -2717.926          51.000    21831907.531 8  89398022.047 8     -2117.867          51.000
G13  20370757.594 5 107049050.924 5       993.820          30.000
G15  21752295.812 5 114309085.084 5      2552.379          33.000
G28  20905337.859 8 109858277.405 8       414.582          51.000    20905335.211 7  85603871.862 7       323.051          46.000
G30  21595954.062 5 113487500.460 5     -2143.965          35.000    21595952.844 6  88431812.626 6     -1670.619          36.000
R03  23418726.789 6 125362263.275 6     -4158.129          36.000    23418727.500 5  97503988.892 5     -3234.103          30.000
R04  19654489.797 8 105248864.370 8     -1907.891          51.000    19654491.727 8  81860246.449 8     -1483.915          49.000
R14  19699080.938 7 105007201.935 7     -1969.352          46.000    19699081.734 6  81672335.832 6     -1531.718          39.000
R15  19814470.344 8 105882555.480 8      1970.031          51.000    19814470.414 7  82353080.801 7      1532.247          46.000
C05  39809886.844 6 207300526.168 6        12.125          36.000    39809884.180 6 160297898.146 6         9.231          39.000
C21  22112567.992 7 115145944.633 7       439.812          47.000
C22  23284148.086 8 121246653.982 8     -2555.602          51.000
C26  24836841.734 7 129331949.139 7      2878.949          44.000
E02                                                                  26022227.195 7 104780740.120 7      2168.008          42.000
E03  23387220.148 8 122900679.451 8       363.793          51.000    23387221.711 8  94170653.591 8       278.762          51.000
E05  25063845.297 8 131711371.843 8     -2081.078          51.000    25063845.133 8 100921693.653 8     -1594.589          50.000
E24                                                                  23546767.844 5  94813069.582 5     -1583.880          35.000
E25  23563084.078 8 123824907.546 8       679.902          51.000    23563085.234 8  94878807.336 8       520.925          51.000
> 2020 05 19 03 45 30.0000000  0 17        .000000000000
G05  21847465.094 8 114809180.891 8     -2731.016          51.000    21847460.633 8  89461707.871 8     -2128.064          51.000
G13  20365117.469 5 107019413.611 5       982.891          35.000    20365113.375 5  83391734.465 5       765.889          30.000
G28  20903023.688 8 109846115.270 8       395.871          51.000    20903021.391 7  85594394.903 7       308.471          47.000
G30  21608215.328 5 113551933.605 5     -2151.641          34.000    21608215.406 5  88482020.229 5     -1676.606          34.000
R03  23442044.695 5 125487090.790 5     -4164.531          30.000
R04  19665237.977 8 105306416.710 8     -1929.344          51.000    19665239.242 8  81905009.379 8     -1500.601          48.000
R14  19710210.648 7 105066530.356 7     -1986.215          45.000    19710212.023 6  81718480.135 6     -1544.834          39.000
R15  19803463.930 8 105823739.770 8      1950.664          51.000    19803463.727 7  82307335.219 7      1517.180          47.000
C05  39809815.773 6 207300156.140 6        11.723          36.000    39809813.109 6 160297611.951 6         9.167          39.000
C21  22110077.656 7 115132979.086 7       424.074          47.000
C22  23298901.156 8 121323478.916 8     -2566.352          51.000
C26  24820271.242 7 129245656.606 7      2873.559          43.000
E02                                                                  26006090.602 6 104715764.551 6      2163.389          41.000
E03  23385170.227 8 122889907.470 8       353.926          51.000    23385171.875 8  94162399.731 8       271.136          51.000
E05  25075746.016 8 131773911.047 8     -2088.762          50.000    25075745.172 8 100969613.244 8     -1600.438          50.000
E24                                                                  23558592.484 6  94860670.527 6     -1590.064          36.000
E25  23559238.945 8 123804702.615 8       666.734          51.000    23559240.508 8  94863325.653 8       510.871          51.000
> 2020 05 19 03 46  0.0000000  0 17        .000000000000
G05  21863093.609 8 114891311.676 8     -2744.246          50.000    21863090.555 8  89525705.875 8     -2138.374          50.000
G13  20359545.539 6 106990129.067 6       970.512          37.000    20359540.875 5  83368915.191 5       756.237          34.000
G28  20900818.508 8 109834526.559 8       376.809          51.000    20900816.516 7  85585364.751 7       293.617          47.000
G30  21620522.422 6 113616607.190 6     -2159.633          36.000    21620523.289 6  88532415.247 6     -1682.828          36.000
R03  23465400.398 5 125612117.956 5     -4170.879          33.000    23465410.492 4  97698354.660 4     -3244.020          29.000
R04  19676107.406 8 105364622.716 8     -1950.949          49.000    19676108.883 7  81950280.709 7     -1517.405          47.000
R14  19721437.812 7 105126378.406 7     -2003.523          46.000    19721440.000 6  81765028.620 6     -1558.296          40.000
R15  19792567.688 8 105765518.153 8      1930.965          50.000    19792568.820 8  82262051.749 8      1501.862          48.000
C05  39809746.633 6 207299796.538 6        12.246          36.000    39809743.852 6 160297333.112 6         9.346          39.000
C21  22107679.891 8 115120495.720 8       408.180          48.000
C22  23313717.867 8 121400633.395 8     -2577.125          51.000
C26  24803732.047 7 129159535.424 7      2868.012          42.000
E02  25989988.039 6 136578297.167 6      2817.402          40.000    25989990.352 6 104650935.188 6      2158.636          40.000
E03  23383179.133 8 122879444.474 8       343.805          51.000    23383180.867 8  94154382.618 8       263.453          51.000
E05  25087691.000 7 131836687.147 7     -2096.332          46.000    25087690.867 8 101017714.390 8     -1606.224          51.000
E24                                                                  23570464.828 6  94908467.712 6     -1596.286          37.000
E25  23555469.531 8 123784895.414 8       653.793          51.000    23555471.250 8  94848148.724 8       500.946          51.000
> 2020 05 19 03 46 30.0000000  0 18        .000000000000
G05  21878795.133 8 114973829.050 8     -2758.023          49.000    21878794.328 8  89590005.162 8     -2149.106          49.000
G13  20354040.336 6 106961198.457 6       957.195          38.000    20354035.484 5  83346371.901 5       745.866          33.000
G15  21708828.906 5 114080665.216 5      2523.086          34.000
G28  20898720.070 8 109823499.072 8       357.238          51.000    20898718.086 7  85576771.908 7       278.367          47.000
G30  21632871.617 5 113681520.157 5     -2168.191          33.000
R03  23488791.609 5 125737329.714 5     -4177.965          35.000    23488800.609 5  97795741.532 5     -3249.534          35.000
R04  19687096.047 8 105423468.859 8     -1973.203          49.000    19687097.867 7  81996049.904 7     -1534.717          46.000
R14  19732759.750 7 105186730.602 7     -2021.238          43.000    19732761.664 6  81811969.128 6     -1572.077          38.000
R15  19781779.930 8 105707879.114 8      1910.500          50.000    19781782.758 8  82217221.426 8      1485.944          48.000
C05  39809676.992 6 207299433.459 6        11.227          36.000    39809674.117 6 160297052.352 6         8.461          39.000
C21  22105372.969 8 115108483.343 8       391.582          48.000
C22  23328595.820 8 121478103.905 8     -2588.598          51.000
C26  24787222.773 7 129073574.386 7      2861.465          43.000
E02  25973924.664 7 136493869.195 7      2810.246          43.000    25973924.805 6 104586243.629 6      2153.252          39.000
E03  23381244.734 8 122869279.200 8       332.727          51.000    23381246.523 8  94146593.631 8       254.895          51.000
E05  25099677.578 7 131899687.632 7     -2104.852          45.000    25099679.453 8 101065987.540 8     -1612.808          51.000
E24                                                                  23582381.570 6  94956450.667 6     -1603.305          36.000
E25  23551773.594 8 123765473.739 8       639.914          51.000    23551774.922 8  94833267.185 8       490.354          51.000
> 2020 05 19 03 47  0.0000000  0 16        .000000000000
G05  21894573.781 8 115056749.350 8     -2769.789          50.000    21894574.516 8  89654618.415 8     -2158.277          50.000
G13  20348606.305 6 106932642.066 6       946.410          38.000    20348602.039 5  83324120.193 5       737.469          34.000
G28  20896732.109 8 109813052.519 8       339.375          51.000    20896730.500 8  85568631.753 8       264.448          48.000
R03  23512220.891 6 125862743.138 6     -4182.609          37.000    23512228.469 5  97893285.200 5     -3253.141          35.000
R04  19698207.617 8 105482973.710 8     -1993.562          49.000    19698209.867 7  82042331.408 7     -1550.549          45.000
R14  19744178.820 7 105247603.263 7     -2036.941          42.000    19744180.883 6  81859314.593 6     -1584.288          39.000
R15  19771105.555 8 105650843.140 8      1892.074          50.000    19771109.742 8  82172860.165 8      1471.616          49.000
C05  39809610.422 5 207299086.884 5        11.801          35.000    39809607.492 6 160296784.303 6         9.370          39.000
C21  22103160.281 7 115096961.851 7       376.742          47.000
C22  23343537.719 8 121555908.046 8     -2598.105          51.000
C26  24770748.273 7 128987793.286 7      2857.305          44.000
E02  25957898.297 7 136409641.381 7      2805.117          45.000    25957898.000 6 104521705.483 6      2149.483          38.000
E03  23379370.812 8 122859431.677 8       323.828          51.000    23379372.523 8  94139048.112 8       248.218          51.000
E05  25111712.523 8 131962931.445 8     -2111.199          49.000    25111715.133 8 101114447.079 8     -1617.678          51.000
E24                                                                  23594346.289 5  95004632.899 5     -1608.675          35.000
E25  23548154.805 8 123746456.697 8       628.039          51.000    23548155.789 8  94818695.676 8       481.210          51.000
> 2020 05 19 03 47 30.0000000  0 17        .000000000000
G05  21910422.469 8 115140033.936 8     -2782.668          51.000    21910423.844 8  89719515.501 8     -2168.313          51.000
G13  20343236.547 6 106904425.106 6       934.652          37.000    20343232.242 5  83302132.910 5       728.294          33.000
G28  20894847.805 8 109803150.518 8       320.508          51.000    20894846.570 8  85560915.930 8       249.746          48.000
G30  21657705.875 6 113812010.442 6     -2181.789          36.000    21657704.695 6  88684684.533 6     -1700.098          36.000
R03  23535680.953 6 125988319.180 6     -4189.230          40.000    23535686.711 5  97990955.443 5     -3258.290          35.000
R04  19709435.312 8 105543099.763 8     -2015.090          50.000    19709437.898 7  82089096.071 7     -1567.292          45.000
R14  19755688.977 7 105308957.381 7     -2053.574          43.000    19755691.258 6  81907034.459 6     -1597.224          40.000
R15  19760537.961 8 105594374.542 8      1872.270          51.000    19760543.141 8  82128940.161 8      1456.210          50.000
C05  39809540.234 6 207298721.455 6        11.895          36.000    39809537.320 6 160296501.717 6         9.334          39.000
C21  22101035.016 8 115085896.690 8       360.676          48.000
C22  23358536.266 8 121634008.915 8     -2608.867          51.000
C26  24754302.172 7 128902157.575 7      2851.492          44.000
E02  25941902.711 7 136325579.130 7      2798.691          46.000    25941902.797 6 104457294.188 6      2144.715          37.000
E03  23377550.781 8 122849866.997 8       313.645          51.000    23377552.375 8  94131719.331 8       240.301          51.000
E05  25123787.719 8 132026382.360 8     -2119.035          51.000    25123790.273 8 101163065.303 8     -1623.691          51.000
E24                                                                  23606353.031 5  95052985.784 5     -1615.305          35.000
E25  23544606.141 8 123727808.373 8       615.020          51.000    23544607.523 8  94804406.710 8       471.225          51.000
> 2020 05 19 03 48  0.0000000  0 17        .000000000000
G05  21926343.219 8 115223695.451 8     -2794.848          51.000    21926344.453 8  89784706.285 8     -2177.803          51.000
G13  20337934.344 6 106876563.416 6       922.789          40.000    20337930.461 6  83280422.540 6       719.056          38.000
G28  20893070.031 8 109793808.068 8       302.281          51.000    20893069.000 8  85553636.093 8       235.544          48.000
G30  21670184.094 6 113877585.061 6     -2189.562          36.000    21670183.234 6  88735781.641 6     -1706.153          36.000
R03  23559173.195 6 126114070.127 6     -4194.219          39.000    23559179.250 5  98088761.711 5     -3262.170          35.000
R04  19720782.148 8 105603860.686 8     -2035.828          50.000    19720784.422 7  82136354.530 7     -1583.422          46.000
R14  19767291.398 7 105370804.616 7     -2069.598          44.000    19767294.242 6  81955137.835 6     -1609.690          40.000
R15  19750080.156 8 105538488.768 8      1853.270          51.000    19750085.539 8  82085473.425 8      1441.432          50.000
C05  39809469.203 5 207298351.726 5        12.129          35.000    39809466.398 6 160296215.784 6         9.639          39.000
C21  22099000.289 8 115075303.161 8       345.465          48.000
C22  23373593.688 8 121712419.565 8     -2618.789          50.000
C26  24737887.312 7 128816682.483 7      2846.648          45.000
E02  25925941.219 7 136241698.276 7      2793.180          47.000    25925940.930 6 104393021.866 6      2140.315          37.000
E03  23375787.500 8 122840600.652 8       304.027          51.000    23375789.242 8  94124619.138 8       232.965          51.000
E05  25135904.625 8 132090054.697 8     -2126.027          50.000    25135907.297 8 101211853.150 8     -1628.986          51.000
E24  23618392.867 5 124115488.630 5     -2115.027          34.000    23618405.852 5  95101519.334 5     -1620.743          35.000
E25  23541130.617 8 123709543.304 8       602.539          51.000    23541132.266 8  94790411.405 8       461.710          51.000
> 2020 05 19 03 48 30.0000000  0 17        .000000000000
G05  21942336.242 8 115307736.672 8     -2807.508          51.000    21942336.953 8  89850192.935 8     -2187.668          51.000
G13  20332701.406 6 106849063.667 6       910.770          41.000    20332698.242 6  83258994.128 6       709.691          38.000
G28  20891399.531 8 109785030.568 8       283.332          50.000    20891398.672 8  85546796.470 8       220.778          48.000
G30  21682704.844 6 113943384.951 6     -2197.242          38.000    21682705.125 6  88787054.228 6     -1712.140          38.000
R03  23582698.031 6 126239999.028 6     -4200.070          36.000    23582705.305 5  98186706.428 5     -3266.718          32.000
R04  19732248.539 8 105665260.689 8     -2057.117          49.000    19732250.414 7  82184110.060 7     -1599.980          46.000
R14  19778986.742 7 105433147.460 7     -2086.238          43.000    19778989.266 6  82003626.692 6     -1622.630          40.000
R15  19739732.766 8 105483192.238 8      1833.555          51.000    19739737.602 8  82042465.015 8      1426.098          49.000
C05  39809398.422 6 207297982.913 6        12.961          36.000    39809395.648 6 160295930.600 6         9.651          39.000
C21  22097057.500 8 115065187.387 8       329.410          48.000
C22  23388711.703 8 121791143.850 8     -2629.148          51.000
C26  24721504.922 7 128731374.206 7      2840.984          46.000
E02  25910015.086 7 136158005.345 7      2786.820          47.000    25910013.117 6 104328893.573 6      2135.368          37.000
E03  23374082.086 8 122831638.844 8       293.793          51.000    23374084.023 8  94117752.281 8       225.135          51.000
E05  25148064.281 8 132153953.309 8     -2133.535          51.000    25148067.469 8 101260814.379 8     -1634.772          51.000
E24                                                                  23630505.242 5  95150236.460 5     -1626.918          35.000
E25  23537729.234 8 123691666.730 8       589.594          51.000    23537730.367 8  94776713.745 8       451.779          51.000
> 2020 05 19 03 49  0.0000000  0 16        .000000000000
G05  21958400.508 8 115392152.805 8     -2819.852          51.000    21958400.562 8  89915971.704 8     -2197.290          51.000
G13  20327537.352 7 106821925.335 7       898.914          42.000    20327534.023 5  83237847.366 5       700.453          35.000
G28  20889836.266 8 109776816.488 8       264.734          50.000    20889835.656 8  85540395.885 8       206.287          49.000
G30  21695267.930 5 114009407.259 5     -2204.047          34.000    21695269.602 5  88838500.222 5     -1717.445          34.000
R04  19743833.812 8 105727297.313 8     -2078.195          48.000    19743835.195 7  82232360.782 7     -1616.371          46.000
R14  19790773.922 7 105495981.421 7     -2102.301          44.000    19790777.422 6  82052497.569 6     -1635.123          39.000
R15  19729495.273 8 105428483.872 8      1814.090          51.000    19729499.352 8  81999914.066 8      1410.959          48.000
C05  39809327.508 5 207297613.856 5        12.293          35.000    39809324.812 6 160295645.149 6         9.826          39.000
C21  22095206.523 8 115055548.716 8       313.711          48.000
C22  23403889.867 8 121870178.853 8     -2639.336          51.000
C26  24705154.938 7 128646232.092 7      2835.586          47.000
E02  25894124.391 7 136074500.011 7      2780.594          47.000    25894118.750 6 104264909.057 6      2130.630          39.000
E03  23372434.461 8 122822980.952 8       283.848          51.000    23372436.398 8  94111118.299 8       217.473          51.000
E05  25160266.578 8 132218076.326 8     -2140.887          51.000    25160270.172 8 101309947.575 8     -1640.378          51.000
E24                                                                  23642649.758 5  95199134.834 5     -1632.784          35.000
E25  23534401.336 8 123674176.982 8       576.949          51.000    23534402.195 8  94763312.492 8       442.033          51.000
> 2020 05 19 03 49 30.0000000  0 16        .000000000000
G05  21974538.070 8 115476954.618 8     -2832.566          51.000    21974537.281 8  89982050.995 8     -2207.198          51.000
G13  20322444.609 7 106795162.432 7       886.395          43.000    20322440.742 6  83216993.164 6       690.697          38.000
G28  20888382.719 8 109769178.517 8       245.492          50.000    20888382.219 8  85534444.209 8       191.293          49.000
G30  21707875.508 5 114075663.452 5     -2211.715          34.000    21707876.469 5  88890128.403 5     -1723.411          34.000
R04  19755540.141 8 105789981.854 8     -2099.645          49.000    19755540.836 7  82281115.453 7     -1633.057          46.000
R14  19802655.320 7 105559315.950 7     -2118.777          43.000    19802658.766 6  82101757.720 6     -1647.938          38.000
R15  19719370.062 8 105374377.178 8      1794.176          50.000    19719373.898 8  81957831.063 8      1395.470          48.000
C05  39809258.883 5 207297256.645 5        12.504          35.000    39809256.281 6 160295368.941 6         9.566          39.000
C21  22093449.336 8 115046400.251 8       297.262          48.000
C22  23419129.773 8 121949535.384 8     -2650.035          51.000
C26  24688839.328 7 128561269.285 7      2829.688          47.000
E02  25878271.742 7 135991195.844 7      2773.973          46.000    25878263.938 6 104201078.611 6      2125.592          41.000
E03  23370847.297 8 122814640.236 8       273.355          51.000    23370849.109 8  94104727.356 8       209.412          51.000
E05  25172513.789 8 132282435.754 8     -2148.750          50.000    25172517.383 8 101359261.953 8     -1646.391          51.000
E24                                                                  23654840.289 5  95248222.794 5     -1639.067          33.000
E25  23531149.344 8 123657086.403 8       563.484          51.000    23531150.398 8  94750217.117 8       431.818          51.000
> 2020 05 19 03 50  0.0000000  0 16        .000000000000
G05  21990742.516 8 115562108.942 8     -2844.230          50.000    21990741.164 8  90048404.982 8     -2216.283          50.000
G13  20317417.648 7 106768745.761 7       874.773          43.000    20317414.008 6  83196408.743 6       681.642          37.000
G28  20887033.000 8 109762086.157 8       227.406          50.000    20887032.320 8  85528917.688 8       177.200          48.000
G30  21720521.953 5 114142121.763 5     -2218.324          32.000    21720523.508 5  88941914.100 5     -1728.564          31.000
R04  19767361.258 8 105853282.197 8     -2120.273          51.000    19767361.234 7  82330349.054 7     -1649.105          45.000
R14  19814624.102 7 105623117.257 7     -2134.578          43.000    19814629.109 6  82151381.013 6     -1660.227          40.000
R15  19709351.867 8 105320841.943 8      1775.031          51.000    19709355.617 8  81916192.546 8      1380.580          48.000
C05  39809186.859 6 207296881.501 6        13.035          36.000    39809184.305 6 160295078.840 6        10.052          39.000
C21  22091780.547 8 115037712.836 8       281.816          48.000
C22  23434425.312 8 122029181.996 8     -2659.668          51.000
C26  24672552.219 7 128476456.611 7      2824.719          47.000
E02  25862451.500 7 135908063.778 7      2768.297          44.000    25862443.797 7 104137380.011 7      2121.157          42.000
E03  23369314.984 8 122806587.284 8       263.676          51.000    23369316.688 8  94098556.897 8       202.058          51.000
E05  25184800.086 8 132347000.962 8     -2155.504          50.000    25184803.516 8 101408734.021 8     -1651.632          51.000
E24  23667057.062 6 124371224.785 6     -2145.863          36.000    23667070.836 5  95297475.950 5     -1644.116          32.000
E25  23527967.516 8 123640364.557 8       551.379          51.000    23527968.375 8  94737404.276 8       422.488          51.000
> 2020 05 19 03 50 30.0000000  0 16        .000000000000
G05  22007015.711 8 115647627.375 8     -2856.973          48.000    22007014.555 8  90115042.708 8     -2226.212          48.000
G13  20312459.188 7 106742690.477 7       862.262          43.000    20312456.141 6  83176105.900 6       671.892          38.000
G28  20885789.992 8 109755553.747 8       208.285          50.000    20885788.969 8  85523827.487 8       162.300          49.000
G30  21733209.359 6 114208795.221 6     -2226.152          36.000    21733210.062 5  88993867.453 5     -1734.661          35.000
R04  19779299.617 8 105917211.771 8     -2141.645          51.000    19779299.789 7  82380072.002 7     -1665.727          46.000
R14  19826683.398 7 105687396.972 7     -2150.863          44.000    19826687.969 6  82201376.319 6     -1672.897          38.000
R15  19699443.312 8 105267893.138 8      1754.922          51.000    19699447.031 8  81875010.150 8      1364.939          49.000
C05  39809114.070 5 207296502.492 5        12.238          35.000    39809111.523 6 160294785.731 6         9.509          40.000
C21  22090203.500 8 115029501.209 8       265.629          48.000
C22  23449778.766 8 122109131.252 8     -2670.199          51.000
C26  24656296.578 7 128391808.934 7      2818.523          47.000
E02  25846666.781 7 135825119.129 7      2761.539          44.000    25846660.562 7 104073824.979 7      2115.892          44.000
E03  23367840.344 8 122798837.107 8       253.035          51.000    23367842.031 8  94092618.440 8       193.935          51.000
E05  25197128.148 8 132411785.750 8     -2163.387          50.000    25197131.508 8 101458374.290 8     -1657.624          51.000
E24  23679334.391 6 124435732.765 6     -2154.156          37.000    23679345.188 5  95346911.048 5     -1650.450          31.000
E25  23524858.383 8 123624025.463 8       538.039          51.000    23524858.930 8  94724884.687 8       412.276          51.000
> 2020 05 19 03 51  0.0000000  0 16        .000000000000
G05  22023358.250 7 115733513.761 7     -2869.285          46.000    22023358.156 7  90181967.178 7     -2235.807          46.000
G13  20307570.781 7 106717004.659 7       849.832          43.000    20307568.773 6  83156090.943 6       662.204          37.000
G28  20884654.734 8 109749587.673 8       189.164          50.000    20884653.594 8  85519178.588 8       147.401          49.000
G30  21745938.961 6 114275689.290 6     -2233.578          38.000    21745939.180 5  89045992.690 5     -1740.447          35.000
R04  19791356.531 8 105981775.959 8     -2162.984          51.000    19791357.008 8  82430288.557 8     -1682.321          48.000
R14  19838832.414 6 105752158.726 6     -2167.086          41.000    19838835.492 6  82251746.523 6     -1685.508          39.000
R15  19689645.625 8 105215538.310 8      1734.949          51.000    19689649.633 8  81834289.747 8      1349.408          49.000
C05  39809041.938 5 207296127.791 5        12.688          35.000    39809039.297 6 160294494.841 6         9.364          39.000
C21  22088719.625 8 115021772.892 8       249.289          50.000
C22  23465191.250 8 122189388.303 8     -2680.633          51.000
C26  24640073.781 7 128307333.703 7      2812.762          47.000
E02  25830918.617 7 135742369.836 7      2754.812          43.000    25830915.203 7 104010419.603 7      2110.738          45.000
E03  23366424.742 8 122791397.322 8       242.508          51.000    23366426.352 8  94086917.815 8       185.848          51.000
E05  25209499.609 8 132476796.410 8     -2171.102          51.000    25209502.031 8 101508187.611 8     -1663.583          51.000
E24  23691656.102 5 124500474.225 5     -2162.090          34.000    23691665.352 5  95396518.059 5     -1656.720          31.000
E25  23521823.023 8 123608075.720 8       524.832          51.000    23521824.117 8  94712663.445 8       402.105          51.000
> 2020 05 19 03 51 30.0000000  0 16        .000000000000
G05  22039769.180 7 115819758.536 7     -2880.441          47.000    22039770.047 7  90249170.917 7     -2244.500          47.000
G13  20302751.812 7 106691682.180 7       838.609          43.000    20302750.625 6  83136359.165 6       653.462          38.000
G28  20883625.914 8 109744180.693 8       171.242          50.000    20883624.734 8  85514965.355 8       133.435          49.000
G30  21758709.133 6 114342795.459 6     -2240.188          37.000    21758708.656 5  89098283.179 5     -1745.604          35.000
R04  19803530.578 8 106046966.099 8     -2182.973          51.000    19803531.258 8  82480991.974 8     -1697.868          49.000
R14  19851070.547 7 105817392.148 7     -2181.887          44.000    19851073.430 6  82302483.625 6     -1697.026          39.000
R15  19679958.188 8 105163770.713 8      1716.211          51.000    19679962.281 8  81794026.064 8      1334.831          50.000
C05  39808968.625 5 207295745.754 5        13.133          35.000    39808966.203 6 160294200.527 6        10.125          40.000
C21  22087327.578 8 115014521.288 8       234.211          50.000
C22  23480661.250 8 122269944.447 8     -2689.805          51.000
C26  24623882.727 8 128223024.501 8      2807.930          48.000
E02  25815206.484 7 135659809.580 7      2749.035          44.000    25815205.750 7 103947159.100 7      2106.532          45.000
E03  23365066.938 8 122784261.391 8       233.215          51.000    23365068.359 8  94081450.021 8       178.646          51.000
E05  25221912.422 8 132542025.251 8     -2177.586          51.000    25221914.008 8 101558168.101 8     -1668.516          51.000
E24                                                                  23704029.430 5  95446302.141 5     -1661.578          32.000
E25  23518860.328 8 123592507.772 8       512.934          51.000    23518862.047 8  94700734.748 8       393.075          51.000
> 2020 05 19 03 52  0.0000000  0 17        .000000000000
G05  22056247.523 8 115906353.473 8     -2892.539          49.000    22056248.562 8  90316647.496 8     -2253.923          49.000
G13  20298001.156 7 106666718.386 7       825.637          42.000    20298000.539 6  83116906.862 6       643.353          41.000
G15  21553613.492 5 113265002.713 5      2417.270          31.000
G28  20882702.188 8 109739326.570 8       152.316          49.000    20882700.992 8  85511182.919 8       118.688          49.000
G30  21771518.664 6 114410106.764 6     -2247.562          38.000    21771519.938 6  89150733.467 6     -1751.344          37.000
R04  19815820.539 8 106112774.885 8     -2204.246          51.000    19815820.961 8  82532176.610 8     -1714.411          50.000
R14  19863394.977 7 105883088.239 7     -2197.934          43.000    19863397.617 6  82353580.530 6     -1709.504          40.000
R15  19670379.672 8 105112584.858 8      1696.207          51.000    19670383.578 8  81754214.851 8      1319.272          50.000
C05  39808893.641 6 207295355.250 6        12.340          36.000    39808891.328 6 160293898.551 6         9.817          40.000
C21  22086025.938 8 115007741.519 8       217.871          50.000
C22  23496187.188 8 122350792.413 8     -2700.164          51.000
C26  24607722.820 8 128138876.518 8      2801.953          48.000
E02  25799529.812 7 135577433.796 7      2742.598          45.000    25799530.523 7 103884039.964 7      2101.573          43.000
E03  23363766.016 8 122777424.459 8       222.566          51.000    23363767.188 8  94076211.323 8       170.553          51.000
E05  25234365.094 8 132607466.046 8     -2185.137          49.000    25234366.430 8 101608310.996 8     -1674.305          51.000
E24                                                                  23716434.938 5  95496250.744 5     -1668.166          32.000
E25  23515969.406 8 123577315.732 8       499.770          51.000    23515971.188 8  94689094.084 8       382.940          51.000
> 2020 05 19 03 52 30.0000000  0 16        .000000000000
G05  22072794.211 8 115993305.448 8     -2904.125          50.000    22072794.977 8  90384402.281 8     -2262.955          50.000
G13  20293320.922 7 106642124.073 7       813.777          43.000    20293320.438 6  83097742.453 6       634.112          41.000
G28  20881885.344 8 109735035.287 8       133.820          49.000    20881884.375 8  85507839.055 8       104.276          48.000
G30  21784368.867 5 114477631.309 5     -2253.996          35.000    21784373.391 5  89203349.944 5     -1756.367          35.000
R04  19828227.234 8 106179210.677 8     -2224.801          51.000    19828227.680 8  82583848.893 8     -1730.401          49.000
R14  19875807.617 7 105949253.666 7     -2213.141          43.000    19875810.898 6  82405042.556 6     -1721.332          41.000
R15  19660912.422 8 105061991.034 8      1676.707          51.000    19660915.445 8  81714864.079 8      1304.105          50.000
C05  39808818.438 5 207294963.210 5        13.137          35.000    39808816.188 6 160293596.140 6        10.119          39.000
C21  22084816.781 8 115001443.661 8       202.094          51.000
C22  23511770.258 8 122431940.184 8     -2709.789          51.000
C26  24591596.156 8 128054899.841 8      2796.590          48.000
E02  25783890.438 7 135495253.153 7      2736.352          46.000    25783890.641 6 103821070.402 6      2096.634          41.000
E03  23362523.984 8 122770896.807 8       212.598          51.000    23362525.023 8  94071209.609 8       162.941          51.000
E05  25246859.297 8 132673127.909 8     -2192.125          48.000    25246861.406 8 101658623.315 8     -1679.797          51.000
E24  23728905.219 5 124696238.601 5     -2183.660          35.000    23728881.711 5  95546374.885 5     -1673.823          31.000
E25  23513151.562 8 123562508.841 8       487.449          51.000    23513153.562 8  94677748.546 8       373.467          51.000
> 2020 05 19 03 53  0.0000000  0 16        .000000000000
G05  22089409.578 8 116080617.408 8     -2916.352          50.000    22089409.797 8  90452437.567 8     -2272.482          50.000
G13  20288712.422 7 106617906.324 7       800.953          43.000    20288711.625 6  83078871.463 6       624.116          41.000
G28  20881176.914 8 109731312.433 8       114.566          49.000    20881175.938 8  85504938.091 8        89.273          48.000
G30  21797260.086 5 114545374.110 5     -2261.477          35.000    21797267.250 5  89256136.556 5     -1762.186          34.000
R04  19840751.750 8 106246278.288 8     -2246.074          51.000    19840752.172 8  82636012.598 8     -1746.947          48.000
R14  19888308.688 7 106015891.505 7     -2229.133          42.000    19888311.039 6  82456871.929 6     -1733.770          41.000
R15  19651556.922 8 105011996.033 8      1656.488          51.000    19651559.250 8  81675979.107 8      1288.383          49.000
C05                                                                  39808742.164 6 160293297.990 6         9.850          39.000
C21  22083701.438 8 114995634.415 8       185.605          51.000
C22  23527411.656 8 122513392.162 8     -2720.199          50.000
C26  24575504.023 8 127971101.312 8      2790.309          48.000
E02  25768289.688 7 135413274.825 7      2729.258          46.000    25768286.906 6 103758255.898 6      2091.258          38.000
E03  23361342.141 8 122764685.304 8       201.883          51.000    23361343.273 8  94066450.138 8       154.654          51.000
E05  25259396.750 8 132739016.450 8     -2200.020          48.000    25259400.023 8 101709109.301 8     -1685.714          51.000
E24  23741394.828 6 124761876.978 6     -2191.660          38.000    23741369.422 5  95596664.989 5     -1678.941          31.000
E25  23510408.094 8 123548092.988 8       473.984          51.000    23510410.336 8  94666702.631 8       363.192          51.000
> 2020 05 19 03 53 30.0000000  0 16        .000000000000
G05  22106091.414 8 116168278.454 8     -2927.629          50.000    22106090.945 8  90520744.865 8     -2281.269          50.000
G13  20284174.273 7 106594057.711 7       788.930          45.000    20284173.461 6  83060288.096 6       614.747          41.000
G28  20880574.922 8 109728148.927 8        96.211          49.000    20880574.094 8  85502473.012 8        74.967          48.000
G30  21810190.352 6 114613325.041 6     -2268.281          38.000    21810198.180 6  89309085.311 6     -1767.495          37.000
R04  19853392.172 8 106313967.351 8     -2266.449          51.000    19853392.625 8  82688659.641 8     -1762.794          48.000
R14  19900895.594 7 106082989.557 7     -2244.184          42.000    19900898.789 7  82509059.313 7     -1745.476          42.000
R15  19642311.773 8 104962591.046 8      1637.090          51.000    19642313.008 8  81637553.034 8      1273.292          48.000
C05  39808669.961 6 207294189.985 6        13.336          36.000    39808667.531 6 160292997.425 6        10.022          40.000
C21  22082678.320 8 114990305.703 8       169.789          51.000
C22  23543109.133 8 122595138.097 8     -2729.574          49.000
C26  24559444.336 8 127887472.907 8      2784.832          49.000
E02  25752726.250 7 135331491.121 7      2722.980          47.000    25752720.984 6 103695590.539 6      2086.278          38.000
E03  23360218.891 8 122758781.936 8       191.828          51.000    23360219.992 8  94061926.767 8       146.928          51.000
E05  25271976.031 8 132805122.366 8     -2206.984          48.000    25271980.039 8 101759761.858 8     -1691.120          51.000
E24  23753925.906 6 124827734.717 6     -2198.531          37.000    23753900.242 5  95647112.248 5     -1684.233          31.000
E25  23507737.406 8 123534059.092 8       461.523          51.000    23507739.719 8  94655949.392 8       353.650          51.000
> 2020 05 19 03 54  0.0000000  0 16        .000000000000
G05  22122837.273 8 116256275.988 8     -2939.402          51.000    22122836.070 8  90589314.362 8     -2290.443          51.000
G13  20279704.688 7 106570569.111 7       776.223          46.000    20279703.672 7  83041985.285 7       604.846          42.000
G28  20880077.672 8 109725534.578 8        77.453          49.000    20880076.578 8  85500435.843 8        60.353          49.000
G30  21823158.570 6 114681472.762 6     -2275.230          37.000    21823165.797 6  89362187.466 6     -1772.907          36.000
R04  19866146.117 8 106382266.100 8     -2287.410          51.000    19866147.094 8  82741780.841 8     -1779.097          48.000
R14  19913567.305 7 106150534.968 7     -2259.516          44.000    19913570.398 6  82561594.651 6     -1757.401          41.000
R15  19633174.477 8 104913766.560 8      1617.109          51.000    19633175.477 8  81599578.415 8      1257.752          48.000
C05  39808592.820 5 207293788.268 5        12.961          35.000    39808590.352 6 160292686.745 6        10.279          40.000
C21  22081745.461 8 114985448.260 8       153.465          51.000
C22  23558860.852 8 122677166.472 8     -2739.602          48.000
C26  24543415.531 8 127804005.512 8      2778.941          48.000
E02  25737198.500 7 135249893.063 7      2716.137          47.000    25737194.555 6 103633067.418 6      2081.318          40.000
E03  23359152.539 8 122753177.487 8       181.191          51.000    23359153.266 8  94057632.446 8       138.874          51.000
E05  25284594.758 8 132871435.225 8     -2214.371          48.000    25284599.719 8 101810572.980 8     -1696.804          51.000
E24  23766496.109 5 124893781.289 5     -2206.133          33.000    23766473.422 5  95697739.856 5     -1690.689          31.000
E25  23505137.500 8 123520396.882 8       448.727          51.000    23505139.867 8  94645480.952 8       343.800          51.000
> 2020 05 19 03 54 30.0000000  0 16        .000000000000
G05  22139648.406 8 116344616.773 8     -2950.582          51.000    22139646.539 8  90658151.318 8     -2299.155          51.000
G13  20275305.688 7 106547451.668 7       763.957          45.000    20275304.250 7  83023971.700 7       595.291          43.000
G28  20879686.789 8 109723479.051 8        58.848          49.000    20879685.305 8  85498834.125 8        45.855          48.000
G30  21836165.719 5 114749825.994 5     -2282.375          35.000    21836172.148 5  89415449.762 5     -1778.471          35.000
R04  19879015.289 8 106451182.995 8     -2307.770          49.000    19879016.562 7  82795382.837 7     -1794.932          47.000
R14  19926323.766 7 106218534.434 7     -2274.348          42.000    19926326.688 7  82614483.068 7     -1768.937          42.000
R15  19624147.398 8 104865532.797 8      1597.664          51.000    19624148.945 8  81562063.257 8      1242.628          49.000
C05  39808515.086 5 207293383.200 5        13.430          35.000    39808512.625 6 160292373.509 6        10.364          40.000
C21  22080905.000 8 114981072.433 8       137.547          51.000
C22  23574668.531 8 122759485.523 8     -2749.082          49.000
C26  24527419.336 7 127720709.580 7      2773.402          46.000
E02  25721708.445 8 135168491.640 8      2709.789          48.000    25721707.789 7 103570694.937 7      2076.284          45.000
E03  23358145.008 8 122747882.562 8       171.047          51.000    23358145.414 8  94053575.296 8       131.074          51.000
E05  25297254.703 8 132937964.341 8     -2221.613          48.000    25297260.430 8 101861549.810 8     -1702.251          51.000
E24                                                                  23779089.766 5  95748537.913 5     -1695.687          32.000
E25  23502610.109 8 123507115.971 8       435.941          51.000    23502612.562 8  94635304.667 8       334.051          51.000
> 2020 05 19 03 55  0.0000000  0 15        .000000000000
G05  22156522.711 8 116433289.977 8     -2960.023          51.000    22156520.391 8  90727247.305 8     -2306.512          51.000
G13  20270975.898 7 106524698.117 7       753.723          45.000    20270974.172 7  83006241.651 7       587.316          43.000
G28  20879400.484 8 109721973.768 8        42.133          51.000    20879398.953 8  85497661.184 8        32.831          48.000
R04  19891997.844 7 106520708.340 7     -2326.324          45.000    19891999.711 7  82849458.105 7     -1809.363          47.000
R14  19939163.672 7 106286976.402 7     -2287.508          43.000    19939166.328 6  82667715.726 6     -1779.173          41.000
R15  19615229.688 8 104817882.009 8      1579.914          51.000    19615231.078 7  81525001.555 7      1228.822          47.000
C05  39808435.141 6 207292967.773 6        15.398          36.000    39808432.664 6 160292051.488 6        11.898          39.000
C21  22080155.531 8 114977170.704 8       123.359          51.000
C22  23590531.148 8 122842085.515 8     -2756.742          50.000
C26  24511454.211 7 127637577.817 7      2769.512          44.000
E02  25706254.531 8 135087279.680 8      2705.145          48.000    25706256.742 7 103508467.593 7      2072.770          47.000
E03  23357194.812 8 122742889.731 8       162.719          51.000    23357195.211 8  94049749.607 8       124.666          51.000
E05  25309954.312 8 133004701.031 8     -2226.688          49.000    25309960.047 8 101912685.707 8     -1706.169          51.000
E24                                                                  23791746.695 5  95799499.102 5     -1699.788          34.000
E25  23500153.750 8 123494207.790 8       425.398          51.000    23500156.180 8  94625413.994 8       325.934          51.000
> 2020 05 19 03 55 30.0000000  0 15        .000000000000
G05  22173462.406 8 116522308.112 8     -2973.445          51.000    22173460.219 8  90796612.073 8     -2316.970          51.000
G13  20266718.406 7 106502324.644 7       739.020          45.000    20266716.633 7  82988807.761 7       575.856          42.000
G28  20879221.641 8 109721033.014 8        21.492          50.000    20879219.797 7  85496928.123 7        16.747          47.000
R04  19905095.008 7 106590855.505 7     -2349.109          44.000    19905099.328 7  82904017.070 7     -1827.082          47.000
R14  19952088.195 7 106355872.929 7     -2304.562          44.000    19952090.867 6  82721301.875 6     -1792.441          41.000
R15  19606424.008 8 104770829.535 8      1557.898          51.000    19606425.320 7  81488405.206 7      1211.699          47.000
C05  39808355.883 6 207292554.551 6        13.281          36.000    39808353.305 6 160291731.945 6        10.101          39.000
C21  22079500.016 8 114973758.340 8       105.074          51.000
C22  23606450.703 8 122924979.483 8     -2768.430          51.000
C26  24495523.406 7 127554625.557 7      2761.723          44.000
E02  25690839.531 8 135006273.090 8      2696.379          48.000    25690844.000 8 103446397.595 8      2065.994          50.000
E03  23356305.062 8 122738214.531 8       150.051          51.000    23356305.625 8  94046167.298 8       114.986          51.000
E05  25322696.836 8 133071659.612 8     -2236.078          51.000    25322701.695 8 101963991.608 8     -1713.314          51.000
E24                                                                  23804444.336 5  95850612.446 5     -1707.070          33.000
E25  23497771.234 8 123481686.900 8       410.445          51.000    23497773.688 8  94615820.064 8       314.476          51.000
> 2020 05 19 03 56  0.0000000  0 15        .000000000000
G05  22190470.656 8 116611688.940 8     -2984.535          50.000    22190469.055 8  90866259.470 8     -2325.612          50.000
G13  20262537.273 7 106480353.138 7       726.578          45.000    20262535.766 7  82971687.105 7       566.165          43.000
G28  20879153.984 8 109720677.298 8         2.961          51.000    20879152.055 7  85496650.958 7         2.307          47.000
R04  19918314.000 8 106661644.038 8     -2369.465          49.000    19918318.617 7  82959074.850 7     -1842.914          46.000
R14  19965101.227 6 106425241.756 6     -2319.289          41.000    19965104.516 6  82775255.444 6     -1803.891          39.000
R15  19597735.164 8 104724396.695 8      1538.230          51.000    19597736.781 8  81452290.785 8      1196.401          48.000
C05  39808281.094 6 207292165.155 6        13.586          36.000    39808278.562 6 160291430.800 6        10.530          39.000
C21  22078942.898 8 114970856.377 8        88.996          51.000
C22  23622430.406 8 123008186.357 8     -2778.008          51.000
C26  24479630.906 7 127471874.044 7      2755.684          43.000
E02  25675467.688 7 134925493.616 7      2689.734          47.000    25675473.586 8 103384501.613 8      2060.876          51.000
E03  23355479.906 8 122733878.403 8       139.633          51.000    23355480.516 8  94042844.797 8       107.003          51.000
E05  25335486.039 8 133138860.290 8     -2243.238          51.000    25335489.156 8 102015483.015 8     -1718.845          51.000
E24                                                                  23817182.766 4  95901925.612 4     -1712.931          29.000
E25  23495466.125 8 123469573.667 8       397.746          51.000    23495468.820 8  94606538.491 8       304.781          51.000
> 2020 05 19 03 56 30.0000000  0 14        .000000000000
G05  22207546.539 8 116701426.635 8     -2997.199          50.000    22207545.070 8  90936184.962 8     -2335.480          50.000
G13  20258432.273 7 106458781.674 7       712.453          45.000    20258430.945 7  82954878.164 7       555.158          44.000
G28  20879197.148 8 109720903.768 8       -17.332          51.000    20879194.938 7  85496827.423 7       -13.505          46.000
R04  19931652.836 8 106733069.628 8     -2391.531          51.000    19931656.438 7  83014628.052 7     -1860.083          44.000
R14  19978201.711 7 106495077.235 7     -2335.555          42.000    19978203.500 6  82829571.874 6     -1816.546          36.000
R15  19589162.031 8 104678580.971 8      1516.836          51.000    19589163.852 8  81416656.335 8      1179.761          48.000
C05  39808210.406 5 207291796.912 5        11.871          35.000    39808207.953 6 160291146.028 6         9.019          39.000
C21  22078483.477 8 114968462.684 8        71.289          51.000
C22  23638469.445 8 123091701.812 8     -2789.062          51.000
C26  24463777.219 7 127389321.271 7      2748.363          45.000
E02  25660138.820 8 134844939.557 8      2681.316          48.000    25660145.125 8 103322778.329 8      2054.518          51.000
E03  23354718.891 8 122729879.380 8       127.609          51.000    23354719.539 8  94039780.607 8        97.788          51.000
E05  25348320.555 8 133206299.818 8     -2251.988          51.000    25348322.117 8 102067157.419 8     -1725.552          51.000
E25  23493237.875 8 123457865.011 8       383.539          51.000    23493240.797 8  94597566.924 8       293.902          51.000
> 2020 05 19 03 57  0.0000000  0 15        .000000000000
G05  22224680.148 8 116791465.035 8     -3006.160          51.000    22224677.711 8  91006344.743 8     -2342.462          51.000
G13  20254393.539 7 106437557.656 7       701.711          46.000    20254392.086 7  82938339.954 7       546.788          44.000
G28  20879340.734 8 109721658.320 8       -33.883          50.000    20879338.219 7  85497415.394 7       -26.402          47.000
G30  21901798.086 5 115094724.905 5     -2314.949          31.000
R04  19945100.242 8 106805075.751 8     -2409.746          51.000    19945102.094 6  83070632.742 6     -1874.250          41.000
R14  19991379.188 6 106565321.581 6     -2348.332          40.000    19991380.883 6  82884206.301 6     -1826.480          36.000
R15  19580694.391 8 104633328.102 8      1499.191          51.000    19580696.086 8  81381459.661 8      1166.038          48.000
C05                                                                  39808131.039 6 160290836.307 6        10.995          39.000
C21  22078111.500 8 114966524.476 8        57.098          51.000
C22  23654556.977 8 123175470.877 8     -2796.449          50.000
C26  24447952.141 7 127306914.691 7      2744.523          46.000
E02  25644843.016 8 134764558.145 8      2676.645          49.000    25644848.914 8 103261187.349 8      2050.861          51.000
E03  23354011.922 8 122726164.426 8       119.164          51.000    23354012.609 8  94036934.074 8        91.305          51.000
E05  25361189.727 8 133273923.893 8     -2257.125          51.000    25361190.234 8 102118973.219 8     -1729.482          51.000
E25  23491076.555 8 123446506.883 8       372.734          51.000    23491079.453 8  94588863.929 8       285.620          51.000
> 2020 05 19 03 57 30.0000000  0 14        .000000000000
G05  22241875.109 8 116881823.776 8     -3017.281          51.000    22241871.281 8  91076754.109 8     -2351.128          51.000
G13  20250425.352 7 106416704.112 7       688.723          46.000    20250423.773 7  82922090.423 7       536.667          44.000
G28  20879588.750 8 109722962.415 8       -52.770          49.000    20879586.219 7  85498431.592 7       -41.116          46.000
R04  19958660.055 8 106877683.382 8     -2430.320          51.000    19958660.539 6  83127105.223 6     -1890.252          41.000
R14  20004637.234 7 106635994.015 7     -2362.840          42.000    20004640.617 6  82939173.821 6     -1837.761          37.000
R15  19572335.633 8 104588660.975 8      1479.078          51.000    19572337.344 7  81346718.601 7      1150.397          47.000
C05  39808054.719 5 207290985.830 5        13.621          35.000    39808052.180 6 160290518.783 6        10.907          39.000
C21  22077831.359 8 114965064.312 8        40.676          51.000
C22  23670697.016 8 123259513.972 8     -2806.082          50.000
C26  24432159.797 7 127224677.003 7      2738.461          46.000
E02  25629584.555 8 134684372.670 8      2669.609          50.000    25629589.695 8 103199746.491 8      2045.608          51.000
E03  23353363.250 8 122722756.454 8       108.457          51.000    23353364.109 8  94034322.755 8        83.103          51.000
E05  25374097.445 8 133341754.172 8     -2264.367          50.000    25374097.633 8 102170947.042 8     -1735.050          51.000
E25  23488986.125 8 123435521.101 8       360.074          51.000    23488989.023 8  94580446.232 8       275.904          51.000
> 2020 05 19 03 58  0.0000000  0 14        .000000000000
G05  22259132.750 8 116972511.614 8     -3028.488          51.000    22259128.406 8  91147419.925 8     -2359.861          51.000
G13  20246530.195 7 106396234.492 7       675.789          47.000    20246528.562 7  82906140.054 7       526.589          44.000
G28  20879943.477 8 109724827.221 8       -71.516          49.000    20879940.742 7  85499884.686 7       -55.726          46.000
R04  19972333.766 8 106950902.529 8     -2450.930          49.000    19972334.016 7  83184053.412 7     -1906.279          44.000
R14  20017977.562 7 106707103.641 7     -2377.586          44.000    20017980.664 5  82994481.216 5     -1849.237          35.000
R15  19564088.414 8 104544591.372 8      1458.965          51.000    19564090.125 8  81312442.251 8      1134.750          48.000
C05                                                                  39807973.633 6 160290202.293 6        10.705          39.000
C21  22077645.094 8 114964094.159 8        24.102          51.000
C22  23686892.016 8 123343840.965 8     -2815.707          51.000
C26  24416401.852 7 127142620.403 7      2732.105          45.000
E02  25614365.812 8 134604395.772 8      2662.430          50.000    25614369.953 8 103138465.468 8      2040.064          51.000
E03  23352775.227 8 122719667.809 8        97.617          51.000    23352776.523 8  94031956.117 8        74.795          51.000
E05  25387045.273 7 133409801.685 7     -2271.711          47.000    25387046.805 8 102223087.338 8     -1740.754          51.000
E25  23486968.430 8 123424918.887 8       346.961          51.000    23486971.516 8  94572322.456 8       265.865          51.000
> 2020 05 19 03 58 30.0000000  0 14        .000000000000
G05  22276452.836 8 117063528.051 8     -3038.789          51.000    22276448.898 8  91218341.808 8     -2367.888          51.000
G13  20242708.758 7 106376152.436 7       663.488          47.000    20242707.234 7  82890491.690 7       517.004          45.000
G28  20880405.297 8 109727255.520 8       -89.766          48.000    20880402.969 7  85501776.873 7       -69.947          47.000
R04  19986121.398 8 107024734.397 8     -2470.719          48.000    19986122.227 8  83241478.231 8     -1921.670          48.000
R14  20031399.219 6 106778649.910 6     -2391.953          41.000    20031401.211 6  83050128.262 6     -1860.408          36.000
R15  19555953.523 8 104501122.373 8      1439.445          51.000    19555955.852 8  81278633.026 8      1119.569          50.000
C05  39807898.227 6 207290171.549 6        13.793          36.000    39807895.828 6 160289889.086 6        10.817          39.000
C21  22077553.531 8 114963617.313 8         8.164          51.000
C22  23703141.484 8 123428453.083 8     -2824.559          51.000
C26  24400678.562 7 127060748.441 7      2726.457          44.000
E02  25599187.570 8 134524631.300 8      2655.746          51.000    25599190.469 8 103077347.217 8      2034.958          51.000
E03  23352248.664 8 122716902.049 8        87.379          51.000    23352250.578 8  94029836.881 8        66.950          51.000
E05  25400034.656 7 133478068.793 7     -2278.711          47.000    25400038.016 8 102275395.921 8     -1746.076          51.000
E25  23485024.336 8 123414702.801 8       334.609          51.000    23485027.414 8  94564494.532 8       256.377          51.000
> 2020 05 19 03 59  0.0000000  0 15        .000000000000
G05  22293808.930 8 117154734.937 8     -3049.242          51.000    22293805.945 8  91289412.115 8     -2376.033          51.000
G13  20238935.234 7 106356322.241 7       650.945          47.000    20238933.883 7  82875039.568 7       507.227          46.000
G28  20880948.195 8 109730109.992 8      -108.113          48.000    20880946.289 7  85504001.149 7       -84.244          47.000
R04  19999997.398 8 107099038.507 8     -2490.559          51.000    19999998.633 8  83299270.333 8     -1937.101          49.000
R14  20044876.891 7 106850491.195 7     -2405.570          43.000    20044879.898 6  83106004.841 6     -1870.999          38.000
R15  19547904.594 8 104458115.581 8      1419.910          51.000    19547908.023 8  81245183.328 8      1104.375          49.000
C05  39807795.359 6 207289635.471 6        14.359          36.000    39807792.875 6 160289474.539 6        10.913          39.000
C21  22077530.633 8 114963499.023 8        -7.863          51.000
C22  23719418.773 8 123513213.397 8     -2833.582          51.000
C26  24384964.867 7 126978926.536 7      2720.789          45.000
E02  25584023.930 8 134444943.775 8      2649.090          51.000    25584025.453 8 103016287.958 8      2029.735          51.000
E03  23351757.867 8 122714323.397 8        76.879          51.000    23351760.047 8  94027861.009 8        58.901          51.000
E05  25413040.914 8 133546418.512 8     -2285.602          50.000    25413045.461 8 102327767.758 8     -1751.362          51.000
E24  23894426.992 5 125566057.591 5     -2275.590          34.000
E25  23483127.766 8 123404735.887 8       322.273          51.000    23483130.719 8  94556857.542 8       246.907          51.000
> 2020 05 19 03 59 30.0000000  0 14        .000000000000
G05  22311263.375 8 117246459.005 8     -3068.562          50.000    22311261.289 8  91360885.422 8     -2391.088          50.000
G13  20235272.672 8 106337074.878 8       629.289          48.000    20235271.305 7  82860041.617 7       490.355          46.000
G28  20881635.055 8 109733719.896 8      -135.457          49.000    20881633.055 7  85506814.013 7      -105.554          47.000
R04  20014024.492 8 107174148.716 8     -2519.652          51.000    20014025.234 8  83357689.386 8     -1959.730          48.000
R14  20058471.938 7 106922959.097 7     -2428.488          42.000    20058475.867 6  83162368.716 6     -1888.827          38.000
R15  19540005.633 8 104415906.232 8      1391.129          51.000    19540008.742 8  81212353.858 8      1081.992          48.000
C05  39807729.984 6 207289294.965 6         5.461          36.000    39807727.570 6 160289211.220 6         4.238          39.000
C21  22077639.398 8 114964066.356 8       -32.781          51.000
C22  23735786.203 8 123598446.857 8     -2851.543          51.000
C26  24369324.453 7 126897481.954 7      2706.094          47.000
E02  25568937.625 8 134365663.893 8      2633.379          50.000    25568937.883 8 102955541.026 8      2017.769          50.000
E03  23351365.594 8 122712262.179 8        57.574          51.000    23351367.703 8  94026281.624 8        44.118          51.000
E05  25426126.234 8 133615179.884 8     -2301.426          51.000    25426131.188 8 102380455.000 8     -1763.409          51.000
E25  23481341.195 8 123395347.450 8       300.730          51.000    23481344.086 8  94549663.795 8       230.454          51.000
