     3.02           OBSERVATION DATA    M (MIXED)           RINEX VERSION / TYPE
SAVERINEX           SC600               20200512 155931 LCL PGM / RUN BY / DATE
       G = GPS       R = GLONASS       C = COMPASS          COMMENT
       S = SBAS      J = QZSS          E = GALILEO          COMMENT
BEAN                                                        MARKER NAME
1                                                           MARKER NUMBER
GEODETIC                                                    MARKER TYPE
Unige DICCA         GTER                                    OBSERVER / AGENCY
SC60291900056       SC600               2.12(191226)        REC # / TYPE / VERS
                    HEMA45          NONE                    ANT # / TYPE
  4509407.8091   693652.4678  4442337.6214                  APPROX POSITION XYZ
        0.0000        0.0000        0.0000                  ANTENNA: DELTA H/E/N
G    8 C1C L1C D1C S1C C2Y L2Y D2Y S2Y                      SYS / # / OBS TYPES
R    8 C1C L1C D1C S1C C2P L2P D2P S2P                      SYS / # / OBS TYPES
C    8 C1I L1I D1I S1I C7I L7I D7I S7I                      SYS / # / OBS TYPES
E    8 C1C L1C D1C S1C C7Q L7Q D7Q S7Q                      SYS / # / OBS TYPES
DBHZ                                                        COMMENT
     30.000                                                 INTERVAL
  2020    05    12    13    00    0.0000000     GPS         TIME OF FIRST OBS
  2020    05    12    13    59   30.0000000     GPS         TIME OF LAST OBS
     0                                                      RCV CLOCK OFFS APPL
G L1C  0.00000                                              SYS / PHASE SHIFT
G L2Y  0.00000                                              SYS / PHASE SHIFT
R L1C  0.00000                                              SYS / PHASE SHIFT
R L2P  0.25000                                              SYS / PHASE SHIFT
C L1I  0.00000                                              SYS / PHASE SHIFT
C L7I  0.00000                                              SYS / PHASE SHIFT
E L1C  0.50000                                              SYS / PHASE SHIFT
E L7Q -0.25000                                              SYS / PHASE SHIFT
 12 R05  1 R06 -4 R07  5 R08  6 R09 -2 R10 -5 R11  0 R12 -1 GLONASS SLOT / FRQ #
    R20  2 R21  4 R22 -3 R23  3                             GLONASS SLOT / FRQ #
 C1C   71.950 C2C   71.950 C2P   71.950                     GLONASS COD/PHS/BIS
    18                                                      LEAP SECONDS
*** Above antenna height is from mark to ANTENNA BOTTOM.    COMMENT
    17     4        0.0000        ANT MEASURE TYPE/HEIGT    COMMENT
    0.0000    0.0000    0.0458    0.0405    0.0000          COMMENT
                    BASE STATION                            COMMENT
                                                            END OF HEADER
> 2020 05 12 13 00  0.0000000  0 19        .000000000000
G18  20452308.531 8 107477676.278 8       952.605          51.000    20452308.570 8  83748822.335 8       742.290          51.000
G21  20726244.039 8 108917208.963 8       631.137          49.000    20726243.586 8  84870528.942 8       491.795          49.000
G25  23795487.820 7 125046108.589 7     -3355.598          47.000    23795490.398 7  97438541.055 7     -2614.754          47.000
G29  21683166.125 6 113945807.594 6     -2229.824          36.000    21683166.148 6  88788945.181 6     -1737.519          37.000
G31  21997546.484 8 115597924.819 8     -2260.191          50.000    21997546.469 8  90076266.195 8     -1761.191          50.000
R11  20978483.461 7 112102680.274 7     -3560.539          47.000    20978490.062 7  87190932.883 7     -2769.308          47.000
R12  19235601.602 8 102753122.175 8        94.215          50.000    19235606.305 8  79919097.129 8        73.278          49.000
R22  19283314.398 8 102935632.117 8       201.254          49.000    19283316.938 7  80061076.445 7       156.531          45.000
R23  22803423.133 7 121982974.157 7      3536.613          42.000    22803432.023 6  94875644.690 6      2750.702          39.000
C05  39625379.008 5 206339746.203 5        15.289          35.000
C11  21792288.406 8 113478189.626 8       273.066          51.000    21792287.562 8  87748560.213 8       211.134          51.000
C12  23283463.023 5 121243081.098 5     -2288.672          33.000    23283466.961 5  93752859.707 5     -1769.487          32.000
C24  26297554.633 5 136938267.833 5     -3486.668          31.000
C25  22692962.664 8 118168202.367 8     -1951.242          51.000
E13  23151041.281 8 121659554.819 8       383.820          51.000    23151043.062 8  93219681.569 8       294.087          51.000
E15  24854068.750 5 130609011.152 5     -2159.246          35.000    24854073.648 5 100077056.270 5     -1654.445          34.000
E21  23527329.875 8 123636955.142 8       329.320          51.000    23527332.031 8  94734796.955 8       252.324          51.000
E26  25053921.195 7 131659228.166 7      2604.328          45.000    25053925.414 7 100881820.961 7      1995.620          43.000
E27  24823183.508 8 130446686.247 8     -2263.125          51.000    24823187.039 8  99952661.893 8     -1734.122          51.000
> 2020 05 12 13 00 30.0000000  0 18        .000000000000
G18  20446922.938 8 107449374.645 8       934.125          51.000    20446922.961 8  83726769.152 8       727.893          50.000
G21  20722687.906 8 108898521.875 8       614.770          49.000    20722687.438 8  84855967.600 8       479.044          49.000
G25  23814659.664 7 125146856.815 7     -3360.898          46.000    23814662.500 7  97517046.086 7     -2618.885          46.000
G29  21695913.352 6 114012794.088 6     -2236.270          37.000    21695912.352 6  88841142.365 6     -1742.551          37.000
G31  22010489.211 8 115665937.777 8     -2274.004          51.000    22010488.805 8  90129263.251 8     -1771.954          51.000
R11  20998514.281 7 112209720.822 7     -3575.457          45.000    20998521.055 7  87274186.595 7     -2780.908          47.000
R12  19235143.266 8 102750673.819 8        68.953          51.000    19235148.086 8  79917192.846 8        53.630          49.000
R22  19282235.438 8 102929873.785 8       182.539          48.000    19282237.945 7  80056597.745 7       141.975          45.000
R23  22783612.695 6 121877000.862 6      3528.047          41.000    22783621.719 6  94793221.103 6      2744.039          39.000
C05                                                                  39625287.938 5 159554612.878 5        12.270          35.000
C11  21790744.836 8 113470151.497 8       262.887          51.000    21790744.156 8  87742344.630 8       203.311          51.000
C12  23296658.734 5 121311792.207 5     -2292.414          31.000    23296660.422 5  93805991.519 5     -1772.773          34.000
C25  22704242.391 8 118226939.082 8     -1964.570          51.000
E13  23148882.219 8 121648209.144 8       372.520          51.000    23148883.938 8  93210988.135 8       285.506          51.000
E15  24866409.539 5 130673864.060 5     -2164.883          34.000    24866413.477 5 100126748.719 5     -1658.501          34.000
E21  23525482.234 8 123627245.853 8       317.879          51.000    23525484.719 8  94727357.359 8       243.599          51.000
E26  25039068.977 7 131581184.823 7      2598.637          43.000    25039075.477 7 100822021.546 7      1991.049          44.000
E27  24836126.383 8 130514702.676 8     -2271.305          51.000    24836130.742 8 100004778.352 8     -1740.323          51.000
> 2020 05 12 13 01  0.0000000  0 19        .000000000000
G18  20441643.688 8 107421632.574 8       915.375          51.000    20441643.477 8  83705151.974 8       713.279          49.000
G21  20719225.648 8 108880327.505 8       598.266          50.000    20719224.828 8  84841790.167 8       466.181          49.000
G25  23833860.586 7 125247759.875 7     -3366.059          45.000    23833864.156 7  97595671.777 7     -2622.906          45.000
G29  21708696.414 6 114079968.532 6     -2242.332          37.000    21708695.859 6  88893486.071 6     -1747.272          38.000
G31  22023511.055 8 115734366.098 8     -2287.836          51.000    22023510.477 8  90182583.972 8     -1782.729          51.000
R11  21018630.156 8 112317213.109 8     -3590.484          48.000    21018637.016 7  87357791.735 7     -2792.599          47.000
R12  19234828.516 8 102748990.258 8        43.352          51.000    19234832.898 8  79915883.402 8        33.718          49.000
R22  19281262.656 8 102924680.705 8       163.656          48.000    19281265.289 7  80052558.675 7       127.288          46.000
R23  22763849.102 6 121771280.224 6      3519.520          39.000    22763858.445 6  94710993.999 6      2737.404          38.000
C05  39625199.086 5 206338808.847 5        15.793          35.000    39625197.766 5 159554250.316 5        12.215          35.000
C11  21789260.312 8 113462421.425 8       252.488          50.000    21789259.898 8  87736367.248 8       195.349          51.000
C12  23309879.695 5 121380634.715 5     -2296.789          32.000    23309880.562 6  93859224.862 6     -1776.050          37.000
C24  26337772.023 5 137147678.519 5     -3487.398          32.000
C25  22715599.438 8 118286079.230 8     -1978.023          51.000
E13  23146788.031 8 121637204.522 8       361.141          51.000    23146789.727 8  93202556.024 8       276.724          51.000
E15                                                                  24878786.430 5 100176573.845 5     -1663.179          34.000
E21  23523700.547 8 123617883.469 8       306.320          51.000    23523703.305 8  94720183.576 8       234.722          51.000
E26  25024251.773 7 131503322.030 7      2592.453          42.000    25024259.547 7 100762360.415 7      1986.428          45.000
E27  24849116.336 8 130582965.782 8     -2279.492          51.000    24849121.219 8 100057083.815 8     -1746.654          51.000
> 2020 05 12 13 01 30.0000000  0 18        .000000000000
G18  20436473.664 8 107394464.289 8       896.344          51.000    20436473.234 8  83683981.896 8       698.450          49.000
G21  20715859.992 8 108862639.420 8       581.512          50.000    20715858.633 8  84828007.242 8       453.126          50.000
G25  23853093.352 7 125348830.344 7     -3371.398          44.000    23853097.461 7  97674427.945 7     -2627.067          44.000
G29  21721517.664 5 114147343.952 5     -2249.035          34.000    21721517.602 5  88945986.361 5     -1752.498          35.000
G31  22036613.922 8 115803221.060 8     -2301.934          51.000    22036613.164 8  90236237.171 8     -1793.714          51.000
R11  21038834.117 8 112425167.977 8     -3605.781          51.000    21038839.453 7  87441756.646 7     -2804.497          46.000
R12  19234659.727 8 102748086.489 8        17.426          51.000    19234663.758 8  79915180.454 8        13.550          49.000
R22  19280397.922 8 102920065.479 8       144.488          48.000    19280400.586 7  80048969.052 7       112.377          45.000
R23  22744134.047 5 121665827.530 5      3510.773          33.000    22744144.672 6  94628975.243 6      2730.602          37.000
C05  39625110.523 5 206338347.458 5        15.328          35.000    39625109.367 5 159553894.303 5        11.907          35.000
C11  21787837.242 8 113455012.299 8       242.043          50.000    21787837.008 8  87730638.034 8       187.078          51.000
C12                                                                  23323129.234 6  93912569.501 6     -1779.590          36.000
C25  22727036.305 8 118345635.049 8     -1991.793          51.000
E13  23144761.383 8 121626554.241 8       349.441          51.000    23144762.992 8  93194395.427 8       267.763          51.000
E15                                                                  24891195.062 5 100226541.081 5     -1667.513          34.000
E21  23521987.727 8 123608882.614 8       294.309          51.000    23521990.312 8  94713286.811 8       225.515          51.000
E26  25009472.875 7 131425654.266 7      2586.012          45.000    25009480.375 7 100702848.764 7      1981.454          46.000
E27  24862155.914 8 130651488.576 8     -2288.066          51.000    24862160.391 8 100109588.250 8     -1753.146          51.000
> 2020 05 12 13 02  0.0000000  0 18        .000000000000
G18  20431410.258 8 107367856.256 8       877.660          51.000    20431410.031 8  83663248.386 8       683.891          50.000
G21  20712587.875 8 108845443.474 8       565.102          50.000    20712586.164 8  84814607.801 8       440.339          50.000
G25  23872355.570 7 125450053.068 7     -3376.605          47.000    23872359.844 7  97753302.727 7     -2631.121          47.000
G29  21734374.359 5 114214904.961 5     -2254.551          35.000    21734374.383 5  88998631.277 5     -1756.799          35.000
G31  22049794.930 8 115872486.705 8     -2315.621          51.000    22049794.031 8  90290210.369 8     -1804.380          51.000
R11  21059121.789 8 112533568.290 8     -3620.711          51.000    21059125.672 7  87526067.958 7     -2816.112          45.000
R12  19234634.281 8 102747949.122 8        -8.031          51.000    19234638.133 8  79915073.599 8        -6.247          49.000
R22  19279638.547 7 102916012.752 7       125.758          47.000    19279641.359 7  80045816.919 7        97.812          45.000
R23  22724467.406 5 121560630.284 5      3502.410          33.000    22724478.188 6  94547155.183 6      2724.100          37.000
C05  39625021.258 6 206337883.012 6        15.898          36.000    39625020.109 5 159553535.164 5        12.194          35.000
C11  21786473.148 8 113447909.789 8       231.664          51.000    21786473.039 8  87725145.924 8       179.080          51.000
C12                                                                  23336402.656 6  93966013.766 6     -1783.070          36.000
C25  22738550.312 8 118405591.281 8     -2005.082          51.000
E13  23142799.445 8 121616243.913 8       338.133          51.000    23142801.133 8  93186495.313 8       259.119          51.000
E15                                                                  24903636.891 5 100276638.665 5     -1672.144          35.000
E21  23520341.258 8 123600230.191 8       282.656          51.000    23520343.586 8  94706657.032 8       216.638          51.000
E26  24994729.273 7 131348168.401 7      2579.871          47.000    24994735.742 7 100643476.517 7      1976.826          46.000
E27  24875242.336 8 130720256.409 8     -2296.312          51.000    24875245.664 8 100162280.431 8     -1759.386          51.000
> 2020 05 12 13 02 30.0000000  0 19        .000000000000
G18  20426454.367 8 107341813.622 8       858.633          51.000    20426454.469 8  83642955.448 8       669.065          51.000
G21  20709410.047 8 108828743.962 8       548.379          50.000    20709408.039 8  84801595.210 8       427.311          50.000
G25  23891647.531 7 125551431.588 7     -3381.754          47.000    23891651.742 8  97832298.916 8     -2635.136          48.000
G29  21747266.695 6 114282655.409 6     -2260.977          36.000    21747266.227 6  89051423.810 6     -1761.803          36.000
G31  22063054.578 8 115942165.778 8     -2329.496          50.000    22063053.688 8  90344505.725 8     -1815.192          50.000
R11  21079492.680 8 112642415.702 8     -3635.664          51.000    21079494.578 6  87610726.969 6     -2827.742          41.000
R12  19234753.297 8 102748583.925 8       -34.109          51.000    19234757.211 8  79915567.336 8       -26.530          49.000
R21  21316461.852 4 114068691.935 4     -3231.375          29.000
R22  19278985.086 8 102912526.005 8       106.754          48.000    19278988.367 7  80043105.039 7        83.031          45.000
R23  22704852.148 5 121455694.613 5      3493.406          34.000    22704860.914 6  94465538.584 6      2717.094          37.000
C05  39624932.180 5 206337419.258 5        15.352          35.000    39624931.039 5 159553177.009 5        12.109          35.000
C11  21785168.953 8 113441117.937 8       221.250          51.000    21785168.914 8  87719894.026 8       171.060          51.000
C12                                                                  23349701.586 5  94019560.440 5     -1786.716          33.000
C25  22750142.031 8 118465951.220 8     -2018.715          51.000
E13  23140902.820 8 121606277.774 8       326.477          51.000    23140904.852 8  93178858.941 8       250.139          51.000
E15  24916109.781 5 130935040.272 5     -2187.324          32.000    24916112.594 5 100326869.102 5     -1676.433          35.000
E21  23518762.156 8 123591931.833 8       270.648          51.000    23518764.484 8  94700298.542 8       207.398          51.000
E26  24980021.383 7 131270869.996 7      2573.273          47.000    24980026.492 7 100584247.918 7      1971.876          46.000
E27  24888376.047 8 130789273.338 8     -2304.719          51.000    24888378.297 8 100215163.491 8     -1765.959          50.000
> 2020 05 12 13 03  0.0000000  0 18        .000000000000
G18  20421605.023 8 107316330.328 8       839.430          51.000    20421605.000 8  83623098.328 8       654.101          51.000
G21  20706325.500 8 108812534.346 8       531.496          50.000    20706323.273 8  84788964.324 8       414.153          50.000
G25  23910967.547 7 125652958.188 7     -3387.336          46.000    23910971.719 7  97911410.477 7     -2639.486          46.000
G29  21760194.008 5 114350587.817 5     -2268.457          35.000    21760192.773 5  89104358.128 5     -1767.629          35.000
G31  22076390.883 8 116012248.640 8     -2343.547          49.000    22076390.117 8  90399115.748 8     -1826.140          49.000
R11  21099944.258 8 112751700.611 8     -3650.715          50.000    21099944.164 7  87695726.180 7     -2839.451          43.000
R12  19235015.500 8 102749985.412 8       -60.184          50.000    19235019.711 8  79916657.384 8       -46.809          49.000
R22  19278436.516 7 102909597.205 7        87.734          47.000    19278439.781 7  80040827.085 7        68.241          44.000
R23  22685286.148 6 121351015.348 6      3484.203          39.000    22685292.445 6  94384121.452 6      2709.939          38.000
C05  39624842.047 5 206336949.804 5        14.988          35.000
C11  21783923.094 8 113434629.762 8       210.500          51.000    21783923.055 8  87714876.961 8       162.781          51.000
C12                                                                  23363025.469 5  94073203.605 5     -1790.138          33.000
C25  22761809.906 8 118526706.982 8     -2032.398          51.000
E13  23139070.398 8 121596648.909 8       314.641          51.000    23139072.633 8  93171480.981 8       241.070          51.000
E15                                                                  24928620.547 5 100377226.433 5     -1681.168          35.000
E21  23517249.430 8 123583981.883 8       258.535          51.000    23517251.641 8  94694207.016 8       198.068          51.000
E26  24965347.695 7 131193753.343 7      2566.875          47.000    24965351.391 7 100525158.594 7      1966.731          45.000
E27  24901555.594 8 130858532.160 8     -2313.352          51.000    24901557.000 8 100268231.886 8     -1772.538          50.000
> 2020 05 12 13 03 30.0000000  0 18        .000000000000
G18  20416865.023 8 107291422.063 8       820.078          51.000    20416865.023 8  83603689.286 8       639.022          51.000
G21  20703336.898 8 108796829.480 8       514.465          49.000    20703334.914 8  84776726.775 8       400.885          49.000
G25  23930318.273 7 125754646.863 7     -3392.977          45.000    23930322.172 7  97990648.371 7     -2643.878          45.000
G29  21773158.664 5 114418716.367 5     -2274.625          35.000    21773157.141 5  89157445.298 5     -1772.438          33.000
G31  22089806.148 8 116082748.525 8     -2357.578          48.000    22089805.898 8  90454050.737 8     -1837.071          48.000
R11  21120478.867 8 112861435.575 8     -3665.891          48.000    21120480.320 7  87781075.564 7     -2851.248          46.000
R12  19235424.609 8 102752169.935 8       -86.473          51.000    19235428.758 8  79918356.449 8       -67.260          48.000
R22  19277994.859 7 102907240.760 7        68.371          47.000    19277998.531 7  80038994.310 7        53.178          44.000
R23  22665770.539 7 121246609.293 7      3475.086          43.000    22665775.422 6  94302916.832 6      2702.848          38.000
C05  39624753.719 5 206336489.805 5        14.902          35.000    39624752.430 5 159552456.798 5        11.487          35.000
C11  21782738.305 8 113428459.761 8       199.684          51.000    21782738.125 8  87710105.931 8       154.462          51.000
C12  23376366.898 5 121726886.756 5     -2319.480          30.000    23376377.562 5  94126954.023 5     -1794.195          32.000
C25  22773556.406 8 118587872.277 8     -2046.289          51.000
E13  23137305.000 8 121587372.114 8       302.750          51.000    23137307.305 8  93164372.772 8       231.968          51.000
E15                                                                  24941162.828 6 100427721.179 6     -1685.972          37.000
E21  23515806.117 8 123576396.483 8       246.164          51.000    23515807.945 8  94688394.823 8       188.640          51.000
E26  24950711.086 7 131116834.555 7      2560.008          46.000    24950713.781 7 100466220.857 7      1961.543          45.000
E27  24914784.062 8 130928047.470 8     -2321.992          51.000    24914784.898 8 100321496.821 8     -1779.201          50.000
> 2020 05 12 13 04  0.0000000  0 17        .000000000000
G18  20412230.875 8 107267069.862 8       803.383          51.000    20412231.023 8  83584713.547 8       626.013          51.000
G21  20700440.375 8 108781610.030 8       500.129          49.000    20700438.773 8  84764867.465 8       389.711          49.000
G25  23949695.656 7 125856477.108 7     -3395.695          44.000    23949699.672 7  98069996.564 7     -2645.996          44.000
G31  22103296.930 8 116153643.593 8     -2368.758          50.000    22103296.664 8  90509293.669 8     -1845.782          50.000
R11  21141093.484 8 112971597.729 8     -3678.156          50.000    21141096.586 8  87866757.254 8     -2860.788          48.000
R12  19235976.820 8 102755118.571 8      -110.098          51.000    19235980.562 8  79920649.824 8       -85.632          48.000
R21  21370998.391 5 114360510.985 5     -3248.504          34.000    21371001.992 4  88947091.763 4     -2526.608          25.000
R22  19277656.656 7 102905435.435 7        51.949          45.000    19277660.117 7  80037590.168 7        40.402          42.000
R23  22646301.836 7 121142458.672 7      3468.332          46.000    22646305.820 6  94221910.890 6      2697.595          37.000
C05  39624663.617 5 206336020.336 5        16.711          35.000    39624662.203 5 159552093.777 5        12.714          35.000
C11  21781610.805 8 113422588.212 8       191.762          50.000    21781610.453 8  87705565.671 8       148.313          51.000
C25  22785377.320 8 118649426.530 8     -2057.352          51.000
E13  23135602.742 8 121578427.536 8       293.629          51.000    23135605.289 8  93157519.138 8       225.006          51.000
E15                                                                  24953734.742 6 100478337.478 6     -1688.234          37.000
E21  23514428.586 8 123569157.174 8       236.504          51.000    23514430.273 8  94682847.819 8       181.217          51.000
E26  24936107.820 7 131040095.162 7      2555.934          46.000    24936110.281 7 100407420.578 7      1958.550          46.000
E27  24928057.477 8 130997799.278 8     -2327.980          51.000    24928058.555 8 100374942.958 8     -1783.804          51.000
> 2020 05 12 13 04 30.0000000  0 17        .000000000000
G18  20407706.258 8 107243292.553 8       782.258          51.000    20407706.180 8  83566185.762 8       609.552          51.000
G21  20697639.961 8 108766894.016 8       481.320          50.000    20697638.664 8  84753400.441 8       375.055          50.000
G25  23969103.312 7 125958466.103 7     -3403.105          43.000    23969107.727 7  98149468.460 7     -2651.774          43.000
G31  22116866.336 8 116224950.011 8     -2384.465          50.000    22116865.586 8  90564857.100 8     -1858.025          50.000
R11  21161792.109 8 113082202.740 8     -3694.906          51.000    21161795.375 8  87952783.347 8     -2873.819          48.000
R12  19236675.727 8 102758850.758 8      -138.254          51.000    19236678.789 7  79923552.622 7      -107.531          47.000
R21  21389239.430 5 114458107.911 5     -3257.293          31.000    21389246.016 4  89023022.488 4     -2533.450          27.000
R22  19277424.859 7 102904198.724 7        30.949          46.000    19277427.977 7  80036628.267 7        24.072          42.000
R23  22626883.188 7 121038583.326 7      3457.094          47.000    22626887.500 5  94141119.030 5      2688.854          35.000
C05  39624575.078 6 206335559.539 6        14.465          36.000    39624573.836 5 159551737.949 5        11.122          35.000
C11  21780543.812 8 113417032.729 8       179.160          50.000    21780543.641 8  87701269.831 8       138.484          51.000
C25  22797275.805 8 118711386.546 8     -2072.855          51.000
E13  23133967.211 8 121569833.166 8       279.875          51.000    23133969.914 8  93150933.840 8       214.471          51.000
E15                                                                  24966338.758 6 100529088.400 6     -1694.532          37.000
E21  23513120.406 8 123562283.179 8       222.309          51.000    23513122.375 8  94677580.731 8       170.319          51.000
E26  24921541.336 7 130963554.331 7      2547.230          45.000    24921544.359 7 100348772.450 7      1951.720          46.000
E27  24941378.977 8 131067805.213 8     -2338.461          48.000    24941380.844 8 100428583.865 8     -1791.850          51.000
> 2020 05 12 13 05  0.0000000  0 16        .000000000000
G18  20403301.398 8 107220145.197 8       764.160          51.000    20403301.180 8  83548148.861 8       595.449          51.000
G21  20694945.852 8 108752736.114 8       465.691          50.000    20694945.062 8  84742368.322 8       362.876          50.000
G25  23988551.500 7 126060667.511 7     -3406.914          42.000    23988556.406 7  98229105.843 7     -2654.741          42.000
G31  22130524.086 8 116296720.109 8     -2397.008          50.000    22130522.602 8  90620781.795 8     -1867.798          50.000
R11  21182583.750 8 113193303.443 8     -3708.516          51.000    21182586.422 7  88039194.975 7     -2884.401          47.000
R12  19237531.641 8 102763423.211 8      -163.227          51.000    19237534.547 8  79927108.960 8      -126.957          48.000
R22  19277309.727 7 102903584.807 7        13.250          46.000    19277312.984 7  80036150.782 7        10.309          42.000
R23  22607525.172 7 120935040.568 7      3449.004          45.000    22607531.664 5  94060585.817 5      2682.559          35.000
C05  39624498.891 5 206335162.759 5        15.426          35.000    39624497.453 5 159551429.824 5        12.100          35.000
C11  21779547.758 8 113411847.074 8       169.742          50.000    21779547.875 8  87697259.965 8       131.174          51.000
C25  22809262.508 8 118773805.146 8     -2085.184          51.000
E13  23132408.734 8 121561643.306 8       269.277          51.000    23132411.328 8  93144658.489 8       206.314          51.000
E15                                                                  24978985.289 6 100580014.830 6     -1698.097          37.000
E21  23511892.352 8 123555830.201 8       211.086          51.000    23511894.414 8  94672636.227 8       161.783          51.000
E26  24907022.922 7 130887267.666 7      2541.742          46.000    24907026.695 7 100290319.082 7      1947.494          46.000
E27  24954758.016 7 131138119.396 7     -2345.824          47.000    24954761.820 8 100482461.000 8     -1797.540          51.000
> 2020 05 12 13 05 30.0000000  0 16        .000000000000
G18  20398994.695 8 107197513.024 8       744.809          51.000    20398994.484 8  83530513.420 8       580.370          51.000
G21  20692335.938 8 108739020.679 8       448.953          50.000    20692335.305 8  84731680.994 8       349.834          50.000
G25  24008017.891 7 126162964.941 7     -3412.164          42.000    24008023.180 7  98308818.080 7     -2658.832          42.000
G31  22144247.695 8 116368836.657 8     -2410.625          51.000    22144245.430 8  90676976.466 8     -1878.409          51.000
R11  21203445.188 8 113304779.456 8     -3723.039          51.000    21203447.258 7  88125898.504 7     -2895.700          46.000
R12  19238523.078 8 102768719.568 8      -189.559          50.000    19238526.391 8  79931228.331 8      -147.438          49.000
R22  19277289.500 7 102903475.543 7        -5.723          46.000    19277292.578 7  80036065.797 7        -4.454          42.000
R23  22588207.906 7 120831714.730 7      3439.691          45.000    22588216.336 6  93980221.312 6      2675.316          36.000
C05  39624412.727 6 206334714.014 6        15.160          36.000    39624411.336 5 159551084.350 5        11.400          35.000
C11  21778600.984 8 113406916.495 8       159.203          50.000    21778600.867 8  87693447.317 8       123.115          51.000
C25  22821315.086 8 118836566.785 8     -2098.703          51.000
E13  23130905.125 8 121553742.348 8       257.641          51.000    23130907.602 8  93138604.496 8       197.449          51.000
E15                                                                  24991652.938 6 100631027.514 6     -1702.425          36.000
E21  23510722.758 8 123549683.926 8       198.840          51.000    23510724.828 8  94667926.742 8       152.352          51.000
E26  24892531.469 7 130811120.870 7      2534.930          47.000    24892535.812 7 100231972.848 7      1942.421          47.000
E27  24968174.734 8 131208626.028 8     -2354.367          50.000    24968179.562 8 100536485.584 8     -1803.975          51.000
> 2020 05 12 13 06  0.0000000  0 17        .000000000000
G18  20394797.062 8 107175453.907 8       725.797          51.000    20394796.867 8  83513324.513 8       565.556          51.000
G21  20689821.281 8 108725805.230 8       432.238          50.000    20689820.500 8  84721383.265 8       336.809          50.000
G25  24027513.523 7 126265414.729 7     -3417.547          43.000    24027518.594 7  98388649.007 7     -2663.027          43.000
G31  22158047.445 8 116441354.242 8     -2423.910          51.000    22158044.930 8  90733483.653 8     -1888.761          51.000
R11  21224386.766 8 113416686.476 8     -3737.430          50.000    21224388.469 7  88212937.234 7     -2906.890          45.000
R12  19239660.781 8 102774798.782 8      -215.648          51.000    19239664.383 8  79935956.606 8      -167.724          49.000
R21  21444142.367 5 114751936.594 5     -3275.094          30.000
R22  19277373.836 7 102903927.846 7       -24.512          44.000    19277377.797 7  80036417.604 7       -19.062          43.000
R23  22568944.156 7 120728665.743 7      3430.312          47.000    22568952.531 6  93900072.153 6      2668.024          36.000
C05  39624327.797 5 206334271.468 5        14.859          35.000    39624326.461 5 159550742.165 5        11.140          35.000
C11  21777713.945 8 113402297.465 8       148.797          49.000    21777713.812 8  87689875.582 8       115.111          51.000
C25  22833443.828 8 118899727.036 8     -2111.953          51.000
E13  23129467.305 8 121546187.326 8       246.109          51.000    23129469.734 8  93132815.581 8       188.619          51.000
E15                                                                  25004352.867 5 100682169.500 5     -1706.681          35.000
E21  23509622.602 8 123543902.731 8       186.625          51.000    23509624.852 8  94663496.995 8       143.010          51.000
E26  24878078.125 7 130735172.216 7      2528.344          47.000    24878082.805 7 100173778.448 7      1937.347          47.000
E27  24981639.719 8 131279381.963 8     -2362.660          51.000    24981644.781 8 100590701.157 8     -1810.332          51.000
> 2020 05 12 13 06 30.0000000  0 17        .000000000000
G18  20390703.469 8 107153942.073 8       707.434          51.000    20390703.180 8  83496562.055 8       551.247          49.000
G21  20687396.688 8 108713063.044 8       416.250          50.000    20687395.844 8  84711454.297 8       324.354          50.000
G25  24047033.148 7 126367989.590 7     -3421.676          44.000    24047037.289 7  98468577.397 7     -2666.244          44.000
G29  21851696.086 5 114831432.715 5     -2309.660          34.000
G31  22171917.914 8 116514244.866 8     -2436.406          51.000    22171915.930 8  90790281.538 8     -1898.498          51.000
R11  21245403.102 8 113528994.521 8     -3750.785          50.000    21245405.258 7  88300287.863 7     -2917.277          46.000
R12  19240940.594 8 102781635.316 8      -241.008          51.000    19240944.281 8  79941273.925 8      -187.451          49.000
R22  19277558.688 7 102904913.887 7       -42.379          45.000    19277562.617 7  80037184.507 7       -32.964          42.000
R23  22549728.055 8 120625868.260 8      3421.797          50.000    22549735.578 6  93820118.610 6      2661.401          36.000
C05  39624239.078 6 206333810.338 6        15.191          36.000    39624237.695 5 159550384.261 5        11.832          35.000
C11  21776881.391 8 113397963.571 8       139.176          49.000    21776881.773 8  87686524.354 8       107.604          51.000
C25  22845643.828 8 118963258.529 8     -2124.418          51.000
E13  23128090.500 8 121538951.678 8       235.293          51.000    23128092.609 8  93127271.389 8       180.289          51.000
E15  25017079.719 5 131465639.212 5     -2232.434          35.000    25017080.188 5 100733419.795 5     -1710.668          35.000
E21  23508587.078 8 123538461.395 8       175.188          51.000    23508589.430 8  94659327.664 8       134.202          51.000
E26  24863658.234 8 130659396.457 8      2522.371          48.000    24863663.070 8 100115716.525 8      1932.732          48.000
E27  24995146.977 8 131350360.410 8     -2370.164          51.000    24995152.039 8 100645087.214 8     -1816.148          51.000
> 2020 05 12 13 07  0.0000000  0 17        .000000000000
G18  20386717.078 8 107132993.587 8       686.270          51.000    20386716.727 8  83480238.570 8       534.755          49.000
G21  20685064.867 8 108700809.610 8       397.633          50.000    20685064.234 8  84701906.189 8       309.847          50.000
G25  24066579.305 7 126470704.121 7     -3428.812          45.000    24066582.398 7  98548614.598 7     -2671.805          44.000
G26  20687423.539 5 108713158.536 5      1476.137          32.000    20687415.539 5  84711513.197 5      1150.246          30.000
G31  22185861.602 8 116587521.594 8     -2451.602          51.000    22185860.805 8  90847380.287 8     -1910.339          51.000
R11  21266497.016 8 113641716.747 8     -3766.848          50.000    21266500.508 8  88387960.669 8     -2929.773          48.000
R12  19242365.258 8 102789245.693 8      -269.207          51.000    19242369.094 8  79947193.107 8      -209.383          49.000
R22  19277846.297 7 102906448.000 7       -62.793          45.000    19277849.250 6  80038377.710 6       -48.836          41.000
R23  22530562.086 8 120523340.232 8      3410.422          51.000    22530568.227 5  93740374.659 5      2652.553          35.000
C05  39624149.500 5 206333343.271 5        13.262          35.000
C11  21776106.602 8 113393929.781 8       126.984          49.000    21776107.164 8  87683405.176 8        98.114          51.000
C25  22857917.945 8 119027175.412 8     -2139.527          51.000
E13  23126777.414 8 121532050.701 8       221.871          51.000    23126779.242 8  93121983.639 8       170.005          51.000
E15  25029836.547 6 131532680.825 6     -2239.875          36.000    25029837.500 5 100784789.321 5     -1716.166          35.000
E21  23507619.391 8 123533376.569 8       160.965          51.000    23507621.852 8  94655431.490 8       123.346          51.000
E26  24849274.789 8 130583810.165 8      2513.816          50.000    24849280.094 8 100057799.802 8      1926.144          49.000
E27  25008699.156 8 131421576.371 8     -2380.434          51.000    25008704.172 8 100699655.245 8     -1823.954          51.000
> 2020 05 12 13 07 30.0000000  0 16        .000000000000
G18  20382853.055 8 107112688.035 8       668.113          51.000    20382852.742 8  83464416.084 8       520.608          49.000
G21  20682841.250 8 108689123.969 8       381.977          51.000    20682840.258 8  84692800.496 8       297.644          49.000
G25  24086166.812 7 126573636.443 7     -3432.664          44.000    24086169.297 7  98628821.536 7     -2674.803          43.000
G31  22199893.484 8 116661261.604 8     -2463.781          51.000    22199893.914 8  90904840.051 8     -1919.830          51.000
R11  21287683.539 8 113754930.781 8     -3779.969          51.000    21287688.086 8  88476015.992 8     -2939.976          49.000
R12  19243950.125 8 102797711.441 8      -294.453          51.000    19243954.078 8  79953777.563 8      -229.019          49.000
R22  19278251.734 7 102908609.696 7       -80.504          45.000    19278254.375 7  80040059.062 7       -62.614          42.000
R23  22511461.070 8 120421163.626 8      3402.047          48.000    22511465.859 5  93660904.061 5      2646.043          35.000
C05                                                                  39624072.898 5 159549720.423 5        10.433          35.000
C11  21775404.766 8 113390274.311 8       117.566          49.000    21775405.023 8  87680578.525 8        90.907          51.000
C25  22870280.664 8 119091554.864 8     -2151.762          50.000
E13  23125542.875 8 121525563.269 8       211.418          51.000    23125544.602 8  93117012.770 8       161.948          51.000
E15                                                                  25042639.445 5 100836337.993 5     -1719.569          35.000
E21  23506734.773 8 123528728.462 8       149.609          51.000    23506737.656 8  94651869.949 8       114.663          51.000
E26  24834943.008 8 130508493.552 8      2508.078          49.000    24834948.609 8 100000089.714 8      1921.750          50.000
E27  25022311.305 8 131493108.514 8     -2387.719          51.000    25022315.945 8 100754465.549 8     -1829.473          51.000
> 2020 05 12 13 08  0.0000000  0 16        .000000000000
G18  20379082.297 8 107092873.162 8       648.059          51.000    20379082.094 8  83448975.951 8       504.981          50.000
G21  20680696.742 8 108677853.473 8       364.344          51.000    20680695.203 8  84684018.278 8       283.904          50.000
G25  24105765.945 7 126676632.867 7     -3438.566          42.000    24105769.000 6  98709078.430 6     -2679.402          41.000
G31  22213984.242 8 116735309.929 8     -2477.676          51.000    22213985.336 8  90962540.026 8     -1930.656          51.000
R11  21308932.781 8 113868478.475 8     -3794.668          51.000    21308937.766 8  88564330.805 8     -2951.411          49.000
R12  19245666.445 8 102806877.700 8      -321.488          51.000    19245669.812 8  79960906.884 8      -250.046          49.000
R22  19278745.180 7 102911242.443 7      -100.125          44.000    19278747.164 6  80042106.741 6       -77.878          40.000
R23  22492395.992 7 120319184.569 7      3391.602          46.000    22492401.094 6  93581587.111 6      2637.915          36.000
C05  39623984.406 5 206332483.737 5        12.828          35.000    39623983.234 5 159549360.012 5         9.835          35.000
C11  21774746.242 8 113386845.321 8       106.242          49.000    21774746.562 8  87677927.014 8        82.214          51.000
C25  22882703.133 8 119156244.271 8     -2165.812          50.000
E13  23124357.867 8 121519336.386 8       198.957          51.000    23124359.453 8  93112241.535 8       152.418          51.000
E15                                                                  25055456.484 5 100887947.891 5     -1724.337          33.000
E21  23505904.516 8 123524365.363 8       136.324          51.000    23505907.828 8  94648526.784 8       104.495          51.000
E26  24820633.586 8 130433294.946 8      2500.305          49.000    24820638.945 8  99942470.038 8      1915.818          50.000
E27  25035954.086 8 131564803.625 8     -2396.812          51.000    25035958.344 8 100809400.733 8     -1836.504          51.000
> 2020 05 12 13 08 30.0000000  0 16        .000000000000
G18  20375431.828 8 107073690.086 8       631.695          51.000    20375431.594 8  83434028.120 8       492.230          50.000
G21  20678657.703 8 108667138.366 8       350.652          51.000    20678656.164 8  84675668.866 8       273.236          50.000
G25  24125403.758 7 126779833.078 7     -3440.801          42.000    24125407.750 7  98789494.141 7     -2681.147          42.000
G31  22228160.281 8 116809804.729 8     -2487.793          51.000    22228160.555 8  91020587.893 8     -1938.543          51.000
R11  21330270.453 8 113982499.645 8     -3805.723          49.000    21330275.617 8  88653013.906 8     -2960.007          48.000
R12  19247540.477 8 102816888.470 8      -344.969          51.000    19247543.812 8  79968693.018 8      -268.309          49.000
R22  19279353.172 7 102914488.108 7      -115.770          43.000    19279354.844 6  80044631.168 6       -90.040          40.000
R23  22473394.406 7 120217547.943 7      3384.824          44.000    22473401.711 6  93502536.484 6      2632.644          38.000
C05  39623906.945 5 206332079.930 5        15.125          35.000    39623905.539 5 159549046.752 5        11.572          35.000
C11  21774157.773 8 113383781.795 8        98.715          49.000    21774158.344 8  87675558.116 8        76.432          51.000
C25  22895212.219 8 119221381.749 8     -2175.895          50.000
E13  23123249.203 8 121513510.445 8       190.309          51.000    23123250.703 8  93107777.501 8       145.854          51.000
E15                                                                  25068314.969 5 100939725.954 5     -1726.432          32.000
E21  23505155.633 8 123520428.959 8       126.945          51.000    23505159.086 8  94645510.577 8        97.255          51.000
E26  24806373.086 7 130358355.911 7      2496.449          47.000    24806377.984 8  99885049.248 8      1912.876          50.000
E27  25049654.617 8 131636801.837 8     -2402.152          51.000    25049658.312 8 100864568.168 8     -1840.619          51.000
> 2020 05 12 13 09  0.0000000  0 16        .000000000000
G18  20371884.883 8 107055051.014 8       612.461          51.000    20371884.938 8  83419504.171 8       477.242          51.000
G21  20676707.586 8 108656890.392 8       334.055          51.000    20676705.773 8  84667683.436 8       260.302          50.000
G25  24145063.898 7 126883147.879 7     -3445.574          44.000    24145068.516 7  98869999.122 7     -2684.866          43.000
G31  22242404.477 8 116884656.125 8     -2500.754          51.000    22242402.305 8  91078913.602 8     -1948.642          51.000
R11  21351678.406 7 114096901.947 7     -3819.469          46.000    21351684.367 7  88741993.452 7     -2970.698          46.000
R12  19249555.703 8 102827654.557 8      -371.293          51.000    19249559.180 8  79977066.617 8      -288.783          48.000
R22  19280059.164 6 102918255.556 6      -134.137          41.000    19280060.844 6  80047561.385 6      -104.329          39.000
R23  22454440.344 7 120116165.359 7      3375.309          42.000    22454450.039 6  93423683.451 6      2625.240          38.000
C05  39623824.875 6 206331653.522 6        14.848          36.000    39623823.398 5 159548716.271 5        11.294          35.000
C11  21773622.867 8 113380996.022 8        88.441          50.000    21773623.148 8  87673403.971 8        68.455          51.000
C25  22907790.812 8 119286878.561 8     -2189.055          51.000
E13  23122199.914 8 121507996.874 8       178.836          51.000    23122201.633 8  93103552.832 8       137.009          51.000
E15  25081201.398 5 131802679.541 5     -2258.750          33.000    25081198.367 5 100991603.738 5     -1730.650          32.000
E21  23504471.211 8 123516832.095 8       114.449          51.000    23504474.609 8  94642754.534 8        87.683          51.000
E26  24792145.125 8 130283589.308 8      2489.523          48.000    24792149.789 8  99827760.583 8      1907.575          51.000
E27  25063396.164 8 131709014.415 8     -2410.383          51.000    25063399.727 8 100919899.856 8     -1846.938          51.000
> 2020 05 12 13 09 30.0000000  0 16        .000000000000
G18  20368443.719 8 107036967.785 8       593.375          51.000    20368443.953 8  83405413.342 8       462.370          50.000
G21  20674848.602 8 108647120.840 8       317.590          51.000    20674845.977 8  84660070.786 8       247.473          49.000
G25  24164748.227 7 126986587.751 7     -3450.164          45.000    24164752.562 7  98950601.552 7     -2688.443          45.000
G31  22256718.125 8 116959872.641 8     -2513.391          51.000    22256713.828 8  91137523.786 8     -1958.489          51.000
R11  21373158.828 7 114211693.773 7     -3832.977          45.000    21373165.250 7  88831276.018 7     -2981.204          43.000
R12  19251714.719 8 102839188.502 8      -397.379          51.000    19251718.406 8  79986037.453 8      -309.076          49.000
R22  19280864.570 7 102922555.135 7      -152.254          43.000    19280866.625 6  80050905.496 6      -118.420          39.000
R23  22435537.281 6 120015050.268 6      3366.102          41.000    22435547.875 6  93345038.411 6      2618.082          37.000
C05  39623740.500 5 206331214.228 5        14.895          35.000    39623738.938 5 159548377.057 5        11.635          35.000
C11  21773143.398 8 113378498.926 8        78.293          50.000    21773143.391 8  87671473.062 8        60.496          51.000
C25  22920440.602 8 119352744.755 8     -2201.758          51.000
E13  23121212.219 8 121502806.905 8       167.461          51.000    23121214.117 8  93099576.103 8       128.311          51.000
E15  25094115.922 5 131870464.911 5     -2264.484          31.000    25094109.406 5 101043579.117 5     -1734.741          31.000
E21  23503853.555 8 123513587.242 8       102.051          51.000    23503857.094 8  94640268.214 8        78.267          51.000
E26  24777952.438 8 130209007.559 8      2482.871          49.000    24777957.180 8  99770613.543 8      1902.415          51.000
E27  25077180.578 8 131781452.385 8     -2418.527          51.000    25077184.359 8 100975404.223 8     -1853.133          51.000
> 2020 05 12 13 10  0.0000000  0 16        .000000000000
G18  20365111.523 8 107019456.742 8       574.320          50.000    20365111.812 8  83391768.379 8       447.522          50.000
G21  20673083.516 8 108637845.446 8       301.012          51.000    20673080.602 8  84652843.236 8       234.558          49.000
G25  24184459.297 7 127090167.669 7     -3455.082          45.000    24184462.578 7  99031313.112 7     -2692.272          45.000
G31  22271103.555 8 117035468.345 8     -2526.156          49.000    22271098.984 8  91196429.476 8     -1968.433          49.000
R11  21394716.469 8 114326888.928 8     -3846.469          48.000    21394720.266 6  88920872.203 6     -2991.701          39.000
R12  19254020.578 8 102851507.076 8      -423.652          51.000    19254024.422 8  79995618.542 8      -329.507          49.000
R22  19281772.852 7 102927401.991 7      -170.473          43.000    19281775.031 6  80054675.309 6      -132.587          38.000
R23  22416689.180 7 119914220.444 7      3356.273          42.000    22416698.273 6  93266615.249 6      2610.438          36.000
C05  39623656.820 6 206330778.158 6        14.656          36.000    39623655.344 5 159548039.133 5        11.194          35.000
C11  21772722.422 8 113376305.959 8        68.090          50.000    21772722.383 8  87669777.327 8        52.666          51.000
C25  22933163.945 8 119418994.848 8     -2214.656          51.000
E13  23120289.164 8 121497956.172 8       156.066          51.000    23120291.203 8  93095859.303 8       119.637          51.000
E15                                                                  25107051.102 5 101095689.511 5     -1738.471          32.000
E21  23503306.156 8 123510711.416 8        89.820          50.000    23503310.023 8  94638064.649 8        68.811          51.000
E26  24763798.352 8 130134627.712 8      2476.117          50.000    24763803.312 8  99713621.211 8      1897.270          51.000
E27  25091010.867 8 131854131.163 8     -2426.602          51.000    25091014.945 8 101031093.108 8     -1859.266          51.000
> 2020 05 12 13 10 30.0000000  0 16        .000000000000
G18  20361888.492 8 107002520.551 8       554.707          50.000    20361888.789 8  83378571.335 8       432.239          50.000
G21  20671412.734 8 108629066.185 8       284.047          51.000    20671409.820 8  84646002.290 8       221.338          48.000
G25  24204197.195 7 127193888.844 7     -3459.836          45.000    24204198.781 7  99112134.711 7     -2695.979          45.000
G31  22285560.523 7 117111443.336 7     -2539.004          47.000    22285557.109 7  91255630.735 7     -1978.445          47.000
R11  21416350.227 8 114442486.564 8     -3860.148          50.000    21416350.289 6  89010781.382 6     -3002.341          38.000
R12  19256474.102 8 102864613.358 8      -450.250          51.000    19256477.977 8  80005812.305 8      -350.194          49.000
R22  19282783.281 7 102932797.110 7      -189.391          44.000    19282785.227 6  80058871.521 6      -147.304          38.000
R23  22397895.641 7 119813679.732 7      3346.254          43.000    22397901.984 6  93188416.976 6      2602.645          37.000
C05  39623574.461 5 206330348.846 5        13.711          35.000    39623572.977 5 159547707.907 5        11.233          35.000
C11  21772360.070 8 113374418.983 8        57.637          50.000    21772360.312 8  87668318.202 8        44.590          51.000
C12  23565821.539 5 122713402.690 5     -2376.332          30.000
C25  22945960.914 8 119485629.719 8     -2227.848          51.000
E13  23119430.938 8 121493446.617 8       144.402          51.000    23119433.281 8  93092403.918 8       110.709          51.000
E21  23502829.758 8 123508207.871 8        77.055          51.000    23502833.688 8  94636146.335 8        59.042          51.000
E26  24749683.492 8 130060452.953 8      2468.848          51.000    24749688.289 8  99656786.038 8      1891.702          51.000
E27  25104887.133 8 131927052.454 8     -2434.883          50.000    25104891.531 8 101086967.838 8     -1865.680          51.000
> 2020 05 12 13 11  0.0000000  0 18        .000000000000
G18  20358775.617 8 106986162.960 8       535.766          50.000    20358775.883 8  83365825.152 8       417.480          50.000
G20  24099424.148 5 126643321.616 5      3323.535          35.000
G21  20669836.984 8 108620786.300 8       268.004          51.000    20669833.875 8  84639550.441 8       208.834          48.000
G25  24223962.141 7 127297753.732 7     -3463.988          44.000    24223963.148 7  99193068.302 7     -2699.218          44.000
G31  22300089.844 8 117187798.678 8     -2551.289          48.000    22300087.641 8  91315128.381 8     -1988.020          48.000
R11  21438059.266 8 114558487.182 8     -3873.004          51.000    21438057.852 6  89101004.001 6     -3012.339          40.000
R12  19259075.664 8 102878511.236 8      -476.109          51.000    19259079.477 8  80016621.743 8      -370.310          49.000
R22  19283897.016 7 102938742.761 7      -207.102          42.000    19283899.211 6  80063495.898 6      -161.079          39.000
R23  22379157.594 7 119713433.395 7      3336.945          42.000    22379160.852 6  93110447.666 6      2595.405          37.000
C05  39623494.172 5 206329931.065 5        14.297          35.000    39623492.812 5 159547385.408 5        10.817          35.000
C11  21772057.102 8 113372841.116 8        47.672          50.000    21772057.344 8  87667098.096 8        36.935          51.000
C12  23579526.344 4 122784778.338 4     -2380.371          28.000    23579527.898 5  94944985.216 5     -1840.630          31.000
C25  22958832.094 8 119552651.404 8     -2240.176          51.000
E13  23118638.312 8 121489281.386 8       133.430          51.000    23118640.758 8  93089212.387 8       102.250          51.000
E15                                                                  25133022.383 5 101200266.839 5     -1746.471          31.000
E21  23502425.047 8 123506081.065 8        64.840          51.000    23502428.859 8  94634516.708 8        49.706          51.000
E26  24735608.695 8 129986487.757 8      2462.301          51.000    24735612.625 8  99600111.446 8      1886.725          51.000
E27  25118809.664 8 132000219.196 8     -2442.672          48.000    25118814.914 8 101143030.662 8     -1871.643          51.000
> 2020 05 12 13 11 30.0000000  0 17        .000000000000
G18  20355774.469 8 106970392.080 8       515.645          50.000    20355774.867 8  83353536.153 8       401.801          50.000
G20  24080453.953 5 126543662.955 5      3321.516          33.000
G21  20668357.602 8 108613013.371 8       250.336          50.000    20668354.688 8  84633493.631 8       195.067          48.000
G25  24243755.266 7 127401769.133 7     -3469.875          43.000    24243757.375 7  99274119.164 7     -2703.802          44.000
G31  22314693.125 8 117264539.986 8     -2564.785          49.000    22314691.758 8  91374926.766 8     -1998.534          49.000
R11  21459844.289 8 114674895.726 8     -3887.332          51.000    21459843.266 7  89191543.924 7     -3023.480          42.000
R12  19261827.117 8 102893209.266 8      -503.555          51.000    19261830.656 8  80028053.536 8      -391.654          49.000
R22  19285114.938 7 102945245.338 7      -226.391          45.000    19285117.508 6  80068553.482 6      -176.085          40.000
R23  22360475.539 7 119613490.723 7      3326.109          42.000    22360477.148 6  93032714.566 6      2586.974          38.000
C05  39623417.453 5 206329531.837 5        12.832          35.000    39623416.086 5 159547076.197 5         9.868          34.000
C11  21771814.898 8 113371579.580 8        36.492          50.000    21771814.883 8  87666122.593 8        28.206          51.000
C12                                                                  23593253.984 5  95000258.694 5     -1844.010          32.000
C25  22971778.672 8 119620066.347 8     -2253.969          51.000
E13  23117912.719 8 121485467.960 8       121.047          51.000    23117915.102 8  93086290.421 8        92.765          51.000
E21  23502093.609 8 123504339.788 8        51.367          51.000    23502097.469 8  94633182.477 8        39.341          51.000
E26  24721575.453 8 129912740.883 8      2454.371          51.000    24721578.430 8  99543604.148 8      1880.580          50.000
E27  25132780.422 8 132073638.621 8     -2451.730          48.000    25132786.602 8 101199287.101 8     -1878.620          51.000
> 2020 05 12 13 12  0.0000000  0 18        .000000000000
G18  20352877.789 8 106955170.210 8       498.012          50.000    20352878.266 8  83341674.959 8       388.061          50.000
G20  24061480.250 4 126443953.353 4      3319.988          28.000
G21  20666967.516 8 108605709.069 8       235.387          50.000    20666964.977 8  84627801.991 8       183.418          49.000
G25  24263569.781 7 127505896.034 7     -3472.801          43.000    24263573.109 7  99355256.963 7     -2706.082          44.000
G29  21998870.383 4 115604844.002 4     -2375.711          28.000
G31  22329362.523 8 117341626.748 8     -2575.566          50.000    22329361.836 8  91434994.329 8     -2006.938          51.000
R11  21481697.797 8 114791670.622 8     -3898.730          51.000    21481697.680 7  89282368.812 7     -3032.346          45.000
R12  19264721.000 8 102908669.165 8      -528.191          50.000    19264724.664 8  80040077.900 8      -410.816          49.000
R22  19286430.016 6 102952265.036 6      -242.848          41.000    19286432.656 6  80074013.239 6      -188.878          40.000
R23  22341842.141 7 119513814.937 7      3317.695          42.000    22341844.203 6  92955188.989 6      2580.430          39.000
C05  39623337.148 5 206329113.911 5        13.859          35.000    39623335.844 5 159546753.006 5        10.898          35.000
C11  21771626.078 8 113370596.417 8        27.934          50.000    21771626.047 8  87665362.350 8        21.618          51.000
C12  23606995.000 5 122927809.231 5     -2387.438          31.000    23606998.711 5  95055602.521 5     -1846.245          33.000
C25  22984793.141 8 119687835.491 8     -2265.094          51.000
E13  23117246.789 8 121481968.016 8       111.188          51.000    23117249.094 8  93083608.654 8        85.217          51.000
E21  23501828.445 8 123502947.047 8        40.434          51.000    23501832.336 8  94632115.302 8        30.964          51.000
E26  24707576.477 8 129839175.311 8      2448.973          51.000    24707579.281 8  99487235.780 8      1876.486          50.000
E27  25146792.789 8 132147272.203 8     -2458.207          50.000    25146798.672 8 101255707.630 8     -1883.597          51.000
> 2020 05 12 13 12 30.0000000  0 16        .000000000000
G18  20350088.602 8 106940513.205 8       479.621          51.000    20350089.047 8  83330253.917 8       373.728          51.000
G21  20665669.664 8 108598888.685 8       219.777          49.000    20665666.992 8  84622487.394 8       171.255          49.000
G25  24283408.602 7 127610149.071 7     -3476.836          44.000    24283412.859 7  99436493.028 7     -2709.226          44.000
G31  22344100.352 8 117419072.261 8     -2586.836          51.000    22344100.211 8  91495341.442 8     -2015.719          51.000
R11  21503622.109 8 114908824.675 8     -3910.988          51.000    21503622.812 7  89373488.590 7     -3041.883          47.000
R12  19267760.781 8 102924907.261 8      -553.664          50.000    19267764.438 8  80052707.532 8      -430.628          48.000
R22  19287843.938 7 102959816.306 7      -260.074          44.000    19287847.305 6  80079886.457 6      -202.283          39.000
R23  22323261.703 7 119414423.019 7      3308.715          45.000    22323264.844 6  92877884.229 6      2573.445          39.000
C05  39623256.398 5 206328692.962 5        14.512          35.000    39623255.180 5 159546427.515 5        11.185          35.000
C11  21771493.656 8 113369906.605 8        18.633          50.000    21771493.594 8  87664828.942 8        14.456          51.000
C12  23620761.172 5 122999486.427 5     -2390.023          32.000    23620763.008 5  95111028.080 5     -1848.239          30.000
C25  22997878.250 8 119755972.899 8     -2276.867          51.000
E13  23116643.312 8 121478796.805 8       100.703          51.000    23116645.594 8  93081178.769 8        77.174          51.000
E21  23501632.852 8 123501919.408 8        28.680          51.000    23501636.469 8  94631327.888 8        21.990          51.000
E26  24693614.727 8 129765807.631 8      2442.754          50.000    24693618.312 8  99431019.037 8      1871.744          50.000
E27  25160849.188 8 132221135.003 8     -2465.391          51.000    25160853.867 8 101312303.764 8     -1889.078          50.000
> 2020 05 12 13 13  0.0000000  0 18        .000000000000
G18  20347401.344 8 106926391.601 8       463.418          51.000    20347401.930 8  83319250.089 8       361.105          51.000
G21  20664458.023 8 108592522.161 8       206.355          48.000    20664455.633 8  84617526.458 8       160.800          48.000
G25  24303265.789 7 127714497.490 7     -3478.262          45.000    24303270.242 7  99517803.400 7     -2710.340          45.000
G26  20591726.219 5 108210251.236 5      1317.336          30.000
G31  22358900.359 8 117496844.946 8     -2596.262          51.000    22358900.602 8  91555943.504 8     -2023.061          51.000
R11  21525610.938 8 115026324.774 8     -3920.770          51.000    21525612.156 7  89464877.526 7     -3049.490          46.000
R12  19270940.938 8 102941893.921 8      -577.070          50.000    19270944.273 8  80065919.391 8      -448.832          48.000
R22  19289352.164 6 102967867.611 6      -275.242          41.000    19289355.836 6  80086148.571 6      -214.074          39.000
R23  22304729.125 7 119315286.262 7      3301.883          45.000    22304733.109 6  92800777.925 6      2568.131          39.000
C05  39623169.352 5 206328239.811 5        17.559          35.000    39623168.289 5 159546078.111 5        13.393          35.000
C11  21771411.766 8 113369480.375 8        11.340          50.000    21771411.562 8  87664499.358 8         8.735          51.000
C12  23634540.930 4 123071256.045 4     -2391.719          28.000    23634545.117 5  95166511.811 5     -1848.858          31.000
C25  23011027.891 8 119824447.766 8     -2286.523          51.000
E13  23116096.820 8 121475924.258 8        92.312          51.000    23116099.070 8  93078977.730 8        70.724          51.000
E15  25185294.508 5 132349643.729 5     -2295.461          32.000
E21  23501501.562 8 123501228.112 8        18.973          51.000    23501504.609 8  94630798.196 8        14.517          51.000
E26  24679684.711 8 129692609.079 8      2438.578          48.000    24679689.594 8  99374931.845 8      1868.605          51.000
E27  25174943.492 8 132295196.751 8     -2470.496          51.000    25174946.711 8 101369052.327 8     -1893.079          51.000
> 2020 05 12 13 13 30.0000000  0 18        .000000000000
G18  20344826.688 8 106912861.853 8       442.109          51.000    20344827.703 8  83308707.458 8       344.504          51.000
G20  24004652.352 5 126145292.062 5      3317.484          32.000
G21  20663343.555 8 108586665.629 8       187.898          49.000    20663341.594 8  84612962.943 8       146.414          49.000
G25  24323151.711 7 127818996.510 7     -3484.551          46.000    24323155.883 7  99599231.122 7     -2715.237          46.000
G31  22373772.672 8 117574998.344 8     -2610.402          51.000    22373773.391 8  91616842.244 8     -2034.080          51.000
R11  21547674.086 8 115144225.240 8     -3935.504          49.000    21547675.805 7  89556577.846 7     -3060.947          45.000
R12  19274272.203 8 102959686.576 8      -605.375          50.000    19274275.586 8  80079758.117 8      -470.847          49.000
R22  19290964.227 6 102976474.571 6      -294.801          41.000    19290968.273 6  80092842.869 6      -229.289          39.000
R23  22286255.039 7 119216463.782 7      3290.051          44.000    22286259.898 6  92723916.082 6      2558.928          40.000
C05  39623086.883 5 206327810.639 5        15.324          35.000    39623085.898 5 159545746.686 5        11.774          34.000
C11  21771391.258 8 113369372.967 8         -.668          51.000    21771390.758 8  87664416.292 8         -.447          51.000
C12                                                                  23648354.398 4  95222123.247 4     -1853.401          27.000
C25  23024252.453 8 119893314.394 8     -2301.121          50.000
E13  23115617.844 8 121473406.201 8        79.191          51.000    23115620.094 8  93077048.322 8        60.700          51.000
E15                                                                  25198435.070 5 101463642.478 5     -1764.154          33.000
E21  23501445.211 8 123500930.317 8         4.488          51.000    23501447.820 8  94630570.025 8         3.424          51.000
E26  24665797.773 8 129619636.895 8      2429.609          48.000    24665803.734 8  99319018.101 8      1861.759          51.000
E27  25189086.055 8 132369513.062 8     -2480.305          51.000    25189088.305 8 101425995.937 8     -1900.445          51.000
> 2020 05 12 13 14  0.0000000  0 18        .000000000000
G18  20342361.891 8 106899908.678 8       422.371          51.000    20342362.945 8  83298614.075 8       329.120          50.000
G20  23985725.758 5 126045842.512 5      3314.172          32.000
G21  20662323.297 8 108581303.106 8       170.734          50.000    20662321.195 8  84608784.338 8       133.040          49.000
G25  24343062.977 7 127923629.606 7     -3489.918          44.000    24343066.711 7  99680763.307 7     -2719.420          44.000
G26  20576886.602 5 108132256.477 5      1286.312          34.000    20576886.352 5  84258922.287 5      1002.324          32.000
G31  22388713.820 8 117653514.866 8     -2622.996          51.000    22388714.836 8  91678023.941 8     -2043.893          51.000
R11  21569808.188 7 115262507.124 7     -3948.898          46.000    21569810.320 6  89648574.791 6     -3071.368          41.000
R12  19277751.297 8 102978269.593 8      -632.355          51.000    19277754.656 8  80094211.562 8      -491.832          49.000
R22  19292677.883 7 102985620.216 7      -313.719          42.000    19292681.547 6  80099956.125 6      -244.003          39.000
R23  22267835.539 7 119117941.218 7      3279.387          43.000    22267842.953 6  92647287.454 6      2550.634          40.000
C05                                                                  39623005.203 5 159545421.166 5        10.934          35.000
C11  21771428.906 8 113369568.713 8       -11.352          50.000    21771428.336 8  87664567.662 8        -8.787          51.000
C25  23037548.875 8 119962556.006 8     -2314.035          50.000
E13  23115203.219 8 121471226.842 8        67.191          51.000    23115205.359 8  93075378.433 8        51.517          51.000
E15                                                                  25211601.586 5 101516645.321 5     -1768.315          32.000
E21  23501460.609 8 123501011.544 8        -8.805          51.000    23501463.289 8  94630632.239 8        -6.711          51.000
E26  24651952.008 8 129546876.469 8      2422.074          50.000    24651957.828 8  99263266.636 8      1855.821          50.000
E27  25203273.633 8 132444067.880 8     -2488.883          51.000    25203275.867 8 101483122.322 8     -1907.072          51.000
> 2020 05 12 13 14 30.0000000  0 17        .000000000000
G18  20340010.203 8 106887550.179 8       401.027          51.000    20340011.469 8  83288984.100 8       312.492          51.000
G20  23966816.469 5 125946476.899 5      3309.145          35.000
G21  20661400.383 8 108576452.288 8       152.176          50.000    20661398.320 8  84605004.475 8       118.579          50.000
G25  24363002.828 7 128028413.674 7     -3496.270          42.000    24363006.336 7  99762413.150 7     -2724.369          42.000
G26  20569590.891 5 108093916.467 5      1269.301          33.000    20569590.141 5  84229046.940 5       989.062          33.000
G31  22403726.867 8 117732410.063 8     -2637.156          51.000    22403727.594 8  91739500.688 8     -2054.930          51.000
R11  21592014.391 6 115381185.539 6     -3963.562          41.000    21592016.648 6  89740880.153 6     -3082.774          37.000
R12  19281381.906 8 102997661.784 8      -660.844          51.000    19281384.906 8  80109294.377 8      -513.987          49.000
R22  19294495.594 7 102995321.190 7      -333.738          42.000    19294498.828 6  80107501.335 6      -259.574          39.000
R23  22249475.320 7 119019738.404 7      3267.164          42.000    22249485.641 6  92570907.446 6      2541.128          40.000
C05  39622930.555 5 206326995.794 5        12.180          35.000    39622929.648 5 159545118.425 5         8.829          34.000
C11  21771527.789 8 113370084.913 8       -23.492          50.000    21771527.531 8  87664966.829 8       -18.157          51.000
C25  23050920.594 8 120032188.986 8     -2328.605          50.000
E13  23114856.375 8 121469403.742 8        53.844          51.000    23114858.250 8  93073981.520 8        41.254          51.000
E21  23501551.828 8 123501490.630 8       -23.574          51.000    23501554.445 8  94630999.327 8       -18.069          51.000
E26  24638150.656 8 129474346.711 8      2412.840          51.000    24638155.172 8  99207691.927 8      1848.823          50.000
E27  25217509.234 8 132518878.590 8     -2498.891          50.000    25217512.586 8 101540444.783 8     -1914.746          51.000
> 2020 05 12 13 15  0.0000000  0 17        .000000000000
G18  20337765.234 8 106875752.317 8       384.227          51.000    20337766.672 8  83279790.984 8       299.397          51.000
G20  23947918.766 6 125847164.667 6      3309.895          37.000
G21  20660568.117 8 108572078.158 8       138.098          51.000    20660566.492 8  84601596.081 8       107.609          50.000
G25  24382964.719 7 128133313.401 7     -3498.355          42.000    24382968.516 7  99844153.125 7     -2725.994          42.000
G26  20562374.773 5 108055994.034 5      1257.379          33.000    20562375.258 5  84199497.049 5       979.776          33.000
G31  22418805.094 8 117811647.163 8     -2646.598          50.000    22418805.430 8  91801243.861 8     -2062.284          51.000
R11  21614288.422 7 115500222.734 7     -3973.547          45.000    21614290.711 6  89833464.540 6     -3090.539          39.000
R12  19285157.703 8 103017828.526 8      -684.812          51.000    19285160.477 8  80124979.617 8      -532.632          49.000
R21  21779630.188 5 116547199.369 5     -3369.551          30.000
R22  19296410.812 7 103005541.461 7      -348.918          43.000    19296414.094 6  80115450.444 6      -271.378          40.000
R23  22231171.336 7 118921821.737 7      3259.430          47.000    22231181.336 6  92494750.059 6      2535.112          39.000
C11  21771681.711 8 113370887.276 8       -31.160          50.000    21771681.422 8  87665587.263 8       -24.140          51.000
C25  23064361.133 8 120102177.972 8     -2338.523          51.000
E13  23114570.820 8 121467902.288 8        44.973          51.000    23114572.516 8  93072831.057 8        34.433          51.000
E21  23501712.578 8 123502334.276 8       -33.906          51.000    23501714.859 8  94631645.749 8       -25.983          51.000
E26  24624386.797 8 129402014.347 8      2407.961          49.000    24624390.133 8  99152268.471 8      1845.085          51.000
E27  25231786.906 8 132593910.374 8     -2504.496          50.000    25231791.547 8 101597936.650 8     -1919.029          51.000
> 2020 05 12 13 15 30.0000000  0 17        .000000000000
G18  20335626.047 8 106864510.492 8       365.789          51.000    20335627.305 8  83271031.125 8       285.030          50.000
G20  23929031.328 6 125747904.145 6      3308.293          36.000    23929040.398 4  97985419.492 4      2577.891          24.000
G21  20659825.703 8 108568176.079 8       122.539          51.000    20659824.258 8  84598555.490 8        95.485          50.000
G25  24402947.586 7 128238323.115 7     -3501.918          44.000    24402951.906 7  99925978.814 7     -2728.767          44.000
G26  20555238.094 6 108018486.470 6      1243.688          38.000    20555238.508 6  84170270.333 6       969.113          36.000
G31  22433947.125 8 117891219.323 8     -2657.793          49.000    22433947.422 8  91863248.122 8     -2071.011          49.000
R11  21636630.672 8 115619610.898 8     -3985.184          48.000    21636633.859 7  89926321.924 7     -3099.587          44.000
R12  19289077.180 8 103038765.192 8      -710.395          51.000    19289079.852 8  80141263.656 8      -552.529          48.000
R22  19298421.773 7 103016274.838 7      -365.973          42.000    19298425.172 6  80123798.657 6      -284.642          40.000
R23  22212920.492 8 118824188.099 8      3250.047          48.000    22212929.008 6  92418812.850 6      2527.817          39.000
C05  39622774.562 5 206326183.654 5        13.965          35.000    39622773.680 5 159544489.676 5        11.197          34.000
C11  21771889.727 8 113371970.692 8       -40.535          50.000    21771889.109 8  87666425.023 8       -31.320          51.000
C25  23077869.305 8 120172516.862 8     -2350.109          51.000
E13  23114345.508 8 121466717.405 8        34.527          51.000    23114347.242 8  93071923.166 8        26.438          51.000
E21  23501941.812 8 123503538.716 8       -45.922          51.000    23501943.797 8  94632568.623 8       -35.157          51.000
E26  24610659.320 8 129329875.573 8      2401.633          48.000    24610662.609 8  99096993.350 8      1840.251          51.000
E27  25246105.953 8 132669157.930 8     -2511.586          51.000    25246111.258 8 101655593.844 8     -1924.456          51.000
> 2020 05 12 13 16  0.0000000  0 17        .000000000000
G18  20333595.789 8 106853841.287 8       346.289          51.000    20333597.148 8  83262717.479 8       269.836          51.000
G20  23910157.531 6 125648714.688 6      3305.027          37.000    23910165.414 4  97908139.035 4      2575.346          24.000
G21  20659175.891 8 108564761.940 8       105.863          50.000    20659174.461 8  84595895.126 8        82.494          49.000
G25  24422954.195 7 128343458.262 7     -3506.379          43.000    24422959.125 7 100007902.229 7     -2732.246          43.000
G26  20548183.156 5 107981412.061 5      1228.961          34.000    20548183.484 5  84141381.160 5       957.626          35.000
G31  22449155.352 7 117971140.597 7     -2669.625          47.000    22449155.883 7  91925524.415 7     -2080.227          47.000
R11  21659041.641 8 115739363.963 8     -3997.535          49.000    21659045.750 7  90019463.160 7     -3109.197          46.000
R12  19293143.828 8 103060488.451 8      -736.945          51.000    19293146.102 8  80158159.522 8      -573.180          48.000
R22  19300531.641 7 103027536.527 7      -383.867          42.000    19300534.258 6  80132557.697 6      -298.566          40.000
R23  22194725.508 7 118726855.634 7      3239.590          47.000    22194732.742 6  92343109.891 6      2519.684          38.000
C05  39622696.648 5 206325778.133 5        13.867          35.000    39622695.797 5 159544176.102 5        10.717          35.000
C11  21772154.938 8 113373351.054 8       -50.668          51.000    21772154.070 8  87667492.410 8       -39.122          51.000
C25  23091447.586 8 120243220.570 8     -2362.695          51.000
E13  23114183.375 8 121465865.125 8        23.129          51.000    23114185.180 8  93071270.138 8        17.770          51.000
E21  23502242.875 8 123505121.313 8       -58.789          51.000    23502244.742 8  94633781.259 8       -45.010          51.000
E26  24596971.469 7 129257947.812 7      2394.285          47.000    24596975.617 8  99041879.898 8      1834.612          51.000
E27  25260469.461 8 132744637.116 8     -2519.520          51.000    25260474.977 8 101713428.525 8     -1930.526          51.000
> 2020 05 12 13 16 30.0000000  0 18        .000000000000
G18  20331674.047 8 106843742.420 8       326.035          51.000    20331675.461 8  83254848.246 8       254.053          50.000
G20  23891298.023 5 125549596.978 5      3302.133          34.000
G21  20658618.430 8 108561832.943 8        88.562          50.000    20658617.039 8  84593612.800 8        69.010          49.000
G25  24442984.117 7 128448715.367 7     -3511.406          42.000    24442989.227 7 100089920.681 7     -2736.161          43.000
G26  20541209.594 5 107944770.444 5      1212.824          32.000    20541210.016 5  84112829.174 5       945.049          31.000
G31  22464428.727 7 118051406.406 7     -2682.152          45.000    22464429.547 7  91988069.235 7     -2089.986          45.000
R11  21681519.812 8 115859476.188 8     -4010.824          49.000    21681524.172 7  90112883.763 7     -3119.530          46.000
R12  19297357.094 8 103082996.368 8      -764.371          51.000    19297359.242 7  80175665.682 7      -594.511          47.000
R22  19302739.164 7 103039322.524 7      -402.625          42.000    19302742.680 6  80141724.595 6      -313.153          40.000
R23  22176585.844 7 118629823.361 7      3228.324          46.000    22176592.906 6  92267640.361 6      2510.919          38.000
C05                                                                  39622618.742 5 159543865.854 5         9.104          35.000
C11  21772476.570 8 113375025.588 8       -61.785          51.000    21772475.797 8  87668787.282 8       -47.770          51.000
C12  23731616.023 5 123576722.730 5     -2420.184          30.000    23731608.898 6  95557330.867 6     -1871.536          36.000
C25  23105095.062 8 120314285.163 8     -2375.844          50.000
E13  23114084.164 8 121465342.713 8        10.859          51.000    23114085.562 8  93070869.862 8         8.300          51.000
E21  23502615.672 8 123507080.561 8       -72.660          51.000    23502617.617 8  94635282.491 8       -55.675          51.000
E26  24583323.273 7 129186229.659 7      2386.020          47.000    24583328.516 8  98986927.021 8      1828.246          51.000
E27  25274876.539 8 132820344.944 8     -2528.484          51.000    25274881.953 8 101771438.396 8     -1937.425          51.000
> 2020 05 12 13 17  0.0000000  0 16        .000000000000
G18  20329863.781 8 106834229.854 8       308.422          51.000    20329864.953 8  83247435.863 8       240.329          51.000
G21  20658156.305 8 108559404.819 8        73.660          49.000    20658155.219 8  84591720.760 8        57.398          49.000
G25  24463040.008 6 128554109.314 6     -3514.246          38.000    24463045.312 6 100172045.758 6     -2738.377          39.000
G26  20534322.055 5 107908579.063 5      1200.156          34.000    20534323.781 5  84084628.222 5       935.196          34.000
G31  22479770.758 7 118132029.818 7     -2692.305          45.000    22479770.898 7  92050892.687 7     -2097.900          46.000
R11  21704067.914 8 115979960.739 8     -4021.238          50.000    21704071.492 7  90206593.945 7     -3127.630          45.000
R12  19301720.203 8 103106305.089 8      -789.203          51.000    19301722.102 7  80193794.662 7      -613.825          47.000
R22  19305048.180 7 103051647.568 7      -418.789          44.000    19305051.195 6  80151310.720 6      -325.725          39.000
R23  22158505.852 8 118533109.002 8      3219.660          48.000    22158512.906 6  92192418.131 6      2504.180          38.000
C05  39622546.109 5 206324993.858 5        13.578          35.000    39622545.367 5 159543569.684 5        10.197          35.000
C11  21772857.742 8 113377009.654 8       -70.289          51.000    21772856.859 8  87670321.480 8       -54.255          51.000
C25  23118814.172 8 120385724.939 8     -2386.348          48.000
E13  23114050.578 8 121465165.628 8         1.227          51.000    23114051.688 8  93070734.171 8          .916          51.000
E21  23503063.281 8 123509433.249 8       -83.906          51.000    23503065.375 8  94637085.188 8       -64.280          51.000
E26  24569718.758 7 129114737.811 7      2380.363          47.000    24569724.453 8  98932147.556 8      1823.903          51.000
E27  25289329.828 8 132896296.626 8     -2534.738          51.000    25289335.086 8 101829635.138 8     -1942.196          51.000
> 2020 05 12 13 17 30.0000000  0 17        .000000000000
G18  20328151.195 8 106825230.662 8       283.941          50.000    20328152.211 8  83240423.502 8       221.253          50.000
G21  20657775.266 8 108557403.567 8        52.195          49.000    20657774.430 8  84590161.358 8        40.672          49.000
G25  24483107.102 5 128659565.973 5     -3523.570          32.000    24483112.680 5 100254219.712 5     -2745.639          30.000
G26  20527506.688 5 107872767.272 5      1180.035          33.000    20527508.875 5  84056722.948 5       919.517          33.000
G31  22495167.406 8 118212935.964 8     -2708.977          48.000    22495166.086 8  92113936.385 8     -2110.894          48.000
R11  21726671.375 8 116100740.466 8     -4038.363          51.000    21726673.578 7  90300533.666 7     -3140.952          43.000
R12  19306219.336 8 103130340.480 8      -820.871          51.000    19306221.016 7  80212488.833 7      -638.455          46.000
R22  19307443.641 7 103064435.997 7      -441.527          44.000    19307446.133 6  80161257.322 6      -343.407          39.000
R23  22140472.391 8 118436639.675 8      3203.973          50.000    22140478.961 6  92117386.481 6      2491.982          38.000
C05  39622462.766 5 206324560.275 5         7.691          35.000    39622461.938 5 159543234.612 5         5.941          34.000
C11  21773284.391 8 113379230.490 8       -85.297          51.000    21773283.195 8  87672038.770 8       -65.978          51.000
C25  23132590.727 7 120457466.105 7     -2403.699          47.000
E13  23114068.523 8 121465260.478 8       -15.094          51.000    23114070.008 8  93070806.874 8       -11.553          51.000
E15  25304506.836 5 132976087.622 5     -2345.328          35.000
E21  23503572.219 8 123512107.285 8      -101.879          51.000    23503574.094 8  94639134.121 8       -78.078          51.000
E26  24556144.469 8 129043400.242 8      2367.914          49.000    24556149.562 8  98877486.320 8      1814.427          51.000
E27  25303814.750 8 132972418.578 8     -2547.531          48.000    25303820.516 8 101887962.375 8     -1952.067          51.000
> 2020 05 12 13 18  0.0000000  0 18        .000000000000
G18  20326545.172 8 106816792.014 8       272.082          51.000    20326546.445 8  83233847.936 8       212.012          51.000
G20  23834781.938 5 125252622.874 5      3296.922          34.000    23834787.898 5  97599470.858 5      2569.030          31.000
G21  20657484.484 8 108555876.194 8        43.184          50.000    20657483.484 8  84588971.205 8        33.650          50.000
G26  20520773.148 5 107837384.040 5      1172.348          33.000    20520772.961 5  84029151.551 5       913.512          33.000
G29  22163863.664 6 116471860.855 6     -2439.473          36.000    22163869.930 5  90757305.801 5     -1900.885          35.000
G31  22510626.328 8 118294169.364 8     -2712.898          48.000    22510624.344 8  92177235.079 8     -2113.947          49.000
R11  21749338.406 8 116221860.137 8     -4042.672          50.000    21749338.539 7  90394737.704 7     -3144.306          42.000
R12  19310863.312 8 103155150.103 8      -839.617          51.000    19310865.344 7  80231785.172 7      -653.036          46.000
R22  19309934.969 7 103077734.336 7      -451.445          46.000    19309937.414 6  80171600.509 6      -351.121          39.000
R23  22122493.945 8 118340464.472 8      3201.113          49.000    22122500.156 6  92042583.600 6      2489.755          38.000
C05  39622378.352 5 206324120.192 5        15.055          35.000    39622377.258 5 159542893.799 5        11.992          34.000
C11  21773765.047 8 113381734.406 8       -87.898          51.000    21773764.109 8  87673974.962 8       -67.929          51.000
C25  23146433.945 7 120529553.921 7     -2408.430          47.000
E13  23114147.227 8 121465674.037 8       -18.801          51.000    23114148.992 8  93071123.763 8       -14.382          51.000
E15  25317867.727 5 133046292.699 5     -2342.559          34.000
E21  23504151.445 8 123515150.692 8      -107.309          51.000    23504153.141 8  94641466.076 8       -82.191          51.000
E26  24542608.836 8 128972264.967 8      2368.145          50.000    24542612.781 8  98822980.117 8      1814.522          51.000
E27  25318340.586 8 133048757.396 8     -2547.984          48.000    25318347.078 8 101946455.759 8     -1952.307          51.000
> 2020 05 12 13 18 30.0000000  0 19        .000000000000
G18  20325059.500 8 106808985.274 8       247.887          50.000    20325060.828 8  83227764.760 8       193.158          50.000
G20  23815983.961 6 125153834.914 6      3288.539          38.000    23815986.711 5  97522480.173 5      2562.501          32.000
G21  20657297.492 8 108554893.510 8        21.836          50.000    20657296.414 8  84588205.474 8        17.015          50.000
G25  24523316.289 5 128870903.211 5     -3529.344          33.000
G26  20514134.578 5 107802502.362 5      1152.285          34.000    20514134.586 5  84001971.104 5       897.885          35.000
G29  22177816.820 5 116545192.203 5     -2449.316          34.000    22177830.312 5  90814447.094 5     -1908.561          35.000
G31  22526160.148 8 118375799.176 8     -2729.395          48.000    22526158.812 8  92240842.664 8     -2126.804          48.000
R11  21772081.703 7 116343389.243 7     -4059.598          47.000    21772081.125 7  90489260.216 7     -3157.468          43.000
R12  19315665.984 8 103180806.859 8      -871.211          51.000    19315668.164 7  80251740.423 7      -677.609          47.000
R22  19312534.961 7 103091613.404 7      -474.004          43.000    19312536.477 6  80182395.321 6      -368.670          39.000
R23  22104583.820 7 118244657.850 7      3185.504          47.000    22104590.469 6  91968067.412 6      2477.617          38.000
C05  39622306.383 5 206323745.844 5         8.965          35.000    39622305.273 5 159542602.831 5         7.588          34.000
C11  21774313.703 8 113384591.708 8      -103.016          51.000    21774313.133 8  87676184.423 8       -79.622          51.000
C25  23160357.555 8 120602057.605 8     -2425.520          49.000
E13  23114300.117 8 121466477.234 8       -35.152          51.000    23114301.719 8  93071739.204 8       -26.956          51.000
E15  25331266.234 5 133116702.528 5     -2352.637          33.000
E21  23504814.695 8 123518635.707 8      -125.422          51.000    23504816.500 8  94644136.410 8       -96.138          51.000
E26  24529125.086 8 128901404.311 8      2355.461          50.000    24529127.883 8  98768684.357 8      1804.855          51.000
E27  25332922.391 8 133125383.772 8     -2560.977          51.000    25332928.242 8 102005169.482 8     -1962.319          50.000
> 2020 05 12 13 19  0.0000000  0 19        .000000000000
G18  20323688.406 8 106801781.118 8       234.172          50.000    20323689.469 8  83222151.118 8       182.472          50.000
G20  23797208.234 6 125055167.002 6      3291.285          39.000    23797211.555 4  97445596.112 4      2564.635          28.000
G21  20657208.406 8 108554425.689 8        11.047          50.000    20657207.422 8  84587840.960 8         8.608          50.000
G25  24543472.547 6 128976796.838 6     -3528.188          38.000    24543471.539 6 100501403.476 6     -2749.240          38.000
G26  20507586.484 5 107768095.058 5      1142.406          34.000    20507587.586 5  83975160.194 5       890.187          34.000
G29  22191807.258 5 116618716.562 5     -2449.797          35.000    22191819.336 5  90871738.614 5     -1908.939          35.000
G31  22541762.906 8 118457793.595 8     -2735.090          49.000    22541762.859 8  92304734.361 8     -2131.239          49.000
R11  21794894.539 7 116465294.888 7     -4065.648          44.000    21794895.266 7  90584075.680 7     -3162.171          45.000
R12  19320621.891 8 103207280.765 8      -891.902          51.000    19320624.695 8  80272331.219 8      -693.702          48.000
R22  19315237.961 7 103106042.102 7      -485.938          44.000    19315239.609 6  80193617.654 6      -377.951          41.000
R23  22086736.469 7 118149191.185 7      3180.574          47.000    22086744.273 6  91893815.620 6      2473.783          37.000
C05  39622241.422 5 206323407.408 5        14.805          35.000
C11  21774924.586 8 113387772.887 8      -107.434          50.000    21774924.172 8  87678644.303 8       -83.129          51.000
C12  23801519.375 5 123940748.998 5     -2434.277          30.000    23801513.016 4  95838830.468 4     -1882.341          29.000
C25  23174355.617 8 120674946.561 8     -2432.039          51.000
E13  23114521.367 8 121467640.267 8       -40.797          51.000    23114522.789 8  93072630.365 8       -31.266          51.000
E21  23505556.562 8 123522533.860 8      -132.863          51.000    23505558.445 8  94647123.293 8      -101.792          51.000
E26  24515687.898 8 128830789.811 8      2353.719          50.000    24515689.750 8  98714577.201 8      1803.445          51.000
E27  25347553.758 8 133202267.789 8     -2563.133          51.000    25347558.141 7 102064080.571 7     -1963.935          47.000
> 2020 05 12 13 19 30.0000000  0 18        .000000000000
G18  20322411.414 8 106795070.736 8       211.328          50.000    20322412.125 8  83216922.232 8       164.671          50.000
G20  23778435.094 6 124956513.523 6      3284.090          39.000    23778440.562 5  97368723.251 5      2559.025          32.000
G21  20657196.492 8 108554363.341 8        -8.773          50.000    20657195.336 8  84587792.391 8        -6.836          50.000
G25  24563633.688 6 129082729.462 6     -3535.598          41.000    24563629.188 6 100583948.254 6     -2755.014          41.000
G26  20501109.312 6 107734054.996 6      1124.301          37.000    20501110.398 6  83948635.409 6       876.082          37.000
G29  22205814.828 5 116692323.872 5     -2458.891          31.000    22205819.539 5  90929094.997 5     -1916.019          31.000
G31  22557414.023 8 118540041.453 8     -2749.863          50.000    22557414.758 8  92368823.573 8     -2142.751          50.000
R11  21817755.242 7 116587463.129 7     -4080.777          42.000    21817758.461 7  90679095.447 7     -3173.938          46.000
R12  19325710.305 8 103234461.268 8      -922.020          51.000    19325713.227 8  80293471.601 8      -717.126          48.000
R22  19318023.086 7 103120908.220 7      -507.008          42.000    19318025.445 6  80205180.211 6      -394.336          41.000
R23  22068932.336 8 118053955.298 8      3166.508          48.000    22068940.094 6  91819743.310 6      2462.842          36.000
C05  39622163.141 5 206323000.349 5        10.875          35.000    39622162.133 5 159542027.893 5         8.494          34.000
C11  21775576.586 8 113391169.627 8      -120.812          50.000    21775576.422 8  87681270.869 8       -93.414          51.000
C25  23188406.820 8 120748111.468 8     -2447.441          51.000
E13  23114790.344 8 121469053.946 8       -55.328          51.000    23114791.820 8  93073713.575 8       -42.412          51.000
E21  23506356.555 8 123526737.196 8      -149.203          51.000    23506358.359 8  94650344.023 8      -114.384          51.000
E26  24502276.523 8 128760313.581 8      2342.812          49.000    24502277.938 8  98660575.981 8      1795.178          50.000
E27  25362213.203 8 133279299.963 8     -2574.238          51.000    25362215.633 7 102123105.147 7     -1972.381          45.000
> 2020 05 12 13 20  0.0000000  0 18        .000000000000
G18  20321248.539 8 106788959.314 8       194.699          49.000    20321249.008 8  83212160.082 8       151.714          49.000
G20  23759685.172 6 124857982.922 6      3283.188          39.000    23759692.055 5  97291946.211 5      2558.337          30.000
G21  20657281.852 8 108554811.377 8       -22.543          50.000    20657280.375 8  84588141.508 8       -17.563          50.000
G25  24583819.961 7 129188805.350 7     -3537.340          43.000    24583813.781 7 100666604.660 7     -2756.375          43.000
G26  20494722.688 6 107700489.356 6      1111.891          37.000    20494723.508 6  83922480.424 6       866.411          36.000
G29  22219858.000 5 116766119.447 5     -2462.215          33.000    22219858.273 5  90986598.069 5     -1918.603          34.000
G31  22573132.922 8 118622645.502 8     -2758.496          50.000    22573133.625 8  92433190.311 8     -2149.481          50.000
R11  21840685.141 7 116709998.279 7     -4089.762          43.000    21840690.039 7  90774400.546 7     -3180.926          46.000
R12  19330951.172 8 103262455.146 8      -945.832          51.000    19330954.250 8  80315244.608 8      -735.647          49.000
R22  19320909.680 7 103136316.970 7      -521.660          43.000    19320911.203 6  80217164.745 6      -405.739          40.000
R23  22051192.688 8 117959058.636 8      3158.602          49.000    22051198.945 6  91745934.844 6      2456.690          36.000
C05  39622091.422 5 206322626.522 5        13.059          34.000
C11  21776290.367 8 113394885.967 8      -128.227          51.000    21776290.266 8  87684144.571 8       -99.086          51.000
C25  23202530.727 8 120821655.184 8     -2456.859          51.000
E13  23115126.961 8 121470823.158 8       -63.949          51.000    23115128.633 8  93075069.210 8       -48.973          51.000
E21  23507234.844 8 123531351.840 8      -159.707          51.000    23507236.672 8  94653879.912 8      -122.379          51.000
E26  24488911.109 8 128690081.835 8      2337.988          48.000    24488912.727 8  98606762.087 8      1791.386          50.000
E27  25376920.500 8 133356585.013 8     -2579.391          51.000    25376919.867 7 102182323.453 7     -1976.290          44.000
> 2020 05 12 13 20 30.0000000  0 17        .000000000000
G18  20320191.602 8 106783404.909 8       175.844          49.000    20320191.789 8  83207831.983 8       137.021          49.000
G20  23740951.258 6 124759536.191 6      3280.086          40.000    23740959.891 5  97215234.469 5      2555.914          30.000
G21  20657456.117 8 108555727.234 8       -38.301          50.000    20657454.648 8  84588855.174 8       -29.845          50.000
G25  24604024.562 7 129294981.412 7     -3541.016          44.000    24604018.078 7 100749339.174 7     -2759.236          44.000
G26  20488418.898 6 107667358.271 6      1096.867          39.000    20488419.367 6  83896663.959 6       854.702          39.000
G31  22588911.156 8 118705561.463 8     -2769.012          50.000    22588911.180 8  92497800.101 8     -2157.671          50.000
R11  21863675.938 7 116832854.459 7     -4100.582          43.000    21863681.102 7  90869955.307 7     -3189.342          44.000
R12  19336336.008 8 103291219.454 8      -971.660          51.000    19336339.594 8  80337616.865 8      -755.733          49.000
R22  19323889.438 6 103152224.616 6      -538.637          39.000    19323891.336 6  80229537.351 6      -418.937          41.000
R23  22033508.891 8 117864459.977 8      3148.242          49.000    22033514.523 6  91672358.166 6      2448.633          36.000
C05  39622018.227 5 206322245.550 5        12.539          35.000    39622017.188 5 159541443.692 5        10.379          34.000
C11  21777057.367 8 113398879.846 8      -137.809          50.000    21777057.445 8  87687232.894 8      -106.568          51.000
C25  23216718.898 8 120895534.595 8     -2468.227          51.000
E13  23115523.086 8 121472905.512 8       -74.691          51.000    23115524.844 8  93076664.785 8       -57.216          51.000
E21  23508183.391 8 123536336.739 8      -172.414          51.000    23508185.453 8  94657699.500 8      -132.103          51.000
E26  24475584.508 8 128620053.548 8      2330.773          49.000    24475586.375 8  98553104.065 8      1785.929          49.000
E27  25391667.609 8 133434080.318 8     -2586.766          51.000    25391664.250 7 102241702.874 7     -1982.052          44.000
> 2020 05 12 13 21  0.0000000  0 18        .000000000000
G18  20319239.633 8 106778402.079 8       157.008          50.000    20319239.359 8  83203933.678 8       122.344          50.000
G20  23722232.969 6 124661171.128 6      3276.699          40.000    23722244.242 5  97138623.249 5      2553.278          33.000
G21  20657718.406 8 108557104.928 8       -54.191          50.000    20657716.711 8  84589928.712 8       -42.227          50.000
G25  24624246.188 7 129401251.323 7     -3544.559          44.000    24624241.266 7 100832146.785 7     -2761.997          44.000
G26  20482197.023 6 107634657.961 6      1082.086          41.000    20482197.039 6  83871183.237 6       843.184          41.000
G29  22248026.180 6 116914174.391 6     -2472.039          36.000    22248028.820 5  91101936.738 5     -1926.258          33.000
G31  22604747.438 8 118788781.737 8     -2779.715          50.000    22604746.914 8  92562647.041 8     -2166.012          50.000
R11  21886725.016 6 116956023.207 6     -4111.609          40.000    21886730.453 7  90965753.125 7     -3197.921          42.000
R12  19341864.070 8 103320748.626 8      -997.746          51.000    19341868.109 8  80360584.007 8      -776.028          50.000
R22  19326961.508 7 103168624.059 7      -555.434          43.000    19326963.633 6  80242292.500 6      -432.007          39.000
R23  22015879.773 8 117770155.312 8      3137.992          49.000    22015886.117 6  91599010.116 6      2440.661          38.000
C05  39621942.758 5 206321852.369 5        13.012          35.000
C11  21777876.398 8 113403145.588 8      -147.348          50.000    21777876.578 8  87690531.454 8      -113.987          51.000
C25  23230970.055 8 120969742.885 8     -2479.715          51.000
E13  23115977.586 8 121475295.237 8       -85.445          51.000    23115979.367 8  93078495.869 8       -65.432          51.000
E21  23509201.531 8 123541687.351 8      -185.035          51.000    23509203.695 8  94661799.307 8      -141.774          51.000
E26  24462295.977 8 128550224.198 8      2323.742          48.000    24462298.156 8  98499598.461 8      1780.566          49.000
E27  25406453.547 8 133511779.879 8     -2593.934          51.000    25406449.281 7 102301238.829 7     -1987.542          45.000
> 2020 05 12 13 21 30.0000000  0 17        .000000000000
G18  20318398.789 8 106773982.794 8       138.508          51.000    20318398.188 8  83200490.080 8       107.928          51.000
G20  23703536.953 6 124562923.250 6      3273.703          41.000    23703548.812 4  97062066.409 4      2550.931          25.000
G21  20658074.625 8 108558976.352 8       -69.664          49.000    20658072.664 8  84591386.955 8       -54.284          50.000
G25  24644490.258 6 129507646.038 6     -3547.422          41.000    24644488.492 6 100915051.680 6     -2764.225          40.000
G26  20476063.281 6 107602422.485 6      1067.770          40.000    20476063.414 6  83846064.699 6       832.031          40.000
G31  22620647.320 8 118872335.541 8     -2789.730          50.000    22620646.766 8  92627753.871 8     -2173.819          50.000
R11  21909835.258 5 117079533.836 5     -4121.750          32.000    21909843.984 6  91061816.974 6     -3205.803          40.000
R12  19347541.586 8 103351075.012 8     -1023.223          51.000    19347545.695 8  80384171.184 8      -795.840          50.000
R22  19330131.570 7 103185546.308 7      -571.758          42.000    19330133.273 6  80255454.194 6      -444.701          41.000
R23  21998311.609 8 117676178.486 8      3128.059          48.000    21998319.055 6  91525917.076 6      2432.934          38.000
C05                                                                  39621870.016 5 159540850.228 5         9.614          34.000
C11  21778754.055 8 113407714.559 8      -156.395          51.000    21778753.844 8  87694064.456 8      -120.979          51.000
C25  23245290.023 8 121044310.201 8     -2490.570          51.000
E13  23116496.734 8 121478023.930 8       -95.652          51.000    23116498.523 8  93080586.678 8       -73.277          51.000
E21  23510295.461 8 123547436.496 8      -197.336          51.000    23510297.711 8  94666204.498 8      -151.202          51.000
E26  24449051.445 8 128480626.714 8      2316.852          48.000    24449054.445 8  98446270.528 8      1775.391          49.000
E27  25421284.188 8 133589715.088 8     -2600.777          51.000    25421280.680 7 102360955.365 7     -1992.782          47.000
> 2020 05 12 13 22  0.0000000  0 19        .000000000000
G18  20317667.336 8 106770138.448 8       118.809          51.000    20317666.734 8  83197494.504 8        92.578          51.000
G20  23684862.625 7 124464787.248 7      3269.707          43.000    23684870.805 5  96985596.795 5      2547.830          31.000
G21  20658522.875 8 108561332.250 8       -86.371          49.000    20658521.047 8  84593222.736 8       -67.302          49.000
G25  24664755.875 6 129614155.983 6     -3552.039          40.000    24664757.477 6 100998046.378 6     -2767.829          40.000
G26  20470016.320 6 107570645.178 6      1051.785          38.000    20470017.062 6  83821303.171 6       819.570          38.000
G31  22636608.805 8 118956212.463 8     -2801.043          51.000    22636608.391 8  92693112.470 8     -2182.634          51.000
R11  21933010.508 6 117203375.001 6     -4133.289          41.000    21933018.844 6  91158137.847 6     -3214.783          38.000
R12  19353366.945 8 103382189.755 8     -1050.004          51.000    19353370.617 8  80408371.548 8      -816.670          50.000
R21  22046358.867 5 117974517.825 5     -3425.309          30.000
R22  19333397.055 6 103202981.150 6      -589.293          41.000    19333400.461 6  80269014.659 6      -458.339          40.000
R23  21980803.672 8 117582522.296 8      3116.773          49.000    21980811.359 6  91453073.394 6      2424.157          38.000
C05  39621801.672 5 206321118.066 5        12.332          35.000    39621800.781 5 159540571.893 5         9.279          34.000
C11  21779688.203 8 113412577.980 8      -166.719          51.000    21779687.711 8  87697825.150 8      -128.948          51.000
C12  23886064.562 5 124380994.991 5     -2454.656          32.000    23886065.742 5  96179287.719 5     -1898.129          30.000
C25  23259676.812 8 121119226.674 8     -2502.793          51.000
E13  23117078.703 8 121481082.691 8      -107.207          51.000    23117080.797 8  93082930.402 8       -82.197          51.000
E21  23511463.828 8 123553576.607 8      -210.969          51.000    23511465.992 8  94670909.264 8      -161.672          51.000
E26  24435849.875 8 128411253.543 8      2308.898          48.000    24435853.820 8  98393114.486 8      1769.195          49.000
E27  25436157.586 8 133667876.797 8     -2608.980          51.000    25436155.617 8 102420845.488 8     -1999.101          48.000
> 2020 05 12 13 22 30.0000000  0 18        .000000000000
G18  20317042.375 8 106766853.343 8        99.832          51.000    20317041.531 8  83194934.679 8        77.791          50.000
G20  23666207.508 7 124366750.926 7      3265.895          44.000    23666211.391 5  96909204.874 5      2544.856          34.000
G21  20659060.320 8 108564156.249 8      -102.207          50.000    20659058.562 8  84595423.250 8       -79.639          50.000
G25  24685041.312 6 129720764.605 6     -3555.203          41.000    24685044.047 6 101081117.960 6     -2770.291          41.000
G26  20464053.141 6 107539312.365 6      1036.887          36.000    20464055.141 6  83796887.956 6       807.961          36.000
G31  22652628.406 8 119040394.382 8     -2811.426          50.000    22652627.789 8  92758708.737 8     -2190.724          50.000
R11  21956245.594 7 117327527.556 7     -4144.027          42.000    21956252.203 6  91254700.822 6     -3223.138          38.000
R12  19359336.453 8 103414076.698 8     -1076.090          51.000    19359340.109 8  80433172.463 8      -836.962          50.000
R22  19336755.914 6 103220911.323 6      -606.156          41.000    19336759.016 6  80282960.295 6      -471.458          39.000
R23  21963353.055 8 117489172.166 8      3106.344          48.000    21963360.828 6  91380467.775 6      2416.045          39.000
C05  39621731.703 5 206320753.720 5        11.887          35.000    39621730.805 5 159540290.614 5         9.596          34.000
C11  21780675.688 8 113417719.917 8      -176.383          51.000    21780675.078 8  87701801.226 8      -136.318          51.000
C12  23900210.719 5 124454644.059 5     -2458.289          32.000    23900219.234 5  96236257.964 5     -1899.948          30.000
C25  23274127.141 8 121194475.341 8     -2514.184          51.000
E13  23117720.391 8 121484455.483 8      -117.805          51.000    23117722.797 8  93085514.759 8       -90.302          51.000
E21  23512703.750 8 123560092.879 8      -223.770          51.000    23512705.844 8  94675902.248 8      -171.451          51.000
E26  24422688.711 8 128342090.020 8      2301.594          49.000    24422693.047 8  98340119.055 8      1763.577          49.000
E27  25451070.344 8 133746248.803 8     -2616.129          49.000    25451070.672 8 102480896.769 8     -2004.578          50.000
> 2020 05 12 13 23  0.0000000  0 18        .000000000000
G18  20316506.695 8 106764037.837 8        83.738          51.000    20316505.766 8  83192740.791 8        65.251          50.000
G20  23647555.172 7 124268727.838 7      3264.914          44.000    23647555.156 5  96832823.285 5      2544.089          35.000
G21  20659669.750 8 108567358.485 8      -115.203          50.000    20659668.000 8  84597918.487 8       -89.769          50.000
G25  24705329.719 7 129827381.420 7     -3555.984          43.000    24705331.727 7 101164195.840 7     -2770.900          43.000
G26  20458157.492 6 107508336.346 6      1024.465          39.000    20458160.898 6  83772750.764 6       798.287          39.000
G31  22668688.352 8 119124789.570 8     -2818.930          49.000    22668687.312 8  92824471.182 8     -2196.572          49.000
R11  21979521.211 7 117451897.196 7     -4151.500          42.000    21979526.734 6  91351432.663 6     -3228.944          40.000
R12  19365433.125 8 103446644.403 8     -1099.129          51.000    19365436.773 8  80458502.872 8      -854.878          48.000
R22  19340190.008 7 103239244.008 7      -620.098          43.000    19340193.688 6  80297219.131 6      -482.295          40.000
R23  21945942.625 7 117396038.387 7      3098.727          47.000    21945950.852 6  91308030.417 6      2410.121          38.000
C05  39621644.102 5 206320297.848 5        14.633          35.000
C11  21781699.523 8 113423051.279 8      -183.094          51.000    21781698.914 8  87705923.783 8      -141.495          51.000
C12  23914351.383 5 124528279.652 5     -2458.004          31.000
C25  23288623.812 8 121269965.919 8     -2522.555          50.000
E13  23118405.125 8 121488052.408 8      -125.785          51.000    23118407.117 8  93088270.835 8       -96.408          51.000
E21  23513998.344 8 123566896.639 8      -233.738          51.000    23514000.438 8  94681115.519 8      -179.086          51.000
E26  24409550.898 8 128273047.435 8      2297.199          50.000    24409554.906 8  98287216.311 8      1760.123          49.000
E27  25466005.797 8 133824740.976 8     -2620.523          48.000    25466008.828 8 102541040.134 8     -2007.943          51.000
> 2020 05 12 13 23 30.0000000  0 19        .000000000000
G18  20316093.297 8 106761864.618 8        59.605          51.000    20316092.625 8  83191047.385 8        46.446          50.000
G20  23628939.047 7 124170894.132 7      3255.723          43.000    23628936.555 5  96756589.282 5      2536.930          35.000
G21  20660383.938 8 108571111.324 8      -136.477          50.000    20660382.328 8  84600842.780 8      -106.345          50.000
G25  24725653.023 7 129934178.146 7     -3564.949          45.000    24725655.422 7 101247413.940 7     -2777.889          44.000
G26  20452363.672 6 107477891.744 6      1003.859          39.000    20452367.164 6  83749027.726 6       782.228          39.000
G29  22318958.094 5 117286916.358 5     -2500.512          30.000
G31  22684820.844 8 119209568.174 8     -2834.594          49.000    22684819.727 8  92890532.411 8     -2208.774          49.000
R11  22002869.172 7 117576656.788 7     -4167.484          42.000    22002874.016 6  91448467.885 6     -3241.377          40.000
R12  19371689.656 8 103480068.297 8     -1130.602          51.000    19371693.406 7  80484499.210 7      -879.357          47.000
R22  19343732.914 7 103258153.551 7      -642.039          43.000    19343736.477 6  80311926.538 6      -499.367          39.000
R23  21928605.648 8 117303298.791 8      3082.625          48.000    21928613.977 6  91235899.647 6      2397.597          38.000
C05  39621571.977 5 206319922.079 5         9.164          35.000    39621571.359 5 159539648.045 5         7.116          34.000
C11  21782792.461 8 113428742.937 8      -197.863          51.000    21782791.852 8  87710324.953 8      -152.952          51.000
C12  23928535.133 5 124602124.023 5     -2466.559          34.000
C25  23303199.484 8 121345868.128 8     -2538.961          50.000
E13  23119165.242 8 121492045.842 8      -141.824          51.000    23119166.977 8  93091330.733 8      -108.623          51.000
E21  23515380.797 8 123574161.535 8      -251.973          51.000    23515382.594 8  94686682.118 8      -193.019          51.000
E26  24396469.219 8 128204299.549 8      2284.535          51.000    24396472.445 8  98234539.391 8      1750.512          49.000
E27  25480997.227 7 133903525.502 7     -2633.121          47.000    25481002.602 8 102601407.500 8     -2017.556          51.000
> 2020 05 12 13 24  0.0000000  0 20        .000000000000
G18  20315782.133 8 106760228.411 8        57.801          51.000    20315781.453 8  83189772.425 8        45.040          50.000
G20  23610339.508 6 124073147.801 6      3268.629          41.000    23610335.383 6  96680423.392 6      2546.987          39.000
G21  20661182.805 8 108575308.889 8      -135.102          50.000    20661181.258 8  84604113.617 8      -105.271          50.000
G25  24745990.602 7 130041048.761 7     -3551.457          44.000    24745994.125 7 101330689.649 7     -2767.372          43.000
G26  20446651.562 6 107447875.382 6      1005.590          37.000    20446654.688 6  83725638.375 6       783.580          37.000
G29  22333230.945 5 117361914.633 5     -2488.750          35.000    22333227.992 5  91450838.541 5     -1939.292          35.000
G31  22701005.875 8 119294622.868 8     -2827.508          49.000    22701005.227 8  92956808.762 8     -2203.253          49.000
R11  22026269.438 7 117701696.429 7     -4160.133          43.000    22026273.867 6  91545720.904 6     -3235.662          41.000
R12  19378086.039 8 103514241.057 8     -1139.207          51.000    19378090.328 7  80511077.973 7      -886.050          47.000
R21  22123310.125 5 118386252.358 5     -3424.168          32.000
R22  19347363.227 7 103277531.428 7      -641.203          43.000    19347367.125 6  80326998.249 6      -498.714          40.000
R23  21911322.492 7 117210847.022 7      3089.387          47.000    21911330.242 6  91163992.788 6      2402.856          37.000
C05  39621495.336 5 206319522.650 5        25.996          35.000    39621494.719 5 159539339.706 5        19.924          34.000
C11  21783934.734 8 113434690.375 8      -190.434          51.000    21783933.867 8  87714923.874 8      -147.207          51.000
C12  23942731.141 5 124676044.650 5     -2451.988          32.000    23942739.695 5  96407466.922 5     -1895.827          32.000
C25  23317834.039 8 121422076.312 8     -2533.188          50.000
E13  23119980.523 8 121496330.254 8      -135.492          51.000    23119982.430 8  93094613.613 8      -103.768          51.000
E21  23516831.367 8 123581783.287 8      -247.770          51.000    23516832.484 8  94692522.159 8      -189.852          51.000
E26  24383423.812 8 128135742.185 8      2294.238          51.000    24383425.867 8  98182008.451 8      1757.983          48.000
E27  25496024.648 7 133982496.707 7     -2623.238          46.000    25496031.359 8 102661917.892 8     -2009.984          51.000
> 2020 05 12 13 24 30.0000000  0 19        .000000000000
G18  20315586.664 8 106759200.382 8        13.445          51.000    20315585.898 8  83188971.367 8        10.477          51.000
G20  23591770.703 6 123975563.686 6      3239.363          38.000    23591765.047 6  96604383.860 6      2524.179          36.000
G21  20662079.766 8 108580022.099 8      -176.289          51.000    20662077.977 8  84607786.246 8      -137.368          50.000
G25  24766355.641 7 130148063.463 7     -3580.312          44.000    24766359.961 7 101414077.639 7     -2789.857          44.000
G26  20441035.172 6 107418360.409 6       964.941          37.000    20441038.781 6  83702639.654 6       751.899          38.000
G31  22717256.758 8 119380022.434 8     -2863.059          51.000    22717256.945 8  93023353.822 8     -2230.958          51.000
R11  22049735.453 7 117827085.630 7     -4196.191          43.000    22049739.469 6  91643245.816 6     -3263.704          41.000
R12  19384636.531 8 103549234.794 8     -1190.910          50.000    19384640.695 7  80538295.289 7      -926.263          46.000
R21  22142584.906 5 118489443.043 5     -3452.660          34.000
R22  19351094.852 7 103297448.638 7      -683.609          44.000    19351098.484 6  80342489.388 6      -531.699          40.000
R23  21894107.164 8 117118757.510 8      3052.797          48.000    21894114.312 6  91092367.659 6      2374.398          38.000
C05  39621427.773 5 206319170.672 5          .645          35.000    39621427.172 5 159539068.494 5          .604          34.000
C11  21785139.625 8 113440963.926 8      -225.098          51.000    21785138.812 8  87719774.976 8      -173.975          51.000
C12  23956950.805 5 124750117.523 5     -2480.695          30.000    23956964.367 4  96464717.251 4     -1917.856          29.000
C25  23332540.922 8 121498659.594 8     -2569.539          51.000
E13  23120864.914 8 121500976.575 8      -171.449          51.000    23120866.680 8  93098173.777 8      -131.349          51.000
E21  23518363.727 8 123589834.004 8      -286.109          51.000    23518364.148 8  94698690.898 8      -219.206          51.000
E26  24370428.164 8 128067447.577 8      2261.516          51.000    24370429.742 8  98129678.852 8      1732.826          49.000
E27  25511101.578 7 134061725.217 7     -2655.730          47.000    25511108.852 8 102722625.436 8     -2034.946          51.000
> 2020 05 12 13 25  0.0000000  0 18        .000000000000
G18  20315508.688 8 106758790.109 8         8.387          51.000    20315508.234 8  83188651.688 8         6.535          51.000
G20  23573233.984 6 123878154.935 6      3248.812          36.000    23573228.500 5  96528480.937 5      2531.542          35.000
G21  20663076.500 8 108585259.838 8      -178.402          51.000    20663074.656 8  84611867.607 8      -139.015          51.000
G25  24786749.609 7 130255231.038 7     -3569.812          45.000    24786754.141 7 101497584.752 7     -2781.675          44.000
G26  20435516.602 6 107389358.399 6       963.062          40.000    20435520.312 6  83680040.678 6       750.441          39.000
G31  22733574.891 8 119465774.362 8     -2859.309          51.000    22733576.000 8  93090173.452 8     -2228.036          51.000
R11  22073267.391 7 117952831.128 7     -4192.480          43.000    22073272.062 6  91741047.869 6     -3260.815          41.000
R12  19391342.641 8 103585058.829 8     -1202.809          49.000    19391346.812 7  80566158.399 7      -935.518          47.000
R21  22161893.422 6 118592781.928 6     -3441.961          38.000
R22  19354928.523 6 103317913.455 6      -686.215          41.000    19354931.719 6  80358406.481 6      -533.723          39.000
R23  21876961.750 8 117027041.091 8      3056.152          48.000    21876969.000 6  91021032.705 6      2377.010          39.000
C05  39621371.148 5 206318876.169 5        14.258          35.000    39621370.547 5 159538839.773 5        10.799          34.000
C11  21786408.695 8 113447572.837 8      -220.887          51.000    21786408.234 8  87724885.435 8      -170.906          51.000
C25  23347321.750 8 121575626.098 8     -2566.992          51.000
E13  23121819.844 8 121505994.126 8      -168.445          51.000    23121821.414 8  93102018.388 8      -129.080          51.000
E21  23519979.758 8 123598324.319 8      -285.414          51.000    23519979.875 8  94705196.457 8      -218.661          51.000
E26  24357483.727 8 127999426.390 8      2267.816          50.000    24357485.828 8  98077558.771 8      1737.639          49.000
E27  25526229.500 8 134141220.207 8     -2649.266          48.000    25526236.781 8 102783537.136 8     -2029.993          51.000
> 2020 05 12 13 25 30.0000000  0 19        .000000000000
G18  20315521.570 8 106758857.357 8       -12.418          51.000    20315521.273 8  83188704.095 8        -9.676          51.000
G20  23554703.055 6 123780784.555 6      3242.715          38.000    23554699.359 6  96452607.913 6      2526.794          38.000
G21  20664146.484 8 108590881.709 8      -195.922          51.000    20664144.711 8  84616248.298 8      -152.666          51.000
G25  24807145.531 7 130362410.453 7     -3575.035          43.000    24807150.008 7 101581101.081 7     -2785.745          43.000
G26  20430069.445 6 107360731.039 6       945.766          41.000    20430073.141 6  83657733.652 6       736.963          39.000
G31  22749933.047 8 119551736.142 8     -2871.086          51.000    22749934.875 8  93157156.606 8     -2237.210          51.000
R11  22096838.719 7 118078787.463 7     -4204.297          45.000    22096844.648 6  91839013.895 6     -3270.009          41.000
R12  19398178.008 8 103621570.464 8     -1230.703          50.000    19398181.805 7  80594556.337 7      -957.214          47.000
R21  22181205.188 5 118696124.511 5     -3447.070          31.000
R22  19358838.375 7 103338781.986 7      -704.473          43.000    19358840.641 6  80374637.576 6      -547.920          39.000
R23  21859859.953 8 116935556.789 8      3043.281          48.000    21859867.875 6  90949878.256 6      2366.997          39.000
C05  39621298.961 5 206318499.776 5        11.684          35.000
C11  21787715.328 8 113454378.033 8      -232.328          50.000    21787715.016 8  87730147.644 8      -179.681          51.000
C25  23362149.266 8 121652835.525 8     -2579.855          51.000
E13  23122818.445 8 121511242.456 8      -181.152          51.000    23122820.070 8  93106039.828 8      -138.760          51.000
E15  25521273.133 5 134115197.497 5     -2403.984          32.000
E21  23521652.867 8 123607114.967 8      -300.309          51.000    23521652.969 8  94711932.148 8      -230.145          51.000
E26  24344564.508 8 127931539.494 8      2258.402          50.000    24344566.898 8  98025541.557 8      1730.431          49.000
E27  25541381.398 8 134220841.002 8     -2658.324          49.000    25541388.281 8 102844545.217 8     -2036.967          51.000
> 2020 05 12 13 26  0.0000000  0 20        .000000000000
G18  20315636.000 8 106759458.702 8       -29.730          51.000    20315635.648 8  83189172.678 8       -23.167          51.000
G20  23536190.336 6 123683512.629 6      3240.312          39.000    23536189.477 6  96376811.584 6      2524.919          39.000
G21  20665300.086 8 108596943.313 8      -210.242          51.000    20665298.172 8  84620971.640 8      -163.825          51.000
G25  24827553.898 7 130469657.513 7     -3576.645          42.000    24827558.383 6 101664670.129 6     -2786.996          41.000
G26  20424704.703 7 107332537.202 7       931.527          43.000    20424708.359 7  83635764.430 7       725.865          42.000
G31  22766341.594 8 119637962.040 8     -2879.387          51.000    22766343.727 8  93224345.580 8     -2243.678          51.000
R11  22120460.562 7 118205009.436 7     -4212.617          46.000    22120467.375 6  91937186.528 6     -3276.483          40.000
R12  19405153.125 8 103658826.895 8     -1255.082          51.000    19405156.359 8  80623533.571 8      -976.175          48.000
R21  22200529.570 5 118799527.102 5     -3448.652          31.000
R22  19362833.578 6 103360110.494 6      -719.148          39.000    19362835.930 6  80391226.438 6      -559.338          37.000
R23  21842812.875 7 116844364.052 7      3034.090          46.000    21842820.938 6  90878950.601 6      2359.848          38.000
C05  39621222.273 5 206318101.174 5        12.902          35.000
C11  21789070.453 8 113461435.424 8      -240.199          51.000    21789070.227 8  87735604.865 8      -185.801          51.000
C12  23999691.648 5 124972673.168 5     -2475.742          32.000
C25  23377033.742 8 121730342.664 8     -2589.355          50.000
E13  23123871.750 8 121516777.992 8      -190.156          51.000    23123873.508 8  93110281.345 8      -145.680          51.000
E15  25534999.883 5 134187330.952 5     -2406.598          32.000
E21  23523393.820 8 123616263.576 8      -311.738          51.000    23523394.125 8  94718942.111 8      -238.894          51.000
E26  24331682.102 8 127863844.610 8      2252.445          51.000    24331684.602 8  97973671.466 8      1725.906          49.000
E27  25556567.844 8 134300643.786 8     -2663.914          50.000    25556573.773 8 102905692.745 8     -2041.199          49.000
> 2020 05 12 13 26 30.0000000  0 18        .000000000000
G18  20315871.953 8 106760698.857 8       -51.203          51.000    20315871.914 8  83190139.040 8       -39.899          51.000
G20  23517717.156 6 123586447.452 6      3232.902          39.000    23517718.781 6  96301176.402 6      2519.148          39.000
G21  20666557.266 8 108603549.642 8      -228.492          51.000    20666555.062 8  84626119.441 8      -178.046          51.000
G25  24847994.516 6 130577076.132 6     -3582.504          41.000    24847998.305 6 101748372.845 6     -2791.568          41.000
G26  20419442.680 7 107304883.434 7       913.539          42.000    20419446.188 7  83614216.046 7       711.849          42.000
G31  22782820.086 8 119724555.027 8     -2891.750          50.000    22782822.148 8  93291820.618 8     -2253.312          50.000
R11  22144151.445 7 118331600.418 7     -4224.914          46.000    22144159.328 6  92035646.199 6     -3286.044          39.000
R12  19412287.578 8 103696934.227 8     -1283.621          51.000    19412290.344 8  80653172.607 8      -998.372          49.000
R21  22219885.734 5 118903094.372 5     -3454.164          30.000
R22  19366934.758 6 103382003.988 6      -738.156          39.000    19366936.531 6  80408254.766 6      -574.125          37.000
R23  21825840.633 7 116753570.887 7      3020.633          46.000    21825847.352 5  90808333.721 5      2349.381          35.000
C05  39621161.008 5 206317781.726 5        10.270          35.000    39621160.289 5 159537993.460 5         7.887          34.000
C11  21790494.148 8 113468848.656 8      -252.211          50.000    21790494.133 8  87741337.240 8      -195.050          51.000
C25  23391994.992 8 121808249.903 8     -2602.793          49.000
E13  23124999.672 8 121522705.167 8      -203.320          51.000    23125001.422 8  93114822.948 8      -155.800          51.000
E21  23525222.914 8 123625875.854 8      -327.285          51.000    23525223.500 8  94726307.368 8      -250.834          51.000
E26  24318856.586 8 127796447.530 8      2242.367          50.000    24318859.555 8  97922029.579 8      1718.180          50.000
E27  25571808.539 8 134380732.800 8     -2673.605          50.000    25571812.875 8 102967059.591 8     -2048.613          48.000
> 2020 05 12 13 27  0.0000000  0 19        .000000000000
G18  20316197.203 8 106762408.807 8       -72.781          51.000    20316197.523 8  83191471.475 8       -56.713          51.000
G20  23499252.953 7 123489423.624 7      3225.328          42.000    23499255.703 6  96225573.474 6      2513.246          37.000
G21  20667885.914 8 108610531.162 8      -246.945          51.000    20667883.750 8  84631559.590 8      -192.425          51.000
G25  24868435.188 6 130684496.452 6     -3588.457          38.000    24868437.953 6 101832076.867 6     -2796.203          38.000
G26  20414251.305 7 107277602.890 7       895.008          42.000    20414254.992 7  83592958.459 7       697.406          42.000
G29  22419447.188 6 117814938.188 6     -2536.270          37.000    22419443.898 4  91803879.574 4     -1976.320          28.000
G31  22799335.906 8 119811343.534 8     -2904.180          50.000    22799337.359 8  93359448.004 8     -2262.997          50.000
R11  22167877.914 7 118458385.923 7     -4237.367          45.000    22167886.992 6  92134257.141 6     -3295.730          39.000
R12  19419548.789 8 103735720.424 8     -1312.301          51.000    19419550.984 8  80683339.655 8     -1020.678          48.000
R21  22239238.398 5 119006653.221 5     -3460.508          33.000
R22  19371109.188 5 103404289.613 5      -757.621          33.000    19371111.055 6  80425587.937 6      -589.258          37.000
R23  21808911.133 8 116663006.728 8      3006.812          48.000    21808915.398 5  90737894.963 5      2338.632          33.000
C05  39621083.055 5 206317375.643 5         7.000          35.000
C11  21791953.734 8 113476450.032 8      -264.457          49.000    21791954.039 8  87747215.105 8      -204.462          51.000
C25  23407000.836 8 121886388.440 8     -2616.441          50.000
E13  23126169.945 8 121528854.808 8      -216.840          51.000    23126171.578 8  93119534.999 8      -166.051          51.000
E21  23527108.312 8 123635783.821 8      -343.191          51.000    23527109.203 8  94733899.182 8      -262.977          51.000
E26  24306055.961 8 127729180.372 8      2232.078          50.000    24306059.609 8  97870487.227 8      1710.264          50.000
E27  25587071.242 8 134460938.651 8     -2683.520          50.000    25587073.820 7 103028515.950 7     -2056.161          47.000
> 2020 05 12 13 27 30.0000000  0 18        .000000000000
G18  20316650.109 8 106764790.344 8       -86.270          51.000    20316650.430 8  83193327.208 8       -67.223          51.000
G20  23480836.531 7 123392646.485 7      3226.176          44.000    23480839.273 6  96150162.813 6      2513.909          37.000
G21  20669324.070 8 108618088.952 8      -257.195          51.000    20669322.141 8  84637448.798 8      -200.409          51.000
G25  24888914.148 6 130792119.630 6     -3586.570          39.000    24888917.836 6 101915938.977 6     -2794.733          39.000
G26  20409169.664 7 107250899.417 7       884.793          42.000    20409173.555 7  83572150.538 7       689.449          42.000
G31  22815926.828 8 119898527.167 8     -2908.324          50.000    22815927.461 8  93427383.274 8     -2266.230          50.000
R11  22191678.414 7 118585568.355 7     -4241.516          42.000    22191687.461 6  92233176.808 6     -3298.957          38.000
R12  19426974.992 8 103775389.845 8     -1332.656          51.000    19426977.312 8  80714193.643 8     -1036.510          49.000
R21  22258628.047 5 119110407.188 5     -3456.984          30.000    22258630.562 4  92641442.191 4     -2688.769          25.000
R22  19375395.133 6 103427170.566 6      -768.203          40.000    19375398.125 6  80443384.240 6      -597.497          37.000
R23  21792062.945 7 116572878.567 7      3001.426          47.000    21792064.992 5  90667795.312 5      2334.442          31.000
C05  39621026.828 5 206317083.485 5        11.691          35.000    39621026.336 5 159537454.035 5         9.246          34.000
C11  21793487.633 8 113484439.345 8      -268.555          50.000    21793488.195 8  87753392.971 8      -207.679          51.000
C25  23422089.531 8 121964956.933 8     -2621.914          50.000
E13  23127420.922 8 121535428.529 8      -221.941          51.000    23127422.430 8  93124572.006 8      -170.050          51.000
E21  23529088.617 8 123646190.328 8      -350.926          51.000    23529089.812 8  94741872.995 8      -268.900          51.000
E26  24293319.008 8 127662246.087 8      2229.863          50.000    24293323.250 8  97819199.935 8      1708.549          51.000
E27  25602394.602 8 134541462.745 8     -2685.242          51.000    25602395.945 7 103090216.165 7     -2057.502          47.000
> 2020 05 12 13 28  0.0000000  0 17        .000000000000
G18  20317202.680 8 106767696.355 8       -91.594          51.000    20317203.562 8  83195591.636 8       -71.372          51.000
G20  23462440.312 7 123295972.490 7      3234.715          46.000    23462442.625 6  96074832.496 6      2520.557          37.000
G21  20670843.953 8 108626075.839 8      -259.418          51.000    20670841.977 8  84643672.356 8      -202.144          51.000
G26  20404170.172 7 107224627.945 7       882.312          43.000    20404174.203 7  83551679.273 7       687.516          43.000
G29  22448415.719 5 117967216.751 5     -2527.094          35.000
G31  22832564.477 8 119985957.188 8     -2904.488          49.000    22832564.195 8  93495510.529 8     -2263.241          49.000
R11  22215524.383 6 118712995.218 6     -4237.410          39.000    22215532.977 6  92332286.575 6     -3295.763          38.000
R12  19434538.117 8 103815793.101 8     -1344.840          51.000    19434541.023 8  80745618.371 8     -1045.987          50.000
R22  19379765.492 6 103450496.443 6      -770.438          39.000    19379768.344 6  80461526.549 6      -599.226          37.000
R23  21775268.336 7 116483038.368 7      3004.051          47.000    21775269.430 5  90597919.641 5      2336.487          32.000
C11  21795068.570 8 113492671.033 8      -264.574          50.000    21795069.008 8  87759758.220 8      -204.516          51.000
C12  24056917.734 5 125270622.535 5     -2474.367          31.000    24056928.891 5  96867215.191 5     -1913.522          35.000
C25  23437232.469 8 122043808.313 8     -2619.125          49.000
E13  23128724.633 8 121542279.145 8      -218.945          51.000    23128726.023 8  93129821.164 8      -167.733          51.000
E21  23531135.977 8 123656949.328 8      -350.484          51.000    23531137.555 8  94750116.881 8      -268.544          51.000
E26  24280618.023 8 127595498.746 8      2235.883          51.000    24280622.273 8  97768055.891 8      1713.188          51.000
E27  25617750.516 8 134622157.676 8     -2678.609          51.000    25617751.398 8 103152047.289 8     -2052.435          48.000
> 2020 05 12 13 28 30.0000000  0 20        .000000000000
G18  20317830.219 8 106770996.577 8      -122.570          51.000    20317831.703 8  83198163.229 8       -95.509          50.000
G20  23444039.867 7 123199274.795 7      3217.488          45.000    23444041.719 6  95999483.737 6      2507.137          38.000
G21  20672420.578 8 108634360.826 8      -287.137          51.000    20672418.773 8  84650128.184 8      -223.743          51.000
G26  20399228.539 7 107198660.385 7       854.242          44.000    20399232.359 7  83531444.783 7       665.643          44.000
G29  22462919.672 5 118043378.852 5     -2544.250          35.000    22462926.383 5  91981921.452 5     -1982.539          31.000
G31  22849223.312 7 120073500.947 7     -2926.090          47.000    22849221.891 7  93563726.417 7     -2280.073          47.000
R11  22239391.180 6 118840531.396 6     -4259.410          37.000    22239398.102 6  92431481.392 6     -3312.872          36.000
R12  19442213.508 8 103856796.761 8     -1382.984          51.000    19442217.359 8  80777510.075 8     -1075.655          51.000
R21  22297401.578 5 119317869.135 5     -3461.270          33.000    22297414.164 4  92802843.864 4     -2692.099          26.000
R22  19384193.781 6 103474133.480 6      -799.227          41.000    19384196.164 5  80479910.944 5      -621.621          35.000
R23  21758502.750 7 116393355.173 7      2980.469          45.000    21758505.180 5  90528166.120 5      2318.142          34.000
C05  39620872.109 5 206316277.493 5        13.031          35.000    39620871.688 5 159536830.770 5         9.965          34.000
C11  21796671.180 8 113501015.724 8      -286.117          50.000    21796671.750 8  87766210.869 8      -221.292          51.000
C12  24071241.953 4 125345274.777 4     -2490.078          28.000
C23  22881033.742 6 119147549.053 6       272.051          38.000
C25  23452404.273 8 122122812.210 8     -2642.055          48.000
E13  23130056.023 8 121549276.183 8      -241.859          51.000    23130057.484 8  93135182.533 8      -185.318          51.000
E21  23533225.828 8 123667931.577 8      -375.945          51.000    23533227.711 8  94758531.829 8      -288.008          51.000
E26  24267927.961 8 127528809.256 8      2215.879          51.000    24267931.438 8  97716956.189 8      1697.854          50.000
E27  25633114.195 8 134702892.793 8     -2698.008          51.000    25633115.258 8 103213909.224 8     -2067.362          49.000
> 2020 05 12 13 29  0.0000000  0 18        .000000000000
G18  20318605.852 8 106775074.025 8      -140.559          50.000    20318607.297 8  83201340.452 8      -109.526          50.000
G20  23425708.516 7 123102940.193 7      3213.250          45.000    23425709.445 6  95924417.924 6      2503.837          38.000
G21  20674126.641 8 108643326.868 8      -302.023          50.000    20674125.125 8  84657114.726 8      -235.340          50.000
G26  20394418.055 7 107173381.753 7       839.305          44.000    20394421.633 7  83511747.165 7       654.007          43.000
G31  22865975.844 7 120161539.393 7     -2934.672          46.000    22865973.094 7  93632327.774 7     -2286.760          47.000
R11  22263350.742 5 118968563.373 5     -4268.012          32.000    22263356.141 5  92531061.886 5     -3319.562          34.000
R12  19450074.523 8 103898790.236 8     -1408.035          51.000    19450078.961 8  80810171.663 8     -1095.138          51.000
R21  22316841.305 5 119421876.720 5     -3463.035          34.000    22316845.508 4  92883740.079 4     -2693.472          25.000
R22  19388753.242 6 103498469.740 6      -814.461          37.000    19388754.383 6  80498839.122 6      -633.467          36.000
R23  21741839.023 7 116304220.406 7      2970.398          45.000    21741844.117 5  90458839.158 5      2310.310          35.000
C05  39620821.664 5 206316014.588 5        13.145          34.000    39620821.500 5 159536629.763 5         9.971          34.000
C11  21798368.188 8 113509853.069 8      -294.746          49.000    21798368.992 8  87773044.465 8      -227.841          51.000
C23  22879538.891 6 119139761.137 6       255.742          36.000
C25  23467677.641 7 122202346.947 7     -2651.965          47.000
E13  23131488.109 8 121556802.592 8      -251.539          51.000    23131489.508 8  93140949.530 8      -192.741          51.000
E21  23535431.297 8 123679521.230 8      -388.273          51.000    23535433.188 8  94767412.203 8      -297.499          51.000
E26  24255321.781 8 127462561.862 8      2209.094          51.000    24255324.328 8  97666195.258 8      1692.643          50.000
E27  25648558.484 8 134784050.806 8     -2704.051          51.000    25648560.211 8 103276095.201 8     -2072.013          50.000
> 2020 05 12 13 29 30.0000000  0 18        .000000000000
G18  20319463.344 8 106779580.669 8      -161.148          50.000    20319464.961 8  83204852.115 8      -125.570          50.000
G20  23407380.742 7 123006624.499 7      3206.398          44.000    23407380.148 6  95849366.834 6      2498.498          36.000
G21  20675896.094 8 108652625.846 8      -319.277          50.000    20675894.711 8  84664360.691 8      -248.788          50.000
G26  20389673.008 7 107148446.207 7       821.621          45.000    20389676.430 7  83492316.853 7       640.224          44.000
G31  22882755.852 7 120249722.195 7     -2945.621          47.000    22882752.023 7  93701041.602 7     -2295.292          47.000
R11  22287334.508 5 119096802.669 5     -4278.023          33.000    22287339.172 5  92630840.721 5     -3327.349          31.000
R12  19458054.383 8 103941418.981 8     -1435.391          51.000    19458059.336 8  80843327.321 8     -1116.418          51.000
R21  22336267.594 5 119525827.775 5     -3467.977          32.000
R22  19393376.867 6 103523150.203 6      -832.352          41.000    19393378.961 6  80518035.068 6      -647.388          37.000
R23  21725212.461 7 116215281.459 7      2957.613          44.000    21725218.727 5  90389664.428 5      2300.363          35.000
C05                                                                  39620747.188 5 159536329.837 5         8.787          34.000
C11  21800093.789 8 113518838.045 8      -305.781          50.000    21800094.336 8  87779992.212 8      -236.377          51.000
C23  22878115.938 5 119132355.637 5       237.227          35.000
C25  23482986.711 8 122282066.371 8     -2664.098          49.000
E13  23132954.875 8 121564510.228 8      -263.805          51.000    23132955.844 8  93146855.375 8      -202.100          51.000
E21  23537686.219 8 123691371.299 8      -403.129          51.000    23537688.164 8  94776492.122 8      -308.924          51.000
E26  24242733.398 8 127396409.754 8      2199.660          50.000    24242735.336 8  97615507.324 8      1685.415          50.000
E27  25664016.883 8 134865283.352 8     -2712.762          50.000    25664019.164 8 103338338.301 8     -2078.634          51.000
> 2020 05 12 13 30  0.0000000  0 20        .000000000000
G18  20320437.109 8 106784697.652 8      -180.125          51.000    20320438.852 8  83208839.392 8      -140.357          51.000
G20  23389091.516 7 122910512.574 7      3200.883          44.000    23389089.594 6  95774474.453 6      2494.194          38.000
G21  20677763.117 8 108662438.098 8      -335.102          49.000    20677762.062 8  84672006.601 8      -261.118          49.000
G26  20385028.203 7 107124036.944 7       805.629          45.000    20385031.523 7  83473296.649 7       627.763          46.000
G29  22506653.391 5 118273260.381 5     -2560.133          35.000    22506630.883 5  92160954.051 5     -1994.884          34.000
G31  22899597.734 7 120338229.006 7     -2954.969          46.000    22899593.891 7  93770007.890 7     -2302.576          46.000
R11  22311379.625 5 119225295.022 5     -4287.227          34.000    22311387.992 3  92730779.211 3     -3334.507          23.000
R12  19466187.656 8 103984867.051 8     -1461.277          51.000    19466192.906 8  80877120.238 8     -1136.549          50.000
R21  22355717.312 5 119629905.293 5     -3470.910          31.000
R22  19398099.422 7 103548357.563 7      -848.586          42.000    19398100.062 6  80537640.746 6      -660.011          36.000
R23  21708658.164 7 116126724.276 7      2946.285          45.000    21708662.992 5  90320786.635 5      2291.555          33.000
C05  39620684.625 5 206315300.997 5        10.309          35.000    39620684.273 5 159536076.941 5         8.255          34.000
C11  21801882.172 8 113528150.219 8      -315.293          50.000    21801882.562 8  87787192.968 8      -243.675          51.000
C23  22876799.906 5 119125513.273 5       219.109          34.000
C25  23498366.172 8 122362148.812 8     -2674.863          50.000
C28  25617841.656 5 133398843.819 5      2720.719          34.000
E13  23134490.453 8 121572580.141 8      -274.309          51.000    23134491.336 8  93153038.814 8      -210.182          51.000
E21  23540025.125 8 123703664.058 8      -416.477          51.000    23540027.688 8  94785911.233 8      -319.118          51.000
E26  24230197.453 8 127330535.321 8      2191.848          49.000    24230199.766 8  97565032.141 8      1679.495          50.000
E27  25679523.328 8 134946771.283 8     -2719.812          48.000    25679526.758 8 103400777.093 8     -2083.985          51.000
> 2020 05 12 13 30 30.0000000  0 17        .000000000000
G18  20321523.656 8 106790406.797 8      -199.082          51.000    20321525.172 8  83213288.064 8      -155.129          51.000
G20  23370838.180 7 122814590.092 7      3195.195          45.000    23370835.891 6  95699729.729 6      2489.766          39.000
G21  20679724.156 8 108672745.165 8      -350.793          49.000    20679723.445 8  84680038.086 8      -273.342          49.000
G26  20380480.523 7 107100137.895 7       789.238          46.000    20380483.641 7  83454674.031 7       614.991          46.000
G31  22916497.523 7 120427039.067 7     -2964.133          46.000    22916495.133 7  93839210.489 7     -2309.714          45.000
R12  19474470.539 8 104029115.009 8     -1487.109          51.000    19474475.977 8  80911535.288 8     -1156.641          49.000
R22  19402916.484 6 103574072.329 6      -864.723          41.000    19402918.438 6  80557641.140 6      -672.562          38.000
R23  21692172.688 7 116038532.150 7      2934.605          44.000    21692174.555 5  90252192.765 5      2282.474          32.000
C05  39620629.273 5 206315013.301 5         9.410          35.000    39620628.836 5 159535853.196 5         7.612          34.000
C11  21803729.828 8 113537771.608 8      -324.824          50.000    21803730.352 8  87794632.848 8      -251.214          51.000
C23  22875588.586 5 119119217.047 5       202.898          31.000
C25  23513811.805 8 122442574.962 8     -2685.629          51.000
C28  25602178.398 5 133317299.572 5      2717.195          35.000
E13  23136091.367 8 121580994.066 8      -285.164          51.000    23136092.586 8  93159485.859 8      -218.508          51.000
E21  23542444.898 8 123716382.394 8      -430.062          51.000    23542448.289 8  94795656.438 8      -329.516          51.000
E26  24217711.047 8 127264921.536 8      2183.715          50.000    24217714.211 8  97514756.694 8      1673.281          50.000
E27  25695074.672 8 135028496.099 8     -2727.098          49.000    25695079.273 8 103463397.393 8     -2089.582          51.000
> 2020 05 12 13 31  0.0000000  0 19        .000000000000
G18  20322684.922 8 106796508.627 8      -203.371          50.000    20322686.234 8  83218042.741 8      -158.471          51.000
G20  23352583.414 7 122718660.875 7      3204.461          46.000    23352581.445 6  95624979.744 6      2496.983          40.000
G21  20681741.406 8 108683347.179 8      -351.621          48.000    20681740.914 8  84688299.391 8      -273.990          48.000
G26  20375992.273 7 107076551.825 7       787.734          46.000    20375995.031 7  83436295.267 7       613.819          46.000
G29  22535915.273 5 118427001.114 5     -2555.383          35.000
G31  22933417.086 7 120515951.270 7     -2958.785          46.000    22933416.508 7  93908492.679 7     -2305.550          47.000
R12  19482865.375 8 104073959.848 8     -1498.023          50.000    19482870.297 7  80946414.611 7     -1165.126          47.000
R21  22394639.711 5 119838232.444 5     -3461.008          31.000
R22  19407790.352 6 103600090.338 6      -865.523          41.000    19407792.508 6  80577877.353 6      -673.188          36.000
R23  21675717.102 7 115950503.652 7      2938.434          44.000    21675718.523 5  90183726.228 5      2285.451          32.000
C05  39620543.719 5 206314567.546 5        23.602          35.000    39620543.078 5 159535508.023 5        18.507          34.000
C11  21805599.031 8 113547504.500 8      -319.672          51.000    21805599.523 8  87802158.934 8      -247.218          51.000
C23  22874445.367 5 119113270.745 5       198.883          33.000
C25  23529285.078 8 122523146.003 8     -2681.473          51.000
C28  25586506.312 6 133235703.252 6      2727.234          37.000
E13  23137719.906 8 121589552.523 8      -281.012          51.000    23137721.250 8  93166043.632 8      -215.336          51.000
E21  23544907.984 8 123729327.968 8      -428.664          51.000    23544911.859 8  94805575.766 8      -328.427          51.000
E26  24205237.133 8 127199370.257 8      2190.656          50.000    24205240.125 8  97464529.120 8      1678.543          50.000
E27  25710633.758 8 135110258.067 8     -2719.285          49.000    25710638.531 8 103526046.162 8     -2083.620          51.000
> 2020 05 12 13 31 30.0000000  0 19        .000000000000
G18  20323981.305 8 106803320.012 8      -244.461          51.000    20323982.477 8  83223350.320 8      -190.489          50.000
G20  23334388.250 8 122623045.597 8      3176.305          48.000    23334387.008 6  95550474.374 6      2475.046          41.000
G21  20683875.094 8 108694560.796 8      -389.582          49.000    20683874.672 8  84697037.275 8      -303.570          49.000
G26  20371624.211 7 107053597.699 7       748.852          47.000    20371626.750 7  83418408.940 7       583.521          47.000
G31  22950416.328 7 120605280.297 7     -2990.422          47.000    22950416.953 8  93978099.653 8     -2330.199          48.000
R11  22383797.164 5 119612208.504 5     -4322.520          34.000    22383803.727 5  93031747.188 5     -3361.963          34.000
R12  19491432.281 8 104119723.143 8     -1546.461          49.000    19491436.711 7  80982008.295 7     -1202.803          47.000
R21  22414134.164 5 119942543.412 5     -3486.305          32.000
R22  19412781.125 6 103626732.510 6      -904.156          41.000    19412783.148 6  80598599.030 6      -703.230          37.000
R23  21659352.734 7 115862963.122 7      2903.883          45.000    21659354.367 5  90115639.170 5      2258.579          33.000
C05  39620488.344 5 206314279.402 5          .895          35.000    39620487.750 5 159535285.202 5          .894          34.000
C11  21807549.977 8 113557663.086 8      -351.285          50.000    21807550.414 8  87810014.187 8      -271.796          51.000
C23  22873431.398 5 119107989.274 5       159.172          35.000
C25  23544846.203 8 122604174.647 8     -2714.098          51.000
C28  25570886.148 6 133154369.869 6      2701.195          38.000
E13  23139436.328 8 121598572.327 8      -314.176          51.000    23139437.602 8  93172954.896 8      -240.708          51.000
E21  23547474.781 8 123742818.776 8      -464.594          51.000    23547478.898 8  94815912.875 8      -355.919          51.000
E26  24192835.234 8 127134199.616 8      2160.117          50.000    24192838.234 8  97414593.212 8      1655.251          50.000
E27  25726260.227 8 135192373.869 8     -2748.902          49.000    25726264.766 8 103588966.019 8     -2106.341          51.000
> 2020 05 12 13 32  0.0000000  0 19        .000000000000
G18  20325378.609 8 106810662.282 8      -251.770          51.000    20325379.516 8  83229071.597 8      -196.184          50.000
G20  23316219.625 8 122527569.269 8      3181.949          49.000    23316219.297 7  95476077.296 7      2479.444          42.000
G21  20686091.227 8 108706207.129 8      -393.590          49.000    20686090.648 8  84706112.338 8      -306.693          49.000
G26  20367342.633 7 107031098.935 7       744.102          46.000    20367345.148 7  83400877.427 7       579.819          46.000
G31  22967460.430 7 120694845.415 7     -2987.508          46.000    22967461.781 7  94047890.606 7     -2327.931          46.000
R11  22408037.945 6 119741737.674 6     -4319.793          38.000    22408044.031 6  93132492.025 6     -3359.842          38.000
R12  19500137.148 8 104166222.734 8     -1560.402          51.000    19500140.969 7  81018174.639 7     -1213.646          46.000
R21  22433635.922 5 120046895.514 5     -3477.238          30.000
R22  19417854.211 6 103653816.013 6      -908.242          41.000    19417857.297 6  80619664.007 6      -706.411          36.000
R23  21643046.422 7 115775730.036 7      2904.613          44.000    21643047.664 5  90047791.247 5      2259.144          32.000
C05                                                                  39620428.844 5 159535048.095 5         9.475          34.000
C11  21809548.430 8 113568070.245 8      -349.262          50.000    21809549.031 8  87818061.652 8      -269.972          51.000
C23  22872511.250 5 119103196.864 5       153.234          34.000
C25  23560460.453 8 122685482.683 8     -2713.152          50.000
C28  25555283.219 6 133073123.615 6      2708.391          37.000
E13  23141206.438 8 121607874.714 8      -312.902          51.000    23141207.922 8  93180082.688 8      -239.741          51.000
E21  23550111.516 8 123756677.223 8      -466.164          51.000    23550115.859 8  94826531.697 8      -357.227          51.000
E26  24180471.617 8 127069232.239 8      2164.121          48.000    24180474.758 8  97364813.024 8      1658.175          49.000
E27  25741919.422 8 135274664.540 8     -2744.043          49.000    25741924.141 8 103652019.843 8     -2102.551          51.000
> 2020 05 12 13 32 30.0000000  0 18        .000000000000
G18  20326864.477 8 106818469.695 8      -273.250          50.000    20326864.922 8  83235155.291 8      -212.922          50.000
G20  23298065.625 8 122432170.200 8      3173.426          48.000    23298066.391 7  95401740.410 7      2472.802          44.000
G21  20688377.219 8 108718220.064 8      -411.766          49.000    20688376.383 8  84715473.058 8      -320.856          49.000
G26  20363135.641 7 107008991.952 7       725.148          47.000    20363138.094 7  83383651.203 7       565.051          47.000
G31  22984536.359 7 120784579.115 7     -2999.043          44.000    22984538.289 7  94117812.934 7     -2336.920          44.000
R11  22432307.758 6 119871426.542 6     -4330.965          37.000    22432314.562 6  93233361.055 6     -3368.531          38.000
R12  19508967.891 8 104213391.097 8     -1588.758          51.000    19508970.977 7  81054861.165 7     -1235.701          47.000
R22  19422997.289 7 103681272.915 7      -926.719          42.000    19423000.281 6  80641019.357 6      -720.781          37.000
R23  21626785.008 6 115688739.628 6      2890.324          41.000    21626785.297 5  89980132.116 5      2248.033          31.000
C05  39620354.672 5 206313582.293 5         9.051          35.000    39620354.148 5 159534747.429 5         7.270          34.000
C11  21811582.047 8 113578660.968 8      -361.348          50.000    21811582.781 8  87826251.073 8      -279.369          51.000
C23  22871673.391 5 119098829.631 5       133.336          35.000
C25  23576114.797 8 122767003.734 8     -2726.086          49.000
C28  25539685.383 6 132991900.571 6      2701.875          39.000
E13  23143017.773 8 121617393.934 8      -326.156          51.000    23143019.602 8  93187376.638 8      -249.936          51.000
E21  23552805.828 8 123770838.735 8      -482.332          50.000    23552810.750 8  94837382.710 8      -369.570          51.000
E26  24168134.320 7 127004403.606 7      2153.336          47.000    24168137.711 8  97315139.148 8      1649.986          49.000
E27  25757598.961 8 135357064.058 8     -2753.598          49.000    25757604.125 8 103715157.056 8     -2109.956          51.000
> 2020 05 12 13 33  0.0000000  0 19        .000000000000
G18  20328485.305 8 106826986.899 8      -284.758          50.000    20328485.906 8  83241792.097 8      -221.889          50.000
G20  23279973.188 7 122337096.932 7      3174.621          46.000    23279975.203 7  95327657.403 7      2473.734          45.000
G21  20690779.508 8 108730843.775 8      -419.824          50.000    20690778.281 8  84725309.716 8      -327.136          50.000
G26  20359050.281 8 106987523.588 8       715.953          48.000    20359052.578 8  83366922.607 8       557.886          48.000
G31  23001689.922 7 120874723.878 7     -3000.805          42.000    23001692.930 7  94188055.620 7     -2338.289          42.000
R11  22456651.867 5 120001521.458 5     -4331.699          31.000    22456659.547 6  93334545.941 6     -3369.099          38.000
R12  19517970.328 8 104261476.543 8     -1606.980          51.000    19517973.141 7  81092260.903 7     -1249.877          47.000
R21  22472666.555 5 120255720.797 5     -3477.574          30.000
R22  19428256.891 7 103709350.582 7      -935.066          42.000    19428259.938 6  80662857.546 6      -727.274          38.000
R23  21610613.328 6 115602242.201 6      2886.188          39.000    21610614.898 5  89912856.402 5      2244.812          31.000
C05  39620310.773 5 206313354.343 5        15.863          35.000    39620310.211 5 159534570.385 5        12.242          33.000
C11  21813697.664 8 113589677.811 8      -363.402          51.000    21813698.203 8  87834770.005 8      -281.084          51.000
C23  22870964.461 5 119095130.962 5       123.918          33.000
C25  23591856.242 8 122848979.066 8     -2729.184          49.000
C28  25524138.750 6 132910944.444 6      2705.055          40.000
E13  23144917.172 8 121627374.670 8      -329.398          51.000    23144918.938 8  93195024.215 8      -252.471          51.000
E21  23555604.977 8 123785549.088 8      -488.578          51.000    23555610.102 8  94848654.263 8      -374.341          51.000
E26  24155871.391 8 126939959.685 8      2152.637          49.000    24155874.883 8  97265760.046 8      1649.426          50.000
E27  25773346.000 8 135439816.821 8     -2753.355          49.000    25773351.227 8 103778564.987 8     -2109.786          51.000
> 2020 05 12 13 33 30.0000000  0 18        .000000000000
G18  20330174.156 8 106835861.730 8      -308.156          50.000    20330174.656 8  83248707.566 8      -240.122          50.000
G20  23261876.164 7 122242000.943 7      3163.914          45.000    23261879.375 7  95253556.686 7      2465.388          45.000
G21  20693230.984 8 108743725.681 8      -440.020          51.000    20693229.414 8  84735347.569 8      -342.872          49.000
G26  20355020.016 8 106966343.863 8       694.906          48.000    20355021.938 8  83350418.919 8       541.485          48.000
G29  22609549.391 4 118813981.672 4     -2591.266          27.000    22609538.656 4  92582287.829 4     -2019.159          26.000
G31  23018854.445 7 120964925.654 7     -3013.820          45.000    23018858.055 7  94258342.722 7     -2348.431          45.000
R12  19527077.180 8 104310120.520 8     -1637.211          51.000    19527080.016 8  81130095.058 8     -1273.389          49.000
R22  19433565.797 7 103737690.090 7      -955.477          42.000    19433569.141 6  80684899.376 6      -743.145          39.000
R23  21594467.812 6 115515881.128 6      2869.828          40.000    21594471.906 5  89845686.738 5      2232.092          34.000
C05  39620230.734 5 206312937.767 5        10.680          35.000    39620230.266 5 159534248.254 5         8.391          34.000
C11  21815828.227 8 113600771.896 8      -377.316          51.000    21815828.461 8  87843348.648 8      -291.801          51.000
C23  22870314.977 5 119091753.244 5       100.402          31.000
C25  23607618.492 8 122931058.618 8     -2743.984          50.000
C28  25508576.789 6 132829907.592 6      2696.285          39.000
E13  23146837.297 8 121637464.726 8      -344.438          51.000    23146838.922 8  93202755.556 8      -263.893          51.000
E21  23558442.156 8 123800457.265 8      -506.582          51.000    23558446.836 8  94860077.398 8      -388.121          51.000
E26  24143615.383 8 126875549.590 8      2140.121          50.000    24143619.172 8  97216406.878 8      1639.821          51.000
E27  25789093.086 8 135522570.515 8     -2764.895          49.000    25789098.195 8 103841973.634 8     -2118.466          51.000
> 2020 05 12 13 34  0.0000000  0 17        .000000000000
G18  20332005.555 8 106845485.565 8      -324.824          51.000    20332005.633 8  83256206.661 8      -253.110          50.000
G20  23243850.148 7 122147277.437 7      3159.641          44.000    23243854.047 7  95179746.172 7      2462.058          43.000
G21  20695806.188 8 108757257.133 8      -453.531          51.000    20695804.125 8  84745891.554 8      -353.401          50.000
G26  20351119.594 8 106945846.320 8       680.172          49.000    20351121.070 8  83334446.818 8       530.004          49.000
G31  23036104.609 7 121055574.105 7     -3020.719          47.000    23036107.797 7  94328977.836 7     -2353.810          47.000
R11  22505450.875 5 120262293.006 5     -4351.398          34.000    22505451.562 6  93537348.030 6     -3384.421          37.000
R12  19536362.742 8 104359720.119 8     -1660.777          51.000    19536366.133 8  81168672.498 8     -1291.716          50.000
R22  19438998.250 7 103766687.882 7      -969.125          43.000    19439001.477 6  80707453.200 6      -753.767          39.000
R23  21578424.344 6 115430056.716 6      2860.453          41.000    21578429.805 6  89778934.430 6      2224.797          36.000
C05                                                                  39620189.078 5 159534081.674 5         9.457          34.000
C11  21818048.188 8 113612331.259 8      -384.789          51.000    21818048.156 8  87852287.076 8      -297.619          51.000
C25  23623475.914 8 123013629.085 8     -2752.270          51.000
C28  25493074.031 6 132749179.162 6      2693.922          39.000
E13  23148852.648 8 121648055.555 8      -353.117          51.000    23148854.164 8  93210870.621 8      -270.555          51.000
E21  23561391.680 8 123815955.855 8      -518.160          51.000    23561395.750 8  94871952.927 8      -397.029          51.000
E26  24131440.695 8 126811566.126 8      2133.984          50.000    24131445.016 8  97167380.595 8      1635.110          51.000
E27  25804915.047 8 135605716.354 8     -2769.699          50.000    25804919.695 8 103905682.764 8     -2122.303          50.000
> 2020 05 12 13 34 30.0000000  0 18        .000000000000
G18  20333912.234 8 106855505.324 8      -333.746          50.000    20333912.469 8  83264014.257 8      -260.062          50.000
G20  23225829.328 7 122052577.321 7      3163.230          45.000    23225833.203 7  95105953.872 7      2464.855          44.000
G21  20698437.633 8 108771084.648 8      -458.996          51.000    20698435.219 8  84756666.257 8      -357.659          50.000
G26  20347282.117 8 106925680.013 8       673.449          49.000    20347283.453 8  83318732.821 8       524.766          48.000
G31  23053372.461 8 121146314.129 8     -3019.461          48.000    23053374.609 8  94399684.297 8     -2352.830          48.000
R11  22529902.297 6 120392952.530 6     -4349.742          37.000    22529901.352 6  93638972.378 6     -3383.136          36.000
R12  19545759.484 8 104409915.884 8     -1676.148          51.000    19545763.492 8  81207713.622 8     -1303.671          50.000
R22  19444486.469 7 103795984.030 7      -974.570          42.000    19444489.047 6  80730239.111 6      -757.996          39.000
R23  21562413.484 6 115344410.914 6      2859.184          36.000    21562420.383 6  89712321.062 6      2223.806          36.000
C05  39620119.539 5 206312358.227 5        21.078          35.000    39620119.414 5 159533801.859 5        16.876          34.000
C11  21820290.312 8 113624006.132 8      -384.340          51.000    21820290.102 8  87861314.822 8      -297.145          51.000
C12  24244460.547 5 126247311.961 5     -2509.391          30.000    24244470.109 5  97622427.873 5     -1940.187          35.000
C25  23639360.547 8 123096339.431 8     -2752.523          51.000
C28  25477563.250 6 132668410.499 6      2699.703          38.000
E13  23150896.234 8 121658794.117 8      -353.590          51.000    23150897.609 8  93219098.872 8      -270.915          51.000
E21  23564386.695 8 123831692.888 8      -521.707          51.000    23564390.070 8  94884011.157 8      -399.708          51.000
E26  24119279.328 8 126747657.528 8      2135.855          48.000    24119284.758 8  97118411.669 8      1636.624          51.000
E27  25820745.031 8 135688901.061 8     -2766.566          51.000    25820748.984 8 103969421.642 8     -2119.810          50.000
> 2020 05 12 13 35  0.0000000  0 17        .000000000000
G18  20335935.695 8 106866138.617 8      -364.984          51.000    20335936.070 8  83272299.966 8      -284.403          51.000
G20  23207855.602 7 121958122.020 7      3143.910          46.000    23207858.898 7  95032352.381 7      2449.803          46.000
G21  20701166.656 8 108785425.419 8      -487.047          51.000    20701164.102 8  84767840.895 8      -379.517          49.000
G26  20343549.445 8 106906064.778 8       644.152          49.000    20343551.094 8  83303448.223 8       501.937          49.000
G29  22654037.820 6 119047803.444 6     -2606.801          36.000
G31  23070698.977 7 121237361.441 7     -3040.504          47.000    23070699.484 7  94470630.203 7     -2369.224          47.000
R11  22554410.328 6 120523910.419 6     -4370.770          39.000    22554407.109 5  93740828.420 5     -3399.490          33.000
R12  19555308.930 8 104460928.284 8     -1714.438          51.000    19555313.172 8  81247389.926 8     -1333.451          50.000
R22  19450072.422 7 103825798.776 7     -1002.836          44.000    19450074.000 6  80753428.344 6      -779.984          38.000
R23  21546478.023 5 115259167.502 5      2834.344          35.000    21546485.438 6  89646020.566 6      2204.493          36.000
C11  21822596.047 8 113636012.345 8      -406.164          51.000    21822595.805 8  87870598.794 8      -314.069          51.000
C25  23655313.133 8 123179404.186 8     -2775.148          51.000
C28  25462085.578 5 132587818.652 5      2682.852          34.000
E13  23153009.117 8 121669898.066 8      -376.629          51.000    23153010.750 8  93227607.110 8      -288.619          51.000
E21  23567468.797 8 123847887.180 8      -547.871          51.000    23567471.578 8  94896419.757 8      -419.782          51.000
E26  24107173.172 8 126684042.796 8      2115.223          48.000    24107179.578 8  97069667.903 8      1620.686          51.000
E27  25836624.109 8 135772342.079 8     -2786.062          51.000    25836627.000 8 104033356.913 8     -2134.772          49.000
> 2020 05 12 13 35 30.0000000  0 19        .000000000000
G18  20338041.227 8 106877202.955 8      -373.598          51.000    20338041.414 8  83280921.504 8      -291.115          51.000
G20  23189894.414 7 121863732.951 7      3147.715          46.000    23189897.164 7  94958802.513 7      2452.765          45.000
G21  20703958.539 8 108800096.726 8      -492.168          51.000    20703955.875 8  84779273.081 8      -383.508          49.000
G26  20339887.312 8 106886820.273 8       637.691          49.000    20339889.281 8  83288452.510 8       496.899          48.000
G31  23088048.867 7 121328531.372 7     -3038.602          44.000    23088047.836 7  94541671.659 7     -2367.741          44.000
R11  22578938.086 6 120654978.036 6     -4367.984          38.000    22578934.172 5  93842769.762 5     -3397.324          34.000
R12  19564976.438 8 104512571.328 8     -1729.480          51.000    19564980.602 8  81287556.733 8     -1345.151          50.000
R21  22570383.961 5 120778685.308 5     -3483.688          35.000    22570385.969 4  93938985.959 4     -2709.535          25.000
R22  19455720.133 7 103855945.333 7     -1008.090          42.000    19455721.344 6  80776875.696 6      -784.067          39.000
R23  21530583.539 6 115174141.984 6      2833.020          36.000    21530590.914 6  89579889.599 6      2203.463          36.000
C05  39619985.258 5 206311659.503 5        18.207          35.000    39619985.164 5 159533260.808 5        13.979          34.000
C11  21824930.906 8 113648169.189 8      -405.289          51.000    21824930.500 8  87879999.237 8      -313.338          51.000
C25  23671298.477 8 123262641.363 8     -2775.004          51.000
C28  25446606.711 5 132507224.161 5      2688.605          33.000
E13  23155156.812 8 121681184.946 8      -376.773          51.000    23155158.719 8  93236255.494 8      -288.640          51.000
E15  25799606.562 5 135577849.031 5     -2461.371          35.000
E21  23570603.383 8 123864357.395 8      -551.113          51.000    23570605.570 8  94909039.772 8      -422.279          51.000
E26  24095088.617 8 126620540.750 8      2117.340          49.000    24095095.195 8  97021010.503 8      1622.449          51.000
E27  25852517.133 8 135855856.750 8     -2782.594          51.000    25852519.094 8 104097348.616 8     -2132.016          49.000
> 2020 05 12 13 36  0.0000000  0 18        .000000000000
G18  20340271.484 8 106888923.129 8      -406.234          51.000    20340271.781 8  83290054.105 8      -316.546          51.000
G20  23171989.258 7 121769638.775 7      3126.891          46.000    23171991.031 7  94885482.416 7      2436.538          44.000
G21  20706855.969 8 108815323.345 8      -521.551          50.000    20706853.312 8  84791137.995 8      -406.400          49.000
G26  20336338.867 8 106868173.547 8       606.730          48.000    20336341.227 8  83273922.565 8       472.774          48.000
G31  23105464.234 6 121420047.102 6     -3060.906          39.000    23105462.453 6  94612982.575 6     -2385.122          39.000
R11  22603528.266 6 120786381.414 6     -4390.594          39.000    22603526.156 5  93944972.229 5     -3414.912          33.000
R12  19574804.695 8 104565072.675 8     -1769.188          51.000    19574808.766 8  81328391.100 8     -1376.035          49.000
R21  22589966.336 6 120883462.400 6     -3499.746          37.000    22589966.172 4  94020474.241 4     -2722.028          26.000
R22  19461472.727 7 103886650.845 7     -1037.848          42.000    19461473.719 6  80800757.770 6      -807.215          39.000
R23  21514773.539 6 115089564.903 6      2806.965          37.000    21514779.469 5  89514107.451 5      2183.195          34.000
C05                                                                  39619928.992 5 159533035.465 5         2.341          34.000
C11  21827337.680 8 113660699.816 8      -428.602          51.000    21827336.922 8  87889688.706 8      -331.352          51.000
C25  23687359.367 8 123346272.644 8     -2798.930          51.000
C28  25431171.148 6 132426850.902 6      2670.613          37.000
E13  23157382.266 8 121692879.704 8      -401.285          51.000    23157384.297 8  93245216.401 8      -307.445          51.000
E21  23573833.492 8 123881329.548 8      -578.805          51.000    23573835.078 8  94922044.390 8      -443.461          51.000
E26  24083069.398 8 126557377.548 8      2095.090          51.000    24083074.969 8  96972612.769 8      1605.350          51.000
E27  25868466.797 8 135939669.726 8     -2803.418          51.000    25868468.219 8 104161568.902 8     -2148.041          48.000
> 2020 05 12 13 36 30.0000000  0 19        .000000000000
G18  20342609.516 8 106901209.543 8      -414.379          51.000    20342610.086 8  83299627.938 8      -322.893          51.000
G20  23154123.727 7 121675753.920 7      3130.520          46.000    23154124.180 6  94812325.426 6      2439.366          41.000
G21  20709841.945 8 108831015.076 8      -526.219          50.000    20709839.414 8  84803365.334 8      -410.041          49.000
G26  20332887.602 8 106850037.167 8       600.691          50.000    20332890.148 8  83259790.315 8       468.071          50.000
G31  23122926.742 5 121511817.282 5     -3058.547          32.000    23122926.438 5  94684491.835 5     -2383.280          32.000
R11  22628163.523 5 120918026.957 5     -4387.883          34.000    22628162.992 5  94047363.101 5     -3412.801          34.000
R12  19584776.500 8 104618340.780 8     -1783.730          51.000    19584779.867 7  81369821.826 7     -1387.346          47.000
R21  22609559.836 5 120988302.049 5     -3491.012          35.000
R22  19467312.250 6 103917823.528 6     -1042.359          41.000    19467313.039 6  80825003.244 6      -810.721          39.000
R23  21499031.555 6 115005346.987 6      2805.996          37.000    21499034.406 5  89448604.709 5      2182.447          31.000
C05  39619877.500 5 206311098.052 5        12.914          34.000    39619877.539 5 159532827.426 5        10.161          33.000
C11  21829799.023 8 113673515.544 8      -427.379          51.000    21829798.109 8  87899598.639 8      -330.416          51.000
C23  22868613.727 5 119082880.966 5          .973          30.000
C25  23703478.539 8 123430208.156 8     -2798.387          51.000
C28  25415762.430 6 132346611.702 6      2676.898          39.000
E13  23159668.094 8 121704892.789 8      -401.148          51.000    23159670.602 8  93254421.241 8      -307.344          51.000
E21  23577142.195 8 123898715.230 8      -581.828          51.000    23577143.203 8  94935365.876 8      -445.801          51.000
E26  24071098.086 8 126494465.026 8      2097.516          51.000    24071102.898 8  96924407.115 8      1607.187          51.000
E27  25884455.688 8 136023691.293 8     -2799.559          51.000    25884457.273 8 104225948.998 8     -2145.128          48.000
> 2020 05 12 13 37  0.0000000  0 20        .000000000000
G18  20345039.805 8 106913980.806 8      -435.266          51.000    20345040.164 8  83309579.568 8      -339.168          50.000
G20  23136283.109 7 121582000.860 7      3121.141          44.000    23136281.641 6  94739271.143 6      2432.061          39.000
G21  20712901.109 8 108847091.315 8      -543.781          50.000    20712898.594 8  84815892.279 8      -423.726          49.000
G26  20329518.406 8 106832331.927 8       581.520          50.000    20329520.914 8  83245994.020 8       453.132          50.000
G31  23140420.180 6 121603758.523 6     -3069.762          36.000    23140424.375 6  94756134.468 6     -2392.022          36.000
R11  22652826.453 5 121049829.296 5     -4398.109          31.000    22652828.922 5  94149875.975 5     -3420.755          35.000
R12  19594876.102 8 104672291.946 8     -1811.301          51.000    19594879.078 7  81411783.795 7     -1408.793          47.000
R21  22629148.391 5 121093132.543 5     -3495.719          34.000
R22  19473224.281 6 103949379.667 6     -1059.867          41.000    19473224.695 6  80849546.912 6      -824.341          39.000
R23  21483341.320 5 114921407.434 5      2791.812          34.000    21483341.445 5  89383318.437 5      2171.416          32.000
C05  39619815.516 5 206310775.563 5        10.641          34.000    39619815.586 5 159532578.552 5         7.618          34.000
C11  21832299.555 8 113686535.963 8      -438.922          51.000    21832298.727 8  87909666.859 8      -339.448          51.000
C12  24317204.078 5 126626043.172 5     -2529.418          33.000    24317201.789 5  97915303.467 5     -1956.725          33.000
C23  22868669.000 5 119083162.418 5       -18.367          35.000
C25  23719640.055 8 123514366.167 8     -2810.520          51.000
C28  25400364.094 6 132266427.130 6      2670.562          39.000
E13  23161999.141 8 121717142.880 8      -413.738          51.000    23162001.922 8  93263807.690 8      -317.032          51.000
E21  23580514.141 8 123916434.235 8      -597.711          51.000    23580514.742 8  94948942.772 8      -458.022          51.000
E26  24059158.961 8 126431723.151 8      2087.051          51.000    24059163.805 8  96876332.211 8      1599.148          51.000
E27  25900468.070 8 136107839.935 8     -2808.559          49.000    25900470.203 8 104290426.456 8     -2152.027          48.000
> 2020 05 12 13 37 30.0000000  0 20        .000000000000
G18  20347548.039 8 106927161.561 8      -454.285          51.000    20347548.195 8  83319850.286 8      -353.988          51.000
G20  23118453.867 7 121488308.093 7      3113.887          43.000    23118450.273 6  94666263.878 6      2426.405          36.000
G21  20716018.648 8 108863474.835 8      -559.371          49.000    20716016.297 8  84828658.668 8      -435.874          49.000
G26  20326217.438 8 106814984.718 8       564.098          50.000    20326219.797 8  83232476.709 8       439.557          50.000
G31  23157933.578 6 121695793.664 6     -3077.656          39.000    23157941.250 6  94827850.185 6     -2398.174          39.000
R12  19605089.523 8 104726848.919 8     -1836.945          51.000    19605092.070 8  81454216.952 8     -1428.735          48.000
R21  22648722.375 6 121197870.311 6     -3497.832          37.000
R22  19479192.172 6 103981241.409 6     -1075.414          39.000    19479193.945 6  80874328.214 6      -836.436          40.000
R23  21467687.867 5 114837670.907 5      2779.457          33.000    21467688.102 5  89318190.107 5      2161.800          31.000
C05  39619728.906 5 206310324.743 5         9.590          34.000    39619729.016 5 159532229.432 5         7.283          34.000
C11  21834825.062 8 113699686.681 8      -448.621          51.000    21834824.375 8  87919835.822 8      -346.914          51.000
C12  24331762.969 4 126701874.185 4     -2534.449          28.000    24331758.023 5  97973918.737 5     -1958.918          32.000
C23  22868798.227 5 119083826.166 5       -37.320          30.000
C25  23735829.367 8 123598670.968 8     -2820.582          49.000
C28  25384961.531 6 132186224.094 6      2665.754          38.000
E13  23164361.117 8 121729554.840 8      -424.570          51.000    23164363.719 8  93273318.160 8      -325.329          51.000
E15  25856091.578 5 135874684.203 5     -2481.414          35.000
E21  23583935.383 8 123934412.412 8      -611.758          51.000    23583936.078 8  94962718.238 8      -468.741          51.000
E26  24047237.992 8 126369078.047 8      2078.352          51.000    24047243.031 8  96828331.445 8      1592.506          51.000
E27  25916489.859 7 136192040.177 7     -2815.656          47.000    25916492.367 7 104354943.480 7     -2157.523          47.000
> 2020 05 12 13 38  0.0000000  0 19        .000000000000
G18  20350202.398 8 106941109.844 8      -468.805          51.000    20350202.523 8  83330719.090 8      -365.302          51.000
G20  23100705.156 7 121395037.859 7      3110.871          45.000    23100700.594 6  94593585.862 6      2424.058          36.000
G21  20719263.055 8 108880524.256 8      -570.465          50.000    20719260.906 8  84841943.931 8      -444.518          50.000
G26  20323053.211 8 106798355.782 8       551.141          51.000    20323055.414 8  83219519.094 8       429.460          51.000
G31  23175533.352 7 121788279.045 7     -3081.484          42.000    23175545.078 6  94899916.715 6     -2401.157          41.000
R12  19615484.453 8 104782374.874 8     -1858.020          51.000    19615486.961 8  81497403.775 8     -1445.129          49.000
R21  22668346.703 6 121302879.255 6     -3495.785          40.000
R22  19485285.281 6 104013771.522 6     -1086.363          40.000    19485289.250 6  80899629.393 6      -844.949          40.000
C05  39619686.023 5 206310101.543 5        12.484          34.000
C11  21837443.617 8 113713322.843 8      -453.844          51.000    21837443.117 8  87930380.175 8      -351.034          51.000
C12  24346364.703 4 126777905.978 4     -2533.301          28.000
C23  22869062.008 5 119085196.685 5       -50.293          32.000
C25  23752114.492 8 123683476.268 8     -2826.297          49.000
C28  25369623.227 6 132106358.701 6      2665.684          36.000
E13  23166822.031 8 121742486.802 8      -430.914          51.000    23166824.469 8  93283227.082 8      -330.154          51.000
E15  25870270.984 5 135949192.487 5     -2479.801          34.000
E21  23587474.266 8 123953009.048 8      -621.387          51.000    23587475.266 8  94976967.595 8      -476.121          51.000
E26  24035403.930 8 126306889.175 8      2074.195          51.000    24035408.812 8  96780680.259 8      1589.280          51.000
E27  25932589.328 7 136276649.997 7     -2818.273          46.000    25932592.445 7 104419774.340 7     -2159.510          47.000
> 2020 05 12 13 38 30.0000000  0 19        .000000000000
G18  20352932.672 8 106955457.423 8      -491.387          51.000    20352932.555 8  83341899.030 8      -382.896          50.000
G20  23082967.617 7 121301825.813 7      3099.734          46.000    23082963.414 6  94520953.181 6      2415.380          38.000
G21  20722563.977 8 108897870.918 8      -589.684          50.000    20722562.156 8  84855460.813 8      -459.494          49.000
G26  20319955.906 8 106782079.103 8       530.230          51.000    20319958.156 8  83206835.971 8       413.167          51.000
G31  23193148.859 7 121880844.709 7     -3093.289          43.000    23193164.109 7  94972045.788 7     -2410.358          43.000
R12  19625990.383 8 104838494.786 8     -1887.219          51.000    19625993.352 8  81541052.575 8     -1467.837          49.000
R21  22687950.961 6 121407783.915 6     -3501.680          37.000
R22  19491433.797 6 104046594.999 6     -1105.375          39.000    19491438.727 6  80925158.774 6      -859.733          39.000
C05  39619617.039 5 206309742.066 5         7.531          34.000
C11  21840085.211 8 113727079.838 8      -467.031          51.000    21840084.930 8  87941017.955 8      -361.171          51.000
C12  24360961.391 4 126853919.410 4     -2538.949          28.000
C23  22869405.125 5 119086972.094 5       -72.578          31.000
C25  23768425.289 8 123768416.159 8     -2839.988          48.000
C28  25354279.789 5 132026467.457 5      2657.199          33.000
E13  23169311.906 8 121755570.704 8      -445.168          51.000    23169314.352 8  93293252.423 8      -341.097          51.000
E15  25884438.062 5 136023639.741 5     -2487.902          32.000
E21  23591060.750 8 123971857.126 8      -639.004          51.000    23591061.969 8  94991409.631 8      -489.599          51.000
E26  24023586.867 8 126244789.748 8      2062.004          51.000    24023591.359 8  96733097.599 8      1579.932          51.000
E27  25948696.984 7 136361301.124 7     -2828.930          45.000    25948700.742 8 104484636.842 8     -2167.663          48.000
> 2020 05 12 13 39  0.0000000  0 17        .000000000000
G18  20355799.734 8 106970523.581 8      -507.254          51.000    20355799.305 8  83353638.889 8      -395.263          50.000
G20  23065302.859 7 121208995.314 7      3094.855          47.000    23065299.227 6  94448617.773 6      2411.579          39.000
G21  20725982.281 8 108915833.917 8      -602.082          51.000    20725980.633 8  84869457.957 8      -469.155          50.000
G26  20316986.734 8 106766476.204 8       515.750          51.000    20316989.078 8  83194677.865 8       401.883          51.000
G31  23210839.867 7 121973807.855 7     -3098.398          42.000    23210858.492 7  95044484.605 7     -2414.336          42.000
R12  19636667.758 8 104895532.465 8     -1909.570          51.000    19636671.266 8  81585415.233 8     -1485.218          49.000
R21  22707595.812 5 121512908.360 5     -3500.898          33.000    22707600.742 4  94510073.936 4     -2722.918          28.000
R22  19497698.219 6 104080034.968 6     -1117.895          40.000    19497703.109 6  80951167.667 6      -869.474          37.000
R23  21421207.320 6 114589043.845 6      2746.859          36.000    21421212.602 4  89124813.521 4      2136.443          29.000
C05  39619582.789 5 206309563.745 5         9.363          35.000    39619582.969 5 159531641.930 5         7.488          34.000
C11  21842810.977 8 113741274.281 8      -473.570          51.000    21842810.773 8  87951994.000 8      -366.189          51.000
C25  23784822.586 7 123853805.956 7     -2846.945          47.000
C28  25338992.703 5 131946868.272 5      2655.277          31.000
E13  23171891.344 8 121769125.970 8      -452.762          51.000    23171893.969 8  93303638.930 8      -346.900          51.000
E21  23594755.883 8 123991277.135 8      -649.949          51.000    23594757.609 8  95006289.894 8      -497.980          51.000
E26  24011847.648 8 126183100.448 8      2056.488          51.000    24011851.742 8  96685829.180 8      1575.697          51.000
E27  25964873.562 7 136446312.700 7     -2832.832          45.000    25964878.359 8 104549775.533 8     -2170.564          49.000
> 2020 05 12 13 39 30.0000000  0 18        .000000000000
G18  20358741.188 8 106985980.439 8      -524.969          51.000    20358740.781 8  83365683.200 8      -409.067          50.000
G20  23047649.273 8 121116222.684 8      3088.219          49.000    23047646.062 6  94376327.430 6      2406.404          40.000
G21  20729455.664 8 108934085.530 8      -616.383          50.000    20729454.023 8  84883679.975 8      -480.298          50.000
G26  20314083.812 8 106751221.401 8       499.434          51.000    20314086.242 8  83182790.997 8       389.169          51.000
G31  23228543.672 6 122066839.164 6     -3105.301          41.000    23228564.648 6  95116976.524 6     -2419.718          39.000
R11  22776738.492 5 121711984.799 5     -4431.922          31.000    22776747.164 5  94664897.961 5     -3447.056          34.000
R12  19647454.398 8 104953153.697 8     -1933.668          51.000    19647458.219 8  81630231.753 8     -1503.964          50.000
R21  22727220.047 4 121617918.513 4     -3500.523          28.000    22727225.047 4  94591748.456 4     -2722.626          29.000
R22  19504015.773 6 104113757.482 6     -1132.398          38.000    19504020.281 6  80977396.269 6      -880.751          37.000
R23  21405862.602 6 114506830.079 6      2735.195          39.000    21405835.430 4  89060844.144 4      2127.371          29.000
C05  39619521.141 5 206309242.767 5         9.895          35.000    39619521.359 5 159531394.266 5         7.422          34.000
C11  21845558.570 8 113755581.733 8      -482.020          51.000    21845558.344 8  87963057.428 8      -372.731          51.000
C25  23801244.273 7 123939319.790 7     -2855.758          47.000
C28  25323699.930 5 131867237.582 5      2651.496          33.000
E13  23174498.102 8 121782824.932 8      -462.281          51.000    23174500.828 8  93314135.543 8      -354.174          51.000
E21  23598497.789 8 124010942.412 8      -662.840          51.000    23598500.359 8  95021358.095 8      -507.905          51.000
E26  24000124.344 8 126121494.882 8      2048.863          51.000    24000128.391 8  96638624.919 8      1569.908          51.000
E27  25981056.844 7 136531356.842 7     -2838.570          46.000    25981062.938 8 104614939.185 8     -2175.041          51.000
> 2020 05 12 13 40  0.0000000  0 17        .000000000000
G18  20361802.531 8 107002067.927 8      -542.457          51.000    20361801.953 8  83378218.913 8      -422.694          50.000
G20  23030052.930 8 121023751.788 8      3081.586          49.000    23030050.961 7  94304272.232 7      2401.239          44.000
G21  20733029.273 8 108952864.751 8      -630.340          50.000    20733027.883 8  84898313.152 8      -491.174          50.000
G26  20311293.258 8 106736556.881 8       483.254          51.000    20311295.945 8  83171364.090 8       376.561          51.000
G31  23246305.891 6 122160176.717 6     -3111.836          41.000    23246329.203 6  95189707.093 6     -2424.807          38.000
R12  19658396.016 8 105011601.688 8     -1957.621          51.000    19658399.930 8  81675691.273 8     -1522.597          50.000
R22  19510431.352 6 104148005.343 6     -1145.977          38.000    19510436.305 6  81004033.506 6      -891.318          36.000
R23  21390533.492 4 114424954.079 4      2724.816          29.000    21390540.164 4  88997195.046 4      2119.293          28.000
C05  39619478.047 5 206309018.122 5        10.867          34.000    39619478.234 5 159531220.016 5         8.186          34.000
C11  21848373.492 8 113770240.243 8      -490.188          51.000    21848373.328 8  87974392.308 8      -378.959          51.000
C23  22871093.078 5 119095784.784 5      -120.500          30.000
C25  23817735.625 7 124025194.367 7     -2864.172          47.000
C28  25308447.766 5 131787814.750 5      2648.375          34.000
E13  23177177.953 8 121796907.685 8      -471.492          51.000    23177180.570 8  93324926.230 8      -361.276          51.000
E21  23602332.273 8 124031094.174 8      -675.508          51.000    23602335.453 8  95036799.052 8      -517.633          51.000
E26  23988462.852 8 126060214.479 8      2041.590          51.000    23988467.141 8  96591669.821 8      1564.308          51.000
E27  25997292.453 8 136616673.475 8     -2844.113          48.000    25997299.375 8 104680311.615 8     -2179.301          51.000
> 2020 05 12 13 40 30.0000000  0 17        .000000000000
G18  20364946.367 8 107018588.961 8      -559.844          51.000    20364945.422 8  83391092.436 8      -436.242          51.000
G20  23012476.859 8 120931389.454 8      3075.043          49.000    23012476.469 7  94232301.617 7      2396.137          46.000
G21  20736665.852 8 108971974.577 8      -644.500          50.000    20736664.406 8  84913203.912 8      -502.208          50.000
G26  20308577.977 8 106722287.750 8       467.172          51.000    20308580.820 8  83160245.279 8       364.030          51.000
G31  23264088.703 7 122253621.733 7     -3118.453          42.000    23264113.492 5  95262521.327 5     -2429.970          31.000
R12  19669454.602 8 105070675.199 8     -1981.504          51.000    19669458.625 8  81721637.314 8     -1541.170          50.000
R22  19516908.469 6 104182577.251 6     -1159.730          36.000    19516912.555 6  81030922.723 6      -902.013          37.000
R23  21375298.211 5 114343373.210 5      2713.375          35.000    21375287.938 4  88933743.136 4      2110.409          28.000
C05  39619416.109 5 206308695.625 5        10.430          34.000    39619416.227 5 159530970.617 5         8.288          34.000
C11  21851218.375 8 113785054.864 8      -498.348          51.000    21851218.281 8  87985847.930 8      -385.336          51.000
C23  22871822.961 5 119099590.763 5      -137.238          30.000
C25  23834258.383 7 124111233.417 7     -2872.629          47.000
C28  25293198.266 5 131708405.887 5      2644.965          35.000
E13  23179893.438 8 121811177.354 8      -480.660          51.000    23179895.875 8  93335860.140 8      -368.289          51.000
E21  23606222.117 8 124051536.545 8      -688.203          51.000    23606225.219 8  95052462.686 8      -527.310          51.000
E26  23976826.125 8 125999063.605 8      2034.293          51.000    23976830.570 8  96544813.966 8      1558.774          51.000
E27  26013542.594 8 136702065.418 8     -2849.562          48.000    26013549.727 8 104745741.756 8     -2183.425          51.000
> 2020 05 12 13 41  0.0000000  0 17        .000000000000
G18  20368183.109 8 107035598.841 8      -578.176          51.000    20368182.539 8  83404346.898 8      -450.527          50.000
G20  22994932.578 8 120839195.263 8      3067.176          48.000    22994933.727 7  94160462.017 7      2390.007          47.000
G21  20740375.781 8 108991470.302 8      -659.398          50.000    20740374.219 8  84928395.374 8      -513.817          49.000
G26  20305948.914 8 106708471.592 8       449.848          51.000    20305951.398 8  83149479.446 8       350.531          51.000
G31  23281902.281 6 122347227.706 6     -3125.848          41.000    23281931.992 5  95335460.848 5     -2435.735          32.000
R12  19680640.234 8 105130429.807 8     -2006.301          51.000    19680644.664 8  81768113.113 8     -1560.456          49.000
R21  22786136.094 5 121933159.059 5     -3504.840          34.000    22786138.977 5  94836919.925 5     -2725.987          32.000
R22  19523456.172 6 104217528.509 6     -1174.316          38.000    19523460.906 6  81058107.065 6      -913.357          37.000
R23  21360111.461 5 114262088.550 5      2701.297          35.000    21360094.195 4  88870521.802 4      2101.012          26.000
C05  39619346.102 5 206308331.277 5         9.543          34.000    39619346.211 5 159530687.862 5         7.693          34.000
C11  21854104.094 8 113800080.811 8      -507.449          51.000    21854103.789 8  87997466.959 8      -392.452          51.000
C25  23850823.234 8 124197490.773 8     -2881.855          48.000
C28  25277962.336 5 131629067.346 5      2640.406          35.000
E13  23182655.164 8 121825689.481 8      -490.914          51.000    23182657.633 8  93346979.831 8      -376.137          51.000
E21  23610178.281 8 124072326.114 8      -701.926          51.000    23610180.922 8  95068392.364 8      -537.809          51.000
E26  23965224.859 8 125938099.063 8      2025.930          50.000    23965229.094 8  96498100.907 8      1552.291          51.000
E27  26029817.703 8 136787587.992 8     -2856.078          48.000    26029824.367 8 104811271.997 8     -2188.438          51.000
> 2020 05 12 13 41 30.0000000  0 18        .000000000000
G18  20371531.828 8 107053196.646 8      -589.258          51.000    20371531.469 8  83418059.479 8      -459.162          50.000
G20  22977440.078 8 120747272.523 8      3066.535          48.000    22977442.281 8  94088833.926 8      2389.511          48.000
G21  20744177.805 8 109011450.627 8      -667.004          49.000    20744176.391 8  84943964.468 8      -519.743          49.000
G26  20303425.281 8 106695209.677 8       439.973          51.000    20303427.484 8  83139145.491 8       342.839          51.000
G31  23299765.453 6 122441092.341 6     -3126.164          40.000    23299798.023 6  95408601.999 6     -2435.975          36.000
R11  22876525.477 5 122245228.314 5     -4449.445          30.000    22876533.688 4  95079644.049 4     -3460.680          29.000
R12  19691971.781 8 105190964.869 8     -2023.570          51.000    19691976.867 8  81815195.920 8     -1573.888          48.000
R21  22805785.602 4 122038294.294 4     -3499.625          28.000    22805786.789 5  94918691.718 5     -2721.934          31.000
R22  19530093.570 5 104252958.967 5     -1181.910          34.000    19530097.469 5  81085663.967 5      -919.266          35.000
C05  39619287.102 5 206308023.314 5        16.281          34.000    39619287.234 5 159530451.534 5        12.584          34.000
C11  21857049.406 8 113815416.631 8      -509.375          51.000    21857048.781 8  88009325.576 8      -393.975          51.000
C23  22873597.031 5 119108800.883 5      -165.715          32.000
C25  23867449.109 8 124284063.596 8     -2884.039          49.000
C28  25262759.023 6 131549898.833 6      2642.566          36.000
E13  23185481.945 8 121840543.337 8      -493.848          51.000    23185484.445 8  93358361.371 8      -378.403          51.000
E21  23614219.602 8 124093563.224 8      -708.379          51.000    23614222.164 8  95084664.941 8      -542.778          51.000
E26  23953678.086 8 125877421.404 8      2024.820          50.000    23953682.203 8  96451607.683 8      1551.447          51.000
E27  26046136.398 8 136873340.259 8     -2855.230          48.000    26046142.391 8 104876978.245 8     -2187.855          51.000
> 2020 05 12 13 42  0.0000000  0 17        .000000000000
G18  20375004.820 8 107071447.697 8      -611.820          50.000    20375004.367 8  83432281.070 8      -476.743          50.000
G20  22960012.117 7 120655690.405 7      3054.289          46.000    22960015.156 7  94017471.267 7      2379.966          46.000
G21  20748084.508 8 109031980.606 8      -686.008          49.000    20748083.016 8  84959961.858 8      -534.552          49.000
G26  20301019.914 8 106682569.556 8       418.395          51.000    20301022.211 8  83129296.045 8       326.022          51.000
G31  23317690.523 6 122535279.035 6     -3137.242          39.000    23317723.016 5  95481994.119 5     -2444.610          34.000
R11  22901581.617 5 122379109.928 5     -4459.637          34.000    22901585.961 4  95183774.015 4     -3468.612          25.000
R12  19703462.398 8 105252346.359 8     -2052.508          51.000    19703467.422 7  81862937.071 7     -1596.395          47.000
R22  19536830.727 5 104288921.507 5     -1200.656          31.000    19536837.734 5  81113633.305 5      -933.847          35.000
R23  21329942.875 5 114100831.291 5      2680.391          35.000    21329951.234 4  88745109.001 4      2084.748          25.000
C05  39619251.945 5 206307840.726 5        11.414          35.000
C11  21860066.500 8 113831127.473 8      -522.559          51.000    21860065.789 8  88021474.188 8      -404.088          51.000
C25  23884147.938 8 124371015.674 8     -2897.219          50.000
C28  25247600.961 6 131470966.440 6      2634.191          36.000
E13  23188386.180 8 121855804.483 8      -508.047          51.000    23188388.492 8  93370054.988 8      -389.304          51.000
E21  23618358.852 8 124115314.406 8      -726.160          51.000    23618361.258 8  95101331.405 8      -556.441          51.000
E26  23942198.641 8 125817097.484 8      2012.340          50.000    23942202.750 8  96405385.513 8      1541.854          51.000
E27  26062510.977 8 136959387.544 8     -2865.773          48.000    26062516.578 8 104942910.534 8     -2195.855          51.000
> 2020 05 12 13 42 30.0000000  0 17        .000000000000
G18  20378553.664 8 107090097.775 8      -631.492          50.000    20378553.672 8  83446813.601 8      -492.072          50.000
G20  22942600.719 7 120564198.896 7      3044.934          42.000    22942604.805 7  93946179.197 7      2372.676          42.000
G21  20752047.242 8 109052805.793 8      -702.145          48.000    20752045.750 8  84976189.275 8      -547.126          48.000
G26  20298684.859 8 106670299.348 8       399.699          51.000    20298687.375 8  83119734.824 8       311.451          51.000
G31  23335628.516 6 122629531.704 6     -3145.777          40.000    23335658.000 5  95555437.660 5     -2451.261          34.000
R11  22926643.422 5 122513034.884 5     -4468.809          33.000    22926646.609 4  95287924.731 4     -3475.740          25.000
R12  19715063.133 8 105314314.829 8     -2078.473          51.000    19715068.148 7  81911134.752 7     -1616.590          47.000
R22  19543626.930 6 104325181.720 6     -1216.336          38.000    19543631.461 5  81141835.584 5      -946.042          33.000
R23  21314948.312 6 114020624.010 6      2666.773          38.000    21314961.969 4  88682735.652 4      2074.157          25.000
C05  39619192.242 5 206307529.887 5         9.180          34.000    39619192.305 5 159530069.686 5         7.092          34.000
C11  21863107.289 8 113846961.965 8      -532.918          51.000    21863106.664 8  88033718.422 8      -412.116          51.000
C25  23900871.047 8 124458094.209 8     -2907.809          51.000
C28  25232440.016 6 131392019.958 6      2628.551          36.000
E13  23191319.641 8 121871219.029 8      -519.477          51.000    23191321.664 8  93381866.126 8      -398.046          51.000
E21  23622548.008 8 124137326.754 8      -741.230          51.000    23622549.875 8  95118197.998 8      -567.977          51.000
E26  23930738.625 8 125756874.701 8      2002.617          50.000    23930742.648 8  96359240.805 8      1534.473          51.000
E27  26078893.680 8 137045475.653 8     -2873.445          50.000    26078898.398 8 105008874.106 8     -2201.677          51.000
> 2020 05 12 13 43  0.0000000  0 19        .000000000000
G18  20382185.367 8 107109182.763 8      -633.383          50.000    20382185.688 8  83461685.018 8      -493.545          50.000
G20  22925213.789 7 120472838.133 7      3053.273          42.000    22925218.852 7  93874988.983 7      2379.171          42.000
G21  20756073.062 8 109073962.176 8      -700.699          49.000    20756071.711 8  84992674.772 8      -545.999          49.000
G26  20296427.516 8 106658437.127 8       398.590          51.000    20296430.008 8  83110491.531 8       310.589          51.000
G29  22894966.125 5 120313838.688 5     -2654.516          33.000    22894969.766 4  93751073.023 4     -2068.454          26.000
G31  23353585.461 6 122723884.867 6     -3136.809          38.000    23353614.906 4  95629147.602 4     -2444.254          29.000
R11  22951718.812 5 122647037.735 5     -4458.645          31.000    22951723.484 4  95392148.921 4     -3467.844          29.000
R12  19726780.820 8 105376905.766 8     -2086.531          51.000    19726785.734 8  81959816.549 8     -1622.861          48.000
R21  22864753.461 5 122353836.700 5     -3491.883          30.000    22864756.523 5  95164147.789 5     -2715.909          33.000
R22  19550482.242 6 104361762.744 6     -1214.613          37.000    19550482.336 5  81170287.428 5      -944.702          33.000
R23  21300000.477 5 113940666.069 5      2671.465          35.000
C05  39619115.211 5 206307128.552 5        24.871          35.000    39619115.297 5 159529759.315 5        19.329          34.000
C11  21866178.844 8 113862956.110 8      -525.828          51.000    21866178.344 8  88046086.115 8      -406.625          51.000
C25  23917625.156 8 124545333.815 8     -2900.730          51.000
C28  25217282.883 5 131313096.515 5      2640.121          34.000
E13  23194289.039 8 121886823.143 8      -513.293          51.000    23194290.906 8  93393822.527 8      -393.293          51.000
E21  23626793.852 8 124159637.459 8      -738.660          51.000    23626795.375 8  95135293.190 8      -565.986          51.000
E26  23919305.086 8 125696790.426 8      2010.496          51.000    23919308.625 8  96313202.233 8      1540.528          51.000
E27  26095291.289 8 137131640.545 8     -2863.422          51.000    26095294.516 8 105074896.517 8     -2194.086          51.000
> 2020 05 12 13 43 30.0000000  0 19        .000000000000
G18  20385926.016 8 107128840.842 8      -673.922          50.000    20385926.445 8  83477002.994 8      -525.137          50.000
G20  22907879.742 7 120381750.286 7      3022.746          44.000    22907883.703 6  93804011.444 6      2355.387          38.000
G21  20760188.203 8 109095587.368 8      -737.719          49.000    20760186.906 8  85009525.581 8      -574.843          49.000
G26  20294274.625 8 106647123.300 8       358.895          51.000    20294276.906 8  83101675.567 8       279.658          51.000
G31  23371587.703 6 122818475.077 6     -3165.941          36.000    23371573.219 6  95702690.591 6     -2466.967          36.000
R11  22976834.945 5 122781239.631 5     -4485.980          33.000    22976840.438 5  95496541.134 5     -3489.102          31.000
R12  19738641.242 8 105440258.730 8     -2133.637          51.000    19738645.555 7  82009091.038 7     -1659.495          47.000
R22  19557418.805 5 104398804.009 5     -1251.898          34.000    19557420.383 5  81199097.355 5      -973.699          31.000
R23  21285126.070 5 113861099.478 5      2636.344          31.000
C05  39619047.320 5 206306774.880 5         2.004          34.000    39619047.492 5 159529485.831 5         1.776          34.000
C11  21869307.273 8 113879247.335 8      -556.805          51.000    21869307.047 8  88058683.512 8      -430.463          51.000
C12  24507652.805 5 127617775.867 5     -2562.883          33.000    24507662.141 5  98682204.139 5     -1981.542          31.000
C23  22878329.148 4 119133462.874 4      -248.148          29.000
C25  23934436.141 8 124632870.457 8     -2931.613          51.000
C28  25202157.250 6 131234334.492 6      2614.215          36.000
E13  23197320.750 8 121902755.202 8      -545.371          51.000    23197322.688 8  93406030.227 8      -417.870          51.000
E21  23631122.812 8 124182385.927 8      -774.406          51.000    23631124.273 8  95152723.801 8      -593.439          51.000
E26  23907924.578 8 125636984.353 8      1980.020          51.000    23907927.297 8  96267376.824 8      1517.301          51.000
E27  26111729.641 8 137218020.408 8     -2891.742          51.000    26111731.391 8 105141083.622 8     -2215.679          50.000
> 2020 05 12 13 44  0.0000000  0 20        .000000000000
G18  20389775.383 8 107149069.346 8      -689.695          50.000    20389775.969 8  83492765.451 8      -537.425          50.000
G20  22890598.906 7 120290936.982 7      3016.699          44.000    22890600.336 6  93733247.910 6      2350.678          37.000
G21  20764392.031 8 109117678.860 8      -750.148          49.000    20764390.719 8  85026739.738 8      -584.531          49.000
G26  20292225.945 8 106636357.464 8       343.684          51.000    20292228.055 8  83093286.603 8       267.805          51.000
G31  23389633.805 4 122913354.522 4     -3170.508          28.000    23389614.430 4  95776578.911 4     -2470.544          29.000
R11  23001991.164 6 122915669.501 6     -4490.516          36.000    23001996.445 5  95601097.537 5     -3492.626          31.000
R12  19750643.367 8 105504370.091 8     -2155.711          51.000    19750647.164 8  82058955.400 8     -1676.664          48.000
R21  22904072.258 5 122564317.903 5     -3514.836          30.000    22904077.312 5  95327812.298 5     -2733.755          34.000
R22  19564444.297 5 104436302.054 5     -1263.406          35.000    19564445.156 5  81228262.506 5      -982.646          32.000
R23  21270324.422 5 113781923.322 5      2626.480          35.000
C05  39618988.234 5 206306467.408 5         3.660          35.000    39618988.445 5 159529248.090 5         2.915          34.000
C11  21872492.242 8 113895833.359 8      -563.664          51.000    21872492.273 8  88071508.873 8      -435.867          51.000
C12                                                                  24522386.352 5  98741489.434 5     -1982.222          34.000
C25  23951303.367 8 124720700.592 8     -2938.504          51.000
C28  25187063.211 5 131155733.050 5      2611.590          35.000
E13  23200414.562 8 121919012.920 8      -553.289          51.000    23200416.578 8  93418487.437 8      -423.922          51.000
E15  26041326.766 6 136848099.700 6     -2516.680          37.000
E21  23635534.781 8 124205570.792 8      -786.031          51.000    23635536.164 8  95170488.808 8      -602.263          51.000
E26  23896596.516 8 125577455.386 8      1973.762          50.000    23896599.250 8  96221763.772 8      1512.312          51.000
E27  26128208.031 8 137304612.688 8     -2895.910          51.000    26128208.773 8 105207433.480 8     -2218.950          50.000
> 2020 05 12 13 44 30.0000000  0 20        .000000000000
G18  20393752.148 8 107169967.142 8      -702.543          51.000    20393752.867 8  83509049.454 8      -547.433          51.000
G20  22873390.000 7 120200501.144 7      3013.449          43.000    22873390.102 6  93662778.508 6      2348.145          39.000
G21  20768703.289 8 109140335.152 8      -759.469          49.000    20768702.062 8  85044393.992 8      -591.791          49.000
G26  20290300.789 8 106626240.744 8       331.574          51.000    20290302.836 8  83085403.440 8       258.370          51.000
R11  23027205.352 6 123050408.904 6     -4490.922          36.000    23027210.500 5  95705894.769 5     -3492.942          31.000
R12  19762805.758 8 105569339.240 8     -2174.703          51.000    19762809.484 8  82109486.915 8     -1691.436          49.000
R21  22923769.320 5 122669717.226 5     -3510.875          32.000    22923773.438 5  95409789.508 5     -2730.684          32.000
R22  19571572.883 5 104474356.476 5     -1272.613          35.000    19571575.227 5  81257860.519 5      -989.804          31.000
R23  21255613.891 5 113703240.367 5      2620.090          35.000    21255622.875 4  88435850.854 4      2037.848          26.000
C05  39618957.086 5 206306305.497 5         8.301          35.000    39618957.438 5 159529123.370 5         6.437          34.000
C11  21875753.023 8 113912812.754 8      -567.488          51.000    21875753.039 8  88084638.405 8      -438.727          51.000
C12                                                                  24537143.172 5  98800926.008 5     -1979.781          30.000
C23  22881327.344 5 119149074.440 5      -276.059          32.000
C25  23968245.281 8 124808921.256 8     -2942.047          51.000
C28  25172018.656 5 131077391.544 5      2612.785          32.000
E13  23203589.117 8 121935695.425 8      -557.934          51.000    23203591.133 8  93431270.143 8      -427.523          51.000
E15  26055689.789 5 136923582.516 5     -2514.301          35.000
E21  23640048.844 8 124229292.194 8      -794.496          51.000    23640050.414 8  95188664.929 8      -608.758          51.000
E26  23885340.094 8 125518303.998 8      1970.570          48.000    23885343.250 8  96176440.021 8      1509.953          51.000
E27  26144745.383 8 137391516.274 8     -2896.828          51.000    26144745.477 8 105274021.879 8     -2219.600          49.000
> 2020 05 12 13 45  0.0000000  0 21        .000000000000
G18  20397804.586 8 107191262.114 8      -719.547          51.000    20397805.070 8  83525642.942 8      -560.686          50.000
G20  22856201.992 7 120110175.126 7      3005.777          43.000    22856201.648 6  93592394.616 6      2342.164          41.000
G21  20773070.297 8 109163284.213 8      -773.031          50.000    20773069.305 8  85062276.383 8      -602.362          50.000
G26  20288447.812 8 106616503.281 8       315.035          51.000    20288449.898 8  83077815.806 8       245.482          51.000
G29  22956126.656 5 120635225.993 5     -2686.520          35.000
R11  23052425.195 5 123185178.690 5     -4496.348          33.000    23052431.109 5  95810715.602 5     -3497.162          31.000
R12  19775077.070 8 105634889.024 8     -2197.863          51.000    19775079.977 8  82160470.055 8     -1709.449          48.000
R21  22943442.633 5 122775003.763 5     -3511.047          33.000    22943448.281 5  95491679.113 5     -2730.817          30.000
R22  19578753.930 5 104512690.067 5     -1285.719          33.000    19578755.867 4  81287675.530 4     -1000.007          26.000
R23  21240942.773 4 113624775.539 4      2607.891          28.000    21240956.445 4  88374822.554 4      2028.359          26.000
C05  39618902.383 5 206306020.750 5         8.441          34.000    39618902.867 5 159528903.740 5         6.120          34.000
C11  21879037.664 8 113929916.378 8      -575.289          51.000    21879037.594 8  88097864.017 8      -444.850          51.000
C12                                                                  24551887.195 5  98860306.019 5     -1980.642          31.000
C23  22882950.711 5 119157557.892 5      -292.504          33.000
C25  23985209.773 8 124897261.937 8     -2949.727          49.000
C28  25156972.219 5 130999042.150 5      2608.859          32.000
E13  23206792.828 8 121952530.960 8      -566.891          51.000    23206794.648 8  93444170.099 8      -434.362          51.000
E15  26070040.969 5 136998993.850 5     -2515.984          35.000
E21  23644613.367 8 124253279.335 8      -807.137          51.000    23644615.508 8  95207044.659 8      -618.479          51.000
E26  23874104.023 8 125459259.659 8      1963.211          48.000    23874108.180 8  96131198.284 8      1504.273          51.000
E27  26161289.992 8 137478459.112 8     -2901.922          51.000    26161289.672 8 105340640.378 8     -2223.628          48.000
> 2020 05 12 13 45 30.0000000  0 21        .000000000000
G18  20401953.719 8 107213064.876 8      -726.699          51.000    20401953.867 8  83542632.104 8      -566.259          51.000
G20  22839056.438 7 120020073.589 7      3008.223          44.000    22839056.633 7  93522185.672 7      2344.070          42.000
G21  20777514.070 8 109186636.133 8      -776.598          50.000    20777513.172 8  85080472.695 8      -605.141          50.000
G26  20286688.484 8 106607257.929 8       308.570          51.000    20286690.609 8  83070611.638 8       240.444          51.000
G29  22971461.461 5 120715849.656 5     -2680.066          31.000
R11  23077671.055 5 123320089.409 5     -4490.281          33.000    23077678.266 5  95915645.997 5     -3492.447          31.000
R12  19787477.742 8 105701130.376 8     -2210.914          51.000    19787479.914 8  82211991.090 8     -1719.600          48.000
R21  22963117.289 5 122880289.901 5     -3499.781          31.000    22963122.891 4  95573568.362 4     -2722.052          29.000
R22  19586008.055 5 104551414.124 5     -1288.457          34.000    19586009.445 5  81317794.243 5     -1002.136          31.000
R23  21226337.055 5 113546643.327 5      2607.727          34.000    21226350.633 4  88314052.961 4      2028.232          26.000
C05  39618845.375 5 206305723.178 5        18.422          34.000
C11  21882367.156 8 113947254.411 8      -573.520          51.000    21882367.031 8  88111270.887 8      -443.524          51.000
C12  24566633.977 5 127924897.677 5     -2553.578          32.000    24566644.602 5  98919714.861 5     -1974.782          30.000
C23  22884664.836 6 119166539.237 6      -299.078          36.000
C25  24002217.672 8 124985831.381 8     -2947.648          48.000
C28  25141946.414 5 130920796.015 5      2614.598          34.000
E13  23210046.852 8 121969630.499 8      -565.938          51.000    23210048.742 8  93457272.341 8      -433.643          51.000
E15  26084401.578 6 137074462.459 6     -2507.898          37.000
E21  23649249.852 8 124277644.127 8      -810.043          51.000    23649252.156 8  95225713.770 8      -620.679          51.000
E26  23862909.938 8 125400434.597 8      1965.586          50.000    23862914.828 8  96086124.537 8      1506.074          51.000
E27  26177862.672 8 137565551.982 8     -2897.195          50.000    26177862.672 8 105407373.811 8     -2219.926          48.000
> 2020 05 12 13 46  0.0000000  0 20        .000000000000
G18  20406197.148 8 107235363.220 8      -754.652          51.000    20406197.375 8  83560007.463 8      -588.038          51.000
G20  22821952.141 7 119930188.635 7      2989.434          46.000    22821952.867 7  93452145.460 7      2329.429          42.000
G21  20782032.227 8 109210378.784 8      -801.043          51.000    20782031.195 8  85098973.471 8      -624.189          50.000
G26  20285020.867 8 106598494.770 8       281.070          51.000    20285023.062 8  83063783.192 8       219.016          51.000
R11  23102940.969 5 123455126.266 5     -4506.219          34.000    23102947.992 4  96020674.572 4     -3504.837          29.000
R12  19800005.312 8 105768050.093 8     -2245.039          51.000    19800007.461 8  82264039.750 8     -1746.141          49.000
R21  22982789.133 5 122985563.090 5     -3512.266          32.000    22982796.352 5  95655447.467 5     -2731.765          30.000
R22  19593333.047 5 104590515.776 5     -1312.219          34.000    19593337.312 4  81348206.719 4     -1020.615          29.000
R23  21211793.938 6 113468833.234 6      2585.184          39.000    21211806.328 4  88253533.941 4      2010.695          24.000
C05  39618784.070 5 206305403.918 5         7.613          35.000
C11  21885739.625 8 113964815.339 8      -592.129          51.000    21885739.273 8  88124850.115 8      -457.950          51.000
C12  24581397.570 4 128001752.022 4     -2565.977          28.000    24581408.695 5  98979143.382 5     -1983.236          31.000
C23  22886478.336 6 119176007.332 6      -326.805          37.000
C25  24019267.117 8 125074616.611 8     -2966.152          49.000
C28  25126938.359 6 130842642.464 6      2600.449          38.000
E13  23213348.695 8 121986982.149 8      -585.707          51.000    23213350.922 8  93470567.769 8      -448.789          51.000
E15  26098769.180 6 137149967.432 6     -2520.785          37.000    26098777.844 5 105088956.904 5     -1931.286          33.000
E21  23653956.203 8 124302375.663 8      -833.629          51.000    23653958.039 8  95244663.902 8      -638.740          51.000
E26  23851755.891 8 125341818.153 8      1947.227          51.000    23851761.000 8  96041210.660 8      1492.046          51.000
E27  26194461.391 8 137652782.787 8     -2913.086          49.000    26194462.328 7 105474212.918 7     -2232.159          47.000
> 2020 05 12 13 46 30.0000000  0 20        .000000000000
G18  20410539.359 8 107258181.000 8      -768.391          51.000    20410539.320 8  83577787.559 8      -598.746          50.000
G20  22804894.531 7 119840548.245 7      2984.723          47.000    22804895.836 7  93382295.845 7      2325.758          42.000
G21  20786629.242 8 109234535.879 8      -811.215          50.000    20786628.180 8  85117797.184 8      -632.115          50.000
G26  20283449.883 8 106590239.835 8       267.488          51.000    20283452.352 8  83057350.772 8       208.432          51.000
G31  23480397.789 5 123390334.508 5     -3191.930          32.000    23480391.312 5  96148271.865 5     -2487.221          33.000
R11  23128239.188 5 123590311.241 5     -4507.848          32.000    23128246.422 5  96125818.379 5     -3506.107          30.000
R12  19812664.352 8 105835671.416 8     -2264.926          51.000    19812666.758 8  82316634.135 8     -1761.609          49.000
R21  23002464.016 5 123090847.390 5     -3508.297          34.000    23002472.516 5  95737335.188 5     -2728.678          31.000
R23  21197316.008 6 113391371.035 6      2577.266          41.000
C05  39618723.234 5 206305087.859 5        11.555          34.000
C11  21889159.664 8 113982623.289 8      -596.922          51.000    21889159.016 8  88138620.336 8      -461.542          51.000
C12                                                                  24596182.195 5  99038610.314 5     -1981.826          31.000
C23  22888391.891 6 119185986.931 6      -340.883          36.000
C25  24036363.320 8 125163640.389 8     -2970.586          49.000
C28  25111953.812 6 130764606.965 6      2599.926          37.000
E13  23216703.086 8 122004610.122 8      -591.395          51.000    23216705.242 8  93484074.915 8      -453.117          51.000
E15  26113148.305 6 137225532.810 6     -2519.234          38.000    26113154.883 5 105146857.663 5     -1930.236          35.000
E21  23658737.156 8 124327499.041 8      -843.109          51.000    23658738.656 8  95263914.286 8      -646.052          51.000
E26  23840646.461 8 125283435.779 8      1942.957          51.000    23840650.719 8  95996476.120 8      1488.795          51.000
E27  26211090.914 8 137740175.387 8     -2914.980          48.000    26211092.773 7 105541175.997 7     -2233.622          47.000
> 2020 05 12 13 47  0.0000000  0 21        .000000000000
G18  20414992.047 8 107281579.877 8      -790.004          51.000    20414991.797 8  83596020.460 8      -615.587          51.000
G20  22787896.148 8 119751218.495 8      2972.094          49.000    22787897.391 7  93312688.288 7      2315.920          43.000
G21  20791316.664 8 109259168.904 8      -829.297          51.000    20791315.789 8  85136991.767 8      -646.205          51.000
G26  20281987.812 8 106582557.050 8       246.180          51.000    20281990.500 8  83051364.180 8       191.828          51.000
G31  23498653.625 5 123486268.345 5     -3202.379          34.000    23498649.258 5  96223025.426 5     -2495.360          33.000
R11  23153576.438 5 123725705.395 5     -4517.434          31.000    23153583.969 5  96231124.720 5     -3513.562          31.000
R12  19825466.195 8 105904055.983 8     -2292.559          51.000    19825469.305 8  82369822.124 8     -1783.101          50.000
R21  23022153.711 5 123196205.349 5     -3513.938          32.000    23022161.711 4  95819280.210 4     -2733.062          29.000
R22  19608220.875 5 104670030.684 5     -1340.102          32.000
R23  21182914.172 6 113314321.534 6      2560.969          38.000
C05  39618674.852 5 206304835.645 5         6.922          35.000
C11  21892638.898 8 114000740.016 8      -609.355          51.000    21892638.078 8  88152629.334 8      -471.171          51.000
C12  24610953.672 5 128155703.370 5     -2569.262          32.000    24610975.211 5  99098163.722 5     -1986.725          30.000
C23  22890416.406 5 119196540.323 5      -361.727          32.000
C25  24053517.422 8 125252963.048 8     -2982.707          51.000
C28  25097004.062 6 130686752.265 6      2591.758          40.000
E13  23220121.781 8 122022576.467 8      -604.863          51.000    23220123.812 8  93497841.320 8      -463.479          51.000
E15  26127551.367 5 137301220.562 5     -2525.406          35.000    26127556.273 6 105204852.173 6     -1935.144          36.000
E21  23663604.648 8 124353077.308 8      -860.547          51.000    23663606.211 8  95283513.210 8      -659.377          51.000
E26  23829593.461 8 125225350.774 8      1930.797          51.000    23829596.906 8  95951969.435 8      1479.439          51.000
E27  26227763.055 7 137827791.620 7     -2924.605          47.000    26227765.586 7 105608310.427 7     -2240.875          47.000
> 2020 05 12 13 47 30.0000000  0 21        .000000000000
G18  20419558.930 8 107305579.342 8      -801.953          51.000    20419558.922 8  83614721.350 8      -624.899          50.000
G20  22770961.383 8 119662222.994 8      2968.996          50.000    22770962.305 7  93243341.194 7      2313.503          42.000
G21  20796098.430 8 109284297.470 8      -837.832          50.000    20796097.570 8  85156572.464 8      -652.856          50.000
G26  20280638.859 8 106575468.213 8       234.461          51.000    20280641.438 8  83045840.396 8       182.697          51.000
G31  23516956.289 5 123582454.192 5     -3202.047          33.000    23516955.656 5  96297975.373 5     -2495.098          34.000
R11  23178957.125 5 123861325.806 5     -4516.312          33.000    23178963.617 5  96336607.119 5     -3512.694          31.000
R12  19838414.289 8 105973222.441 8     -2310.473          51.000    19838418.008 8  82423618.233 8     -1797.034          50.000
R21  23041860.203 5 123301656.428 5     -3507.961          34.000    23041868.039 4  95901297.773 4     -2728.414          29.000
R22  19615794.094 5 104710443.080 5     -1348.504          30.000
R23  21168592.227 5 113237706.830 5      2555.277          35.000
C05  39618642.789 5 206304668.822 5        11.988          35.000
C11  21896181.125 8 114019185.416 8      -612.398          51.000    21896180.266 8  88166892.497 8      -473.576          51.000
C12  24625760.891 4 128232805.825 4     -2565.156          29.000
C23  22892556.648 5 119207687.925 5      -373.543          34.000
C25  24070732.422 8 125342602.997 8     -2985.332          51.000
C28  25082093.695 6 130609099.376 6      2593.016          40.000
E13  23223608.477 8 122040901.086 8      -608.805          51.000    23223610.961 8  93511882.242 8      -466.529          51.000
E15  26141981.625 5 137377050.514 5     -2522.035          35.000    26141985.820 6 105262955.597 6     -1932.457          36.000
E21  23668562.352 8 124379131.232 8      -868.469          51.000    23668564.227 8  95303476.603 8      -665.396          51.000
E26  23818600.906 8 125167584.235 8      1928.242          51.000    23818603.930 8  95907706.776 8      1477.487          51.000
E27  26244481.719 7 137915651.095 7     -2924.668          47.000    26244484.883 7 105675631.272 7     -2240.955          47.000
> 2020 05 12 13 48  0.0000000  0 21        .000000000000
G18  20424200.219 8 107329969.714 8      -822.691          51.000    20424200.242 8  83633726.845 8      -641.058          50.000
G20  22754051.000 8 119573356.687 8      2956.895          49.000    22754051.695 7  93174094.764 7      2304.077          43.000
G21  20800934.445 8 109309711.532 8      -854.992          50.000    20800933.789 8  85176375.635 8      -666.225          50.000
G26  20279363.508 8 106568765.848 8       213.766          51.000    20279365.953 8  83040617.787 8       166.571          51.000
G31  23535267.406 5 123678681.153 5     -3211.879          33.000    23535269.984 5  96372957.330 5     -2502.766          32.000
R11  23204340.070 6 123996957.759 6     -4524.066          36.000    23204345.070 5  96442098.476 5     -3518.724          31.000
R12  19851468.594 8 106042956.668 8     -2337.223          51.000    19851472.477 8  82477855.945 8     -1817.840          49.000
R21  23061544.789 5 123406987.207 5     -3512.934          31.000    23061551.258 4  95983221.761 4     -2732.282          26.000
R22  19623431.227 6 104751157.595 6     -1364.539          38.000
R23  21154311.266 5 113161314.954 5      2539.129          33.000
C05  39618587.734 5 206304382.079 5         8.590          35.000
C11  21899746.844 8 114037752.254 8      -624.020          51.000    21899745.859 8  88181249.554 8      -482.519          51.000
C12  24640557.203 4 128309849.838 4     -2571.703          28.000
C23  22894770.562 5 119219223.043 5      -394.176          31.000
C25  24087967.875 8 125432351.644 8     -2996.539          50.000
C28  25067182.773 6 130531442.195 6      2585.258          41.000
E13  23227123.648 8 122059374.637 8      -621.379          51.000    23227126.523 8  93526037.305 8      -476.089          51.000
E15  26156399.180 6 137452813.233 6     -2527.469          38.000    26156402.953 6 105321007.527 6     -1936.838          36.000
E21  23673570.578 8 124405452.445 8      -884.961          51.000    23673572.812 8  95323644.817 8      -678.081          51.000
E26  23807629.570 8 125109928.138 8      1916.938          51.000    23807632.602 8  95863528.748 8      1468.819          51.000
E27  26261207.062 7 138003544.319 7     -2933.527          46.000    26261210.984 8 105742977.986 8     -2247.759          48.000
> 2020 05 12 13 48 30.0000000  0 18        .000000000000
G18  20428943.352 8 107354895.361 8      -840.316          51.000    20428943.164 8  83653149.441 8      -654.792          50.000
G20  22737192.883 7 119484767.936 7      2947.762          47.000    22737193.477 7  93105064.628 7      2296.957          43.000
G21  20805852.188 8 109335555.273 8      -869.203          50.000    20805851.844 8  85196513.609 8      -677.301          50.000
G26  20278189.547 8 106562596.604 8       196.219          51.000    20278192.305 8  83035810.579 8       152.898          51.000
G31  23553614.453 4 123775091.901 4     -3216.695          29.000    23553619.016 4  96448082.521 4     -2506.522          28.000
R11  23229752.391 5 124132745.593 5     -4529.082          35.000    23229754.516 4  96547711.080 4     -3522.625          29.000
R12  19864656.477 8 106113404.326 8     -2360.762          51.000    19864660.031 8  82532648.541 8     -1836.148          48.000
R23  21140100.031 5 113085294.861 5      2527.359          33.000
C05  39618537.039 5 206304117.841 5         7.816          35.000
C11  21903363.562 8 114056584.435 8      -632.695          51.000    21903362.375 8  88195811.787 8      -489.231          51.000
C12                                                                  24655397.305 5  99277067.888 5     -1989.534          31.000
C25  24105251.258 8 125522351.255 8     -3004.793          50.000
C28  25052298.594 6 130453925.514 6      2580.922          40.000
E13  23230694.930 8 122078141.957 8      -630.945          51.000    23230697.508 8  93540417.461 8      -483.437          51.000
E15  26170831.492 6 137528653.409 6     -2529.527          37.000    26170834.477 5 105379118.792 5     -1938.416          35.000
E21  23678657.570 8 124432186.661 8      -898.520          51.000    23678660.023 8  95344129.499 8      -688.464          51.000
E26  23796706.953 8 125052528.515 8      1908.484          51.000    23796710.453 8  95819547.240 8      1462.411          51.000
E27  26277966.680 7 138091615.837 7     -2939.121          46.000    26277971.227 8 105810461.316 8     -2252.054          49.000
> 2020 05 12 13 49  0.0000000  0 17        .000000000000
G18  20433785.445 8 107380340.655 8      -856.754          51.000    20433785.148 8  83672976.947 8      -667.600          50.000
G20  22720385.219 7 119396445.557 7      2939.594          46.000    22720386.531 7  93036242.014 7      2290.593          45.000
G21  20810848.773 8 109361812.902 8      -882.109          50.000    20810848.469 8  85216974.091 8      -687.358          49.000
G26  20277114.406 8 106556947.084 8       179.664          51.000    20277117.445 8  83031408.356 8       139.998          51.000
R11  23255190.406 5 124268671.779 5     -4533.289          35.000    23255190.703 5  96653431.298 5     -3525.898          31.000
R12  19877975.000 8 106184548.353 8     -2383.066          51.000    19877977.688 8  82587982.764 8     -1853.499          48.000
R22  19638906.820 5 104833797.728 5     -1390.797          30.000    19638914.258 4  81537447.380 4     -1081.749          26.000
C05  39618488.328 5 206303864.033 5         8.367          35.000
C11  21907028.172 8 114075666.957 8      -640.238          51.000    21907026.852 8  88210567.607 8      -495.058          51.000
C12  24670222.008 5 128464243.256 5     -2574.305          34.000    24670216.867 5  99336772.973 5     -1990.151          31.000
C25  24122580.016 8 125612585.503 8     -3011.637          51.000
C28  25037438.859 6 130376535.528 6      2577.508          40.000
E13  23234319.211 8 122097187.815 8      -639.441          51.000    23234321.312 8  93555011.050 8      -490.030          51.000
E15  26185275.469 5 137604555.851 5     -2531.078          35.000
E21  23683820.586 8 124459319.592 8      -911.086          51.000    23683823.391 8  95364919.667 8      -698.066          51.000
E26  23785829.859 8 124995371.421 8      1901.145          50.000    23785834.016 8  95775751.556 8      1456.733          51.000
E27  26294757.773 7 138179850.153 7     -2943.789          47.000    26294762.453 8 105878069.381 8     -2255.658          49.000
> 2020 05 12 13 49 30.0000000  0 17        .000000000000
G18  20438720.703 8 107406275.798 8      -870.176          51.000    20438720.477 8  83693186.161 8      -678.059          49.000
G20  22703623.539 7 119308363.839 7      2934.406          46.000    22703625.391 7  92967606.950 7      2286.550          44.000
G21  20815918.445 8 109388454.482 8      -892.082          49.000    20815918.086 8  85237733.760 8      -695.129          49.000
G26  20276132.945 8 106551789.757 8       166.047          51.000    20276136.164 8  83027389.651 8       129.387          51.000
R11  23280647.961 5 124404703.493 5     -4533.938          34.000    23280648.445 5  96759233.561 5     -3526.405          31.000
R12  19891417.867 8 106256357.470 8     -2402.250          51.000    19891420.242 8  82643834.268 8     -1868.420          48.000
C05  39618435.742 5 206303590.492 5        11.844          35.000
C11  21910735.312 8 114094970.968 8      -644.770          51.000    21910733.758 8  88225494.703 8      -498.522          51.000
C12  24685050.117 5 128541461.868 5     -2572.609          30.000    24685035.273 5  99396483.219 5     -1988.985          35.000
C23  22902024.648 4 119256852.623 4      -441.500          29.000
C25  24139948.336 8 125703024.115 8     -3015.551          51.000
C28  25022597.289 6 130299244.460 6      2577.281          40.000
E13  23237990.922 8 122116482.865 8      -644.902          51.000    23237993.156 8  93569795.565 8      -494.134          51.000
E15  26199724.797 5 137680482.161 5     -2529.613          32.000
E21  23689054.203 8 124486822.733 8      -920.535          51.000    23689057.305 8  95385993.491 8      -705.321          51.000
E26  23774993.273 8 124938428.645 8      1896.965          49.000    23774997.750 8  95732120.100 8      1453.522          51.000
E27  26311574.359 7 138268217.636 7     -2945.277          47.000    26311578.734 8 105945779.490 8     -2256.768          49.000
> 2020 05 12 13 50  0.0000000  0 16        .000000000000
G18  20443759.844 8 107432756.458 8      -891.168          51.000    20443759.328 8  83713820.423 8      -694.417          49.000
G20  22686919.203 7 119220583.103 7      2921.531          46.000    22686921.023 7  92899206.412 7      2276.521          43.000
G21  20821071.859 8 109415535.920 8      -909.469          49.000    20821071.383 8  85258836.175 8      -708.677          49.000
G26  20275256.242 8 106547182.499 8       144.887          51.000    20275259.570 8  83023799.571 8       112.899          51.000
R11  23306134.508 5 124540895.363 5     -4541.633          34.000    23306136.000 4  96865160.365 4     -3532.384          29.000
R12  19904995.023 8 106328886.949 8     -2428.965          51.000    19904998.031 8  82700246.044 8     -1889.198          48.000
C05  39618390.477 5 206303354.894 5         7.824          35.000
C11  21914495.625 8 114114552.441 8      -656.824          51.000    21914494.094 8  88240636.336 8      -507.871          51.000
C12  24699890.867 5 128618816.142 5     -2576.660          30.000    24699876.469 6  99456255.847 6     -1992.996          36.000
C23  22904639.211 5 119270471.003 5      -462.641          35.000
C25  24157366.109 8 125793721.463 8     -3026.992          50.000
C28  25007784.141 6 130222109.172 6      2569.395          39.000
E13  23241720.656 8 122136083.229 8      -657.879          51.000    23241723.422 8  93584814.020 8      -504.008          51.000
E21  23694369.320 8 124514753.052 8      -937.512          51.000    23694372.359 8  95407394.632 8      -718.401          51.000
E26  23764208.711 8 124881757.521 8      1885.066          51.000    23764213.039 8  95688696.811 8      1444.399          51.000
E27  26328426.703 7 138356774.173 7     -2954.504          47.000    26328430.539 8 106013634.435 8     -2263.781          48.000
> 2020 05 12 13 50 30.0000000  0 19        .000000000000
G18  20448910.211 8 107459821.943 8      -908.621          51.000    20448909.641 8  83734910.420 8      -708.016          49.000
G20  22670280.312 7 119133146.734 7      2911.941          46.000    22670281.844 6  92831074.220 6      2269.048          41.000
G21  20826316.484 8 109443096.444 8      -923.438          49.000    20826315.812 8  85280311.896 8      -719.562          49.000
G26  20274492.227 8 106543166.903 8       127.270          51.000    20274495.320 8  83020670.549 8        99.171          51.000
G27  23236122.383 6 122106654.528 6      2804.371          36.000
R11  23331657.922 6 124677285.422 6     -4546.191          36.000    23331658.203 4  96971238.445 4     -3535.927          27.000
R12  19918714.102 8 106402175.784 8     -2452.312          51.000    19918718.242 8  82757248.433 8     -1907.354          48.000
R22  19662717.359 5 104960919.041 5     -1429.773          33.000
R23  21083935.047 5 112784849.662 5      2479.891          35.000
C05  39618360.250 5 206303197.715 5         7.219          34.000
C11  21918316.695 8 114134450.919 8      -665.258          51.000    21918315.516 8  88256023.097 8      -514.383          51.000
C12                                                                  24714744.750 4  99516121.618 4     -1994.216          29.000
C23  22907369.336 5 119284674.632 5      -480.324          32.000
C25  24174840.688 8 125884715.709 8     -3034.883          48.000
C28  24993006.047 6 130145170.497 6      2564.777          37.000
E13  23245515.977 8 122156028.719 8      -667.293          51.000    23245518.992 8  93600096.921 8      -511.299          51.000
E21  23699773.609 8 124543151.310 8      -951.066          51.000    23699776.320 8  95429154.313 8      -728.772          51.000
E26  23753484.297 8 124825399.123 8      1876.734          51.000    23753488.039 8  95645513.139 8      1438.041          51.000
E27  26345322.406 7 138445559.280 7     -2959.961          47.000    26345325.531 7 106081664.527 7     -2268.070          46.000
> 2020 05 12 13 51  0.0000000  0 18        .000000000000
G18  20454139.383 8 107487301.429 8      -917.707          51.000    20454139.094 8  83756323.009 8      -715.096          50.000
G20  22653675.477 7 119045887.937 7      2910.762          46.000    22653675.438 6  92763080.359 6      2268.126          39.000
G21  20831619.633 8 109470965.000 8      -928.871          48.000    20831618.906 8  85302027.654 8      -723.796          48.000
G26  20273808.648 8 106539574.329 8       117.809          51.000    20273811.469 8  83017871.139 8        91.799          51.000
G29  23141694.039 5 121610415.935 5     -2723.715          33.000    23141685.719 5  94761349.216 5     -2122.375          34.000
R11  23357185.930 6 124813698.096 6     -4542.348          37.000    23357185.734 5  97077337.019 5     -3532.943          30.000
R12  19932542.727 8 106476048.971 8     -2466.918          51.000    19932548.086 8  82814705.351 8     -1918.717          48.000
R22  19670771.719 5 105003961.934 5     -1434.852          35.000    19670764.914 4  81669712.829 4     -1115.993          29.000
R23  21070048.266 5 112710593.201 5      2476.656          33.000
C05  39618312.805 5 206302950.001 5        14.785          34.000
C11  21922166.422 8 114154497.839 8      -665.590          51.000    21922165.500 8  88271524.646 8      -514.555          51.000
C23  22910174.281 5 119299295.387 5      -488.871          35.000
C25  24192339.117 7 125975836.781 7     -3034.254          46.000
C28  24978230.625 5 130068260.792 5      2568.613          35.000
E13  23249344.688 8 122176148.903 8      -668.309          51.000    23249347.570 8  93615513.672 8      -512.075          51.000
E21  23705234.805 8 124571847.868 8      -956.246          51.000    23705237.219 8  95451142.571 8      -732.750          51.000
E26  23742787.477 8 124769184.223 8      1876.715          51.000    23742790.742 8  95602439.418 8      1438.005          51.000
E27  26362229.000 7 138534402.311 7     -2957.082          46.000    26362231.297 7 106149738.951 7     -2265.855          44.000
> 2020 05 12 13 51 30.0000000  0 16        .000000000000
G18  20459472.844 8 107515329.148 8      -943.918          50.000    20459472.398 8  83778162.795 8      -735.520          49.000
G20  22637131.164 7 118958945.985 7      2892.270          47.000    22637128.656 6  92695333.437 6      2253.723          38.000
G21  20837007.102 8 109499275.795 8      -951.473          49.000    20837006.211 8  85324088.008 8      -741.407          49.000
G26  20273231.477 8 106536541.353 8        91.297          51.000    20273234.406 8  83015507.774 8        71.140          51.000
R11  23382743.383 5 124950267.764 5     -4555.477          35.000    23382743.922 5  97183557.693 5     -3543.158          30.000
R12  19946506.422 8 106550641.748 8     -2499.000          51.000    19946512.477 7  82872721.944 7     -1943.670          47.000
R22  19678913.312 5 105047448.707 5     -1456.965          35.000    19678909.047 4  81703491.849 4     -1133.198          29.000
R23  21056239.094 6 112636733.066 6      2454.902          37.000
C11  21926070.398 8 114174827.024 8      -682.855          51.000    21926069.648 8  88287244.456 8      -527.961          51.000
C23  22913085.758 5 119314467.321 5      -515.680          34.000
C25  24209887.211 7 126067217.018 7     -3050.828          45.000
C28  24963489.000 6 129991514.913 6      2554.863          37.000
E13  23253232.297 8 122196578.594 8      -686.590          51.000    23253235.336 8  93631167.572 8      -526.124          51.000
E21  23710778.680 8 124600978.397 8      -978.719          51.000    23710781.172 8  95473463.346 8      -749.900          51.000
E26  23732143.852 8 124713248.892 8      1859.324          51.000    23732146.812 8  95559579.886 8      1424.749          51.000
E27  26379172.469 7 138623437.758 7     -2971.441          45.000    26379173.672 7 106217960.782 7     -2276.804          43.000
> 2020 05 12 13 52  0.0000000  0 17        .000000000000
G18  20464895.555 8 107543826.238 8      -957.621          50.000    20464895.000 8  83800368.298 8      -746.198          49.000
G20  22620633.133 8 118872246.108 8      2886.031          49.000    22620627.438 5  92627775.149 5      2248.859          35.000
G21  20842463.695 8 109527949.748 8      -961.723          49.000    20842462.672 8  85346431.345 8      -749.394          49.000
G26  20272746.297 8 106533991.216 8        77.062          51.000    20272749.305 8  83013520.651 8        60.049          51.000
R11  23408315.297 6 125086912.473 6     -4555.934          36.000    23408316.094 5  97289836.693 5     -3543.507          30.000
R12  19960590.430 8 106625872.891 8     -2518.211          51.000    19960595.734 7  82931235.014 7     -1958.612          46.000
R22  19687119.523 5 105091277.745 5     -1466.945          32.000    19687125.297 5  81737581.209 5     -1140.951          33.000
R23  21042490.000 5 112563191.121 5      2446.324          31.000
C05  39618229.320 5 206302516.145 5         8.344          35.000
C11  21930013.602 8 114195360.954 8      -687.773          51.000    21930013.195 8  88303122.604 8      -531.845          51.000
C23  22916087.633 5 119330113.431 5      -528.828          32.000
C25  24227469.805 7 126158777.457 7     -3054.832          44.000
C28  24948766.047 6 129914856.349 6      2553.785          36.000
E13  23257163.852 8 122217239.326 8      -692.422          51.000    23257167.094 8  93646998.524 8      -530.572          51.000
E21  23716390.258 8 124630465.292 8      -988.770          51.000    23716393.008 8  95496057.183 8      -757.623          51.000
E26  23721538.070 8 124657515.833 8      1854.457          51.000    23721541.414 8  95516875.336 8      1420.951          51.000
E27  26396138.016 7 138712586.933 7     -2973.379          43.000    26396138.500 7 106286269.758 7     -2278.288          43.000
> 2020 05 12 13 52 30.0000000  0 16        .000000000000
G18  20470409.477 8 107572803.163 8      -974.820          50.000    20470409.336 8  83822947.724 8      -759.600          49.000
G20  22604184.148 8 118785803.325 8      2876.371          49.000    22604176.203 6  92560417.159 6      2241.331          37.000
G21  20847991.336 8 109556997.267 8      -975.320          50.000    20847990.312 8  85369065.776 8      -759.990          49.000
G26  20272355.438 8 106531936.700 8        59.254          51.000    20272358.320 8  83011919.731 8        46.172          51.000
R11  23433902.570 6 125223640.673 6     -4559.965          37.000    23433903.016 4  97396180.685 4     -3546.645          29.000
R12  19974795.914 8 106701751.808 8     -2541.000          51.000    19974799.938 7  82990251.899 7     -1976.336          46.000
R22  19695395.008 6 105135459.083 6     -1479.359          38.000    19695402.094 5  81771944.546 5     -1150.613          32.000
C05  39618180.695 5 206302262.174 5         7.938          35.000
C11  21933998.312 8 114216110.900 8      -696.059          51.000    21933998.242 8  88319167.781 8      -538.261          51.000
C23  22919184.062 5 119346245.146 5      -546.652          34.000
C25  24245088.086 6 126250527.756 6     -3062.246          41.000
C28  24934063.836 6 129838297.356 6      2549.352          38.000
E13  23261141.578 8 122238142.117 8      -701.629          51.000    23261144.523 8  93663014.943 8      -537.579          51.000
E21  23722071.508 8 124660320.382 8     -1002.070          51.000    23722074.656 8  95518933.140 8      -767.865          51.000
E26  23710972.766 8 124601997.281 8      1846.215          51.000    23710976.844 8  95474335.151 8      1414.653          51.000
E27  26413127.570 6 138801860.528 6     -2978.809          40.000    26413127.766 7 106354674.094 7     -2282.284          45.000
> 2020 05 12 13 53  0.0000000  0 17        .000000000000
G18  20475994.086 8 107602151.135 8      -990.566          50.000    20475993.961 8  83845816.252 8      -771.873          49.000
G20  22587764.117 8 118699513.110 8      2867.672          49.000    22587757.078 6  92493178.082 6      2234.550          38.000
G21  20853569.391 8 109586309.518 8      -987.602          50.000    20853568.250 8  85391906.491 8      -769.560          50.000
G26  20272038.594 8 106530271.213 8        42.809          51.000    20272041.320 8  83010621.951 8        33.360          51.000
G29  23204194.891 5 121938816.369 5     -2744.113          34.000    23204189.250 5  95017280.267 5     -2138.273          33.000
R11  23459483.562 5 125360339.876 5     -4562.180          35.000    23459483.781 4  97502508.088 4     -3548.368          27.000
R12  19989100.977 8 106778166.689 8     -2562.367          50.000    19989104.250 7  83049685.681 7     -1992.952          46.000
R22  19703715.484 6 105179881.686 6     -1491.047          41.000    19703720.953 5  81806511.915 5     -1159.706          30.000
R23  21015166.094 5 112416980.830 5      2422.492          33.000
C11  21938004.141 8 114236969.658 8      -703.195          51.000    21938004.133 8  88335297.092 8      -543.831          51.000
C23  22922355.836 6 119362755.610 6      -562.441          36.000
C25  24262720.977 6 126342359.395 6     -3068.387          38.000
C28  24919361.125 6 129761731.944 6      2546.457          40.000
E13  23265144.859 8 122259178.689 8      -709.645          51.000    23265147.297 8  93679133.866 8      -543.754          51.000
E21  23727802.133 8 124690436.264 8     -1014.441          51.000    23727805.531 8  95542008.918 8      -777.284          51.000
E26  23700428.211 8 124546586.171 8      1839.020          51.000    23700432.820 8  95431877.291 8      1409.137          51.000
E27  26430118.969 6 138891149.946 6     -2982.383          37.000    26430120.086 7 106423090.666 7     -2285.454          47.000
> 2020 05 12 13 53 30.0000000  0 17        .000000000000
G18  20481726.273 8 107632274.194 8     -1008.727          50.000    20481726.203 8  83869288.761 8      -786.021          50.000
G20  22571450.586 8 118613783.801 8      2856.754          48.000    22571445.148 6  92426376.055 6      2226.042          40.000
G21  20859274.711 8 109616290.676 8     -1002.027          50.000    20859273.523 8  85415268.434 8      -780.801          50.000
G26  20271872.859 8 106529401.071 8        24.145          51.000    20271875.617 8  83009943.904 8        18.811          51.000
R11  23485135.914 5 125497419.231 5     -4567.859          32.000
R12  20003582.688 8 106855526.991 8     -2585.871          51.000    20003585.695 7  83109854.811 7     -2011.233          46.000
R22  19712158.453 6 105224955.299 6     -1504.680          37.000    19712162.352 5  81841564.586 5     -1170.306          30.000
R23  21001644.055 5 112344627.267 5      2409.887          34.000
C05  39618088.117 5 206301780.116 5         6.941          34.000
C11  21942108.000 8 114258338.531 8      -712.414          51.000    21942107.891 8  88351820.854 8      -550.932          51.000
C23  22925678.539 5 119380046.465 5      -580.879          35.000
C25  24280448.516 6 126434672.014 6     -3076.664          39.000
C28  24904734.766 6 129685562.349 6      2540.551          40.000
E13  23269250.602 8 122280753.619 8      -719.652          51.000    23269252.797 8  93695665.304 8      -551.503          51.000
E21  23733659.609 8 124721218.276 8     -1028.766          51.000    23733662.875 8  95565595.129 8      -788.251          51.000
E26  23689981.688 8 124491688.244 8      1829.785          51.000    23689986.773 8  95389812.662 8      1402.043          51.000
E27  26447186.133 5 138980903.563 5     -2988.953          34.000    26447192.219 8 106491829.201 8     -2290.156          48.000
> 2020 05 12 13 54  0.0000000  0 19        .000000000000
G18  20487520.945 8 107662725.259 8     -1023.004          51.000    20487521.008 8  83893016.860 8      -797.146          49.000
G20  22555159.227 8 118528172.930 8      2849.160          48.000    22555156.109 7  92359666.338 7      2220.125          42.000
G21  20865022.117 8 109646493.492 8     -1012.879          50.000    20865021.102 8  85438803.106 8      -789.256          50.000
G26  20271773.883 8 106528881.448 8         9.051          51.000    20271776.469 8  83009538.986 8         7.053          51.000
G31  23757319.297 4 124845569.669 4     -3268.418          29.000
R11  23510773.922 5 125634422.062 5     -4567.727          31.000
R12  20018156.523 8 106933377.039 8     -2605.660          51.000    20018159.164 7  83170404.839 7     -2026.625          46.000
R22  19720639.586 6 105270225.303 6     -1514.293          36.000    19720644.836 5  81876774.640 5     -1177.780          32.000
R23  20988152.203 6 112272455.930 6      2400.055          40.000
C05  39618036.430 5 206301511.551 5         9.262          35.000
C11  21946224.797 8 114279775.318 8      -718.215          51.000    21946224.586 8  88368397.137 8      -555.363          51.000
C23  22929066.016 6 119397675.644 6      -595.484          36.000
C25  24298185.852 7 126527022.050 7     -3081.305          42.000
C28  24890099.773 6 129609347.295 6      2539.105          41.000
E13  23273373.812 8 122302420.415 8      -726.293          51.000    23273375.891 8  93712267.147 8      -556.558          51.000
E15  26330259.641 6 138366446.599 6     -2545.688          36.000    26330266.359 5 106021067.009 5     -1950.511          33.000
E21  23739558.984 8 124752220.758 8     -1039.691          51.000    23739562.055 8  95589350.268 8      -796.620          51.000
E26  23679548.156 8 124436858.200 8      1824.000          51.000    23679553.617 8  95347800.044 8      1397.565          51.000
E27  26464248.375 5 139070564.647 5     -2991.293          35.000    26464258.906 8 106560547.397 8     -2292.272          49.000
> 2020 05 12 13 54 30.0000000  0 18        .000000000000
G18  20493420.172 8 107693725.391 8     -1042.797          51.000    20493419.961 8  83917172.785 8      -812.569          49.000
G20  22538933.070 8 118442905.928 8      2836.020          48.000    22538931.781 7  92293224.536 7      2209.885          44.000
G21  20870853.867 8 109677139.070 8     -1029.199          51.000    20870852.688 8  85462682.752 8      -801.973          50.000
G26  20271784.305 8 106528935.556 8       -11.812          51.000    20271786.531 8  83009581.130 8        -9.205          51.000
G31  23776002.688 5 124943762.708 5     -3275.742          35.000    23776011.078 5  97358774.313 5     -2552.532          33.000
R11  23536441.586 5 125771571.218 5     -4574.207          32.000    23536450.047 4  97822398.147 4     -3557.717          26.000
R12  20032863.906 8 107011940.417 8     -2631.000          51.000    20032866.430 7  83231509.627 7     -2046.336          47.000
R22  19729199.766 6 105315915.776 6     -1530.301          39.000    19729205.125 5  81912311.616 5     -1190.234          32.000
R23  20974736.867 6 112200693.736 6      2385.141          36.000
C11  21950396.844 8 114301499.866 8      -729.230          51.000    21950396.516 8  88385195.940 8      -563.902          51.000
C23  22932561.664 6 119415863.155 6      -615.734          37.000
C25  24315972.336 7 126619627.822 7     -3091.410          44.000
C28  24875498.508 6 129533307.806 6      2531.398          38.000
E13  23277556.617 8 122324400.669 8      -738.281          51.000    23277558.414 8  93729109.155 8      -565.639          51.000
E15  26344808.078 6 138442900.743 6     -2550.461          36.000    26344813.719 5 106079648.702 5     -1954.384          33.000
E21  23745542.336 8 124783666.092 8     -1055.887          51.000    23745545.508 8  95613444.705 8      -809.017          51.000
E26  23669169.719 8 124382318.840 8      1812.766          51.000    23669175.289 8  95306010.161 8      1389.011          51.000
E27  26481350.898 6 139160442.484 6     -2999.469          38.000    26481362.180 8 106629414.787 8     -2298.291          49.000
> 2020 05 12 13 55  0.0000000  0 19        .000000000000
G18  20499375.258 8 107725019.422 8     -1050.375          51.000    20499374.953 8  83941557.738 8      -818.474          49.000
G20  22522724.633 8 118357732.033 8      2835.160          48.000    22522724.664 7  92226855.293 7      2209.216          45.000
G21  20876721.227 8 109707972.149 8     -1033.406          51.000    20876720.031 8  85486708.528 8      -805.252          50.000
G26  20271855.648 8 106529310.442 8       -20.211          51.000    20271857.656 8  83009873.230 8       -15.752          51.000
G29  23267027.555 5 122269008.048 5     -2752.051          34.000
G31  23794674.039 5 125041844.602 5     -3270.027          34.000    23794674.469 5  97435201.671 5     -2548.085          35.000
R11  23562087.281 5 125908605.397 5     -4567.363          30.000    23562092.969 4  97928980.067 4     -3552.400          26.000
R12  20047655.961 8 107090956.169 8     -2643.840          51.000    20047658.906 7  83292966.271 7     -2056.323          47.000
R22  19737790.219 6 105361766.745 6     -1533.316          38.000    19737795.188 5  81947973.456 5     -1192.579          32.000
C05  39617916.656 5 206300887.233 5        15.055          34.000
C11  21954575.625 8 114323260.108 8      -728.301          51.000    21954575.219 8  88402022.320 8      -563.017          51.000
C23  22936118.820 4 119434357.406 4      -624.137          29.000
C25  24333759.000 7 126712235.689 7     -3089.277          45.000
C28  24860882.133 6 129457192.844 6      2535.836          38.000
E13  23281750.461 8 122346439.754 8      -737.984          51.000    23281751.914 8  93745996.242 8      -565.436          51.000
E15  26359325.562 5 138519191.141 5     -2543.555          34.000    26359331.172 5 106138109.458 5     -1948.485          32.000
E21  23751561.711 8 124815300.418 8     -1060.035          51.000    23751564.914 8  95637683.978 8      -812.181          51.000
E26  23658798.078 8 124327816.701 8      1813.758          51.000    23658803.328 8  95264248.809 8      1389.756          51.000
E27  26498443.219 6 139250260.170 6     -2995.293          40.000    26498453.609 8 106698236.099 8     -2295.131          49.000
> 2020 05 12 13 55 30.0000000  0 17        .000000000000
G18  20505452.570 8 107756955.997 8     -1073.945          51.000    20505452.492 8  83966443.381 8      -836.841          50.000
G20  22506601.109 7 118273004.476 7      2818.027          47.000    22506601.789 7  92160833.822 7      2195.865          46.000
G21  20882690.578 8 109739341.155 8     -1053.363          51.000    20882689.359 8  85511151.914 8      -820.803          49.000
G26  20272054.750 8 106530356.997 8       -44.871          51.000    20272056.391 8  83010688.720 8       -34.968          51.000
G29  23282777.227 5 122351794.573 5     -2762.215          31.000
G31  23813397.430 5 125140198.477 5     -3281.723          33.000    23813388.445 5  97511840.960 5     -2557.190          32.000
R12  20062599.000 8 107170777.501 8     -2672.953          51.000    20062602.133 8  83355049.492 8     -2078.964          48.000
R22  19746477.219 5 105408131.767 5     -1552.887          35.000    19746481.477 5  81984035.223 5     -1207.801          32.000
C05  39617866.984 5 206300628.360 5         7.340          34.000
C11  21958827.852 8 114345402.428 8      -743.270          51.000    21958827.359 8  88419144.156 8      -574.631          51.000
C25  24351611.547 7 126805190.548 7     -3103.043          45.000
C28  24846314.438 5 129381349.682 5      2524.883          31.000
E13  23286021.883 8 122368886.892 8      -753.766          51.000    23286023.094 8  93763196.005 8      -577.567          51.000
E15                                                                  26373885.477 5 106196706.880 5     -1954.737          30.000
E21  23757683.945 8 124847473.739 8     -1080.188          51.000    23757686.852 8  95662336.251 8      -827.646          51.000
E26  23648500.031 8 124273702.237 8      1798.609          51.000    23648504.250 8  95222784.515 8      1378.179          51.000
E27  26515591.297 7 139340366.672 7     -3007.234          42.000    26515600.141 8 106767278.682 8     -2304.149          49.000
> 2020 05 12 13 56  0.0000000  0 18        .000000000000
G18  20511637.469 8 107789458.420 8     -1087.355          51.000    20511637.531 8  83991769.954 8      -847.290          49.000
G20  22490548.023 7 118188650.510 7      2810.938          44.000    22490549.844 7  92095103.459 7      2190.341          44.000
G21  20888747.336 8 109771169.611 8     -1063.098          50.000    20888745.992 8  85535953.313 8      -828.388          50.000
G26  20272367.477 8 106532000.730 8       -59.348          51.000    20272368.906 8  83011969.541 8       -46.245          51.000
G29  23298563.602 5 122434758.625 5     -2762.898          32.000
G31  23832144.758 6 125238748.354 6     -3282.633          38.000    23832139.391 6  97588633.329 6     -2557.899          38.000
R12  20077677.641 8 107251325.149 8     -2691.445          51.000    20077681.266 8  83417697.640 8     -2093.349          48.000
R22  19755246.070 6 105454932.811 6     -1561.738          36.000    19755249.852 5  82020435.986 5     -1214.685          32.000
R23  20934852.836 4 111987318.819 4      2353.598          29.000
C05  39617831.992 5 206300445.918 5        10.332          34.000
C11  21963139.188 8 114367851.643 8      -748.047          51.000    21963138.609 8  88436503.286 8      -578.301          51.000
C25  24369514.789 7 126898415.730 7     -3106.816          43.000
C28  24831783.352 4 129305616.288 4      2523.590          29.000
E13  23290356.664 8 122391666.005 8      -759.348          51.000    23290357.695 8  93780650.122 8      -581.826          51.000
E15                                                                  26388462.648 4 106255402.759 4     -1953.974          29.000
E21  23763894.523 8 124880110.740 8     -1090.176          51.000    23763896.992 8  95687343.803 8      -835.338          51.000
E26  23638261.430 8 124219900.507 8      1793.641          51.000    23638264.773 8  95181559.832 8      1374.345          51.000
E27  26532780.445 7 139430685.587 7     -3008.773          43.000    26532787.195 8 106836484.005 8     -2305.280          49.000
> 2020 05 12 13 56 30.0000000  0 17        .000000000000
G18  20517914.688 8 107822445.473 8     -1102.727          51.000    20517914.641 8  84017474.150 8      -859.267          49.000
G20  22474551.211 6 118104593.660 6      2801.484          41.000    22474554.188 7  92029604.590 7      2182.975          42.000
G21  20894876.000 8 109803376.436 8     -1075.125          51.000    20894874.680 8  85561049.540 8      -837.760          50.000
G26  20272778.828 8 106534162.648 8       -75.859          51.000    20272780.172 8  83013654.139 8       -59.111          51.000
G31  23850918.273 6 125337407.729 6     -3285.762          40.000    23850911.008 6  97665510.653 6     -2560.337          37.000
R12  20092876.484 8 107332515.265 8     -2712.098          51.000    20092880.586 8  83480845.472 8     -2109.409          49.000
R22  19764079.797 5 105502086.511 5     -1573.309          35.000    19764084.555 5  82057111.220 5     -1223.678          33.000
R23  20921713.461 5 111917057.748 5      2343.008          30.000
C05  39617796.602 5 206300262.034 5        11.418          35.000
C11  21967494.047 8 114390528.190 8      -754.922          51.000    21967493.664 8  88454038.229 8      -583.738          51.000
C23  22947455.078 5 119493378.799 5      -677.836          34.000
C25  24387453.438 6 126991830.036 6     -3112.297          41.000
E13  23294739.305 8 122414696.452 8      -767.090          51.000    23294740.359 8  93798296.830 8      -587.767          51.000
E15                                                                  26403047.242 5 106314129.242 5     -1953.989          30.000
E21  23770178.227 8 124913131.586 8     -1102.305          51.000    23770180.195 8  95712645.460 8      -844.656          51.000
E26  23628067.492 8 124166332.104 8      1786.496          51.000    23628070.680 8  95140513.915 8      1368.856          51.000
E27  26549994.586 7 139521135.989 7     -3012.301          44.000    26549999.211 8 106905790.131 8     -2308.228          49.000
> 2020 05 12 13 57  0.0000000  0 16        .000000000000
G18  20524268.398 8 107855834.424 8     -1126.477          51.000    20524268.484 8  84043491.526 8      -877.774          50.000
G20  22458596.992 6 118020755.873 6      2783.969          41.000    22458600.141 6  91964276.439 6      2169.326          41.000
G21  20901061.023 8 109835878.663 8     -1095.152          51.000    20901059.797 8  85586375.947 8      -853.365          50.000
G26  20273273.578 8 106536762.182 8      -100.844          51.000    20273274.773 8  83015679.751 8       -78.580          51.000
G31  23869697.141 6 125436094.932 6     -3296.910          40.000    23869687.734 5  97742409.680 5     -2569.024          33.000
R12  20108179.953 8 107414262.289 8     -2741.191          51.000    20108184.023 8  83544426.474 8     -2132.038          48.000
R22  19772964.992 5 105549508.757 5     -1592.090          34.000    19772968.164 5  82093995.155 5     -1238.295          31.000
R23  20908603.914 4 111846947.453 4      2323.191          29.000
C11  21971876.828 8 114413351.034 8      -770.066          51.000    21971876.758 8  88471686.315 8      -595.506          51.000
C23  22951421.547 5 119514021.239 5      -701.727          35.000
C25  24405410.930 6 127085350.903 6     -3125.926          36.000
E13  23299154.102 8 122437896.115 8      -783.027          51.000    23299155.211 8  93816073.203 8      -600.045          51.000
E15                                                                  26417624.125 5 106372824.466 5     -1960.906          32.000
E21  23776519.898 8 124946454.847 8     -1122.746          51.000    23776521.266 8  95738178.845 8      -860.250          51.000
E26  23617903.031 8 124112916.016 8      1771.012          51.000    23617906.555 8  95099584.715 8      1357.021          51.000
E27  26567217.695 7 139611635.539 7     -3024.438          44.000    26567220.875 8 106975133.881 8     -2317.402          49.000
> 2020 05 12 13 57 30.0000000  0 17        .000000000000
G18  20530726.438 8 107889771.853 8     -1141.273          51.000    20530726.633 8  84069936.288 8      -889.304          50.000
G20  22442714.062 7 117937287.848 7      2775.195          42.000    22442716.055 7  91899236.468 7      2162.490          42.000
G21  20907330.125 8 109868822.819 8     -1106.348          50.000    20907329.078 8  85612046.726 8      -862.086          50.000
G26  20273879.883 8 106539948.094 8      -116.922          51.000    20273881.023 8  83018162.274 8       -91.108          51.000
G31  23888508.531 6 125534954.848 6     -3299.281          40.000    23888499.219 5  97819443.311 5     -2570.872          35.000
R12  20123614.836 8 107496713.969 8     -2761.055          51.000    20123619.078 8  83608555.532 8     -2147.487          48.000
R22  19781925.453 5 105597347.761 5     -1602.477          34.000    19781927.680 5  82131203.153 5     -1246.368          31.000
R23  20895586.172 5 111777282.095 5      2312.879          30.000
C05  39617706.125 5 206299790.945 5         4.926          34.000
C11  21976315.891 8 114436466.237 8      -776.273          51.000    21976315.766 8  88489560.455 8      -600.276          51.000
C23  22955493.477 5 119535227.685 5      -716.676          32.000
C25  24423416.484 6 127179122.895 6     -3130.902          37.000
E13  23303629.234 8 122461412.193 8      -790.039          51.000    23303630.125 8  93834092.006 8      -605.292          51.000
E15                                                                  26432219.594 5 106431594.199 5     -1960.313          30.000
E21  23782947.336 8 124980228.441 8     -1134.223          51.000    23782948.188 8  95764057.296 8      -869.092          51.000
E26  23607796.102 8 124059800.563 8      1764.570          51.000    23607799.922 8  95058885.867 8      1352.082          51.000
E27  26584477.812 7 139702331.057 7     -3027.430          44.000    26584480.297 8 107044627.796 8     -2319.692          49.000
> 2020 05 12 13 58  0.0000000  0 15        .000000000000
G18  20537295.656 8 107924293.197 8     -1155.203          51.000    20537295.805 8  84096836.031 8      -900.158          50.000
G20  22426909.328 7 117854229.306 7      2766.805          46.000    22426910.141 7  91834515.578 7      2155.952          44.000
G21  20913690.078 8 109902244.568 8     -1116.754          51.000    20913689.023 8  85638089.631 8      -870.198          50.000
G26  20274604.922 8 106543758.028 8      -132.156          51.000    20274606.125 8  83021131.039 8      -102.982          51.000
G31  23907359.055 6 125634022.078 6     -3300.488          39.000    23907348.617 4  97896638.523 4     -2571.809          25.000
R12  20139188.172 8 107579905.152 8     -2779.965          51.000    20139192.422 8  83673259.774 8     -2162.195          48.000
R22  19790969.875 5 105645639.027 5     -1611.816          35.000    19790974.273 5  82168762.989 5     -1253.635          34.000
C05  39617686.523 5 206299689.261 5         7.012          34.000
C11  21980818.156 8 114459909.755 8      -781.633          51.000    21980817.586 8  88507688.454 8      -604.432          51.000
C23  22959680.336 5 119557034.470 5      -731.707          35.000
C25  24441478.141 6 127273180.486 6     -3134.691          38.000
E13  23308171.383 8 122485280.754 8      -796.188          51.000    23308172.117 8  93852380.901 8      -610.021          51.000
E21  23789467.242 8 125014489.192 8     -1144.828          51.000    23789467.828 8  95790309.020 8      -877.185          51.000
E26  23597753.469 8 124007023.066 8      1758.926          51.000    23597757.148 8  95018445.983 8      1347.778          51.000
E27  26601781.922 7 139793258.348 7     -3029.473          44.000    26601784.070 8 107114299.304 8     -2321.272          48.000
> 2020 05 12 13 58 30.0000000  0 17        .000000000000
G18  20543932.344 8 107959168.805 8     -1173.270          51.000    20543932.508 8  84124011.831 8      -914.236          51.000
G20  22411139.727 7 117771355.557 7      2754.637          47.000    22411140.250 7  91769938.688 7      2146.473          44.000
G21  20920097.188 8 109935913.960 8     -1131.367          50.000    20920096.078 8  85664325.519 8      -881.585          50.000
G26  20275405.438 8 106547964.553 8      -151.621          51.000    20275406.602 8  83024408.843 8      -118.146          51.000
G31  23926204.773 6 125733065.487 6     -3305.660          38.000    23926195.070 5  97973815.097 5     -2575.842          30.000
R12  20154856.594 8 107663600.744 8     -2803.199          51.000    20154860.297 8  83738356.327 8     -2180.266          48.000
R22  19800057.141 6 105694148.800 6     -1626.133          37.000    19800061.508 5  82206492.847 5     -1264.767          31.000
R23  20869780.906 5 111639222.730 5      2288.961          33.000    20869783.789 4  86830525.819 4      1780.303          26.000
C05  39617642.797 5 206299461.626 5         5.082          35.000
C11  21985339.914 8 114483455.140 8      -791.332          51.000    21985339.102 8  88525895.227 8      -611.914          51.000
C23  22963940.594 5 119579214.911 5      -750.398          35.000
C25  24459551.664 6 127367295.652 6     -3142.750          38.000
C28  24759496.391 5 128929191.373 5      2497.426          31.000
E13  23312736.930 8 122509272.819 8      -806.684          51.000    23312737.766 8  93870764.435 8      -618.099          51.000
E21  23796036.430 8 125049008.806 8     -1159.840          51.000    23796037.000 8  95816759.107 8      -888.702          51.000
E26  23587731.562 8 123954355.659 8      1748.895          51.000    23587734.141 8  94978090.462 8      1340.098          51.000
E27  26619086.398 7 139884188.169 7     -3035.812          45.000    26619088.133 7 107183972.723 7     -2326.130          46.000
> 2020 05 12 13 59  0.0000000  0 17        .000000000000
G18  20550664.805 8 107994547.464 8     -1187.008          51.000    20550664.820 8  84151579.635 8      -924.941          50.000
G20  22395433.906 7 117688819.785 7      2746.176          47.000    22395434.672 7  91705625.162 7      2139.877          45.000
G21  20926579.703 8 109969980.053 8     -1141.398          51.000    20926578.703 8  85690870.530 8      -889.401          50.000
G26  20276310.234 8 106552718.620 8      -167.039          51.000    20276311.336 8  83028113.309 8      -130.160          51.000
G31  23945073.648 6 125832232.989 6     -3306.902          36.000    23945063.742 5  98051035.515 5     -2576.798          33.000
R12  20170647.727 8 107747950.787 8     -2821.812          51.000    20170650.805 8  83803961.879 8     -2194.746          48.000
R21  23494432.742 4 125723454.295 4     -3503.801          29.000
R22  19809213.945 6 105743027.862 6     -1634.852          37.000    19809215.156 4  82244505.824 4     -1271.557          29.000
R23  20856960.438 6 111570658.150 6      2279.898          37.000
C11  21989909.516 8 114507250.722 8      -796.645          51.000    21989908.836 8  88544295.477 8      -615.959          51.000
C23  22968299.086 5 119601917.662 5      -764.629          33.000
C25  24477665.016 6 127461615.165 6     -3146.559          36.000
C28  24745106.430 5 128854257.860 5      2496.285          34.000
E13  23317354.312 8 122533537.807 8      -812.652          51.000    23317355.359 8  93889357.088 8      -622.682          51.000
E21  23802683.297 8 125083937.416 8     -1170.402          51.000    23802684.320 8  95843522.596 8      -896.787          51.000
E26  23577758.891 8 123901948.948 8      1743.219          51.000    23577759.945 8  94937934.708 8      1335.725          51.000
E27  26636419.656 7 139975269.637 7     -3037.875          44.000    26636420.797 7 107253762.338 7     -2327.678          45.000
> 2020 05 12 13 59 30.0000000  0 17        .000000000000
G18  20557468.758 8 108030301.868 8     -1202.035          51.000    20557468.250 8  84179440.202 8      -936.651          50.000
G20  22379768.625 7 117606499.236 7      2736.438          47.000    22379769.992 7  91641479.315 7      2132.289          46.000
G21  20933113.516 8 110004315.631 8     -1152.922          51.000    20933112.453 8  85717625.530 8      -898.381          50.000
G26  20277295.414 8 106557895.058 8      -183.559          51.000    20277296.555 8  83032146.894 8      -143.033          51.000
G31  23963941.523 5 125931396.050 5     -3309.078          35.000
R12  20186536.578 8 107832824.286 8     -2841.812          51.000    20186539.531 8  83869974.558 8     -2210.299          48.000
R22  19818416.055 6 105792146.636 6     -1645.348          36.000    19818417.648 5  82282709.388 5     -1279.712          31.000
C05  39617545.445 5 206298954.144 5         8.152          35.000
C11  21994502.961 8 114531171.197 8      -803.348          50.000    21994502.547 8  88562792.319 8      -621.314          51.000
C12  24983351.789 5 130094873.941 5     -2600.387          31.000    24983354.406 5 100597616.823 5     -2010.545          34.000
C23  22972733.117 6 119625017.328 6      -780.449          36.000
C25  24495792.219 5 127556012.228 5     -3151.656          31.000
C28  24730721.992 5 128779347.106 5      2492.594          34.000
E13  23321999.398 8 122557949.050 8      -820.137          51.000    23322000.508 8  93908061.807 8      -628.446          51.000
E21  23809383.789 8 125119149.040 8     -1182.457          51.000    23809385.453 8  95870502.932 8      -906.053          51.000
E26  23567811.438 8 123849677.364 8      1735.996          51.000    23567812.125 8  94897882.485 8      1330.221          51.000
E27  26653757.312 7 140066375.758 7     -3041.293          44.000    26653758.164 7 107323570.844 7     -2330.407          42.000
