     3.02           OBSERVATION DATA    M (MIXED)           RINEX VERSION / TYPE
SAVERINEX           SC600               20200504 145932 LCL PGM / RUN BY / DATE
       G = GPS       R = GLONASS       C = COMPASS          COMMENT
       S = SBAS      J = QZSS          E = GALILEO          COMMENT
BEAN                                                        MARKER NAME
1                                                           MARKER NUMBER
GEODETIC                                                    MARKER TYPE
Unige DICCA         GTER                                    OBSERVER / AGENCY
SC60291900056       SC600               2.12(191226)        REC # / TYPE / VERS
                    HEMA45          NONE                    ANT # / TYPE
  4509407.8091   693652.4678  4442337.6214                  APPROX POSITION XYZ
        0.0000        0.0000        0.0000                  ANTENNA: DELTA H/E/N
G    8 C1C L1C D1C S1C C2Y L2Y D2Y S2Y                      SYS / # / OBS TYPES
R    8 C1C L1C D1C S1C C2P L2P D2P S2P                      SYS / # / OBS TYPES
C    8 C1I L1I D1I S1I C7I L7I D7I S7I                      SYS / # / OBS TYPES
E    8 C1C L1C D1C S1C C7Q L7Q D7Q S7Q                      SYS / # / OBS TYPES
DBHZ                                                        COMMENT
     30.000                                                 INTERVAL
  2020    05    04    12    00    0.0000000     GPS         TIME OF FIRST OBS
  2020    05    04    12    59   30.0000000     GPS         TIME OF LAST OBS
     0                                                      RCV CLOCK OFFS APPL
G L1C  0.00000                                              SYS / PHASE SHIFT
G L2Y  0.00000                                              SYS / PHASE SHIFT
R L1C  0.00000                                              SYS / PHASE SHIFT
R L2P  0.25000                                              SYS / PHASE SHIFT
C L1I  0.00000                                              SYS / PHASE SHIFT
C L7I  0.00000                                              SYS / PHASE SHIFT
E L1C  0.50000                                              SYS / PHASE SHIFT
E L7Q -0.25000                                              SYS / PHASE SHIFT
 13 R05  1 R06 -4 R07  5 R08  6 R09 -2 R10 -7 R11  0 R12 -1 GLONASS SLOT / FRQ #
    R16 -1 R19  3 R20  2 R21  4 R22 -3                      GLONASS SLOT / FRQ #
 C1C   71.950 C2C   71.950 C2P   71.950                     GLONASS COD/PHS/BIS
    18                                                      LEAP SECONDS
*** Above antenna height is from mark to ANTENNA BOTTOM.    COMMENT
    17     4        0.0000        ANT MEASURE TYPE/HEIGT    COMMENT
    0.0000    0.0000    0.0458    0.0405    0.0000          COMMENT
                    BASE STATION                            COMMENT
                                                            END OF HEADER
> 2020 05 04 12 00  0.0000000  0 18        .000000000000
G02  24474178.617 5 128612678.463 5     -2677.098          34.000
G14  23859638.438 7 125383244.827 7     -2277.055          43.000    23859641.086 7  97701243.422 7     -1774.325          42.000
G18  22864142.172 6 120151926.688 6      3462.574          40.000    22864146.328 6  93624870.669 6      2698.107          41.000
G21  22690470.938 7 119239234.273 7      3094.922          44.000    22690483.547 4  92913696.944 4      2411.624          29.000
G25  20960414.961 8 110147733.385 8     -1772.461          50.000    20960416.891 8  85829389.316 8     -1381.138          50.000
G29  20218941.023 8 106251239.357 8      -252.953          51.000    20218939.781 8  82793181.763 8      -197.106          51.000
R10  21758532.055 7 115985186.185 7     -3389.434          45.000
R11  19169258.398 8 102434746.933 8       250.445          51.000    19169260.672 8  79671442.949 8       194.791          48.000
R21  19195760.266 8 102720372.251 8      -161.520          50.000    19195761.680 7  79893643.192 7      -125.626          46.000
R22  21381492.586 8 114135854.350 8      3670.695          50.000    21381498.312 7  88772360.173 7      2854.985          45.000
C11  22013771.719 8 114631577.044 8     -1022.414          49.000    22013772.430 8  88640357.838 8      -790.577          51.000
C12  25370600.008 5 132111370.261 5     -3063.758          30.000    25370602.297 5 102156901.941 5     -2368.578          30.000
C23  21959322.922 8 114347944.149 8       341.398          51.000
C25  23325349.508 8 121461218.683 8     -2523.801          50.000
C28  24283252.914 7 126449219.419 7      2928.070          43.000
E12  22472737.367 8 118095043.964 8      2016.922          48.000    22472731.922 7  90488415.192 7      1545.434          46.000
E31  23875189.719 8 125464954.088 8     -1037.875          51.000    23875192.750 8  96135487.937 8      -795.294          51.000
E33  24186918.844 6 127103128.446 6      -841.855          38.000    24186921.445 7  97390734.617 7      -645.001          46.000
> 2020 05 04 12 00 30.0000000  0 18        .000000000000
G02  24489491.281 5 128693152.344 5     -2686.617          33.000
G14  23872668.727 7 125451720.197 7     -2287.035          43.000    23872672.008 6  97754600.797 6     -1782.108          40.000
G18  22844401.523 7 120048187.444 7      3454.602          43.000    22844405.414 7  93544034.894 7      2691.897          42.000
G21  22672833.180 7 119146542.930 7      3085.289          45.000    22672849.484 3  92841469.883 3      2404.130          22.000
G25  20970568.469 8 110201090.060 8     -1783.781          50.000    20970570.562 8  85870965.927 8     -1389.959          50.000
G29  20220431.219 8 106259070.620 8      -268.238          51.000    20220429.891 8  82799284.045 8      -209.017          51.000
R10  21777643.883 7 116087067.903 7     -3401.758          44.000
R11  19167914.922 8 102427568.177 8       229.000          51.000    19167917.398 8  79665859.442 8       178.111          48.000
R21  19196738.805 8 102725608.336 8      -186.527          50.000    19196739.969 7  79897715.695 7      -145.077          46.000
R22  21360908.109 8 114025969.195 8      3655.977          50.000    21360912.766 7  88686893.997 7      2843.540          45.000
C11  22019702.523 8 114662460.361 8     -1035.602          49.000    22019703.273 8  88664238.768 8      -800.790          51.000
C12  25388258.867 4 132203325.621 4     -3066.402          29.000    25388259.672 4 102228002.305 4     -2370.608          29.000
C23  21957402.016 8 114337940.360 8       326.309          51.000
C25  23339923.211 8 121537108.189 8     -2534.449          50.000
C28  24266408.484 7 126361498.512 7      2920.594          43.000
E12  22461258.703 7 118034726.975 7      2005.074          47.000    22461255.188 8  90442198.282 8      1536.490          48.000
E31  23881143.328 8 125496241.558 8     -1046.996          51.000    23881146.297 8  96159461.431 8      -802.244          51.000
E33  24191766.375 6 127128605.431 6      -855.348          38.000    24191769.500 7  97410255.895 7      -655.630          45.000
> 2020 05 04 12 01  0.0000000  0 17        .000000000000
G14  23885763.641 7 125520534.920 7     -2300.652          44.000    23885767.328 6  97808222.595 6     -1792.716          39.000
G18  22824714.328 7 119944726.888 7      3442.734          46.000    22824717.242 7  93463416.301 7      2682.650          43.000
G21  22655258.016 7 119054180.955 7      3071.914          47.000    22655275.922 3  92769499.359 3      2393.696          23.000
G25  20980792.742 8 110254818.882 8     -1798.477          49.000    20980795.008 8  85912832.546 8     -1401.410          48.000
G29  20222015.180 8 106267394.363 8      -286.934          51.000    20222014.078 8  82805770.089 8      -223.585          51.000
R10  21796833.094 7 116189361.313 7     -3417.859          45.000
R11  19166699.305 8 102421070.913 8       203.914          51.000    19166701.547 8  79660806.012 8       158.600          48.000
R21  19197864.211 8 102731630.537 8      -215.148          51.000    19197865.727 7  79902399.649 7      -167.338          47.000
R22  21340413.500 8 113916563.651 8      3637.590          51.000    21340416.891 7  88601800.846 7      2829.237          45.000
C11  22025716.258 8 114693775.637 8     -1052.312          48.000    22025716.984 8  88688453.732 8      -813.760          51.000
C12                                                                  25405941.109 4 102299196.361 4     -2376.193          29.000
C23  21955575.047 8 114328426.216 8       307.758          51.000
C25  23354564.625 8 121613349.556 8     -2548.594          50.000
C28  24249613.219 6 126274038.929 6      2909.570          41.000
E12  22449853.781 7 117974798.864 7      1989.727          45.000    22449852.695 8  90396279.338 8      1524.659          49.000
E31  23887156.430 8 125527841.729 8     -1059.785          51.000    23887159.500 8  96183674.523 8      -812.043          51.000
E33  24196699.023 6 127154529.737 6      -872.820          37.000    24196702.602 7  97430119.919 7      -668.772          45.000
> 2020 05 04 12 01 30.0000000  0 17        .000000000000
G14  23898901.336 7 125589574.162 7     -2306.281          44.000    23898904.945 6  97862019.347 6     -1797.105          39.000
G18  22805059.414 8 119841435.810 8      3439.066          48.000    22805060.812 7  93382929.791 7      2679.792          42.000
G21  22637724.664 8 118962038.927 8      3066.527          48.000    22637736.992 4  92697700.244 4      2389.508          28.000
G25  20991066.297 7 110308807.541 7     -1805.078          47.000    20991068.602 7  85954901.626 7     -1406.554          47.000
G29  20223671.258 8 106276097.581 8      -297.578          51.000    20223670.195 8  82812551.822 8      -231.879          51.000
R10  21816078.508 7 116291951.272 7     -3425.699          44.000
R11  19165589.891 8 102415142.806 8       186.914          51.000    19165592.453 8  79656195.255 8       145.378          49.000
R21  19199115.148 8 102738323.404 8      -235.441          50.000    19199116.477 7  79907605.210 7      -183.121          47.000
R22  21319987.883 8 113807526.654 8      3627.168          51.000    21319989.820 7  88516994.348 7      2821.131          44.000
C11  22031791.586 8 114725410.494 8     -1060.957          49.000    22031792.258 8  88712915.806 8      -820.439          51.000
C12                                                                  25423624.828 5 102370404.471 5     -2374.613          30.000
C23  21953820.734 8 114319291.620 8       297.000          51.000
C25  23369252.602 8 121689830.636 8     -2554.418          51.000
C28  24232845.180 6 126186730.863 6      2906.602          38.000
E12  22438502.094 7 117915148.594 7      1982.449          46.000    22438502.891 8  90350573.307 8      1519.079          50.000
E31  23893207.859 8 125559642.866 8     -1064.672          51.000    23893210.828 8  96208041.614 8      -815.779          51.000
E33  24201696.453 5 127180788.297 5      -881.996          35.000    24201699.570 7  97450240.097 7      -675.860          44.000
> 2020 05 04 12 02  0.0000000  0 17        .000000000000
G14  23912092.742 7 125658894.839 7     -2315.180          44.000    23912095.812 6  97916035.390 6     -1804.036          38.000
G18  22785448.523 8 119738376.951 8      3431.812          48.000    22785448.141 6  93302624.212 6      2674.140          41.000
G21  22620244.758 7 118870178.919 7      3057.668          47.000    22620249.539 5  92626120.993 5      2382.598          34.000
G25  21001400.555 8 110363115.440 8     -1815.203          48.000    21001402.891 8  85997219.474 8     -1414.444          49.000
G29  20225410.930 8 106285238.998 8      -311.508          51.000    20225409.508 8  82819674.987 8      -242.733          51.000
R10  21835390.656 7 116394896.718 7     -3437.113          45.000
R11  19164598.633 8 102409846.279 8       166.371          51.000    19164601.406 8  79652075.713 8       129.400          49.000
R21  19200502.438 8 102745746.574 8      -259.160          50.000    19200503.844 8  79913378.799 8      -201.569          48.000
R22  21299643.117 8 113698921.645 8      3613.406          50.000    21299643.289 7  88432523.879 7      2810.430          43.000
C11  22037939.227 8 114757422.841 8     -1072.988          48.000    22037940.000 8  88737669.770 8      -829.718          51.000
C12                                                                  25441322.742 5 102441667.318 5     -2376.308          31.000
C23  21952150.875 8 114310596.712 8       282.895          51.000
C25  23383997.922 8 121766609.594 8     -2563.898          51.000
C28  24216116.688 6 126099634.774 6      2900.152          39.000
E12  22427215.523 8 117855837.036 8      1971.617          48.000    22427217.305 8  90305126.800 8      1510.794          50.000
E31  23899309.062 8 125591705.048 8     -1072.766          51.000    23899311.812 8  96232608.728 8      -821.989          51.000
E33  24206768.805 6 127207439.874 6      -894.652          40.000    24206771.016 7  97470661.427 7      -685.462          43.000
> 2020 05 04 12 02 30.0000000  0 17        .000000000000
G14  23925338.305 7 125728500.167 7     -2315.285          44.000    23925341.016 6  97970273.253 6     -1804.121          39.000
G18  22765883.109 7 119635559.341 7      3432.715          46.000    22765881.422 6  93222506.649 6      2674.846          40.000
G21  22602819.453 7 118778609.461 7      3056.887          46.000    22602820.133 6  92554768.203 6      2381.993          38.000
G25  21011796.805 8 110417748.339 8     -1817.012          49.000    21011799.266 8  86039790.564 8     -1415.853          49.000
G29  20227234.875 8 106294823.675 8      -317.270          51.000    20227233.422 8  82827143.578 8      -247.223          51.000
R10  21854770.711 7 116498202.219 7     -3439.887          46.000
R11  19163727.258 8 102405189.138 8       154.285          50.000    19163729.523 8  79648453.508 8       120.000          48.000
R21  19202027.031 8 102753904.816 8      -274.445          50.000    19202028.477 7  79919724.093 7      -213.457          47.000
R22  21279380.414 8 113590757.592 8      3607.723          48.000    21279379.719 7  88348396.347 7      2806.007          43.000
C11  22044160.000 8 114789817.292 8     -1076.750          48.000    22044160.914 8  88762719.200 8      -832.566          51.000
C12  25459036.852 4 132571885.721 4     -3066.109          29.000    25459035.672 5 102512987.370 5     -2371.031          32.000
C23  21950566.891 8 114302348.500 8       276.906          51.000
C25  23398800.805 8 121843691.342 8     -2564.969          51.000
C28  24199431.891 6 126012757.901 6      2901.387          41.000
E12  22415995.211 8 117796871.351 8      1969.219          49.000    22415997.164 8  90259945.307 8      1508.918          51.000
E31  23905461.211 8 125624034.750 8     -1072.594          51.000    23905463.773 8  96257380.809 8      -821.852          51.000
E33  24211916.391 6 127234489.633 6      -898.684          41.000    24211917.750 7  97491387.860 7      -688.626          42.000
> 2020 05 04 12 03  0.0000000  0 17        .000000000000
G14  23938623.773 7 125798314.830 7     -2334.887          44.000    23938625.758 6  98024674.233 6     -1819.392          37.000
G18  22746350.000 7 119532913.249 7      3414.426          46.000    22746347.188 6  93142522.731 6      2660.595          40.000
G21  22585435.500 7 118687261.041 7      3037.055          44.000    22585435.133 6  92483587.628 6      2366.536          38.000
G25  21022241.117 8 110472633.366 8     -1837.910          49.000    21022243.742 8  86082558.098 8     -1432.141          49.000
G29  20229128.977 8 106304778.018 8      -342.180          51.000    20229127.406 8  82834900.202 8      -266.634          51.000
R10  21874204.156 7 116601791.794 7     -3461.922          46.000
R11  19162961.461 8 102401099.245 8       122.590          50.000    19162964.055 8  79645272.473 8        95.348          49.000
R21  19203674.859 8 102762722.562 8      -309.133          48.000    19203676.141 8  79926582.336 8      -240.434          48.000
R22  21259186.453 8 113482963.740 8      3582.777          49.000    21259187.016 7  88264556.696 7      2786.605          46.000
C11  22050440.312 8 114822520.634 8     -1099.242          48.000    22050441.266 8  88788007.491 8      -850.113          51.000
C12  25476749.148 5 132664117.940 5     -3078.613          30.000    25476748.984 5 102584310.391 5     -2380.165          31.000
C23  21949055.148 8 114294475.961 8       252.023          51.000
C25  23413647.758 8 121921002.853 8     -2585.066          50.000
C28  24182777.305 7 125926029.453 7      2884.309          44.000
E12  22404827.188 8 117738180.007 8      1947.637          50.000    22404828.539 8  90214974.006 8      1492.354          50.000
E31  23911650.531 8 125656559.704 8     -1091.598          51.000    23911653.141 8  96282302.502 8      -836.443          51.000
E33  24217125.992 7 127261863.926 7      -922.043          42.000    24217126.641 6  97512362.979 6      -706.390          41.000
> 2020 05 04 12 03 30.0000000  0 17        .000000000000
G14  23951971.852 7 125868458.897 7     -2341.875          43.000    23951972.758 6  98079331.923 6     -1824.838          36.000
G18  22726873.438 7 119430564.390 7      3408.074          47.000    22726869.867 6  93062770.429 6      2655.642          39.000
G21  22568117.156 7 118596258.481 7      3028.883          44.000    22568116.875 6  92412676.534 6      2360.168          39.000
G25  21032756.750 8 110527893.015 8     -1846.789          50.000    21032759.227 8  86125617.523 8     -1439.056          50.000
G29  20231116.695 8 106315224.010 8      -354.984          51.000    20231114.922 8  82843039.907 8      -276.611          51.000
R10  21893713.188 7 116705788.686 7     -3471.812          43.000
R11  19162325.922 8 102397702.846 8       102.992          50.000    19162328.523 8  79642630.851 8        80.105          49.000
R21  19205468.938 8 102772323.807 8      -331.629          49.000    19205470.711 8  79934049.975 8      -257.934          48.000
R22  21239085.680 8 113375667.301 8      3569.613          49.000    21239088.242 7  88181103.930 7      2776.369          47.000
C11  22056803.000 8 114855653.107 8     -1110.160          48.000    22056804.148 8  88813627.607 8      -858.416          51.000
C12  25494485.102 5 132756471.966 5     -3078.430          30.000    25494485.469 5 102655723.897 5     -2380.833          30.000
C23  21947638.844 8 114287101.793 8       238.832          51.000
C25  23428561.922 8 121998664.692 8     -2593.148          50.000
C28  24166175.297 7 125839572.408 7      2878.750          45.000
E12  22393734.898 8 117679886.838 8      1937.906          49.000    22393735.320 8  90170307.809 8      1484.847          51.000
E31  23917900.312 8 125689403.050 8     -1098.746          51.000    23917903.031 8  96307468.166 8      -841.872          51.000
E33  24222420.656 7 127289684.648 7      -933.242          43.000    24222420.945 6  97533680.160 6      -715.159          41.000
> 2020 05 04 12 04  0.0000000  0 17        .000000000000
G14  23965368.258 6 125938857.572 6     -2351.496          41.000    23965368.180 6  98134187.964 6     -1832.341          36.000
G18  22707440.516 8 119328443.671 8      3399.309          48.000    22707437.531 6  92983195.906 6      2648.815          40.000
G21  22550851.680 7 118505532.264 7      3018.887          45.000    22550852.148 7  92341980.791 7      2352.379          42.000
G25  21043330.023 8 110583454.993 8     -1857.852          50.000    21043331.617 8  86168912.538 8     -1447.677          51.000
G29  20233184.016 8 106326088.580 8      -369.918          51.000    20233182.352 8  82851505.830 8      -288.248          51.000
R10  21913283.969 7 116810118.280 7     -3484.062          43.000
R11  19161806.477 8 102394928.564 8        81.254          49.000    19161809.438 8  79640473.081 8        63.201          48.000
R21  19207395.070 7 102782633.653 7      -356.125          47.000    19207397.070 7  79942068.744 7      -276.986          47.000
R22  21219064.992 8 113268797.987 8      3554.391          50.000    21219068.773 7  88097983.367 7      2764.526          47.000
C11  22063234.266 8 114889142.136 8     -1123.098          50.000    22063235.391 8  88839523.435 8      -868.420          51.000
C12  25512230.039 5 132848874.031 5     -3081.082          30.000
C23  21946304.602 8 114280155.557 8       223.617          51.000
C25  23443529.742 8 122076604.443 8     -2603.402          51.000
C28  24149611.500 7 125753316.639 7      2870.973          45.000
E12  22382704.438 8 117621920.946 8      1925.852          48.000    22382704.297 8  90125892.387 8      1475.658          50.000
E31  23924196.891 8 125722493.159 8     -1107.930          50.000    23924199.906 8  96332822.911 8      -848.918          51.000
E33  24227785.836 7 127317878.730 7      -946.801          42.000    24227786.812 6  97555283.458 6      -725.504          41.000
> 2020 05 04 12 04 30.0000000  0 17        .000000000000
G14  23978819.188 6 126009544.416 6     -2359.324          40.000    23978818.234 6  98189268.584 6     -1838.431          38.000
G18  22688058.523 8 119226590.440 8      3392.121          48.000    22688057.133 7  92903829.794 7      2643.211          43.000
G21  22533646.961 7 118415121.732 7      3009.902          47.000    22533647.906 7  92271531.029 7      2345.381          44.000
G25  21053967.656 8 110639355.361 8     -1867.410          50.000    21053969.062 8  86212471.220 8     -1455.125          50.000
G29  20235337.969 8 106337407.305 8      -383.348          51.000    20235336.148 8  82860325.620 8      -298.712          51.000
R10  21932925.195 7 116914815.542 7     -3494.469          45.000
R11  19161410.578 8 102392814.741 8        60.871          50.000    19161413.523 8  79638829.002 8        47.344          48.000
R21  19209460.266 8 102793687.690 8      -379.180          48.000    19209462.734 8  79950666.295 8      -294.921          48.000
R22  21199132.188 8 113162395.377 8      3540.531          50.000    21199135.703 7  88015225.796 7      2753.747          46.000
C11  22069740.844 8 114923022.467 8     -1134.297          50.000    22069741.664 8  88865721.858 8      -877.141          51.000
C12  25529991.141 4 132941362.291 4     -3082.496          29.000
C23  21945059.570 8 114273674.249 8       209.805          51.000
C25  23458557.711 8 122154857.092 8     -2612.148          51.000
C28  24133092.711 7 125667299.462 7      2864.848          44.000
E12  22371742.812 7 117564319.735 7      1915.445          47.000    22371742.758 8  90081756.426 8      1467.703          50.000
E31  23930547.289 8 125755866.732 8     -1115.711          50.000    23930551.039 8  96358394.860 8      -854.803          51.000
E33  24233228.906 7 127346481.628 7      -958.754          44.000    24233230.812 6  97577200.001 6      -734.624          41.000
> 2020 05 04 12 05  0.0000000  0 18        .000000000000
G02  24629622.914 5 129429542.165 5     -2771.754          33.000
G12  23343216.320 5 122669429.219 5     -2968.355          31.000
G14  23992331.828 6 126080555.865 6     -2375.219          38.000    23992330.461 5  98244602.112 5     -1850.817          35.000
G18  22668735.305 8 119125046.861 8      3376.660          48.000    22668735.570 7  92824704.942 7      2631.167          44.000
G21  22516510.656 8 118325068.147 8      2992.980          48.000    22516511.578 7  92201359.408 7      2332.196          44.000
G25  21064676.930 8 110695633.026 8     -1885.012          49.000    21064678.844 8  86256323.897 8     -1468.843          49.000
G29  20237585.469 8 106349218.200 8      -404.723          51.000    20237583.633 8  82869528.929 8      -315.365          51.000
R10  21952643.500 7 117019918.588 7     -3513.094          47.000
R11  19161146.242 8 102391402.893 8        32.508          50.000    19161149.156 8  79637730.916 8        25.281          48.000
R21  19211671.508 7 102805524.279 7      -410.477          46.000    19211674.898 8  79959872.548 8      -319.260          48.000
R22  21179295.391 8 113056502.453 8      3518.410          50.000    21179298.125 7  87932864.693 7      2736.544          47.000
C11  22076329.711 8 114957331.583 8     -1153.641          50.000    22076330.344 8  88892251.823 8      -891.981          51.000
C23  21943911.492 8 114267697.619 8       187.926          51.000
C25  23473652.984 8 122233460.383 8     -2628.848          51.000
C28  24116626.367 7 125581560.992 7      2850.395          43.000
E12  22360858.117 8 117507123.498 8      1896.969          48.000    22360858.219 8  90037930.777 8      1453.465          49.000
E31  23936959.250 8 125789563.364 8     -1131.402          50.000    23936963.688 8  96384214.350 8      -866.904          51.000
E33  24238757.039 7 127375531.585 7      -978.566          43.000    24238758.797 6  97599459.068 6      -749.847          41.000
> 2020 05 04 12 05 30.0000000  0 17        .000000000000
G02  24645441.734 5 129512660.425 5     -2773.422          33.000
G14  24005881.312 6 126151761.080 6     -2376.336          39.000    24005879.727 5  98300086.627 5     -1851.687          35.000
G18  22649447.086 8 119023687.555 8      3375.809          48.000    22649448.562 7  92745723.670 7      2630.500          45.000
G21  22499418.375 8 118235246.035 8      2990.500          49.000    22499419.297 7  92131368.174 7      2330.260          44.000
G25  21075433.555 8 110752159.431 8     -1888.145          48.000    21075435.430 8  86300370.404 8     -1471.281          48.000
G29  20239902.070 8 106361392.172 8      -411.543          51.000    20239900.344 8  82879015.137 8      -320.683          51.000
R10  21972413.344 8 117125295.463 8     -3516.867          48.000
R11  19160989.094 8 102390564.173 8        18.688          50.000    19160992.367 8  79637078.560 8        14.535          48.000
R21  19214005.250 8 102818011.482 8      -426.781          48.000    19214008.281 8  79969584.770 8      -331.941          49.000
R22  21159530.008 8 112950991.282 8      3510.754          48.000    21159532.617 7  87850800.518 7      2730.586          47.000
C11  22082976.086 8 114991940.997 8     -1158.410          50.000    22082976.695 8  88919014.031 8      -895.708          51.000
C23  21942836.438 8 114262099.509 8       180.594          51.000
C25  23488790.781 8 122312286.068 8     -2630.988          51.000
C28  24100187.773 7 125495975.309 7      2850.254          42.000
E12  22350026.727 8 117450205.010 8      1892.945          50.000    22350026.586 8  89994317.934 8      1450.442          49.000
E31  23943408.836 8 125823455.145 8     -1132.738          51.000    23943413.016 8  96410183.371 8      -867.951          51.000
E33  24244345.539 7 127404899.238 7      -983.941          43.000    24244345.703 6  97621961.546 6      -753.717          39.000
> 2020 05 04 12 06  0.0000000  0 17        .000000000000
G02  24661302.133 5 129596004.536 5     -2782.680          32.000
G14  24019475.305 6 126223197.116 6     -2386.410          40.000    24019472.945 5  98355751.056 5     -1859.540          32.000
G18  22630202.102 8 118922555.357 8      3366.512          48.000    22630203.992 7  92666919.392 7      2623.259          45.000
G21  22482377.930 8 118145698.093 8      2979.484          48.000    22482378.828 7  92061590.573 7      2321.676          43.000
G25  21086245.109 8 110808974.193 8     -1899.438          48.000    21086246.617 8  86344641.635 8     -1480.081          48.000
G29  20242295.172 8 106373968.027 8      -426.711          51.000    20242293.531 8  82888814.508 8      -332.502          51.000
R10  21992241.883 7 117230984.809 7     -3529.020          47.000
R11  19160946.914 8 102390340.528 8        -3.707          50.000    19160950.547 8  79636904.590 8        -2.883          48.000
R21  19216467.555 8 102831188.249 8      -451.465          49.000    19216470.906 8  79979833.381 8      -351.139          49.000
R22  21139843.508 7 112845905.113 7      3494.789          47.000    21139847.102 8  87769066.845 8      2718.166          48.000
C11  22089687.711 8 115026889.027 8     -1171.355          51.000    22089687.961 8  88946038.061 8      -905.800          51.000
C23  21941841.891 8 114256920.368 8       164.785          51.000
C25  23503978.234 8 122391372.632 8     -2641.453          48.000
C28  24083786.664 7 125410583.159 7      2842.297          42.000
E12  22339256.516 8 117393605.238 8      1880.527          51.000    22339255.648 8  89950949.304 8      1440.945          48.000
E31  23949903.461 8 125857582.336 8     -1142.277          51.000    23949907.281 8  96436332.767 8      -875.254          51.000
E33  24250002.148 7 127434623.581 7      -997.641          44.000    24250001.953 6  97644737.357 6      -764.504          40.000
> 2020 05 04 12 06 30.0000000  0 17        .000000000000
G02  24677209.992 5 129679601.091 5     -2790.523          34.000
G14  24033118.141 6 126294889.340 6     -2394.004          41.000    24033115.508 6  98411615.101 6     -1865.458          38.000
G18  22611006.078 8 118821681.574 8      3358.363          48.000    22611008.141 7  92588316.432 7      2616.906          45.000
G21  22465394.828 7 118056454.658 7      2969.832          47.000    22465395.758 6  91992050.233 6      2314.158          41.000
G25  21097116.719 7 110866105.291 7     -1909.355          47.000    21097118.508 7  86389159.390 7     -1487.812          47.000
G29  20244769.898 8 106386972.920 8      -440.418          51.000    20244768.289 8  82898948.184 8      -343.183          51.000
R10  22012132.875 7 117337013.431 7     -3539.805          43.000
R11  19161025.922 8 102390762.271 8       -24.684          51.000    19161029.219 7  79637232.600 7       -19.198          47.000
R21  19219064.227 8 102845081.862 8      -474.832          49.000    19219067.227 8  79990639.524 8      -369.311          48.000
R22  21120243.281 8 112741275.697 8      3480.172          50.000    21120247.164 8  87687688.391 8      2706.800          48.000
C11  22096469.508 8 115062202.342 8     -1182.938          51.000    22096469.250 8  88973344.532 8      -914.737          51.000
C23  21940933.266 8 114252189.138 8       150.434          51.000
C25  23519219.914 7 122470747.035 7     -2650.309          45.000
C28  24067429.500 7 125325413.857 7      2835.523          44.000
E12  22328552.734 8 117337353.485 8      1869.500          51.000    22328551.156 8  89907847.338 8      1432.411          49.000
E31  23956448.250 8 125891973.603 8     -1150.633          51.000    23956451.805 8  96462684.503 8      -881.651          51.000
E33  24255731.617 7 127464731.886 7     -1009.543          44.000    24255732.227 6  97667807.365 6      -773.761          41.000
> 2020 05 04 12 07  0.0000000  0 17        .000000000000
G02  24693165.844 5 129763448.333 5     -2799.508          33.000
G14  24046809.422 6 126366835.766 6     -2402.500          41.000    24046807.398 6  98467677.192 6     -1872.081          37.000
G18  22591859.977 8 118721069.712 8      3349.199          48.000    22591861.812 7  92509917.593 7      2609.766          46.000
G21  22448470.398 7 117967519.223 7      2959.344          47.000    22448470.352 6  91922749.930 6      2305.985          39.000
G25  21108048.484 8 110923553.062 8     -1920.230          48.000    21108050.445 8  86433923.877 8     -1496.280          48.000
G29  20247326.281 8 106400406.962 8      -455.102          51.000    20247324.828 8  82909416.266 8      -354.625          51.000
R10  22032085.484 7 117443380.315 7     -3551.219          43.000
R11  19161226.156 8 102391831.441 8       -46.469          51.000    19161229.258 7  79638064.164 7       -36.145          47.000
R21  19221794.477 8 102859691.409 8      -499.062          49.000    19221797.516 7  80002002.513 7      -388.160          47.000
R22  21100729.680 8 112637106.096 8      3464.488          50.000    21100732.852 7  87606667.638 7      2694.602          47.000
C11  22103321.039 8 115097880.147 8     -1195.469          51.000    22103320.648 8  89000932.890 8      -924.452          51.000
C23  21940110.969 8 114247907.322 8       135.168          51.000
C25  23534516.273 7 122550408.709 7     -2660.125          43.000
C28  24051116.312 7 125240469.234 7      2827.582          44.000
E12  22317915.477 8 117281451.411 8      1857.410          51.000    22317913.695 8  89865013.303 8      1423.240          50.000
E31  23963043.594 8 125926629.882 8     -1159.750          51.000    23963046.547 8  96489239.301 8      -888.696          51.000
E33  24261533.773 7 127495223.722 7     -1022.867          42.000    24261534.102 6  97691171.250 6      -783.779          41.000
> 2020 05 04 12 07 30.0000000  0 18        .000000000000
G02  24709167.477 5 129847540.326 5     -2806.387          31.000
G12  23428106.234 5 123115529.177 5     -2985.762          31.000
G14  24060547.844 7 126439029.428 7     -2409.660          43.000    24060545.766 5  98523931.971 5     -1877.654          34.000
G18  22572763.812 8 118620718.621 8      3341.480          49.000    22572764.984 7  92431721.973 7      2603.754          44.000
G21  22431604.945 8 117878890.279 8      2949.949          49.000    22431602.203 6  91853688.493 6      2298.665          38.000
G25  21119040.086 8 110981313.199 8     -1929.672          49.000    21119041.992 8  86478931.764 8     -1503.643          49.000
G29  20249963.242 8 106414264.852 8      -468.234          51.000    20249962.180 8  82920214.624 8      -364.858          51.000
R10  22052101.328 7 117550079.938 7     -3561.449          43.000
R11  19161547.203 8 102393545.463 8       -67.066          51.000    19161550.266 7  79639397.260 7       -52.163          47.000
R21  19224657.180 8 102875010.957 8      -521.641          50.000    19224660.492 7  80013917.735 7      -405.720          47.000
R22  21081301.406 8 112533394.876 8      3450.203          50.000    21081303.617 7  87526003.400 7      2683.491          46.000
C11  22110241.789 8 115133917.134 8     -1206.402          51.000    22110241.172 8  89028798.972 8      -932.749          51.000
C23  21939374.742 8 114244071.784 8       121.188          51.000
C25  23549867.727 7 122630352.656 7     -2668.828          45.000
C28  24034846.672 7 125155746.502 7      2821.141          46.000
E12  22307343.867 8 117225895.990 8      1846.922          50.000    22307342.562 8  89822444.890 8      1415.192          51.000
E31  23969688.656 8 125961547.501 8     -1167.426          51.000    23969691.008 8  96515994.340 8      -894.464          51.000
E33  24267408.438 7 127526094.045 7     -1034.281          44.000    24267408.070 6  97714825.146 6      -792.627          41.000
> 2020 05 04 12 08  0.0000000  0 17        .000000000000
G02  24725213.141 5 129931873.030 5     -2815.230          30.000
G14  24074331.094 7 126511458.573 7     -2418.281          42.000    24074328.297 5  98580370.220 5     -1884.372          35.000
G18  22553716.242 8 118520622.239 8      3331.957          49.000    22553716.602 7  92353724.833 7      2596.330          44.000
G21  22414796.836 8 117790560.946 8      2938.898          50.000    22414792.664 6  91784860.531 6      2290.054          39.000
G25  21130089.477 8 111039376.284 8     -1940.668          51.000    21130091.227 8  86524175.718 8     -1512.209          50.000
G29  20252678.969 8 106428536.348 8      -482.965          51.000    20252678.188 8  82931335.270 8      -376.336          51.000
R10  22072177.203 7 117657100.815 7     -3573.199          42.000
R11  19161987.570 8 102395896.504 8       -89.301          51.000    19161990.266 7  79641225.835 7       -69.459          47.000
R21  19227650.797 8 102891029.772 8      -545.961          50.000    19227653.852 7  80026376.820 7      -424.633          47.000
R22  21061956.711 8 112430135.668 8      3434.078          50.000    21061959.492 7  87445690.730 7      2670.953          47.000
C11  22117229.586 8 115170303.111 8     -1218.945          51.000    22117228.578 8  89056934.922 8      -942.590          51.000
C23  21938722.812 8 114240674.437 8       105.625          51.000
C25  23565273.133 8 122710568.713 8     -2678.695          48.000
C28  24018618.930 7 125071237.858 7      2813.027          47.000
E12  22296836.234 8 117170679.200 8      1834.621          49.000    22296835.758 8  89780135.953 8      1405.758          51.000
E31  23976381.727 8 125996717.770 8     -1176.859          51.000    23976383.609 8  96542942.974 8      -901.699          51.000
E33  24273353.344 7 127557332.840 7     -1047.777          45.000    24273353.508 7  97738761.346 7      -802.735          42.000
> 2020 05 04 12 08 30.0000000  0 17        .000000000000
G02  24741304.016 5 130016439.345 5     -2822.926          31.000
G14  24088160.328 7 126584129.374 7     -2426.602          42.000    24088156.430 5  98636996.736 5     -1890.861          31.000
G18  22534719.266 8 118420792.451 8      3323.156          49.000    22534719.070 7  92275935.426 7      2589.472          45.000
G21  22398047.969 8 117702543.017 8      2928.742          51.000    22398044.422 7  91716275.200 7      2282.137          42.000
G25  21141197.914 8 111097751.052 8     -1951.062          49.000    21141199.484 8  86569662.525 8     -1520.311          49.000
G29  20255474.953 8 106443229.581 8      -496.730          51.000    20255474.344 8  82942784.541 8      -387.063          51.000
R10  22092315.789 7 117764450.662 7     -3583.680          45.000
R11  19162549.023 8 102398894.913 8      -110.785          51.000    19162551.406 7  79643557.917 7       -86.166          47.000
R21  19230776.547 8 102907755.445 8      -569.289          51.000    19230779.539 7  80039385.701 7      -442.780          47.000
R22  21042698.430 8 112327340.106 8      3418.652          49.000    21042702.273 7  87365738.632 7      2658.949          46.000
C11  22124285.430 8 115207045.458 8     -1230.754          50.000    22124284.219 8  89085346.432 8      -951.736          51.000
C23  21938156.625 8 114237725.064 8        90.832          51.000
C25  23580733.031 8 122791064.648 8     -2687.914          50.000
C28  24002434.320 8 124986953.452 8      2805.738          48.000
E12  22286394.672 8 117115811.048 8      1823.109          48.000    22286395.117 8  89738094.132 8      1396.880          51.000
E31  23983124.570 8 126032149.986 8     -1185.488          51.000    23983126.016 8  96570092.322 8      -908.418          51.000
E33  24279369.656 7 127588947.969 7     -1060.188          43.000    24279370.469 7  97762985.941 7      -812.298          42.000
> 2020 05 04 12 09  0.0000000  0 17        .000000000000
G02  24757440.547 5 130101233.253 5     -2831.551          32.000
G14  24102035.531 7 126657042.241 7     -2434.387          42.000    24102030.719 5  98693811.948 5     -1896.928          30.000
G18  22515774.227 8 118321235.527 8      3314.035          49.000    22515774.008 7  92198358.634 7      2582.365          45.000
G21  22381359.312 8 117614842.269 8      2918.176          51.000    22381356.914 7  91647936.993 7      2273.903          43.000
G25  21152366.156 8 111156440.492 8     -1961.367          50.000    21152368.031 8  86615394.513 8     -1528.338          50.000
G29  20258351.617 8 106458346.561 8      -510.879          51.000    20258351.133 8  82954563.995 8      -398.087          51.000
R10  22112517.367 7 117872130.437 7     -3594.613          46.000
R11  19163232.695 8 102402545.681 8      -132.418          51.000    19163234.992 8  79646397.397 8      -102.992          48.000
R21  19234034.555 8 102925189.541 8      -592.828          50.000    19234037.344 7  80052945.566 7      -461.089          46.000
R22  21023528.078 8 112225014.226 8      3403.152          49.000    21023532.703 7  87286151.853 7      2646.896          46.000
C11  22131410.102 8 115244146.188 8     -1242.641          50.000    22131408.883 8  89114035.076 8      -960.728          51.000
C23  21937677.203 8 114235227.813 8        75.781          51.000
C25  23596247.148 8 122871842.599 8     -2697.246          51.000
C28  23986293.445 8 124902897.802 8      2798.086          48.000
E12  22276020.109 7 117061295.860 7      1811.324          47.000    22276021.148 8  89696322.746 8      1387.994          50.000
E31  23989917.805 8 126067847.811 8     -1194.191          51.000    23989918.992 8  96597445.176 8      -914.979          51.000
E33  24285457.711 7 127620941.752 7     -1072.539          45.000    24285458.703 6  97787500.674 6      -821.861          41.000
> 2020 05 04 12 09 30.0000000  0 17        .000000000000
G02  24773597.000 5 130186142.753 5     -2836.387          32.000
G14  24115929.773 6 126730056.402 6     -2438.965          41.000    24115924.297 4  98750706.047 4     -1900.492          28.000
G18  22496855.516 8 118221816.099 8      3308.168          49.000    22496855.430 7  92120888.969 7      2577.793          46.000
G21  22364704.930 8 117527322.810 8      2910.910          51.000    22364703.438 7  91579740.033 7      2268.242          44.000
G25  21163567.750 8 111215305.944 8     -1968.582          48.000    21163569.836 8  86661263.677 8     -1533.960          48.000
G29  20261282.453 8 106473748.272 8      -521.438          51.000    20261282.055 8  82966565.305 8      -406.315          51.000
R10  22132754.211 7 117979998.488 7     -3602.078          47.000
R11  19164012.305 8 102406709.537 8      -150.754          51.000    19164014.359 8  79649635.934 8      -117.253          48.000
R21  19237398.383 8 102943189.534 8      -612.887          51.000    19237401.234 7  80066945.548 7      -476.690          46.000
R22  21004421.109 8 112123020.229 8      3390.758          51.000    21004425.703 7  87206823.209 7      2637.256          47.000
C11  22138577.156 8 115281466.918 8     -1250.984          50.000    22138576.039 8  89142893.837 8      -967.404          51.000
C23  21937258.539 8 114233046.433 8        64.168          51.000
C25  23611788.312 8 122952764.387 8     -2703.117          50.000
C28  23970170.070 8 124818935.030 8      2793.777          49.000
E12  22265686.578 7 117006996.291 7      1802.902          46.000    22265687.688 8  89654716.560 8      1381.534          49.000
E31  23996735.219 8 126103673.281 8     -1199.730          51.000    23996736.297 8  96624895.839 8      -919.274          51.000
E33  24291591.523 7 127653174.877 7     -1081.781          45.000    24291591.734 6  97812198.784 6      -828.984          41.000
> 2020 05 04 12 10  0.0000000  0 17        .000000000000
G02  24789829.633 5 130271434.522 5     -2846.441          30.000
G14  24129900.008 6 126803470.177 6     -2449.930          39.000    24129895.211 5  98807911.515 5     -1909.039          34.000
G18  22478020.922 8 118122838.057 8      3295.602          49.000    22478020.984 7  92043763.237 7      2568.004          46.000
G21  22348142.781 8 117440288.132 8      2896.895          51.000    22348141.859 7  91511920.820 7      2257.320          45.000
G25  21174859.891 7 111274648.163 7     -1982.195          47.000    21174862.094 7  86707504.323 7     -1544.571          47.000
G29  20264324.617 8 106489734.798 8      -538.797          51.000    20264324.188 8  82979022.346 8      -419.842          51.000
R10  22153082.461 8 118088358.386 8     -3616.281          48.000
R11  19164945.250 8 102411693.675 8      -175.922          51.000    19164947.141 8  79653512.487 8      -136.828          48.000
R21  19240924.695 8 102962060.041 8      -639.625          51.000    19240927.828 7  80081622.642 7      -497.486          45.000
R22  20985435.047 8 112021666.516 8      3371.602          51.000    20985439.492 8  87127992.575 8      2622.357          49.000
C11  22145843.383 8 115319304.600 8     -1266.113          50.000    22145842.414 8  89172152.347 8      -979.118          51.000
C23  21936957.977 8 114231480.051 8        45.738          51.000
C25  23627413.016 8 123034127.207 8     -2715.684          50.000
C28  23954121.891 8 124735364.650 8      2782.957          49.000
E12  22255451.664 7 116953214.331 7      1787.832          46.000    22255452.656 8  89613507.008 8      1369.939          48.000
E31  24003634.133 8 126139927.740 8     -1211.793          51.000    24003635.398 8  96652675.204 8      -928.612          51.000
E33  24297827.867 7 127685947.272 7     -1097.637          44.000    24297827.445 7  97837310.104 7      -841.154          42.000
> 2020 05 04 12 10 30.0000000  0 16        .000000000000
G14  24143931.508 6 126877206.594 6     -2457.871          38.000    24143927.617 5  98865368.380 5     -1915.224          32.000
G18  22459256.773 8 118024230.322 8      3286.008          49.000    22459257.172 7  91966926.048 7      2560.529          45.000
G21  22331659.234 8 117353666.652 8      2885.852          51.000    22331658.086 7  91444423.583 7      2248.719          44.000
G25  21186228.719 7 111334392.797 7     -1992.980          47.000    21186230.641 7  86754058.555 7     -1552.972          47.000
G29  20267463.906 8 106506231.655 8      -553.055          51.000    20267463.414 8  82991877.044 8      -430.952          51.000
R10  22173487.961 7 118197133.151 7     -3627.262          46.000
R11  19166017.680 8 102417424.140 8      -198.008          51.000    19166019.555 8  79657969.507 8      -154.006          49.000
R21  19244599.445 8 102981724.073 8      -663.227          50.000    19244601.977 7  80096916.901 7      -515.843          44.000
R22  20966555.477 8 111920880.567 8      3355.445          51.000    20966560.055 8  87049603.522 8      2609.791          49.000
C11  22153194.539 8 115357584.516 8     -1277.992          51.000    22153193.547 8  89201752.794 8      -988.309          51.000
C23  21936761.289 8 114230456.158 8        30.352          51.000
C25  23643108.109 8 123115856.528 8     -2725.086          50.000
C28  23938134.852 8 124652114.518 8      2774.957          50.000
E12  22245301.602 7 116899876.907 7      1775.840          47.000    22245302.695 8  89572638.102 8      1360.685          48.000
E31  24010600.648 8 126176537.530 8     -1220.934          51.000    24010601.961 8  96680726.837 8      -935.559          51.000
E33  24304152.508 7 127719183.844 7     -1110.297          44.000    24304152.500 7  97862777.098 7      -850.747          42.000
> 2020 05 04 12 11  0.0000000  0 16        .000000000000
G14  24157976.758 6 126951016.523 6     -2465.043          39.000    24157973.695 5  98922882.531 5     -1920.813          30.000
G18  22440516.406 8 117925749.397 8      3277.094          48.000    22440516.828 7  91890187.693 7      2553.583          42.000
G21  22315207.773 8 117267214.532 8      2875.461          50.000    22315206.047 7  91377058.362 7      2240.622          44.000
G25  21197627.141 7 111394293.076 7     -2002.711          46.000    21197629.195 7  86800734.085 7     -1560.554          47.000
G29  20270652.789 8 106522990.181 8      -566.379          51.000    20270652.406 8  83004935.646 8      -441.334          51.000
R10  22193923.250 7 118306070.361 7     -3637.449          44.000
R11  19167183.055 8 102423651.650 8      -219.348          51.000    19167185.062 8  79662813.110 8      -170.604          49.000
R21  19248375.164 8 103001928.772 8      -685.988          49.000    19248377.477 7  80112631.681 7      -533.546          45.000
R22  20947735.211 8 111820414.389 8      3339.961          50.000    20947740.117 8  86971463.171 8      2597.747          49.000
C11  22160583.477 8 115396061.029 8     -1289.188          51.000    22160582.594 8  89231505.269 8      -996.960          51.000
C23  21936621.883 8 114229731.334 8        15.758          51.000
C25  23658825.984 8 123197707.032 8     -2733.699          51.000
C28  23922162.094 8 124568941.573 8      2767.598          50.000
E12  22235189.945 8 116846738.560 8      1764.523          49.000    22235190.898 8  89531921.758 8      1352.088          49.000
E31  24017587.828 8 126213256.485 8     -1229.242          51.000    24017589.281 8  96708862.119 8      -941.863          51.000
E33  24310518.398 7 127752637.092 7     -1122.023          44.000    24310518.922 7  97888410.128 7      -859.852          42.000
> 2020 05 04 12 11 30.0000000  0 16        .000000000000
G14  24172069.453 6 127025074.845 6     -2472.156          41.000    24172067.234 5  98980590.280 5     -1926.359          35.000
G18  22421834.367 8 117827576.243 8      3267.922          48.000    22421833.211 6  91813689.166 6      2546.433          36.000
G21  22298822.508 8 117181111.877 8      2864.902          49.000    22298820.742 7  91309965.426 7      2232.394          44.000
G25  21209089.266 7 111454526.729 7     -2012.664          47.000    21209092.023 7  86847669.383 7     -1568.310          47.000
G29  20273925.273 8 106540187.760 8      -579.844          51.000    20273924.836 8  83018336.352 8      -451.826          51.000
R10  22214421.688 6 118415349.379 6     -3647.793          40.000
R11  19168475.414 8 102430558.545 8      -240.879          51.000    19168477.578 8  79668185.129 8      -187.350          49.000
R21  19252285.406 8 103022853.790 8      -708.691          49.000    19252288.047 7  80128906.706 7      -551.204          45.000
R22  20929008.117 8 111720451.586 8      3324.445          49.000    20929013.531 8  86893714.305 8      2585.680          48.000
C11  22168043.781 8 115434909.251 8     -1300.473          51.000    22168043.203 8  89261545.198 8     -1005.572          51.000
C23  21936573.961 8 114229482.794 8         1.016          51.000
C25  23674601.328 8 123279853.946 8     -2742.523          51.000
C28  23906237.773 8 124486023.450 8      2760.355          49.000
E12  22225150.680 8 116793978.330 8      1753.086          50.000    22225150.953 8  89491495.121 8      1343.196          49.000
E31  24024629.352 8 126250263.006 8     -1237.684          51.000    24024631.492 8  96737217.732 8      -948.349          51.000
E33  24316959.062 7 127786484.047 7     -1134.133          43.000    24316959.367 7  97914344.799 7      -868.900          42.000
> 2020 05 04 12 12  0.0000000  0 16        .000000000000
G14  24186204.273 6 127099354.995 6     -2480.031          40.000    24186203.227 5  99038470.844 5     -1932.498          31.000
G18  22403207.164 8 117729689.961 8      3257.965          49.000    22403201.570 6  91737414.287 6      2538.677          37.000
G21  22282499.688 8 117095337.625 8      2853.512          49.000    22282498.516 7  91243128.373 7      2223.516          45.000
G25  21220610.336 7 111515069.692 7     -2023.406          47.000    21220613.305 7  86894845.702 7     -1576.680          47.000
G29  20277276.789 8 106557799.772 8      -594.152          51.000    20277276.086 8  83032059.998 8      -462.976          51.000
R10  22234980.398 6 118524944.185 6     -3658.707          41.000
R11  19169890.617 8 102438121.838 8      -263.277          51.000    19169892.844 8  79674067.688 8      -204.771          49.000
R21  19256325.508 8 103044472.908 8      -732.422          49.000    19256327.773 7  80145721.581 7      -569.661          46.000
R22  20910371.469 8 111620970.511 8      3307.797          50.000    20910376.125 7  86816340.141 7      2572.731          46.000
C11  22175570.766 8 115474104.272 8     -1312.430          51.000    22175570.305 8  89291853.276 8     -1014.963          51.000
C23  21936613.109 8 114229687.754 8       -14.605          51.000
C25  23690429.211 8 123362272.518 8     -2751.992          51.000
C28  23890357.617 8 124403337.770 8      2752.113          49.000
E12  22215179.062 8 116741573.348 8      1740.559          50.000    22215178.570 8  89451340.680 8      1333.756          49.000
E31  24031721.227 8 126287533.591 8     -1246.980          50.000    24031724.047 8  96765775.693 8      -955.541          51.000
E33  24323470.016 7 127820699.788 7     -1146.883          43.000    24323470.062 7  97940562.077 7      -878.774          43.000
> 2020 05 04 12 12 30.0000000  0 16        .000000000000
G14  24200379.695 6 127173847.570 6     -2486.648          40.000    24200380.055 5  99096516.973 5     -1937.648          32.000
G18  22384633.852 8 117632086.668 8      3248.734          49.000    22384628.773 6  91661359.907 6      2531.484          40.000
G21  22266238.797 8 117009887.708 8      2842.898          48.000    22266238.672 7  91176544.026 7      2215.246          47.000
G25  21232188.984 8 111575914.835 8     -2033.098          48.000    21232191.586 8  86942257.514 8     -1584.232          48.000
G29  20280705.594 8 106575818.188 8      -607.320          51.000    20280704.859 8  83046100.328 8      -473.237          51.000
R10  22255598.180 7 118634846.041 7     -3668.418          43.000
R11  19171427.453 8 102446335.794 8      -284.617          51.000    19171430.086 8  79680456.299 8      -221.369          49.000
R21  19260493.688 8 103066777.253 8      -754.754          49.000    19260496.023 7  80163069.413 7      -587.031          46.000
R22  20891824.844 8 111521966.682 8      3292.277          51.000    20891827.625 7  86739337.224 7      2560.663          44.000
C11  22183162.727 8 115513637.973 8     -1323.414          51.000    22183162.336 8  89322423.232 8     -1023.314          51.000
C23  21936738.273 8 114230340.284 8       -29.176          51.000
C25  23706307.695 8 123444954.839 8     -2760.309          51.000
C28  23874521.133 8 124320878.972 8      2744.984          48.000
E12  22205273.758 8 116689517.765 8      1729.422          50.000    22205272.734 8  89411453.956 8      1325.174          49.000
E31  24038862.352 8 126325061.778 8     -1255.121          50.000    24038865.609 8  96794531.053 8      -961.707          51.000
E33  24330049.344 7 127855276.490 7     -1158.559          42.000    24330050.031 7  97967055.931 7      -887.649          43.000
> 2020 05 04 12 13  0.0000000  0 17        .000000000000
G12  23617316.898 5 124109844.833 5     -3039.582          32.000
G14  24214597.258 6 127248559.926 6     -2493.902          39.000    24214598.156 5  99154734.319 5     -1943.297          34.000
G18  22366116.852 8 117534779.389 8      3238.895          48.000    22366114.141 7  91585536.115 7      2523.817          44.000
G21  22250042.273 8 116924774.457 8      2831.703          49.000    22250042.742 7  91110222.012 7      2206.525          47.000
G25  21243826.992 8 111637071.925 8     -2043.418          49.000    21243829.492 8  86989912.381 8     -1592.274          49.000
G29  20284213.586 8 106594252.350 8      -621.141          51.000    20284212.812 8  83060464.604 8      -484.006          51.000
R10  22276275.680 7 118745063.252 7     -3678.926          45.000
R11  19173088.375 8 102455211.904 8      -306.805          51.000    19173091.117 8  79687359.932 8      -238.626          48.000
R21  19264791.461 8 103089775.377 8      -777.938          48.000    19264793.484 7  80180956.832 7      -605.062          46.000
R22  20873370.391 8 111423453.061 8      3275.898          51.000    20873370.523 7  86662715.577 7      2547.924          43.000
C11  22190821.430 8 115553518.972 8     -1334.973          51.000    22190821.273 8  89353261.749 8     -1032.283          51.000
C23  21936951.531 8 114231451.149 8       -44.496          51.000
C25  23722238.250 8 123527909.766 8     -2769.375          50.000
C28  23858731.125 8 124238658.274 8      2736.879          49.000
E12  22195436.867 8 116637822.644 8      1717.289          50.000    22195435.750 8  89371843.433 8      1315.866          50.000
E31  24046054.578 8 126362858.022 8     -1264.184          49.000    24046058.039 8  96823491.806 8      -968.618          51.000
E33  24336699.445 7 127890223.176 7     -1170.859          42.000    24336700.562 7  97993833.282 7      -897.128          43.000
> 2020 05 04 12 13 30.0000000  0 17        .000000000000
G12  23634680.070 5 124201099.555 5     -3040.949          35.000
G14  24228848.859 6 127323450.519 6     -2497.785          39.000    24228849.578 5  99213090.573 5     -1946.320          35.000
G18  22347649.180 7 117437732.348 7      3231.906          47.000    22347648.336 7  91509915.088 7      2518.369          46.000
G21  22233903.172 8 116839961.392 8      2823.586          49.000    22233903.438 7  91044133.925 7      2200.197          47.000
G25  21255516.906 8 111698501.950 8     -2050.660          49.000    21255519.250 8  87037779.907 8     -1597.920          49.000
G29  20287792.922 8 106613062.105 8      -631.836          51.000    20287792.180 8  83075121.564 8      -492.340          51.000
R10  22297004.984 7 118855554.721 7     -3686.129          46.000
R11  19174866.016 8 102464711.867 8      -325.590          51.000    19174868.695 8  79694748.792 8      -253.237          48.000
R21  19269211.016 7 103113425.824 7      -797.719          47.000    19269213.297 7  80199351.628 7      -620.448          46.000
R22  20855001.039 8 111325392.855 8      3262.543          51.000    20855000.023 7  86586446.601 7      2537.536          45.000
C11  22198539.125 8 115593707.500 8     -1343.223          51.000    22198539.391 8  89384338.069 8     -1038.713          51.000
C23  21937245.438 8 114232982.730 8       -56.578          51.000
C25  23738213.781 8 123611097.756 8     -2775.430          51.000
C28  23842980.211 8 124156638.432 8      2732.043          49.000
E12  22185661.141 8 116586450.195 8      1708.574          49.000    22185660.148 8  89332480.129 8      1309.098          51.000
E31  24053290.406 8 126400883.924 8     -1269.797          49.000    24053294.359 8  96852628.519 8      -973.009          51.000
E33  24343412.328 6 127925500.052 6     -1179.980          41.000    24343413.977 7  98020863.614 7      -904.057          44.000
> 2020 05 04 12 14  0.0000000  0 17        .000000000000
G12  23652070.242 6 124292455.650 6     -3047.156          36.000    23652072.719 5  96851286.594 5     -2374.407          32.000
G14  24243144.828 6 127398574.790 6     -2506.035          39.000    24243145.180 5  99271628.908 5     -1952.755          35.000
G18  22329242.359 7 117341007.133 7      3220.973          46.000    22329243.070 7  91434544.775 7      2509.849          46.000
G21  22217832.914 8 116755509.667 8      2810.996          50.000    22217832.469 7  90978327.416 7      2190.390          46.000
G25  21267269.898 8 111760263.135 8     -2062.188          49.000    21267271.445 8  87085905.472 8     -1606.899          49.000
G29  20291454.625 8 106632305.391 8      -646.641          51.000    20291453.969 8  83090116.326 8      -503.876          51.000
R10  22317796.047 7 118966377.795 7     -3697.512          46.000
R11  19176771.969 8 102474896.436 8      -348.969          51.000    19176774.539 8  79702670.116 8      -271.420          48.000
R21  19273763.477 7 103137786.309 7      -821.785          47.000    19273765.758 7  80218298.680 7      -639.166          46.000
R22  20836728.039 8 111227848.114 8      3244.910          51.000    20836727.867 7  86510578.508 7      2523.819          47.000
C11  22206326.742 8 115634260.406 8     -1355.766          50.000    22206327.219 8  89415696.143 8     -1048.455          51.000
C23  21937631.562 8 114234993.891 8       -73.043          51.000
C25  23754245.344 8 123694575.784 8     -2785.500          51.000
C28  23827279.766 8 124074878.714 8      2722.934          49.000
E12  22175957.852 8 116535460.009 8      1695.164          48.000    22175956.727 8  89293409.691 8      1298.973          51.000
E31  24060581.555 8 126439198.415 8     -1280.062          51.000    24060586.031 8  96881986.339 8      -980.764          51.000
E33  24350198.836 6 127961164.574 6     -1193.418          39.000    24350200.891 7  98048191.014 7      -914.347          43.000
> 2020 05 04 12 14 30.0000000  0 16        .000000000000
G14  24257484.086 6 127473928.712 6     -2516.434          39.000    24257484.461 5  99330346.188 5     -1960.866          34.000
G18  22310896.914 7 117244604.745 7      3206.969          47.000    22310898.352 7  91359426.024 7      2498.937          45.000
G21  22201831.516 8 116671420.047 8      2795.980          49.000    22201829.789 7  90912803.079 7      2178.686          44.000
G25  21279085.297 8 111822353.416 8     -2076.145          48.000    21279086.438 8  87134287.441 8     -1617.778          48.000
G29  20295198.320 8 106651978.899 8      -663.848          51.000    20295197.555 8  83105446.333 8      -517.284          51.000
R10  22338648.078 7 119077528.861 7     -3711.254          45.000
R11  19178805.883 8 102485765.101 8      -374.629          51.000    19178808.266 7  79711123.505 7      -291.378          47.000
R21  19278447.836 7 103162853.157 7      -848.289          47.000    19278449.797 7  80237795.108 7      -659.780          46.000
R22  20818550.938 8 111130819.453 8      3224.715          49.000    20818552.641 8  86435111.794 8      2508.112          48.000
C11  22214183.844 8 115675174.429 8     -1370.703          50.000    22214184.234 8  89447333.437 8     -1059.927          51.000
C23  21938109.766 8 114237483.504 8       -91.867          51.000
C25  23770331.820 8 123778340.840 8     -2797.934          51.000
C28  23811629.219 8 123993378.543 8      2711.434          49.000
E12  22166327.117 8 116484851.059 8      1679.727          48.000    22166325.859 8  89254631.383 8      1287.093          51.000
E31  24067927.633 8 126477799.953 8     -1292.398          51.000    24067932.094 8  96911564.117 8      -990.267          51.000
E33  24357059.219 7 127997213.928 7     -1208.852          42.000    24357060.562 7  98075813.274 7      -926.448          44.000
> 2020 05 04 12 15  0.0000000  0 17        .000000000000
G12  23686936.406 5 124475693.705 5     -3056.445          34.000
G14  24271857.367 6 127549462.054 6     -2519.957          40.000    24271857.680 5  99389203.305 5     -1963.600          32.000
G18  22292604.719 8 117148480.603 8      3200.324          48.000    22292606.016 7  91284524.090 7      2493.762          43.000
G21  22185890.141 7 116587647.514 7      2788.062          47.000    22185887.148 7  90847525.839 7      2172.519          43.000
G25  21290954.102 8 111884724.911 8     -2082.691          48.000    21290955.102 8  87182888.516 8     -1622.879          48.000
G29  20299014.773 8 106672034.341 8      -673.953          51.000    20299013.953 8  83121073.946 8      -525.158          51.000
R10  22359551.750 7 119188958.012 7     -3717.898          45.000
R11  19180959.055 8 102497270.505 8      -393.254          51.000    19180961.117 7  79720072.155 7      -305.864          47.000
R21  19283254.805 8 103188575.805 8      -867.391          48.000    19283256.922 7  80257801.598 7      -674.637          47.000
R22  20800461.312 8 111034261.121 8      3211.609          48.000    20800464.906 8  86360010.847 8      2497.918          48.000
C11  22222101.023 8 115716401.246 8     -1378.582          50.000    22222101.477 8  89479212.619 8     -1065.898          51.000
C23  21938671.078 8 114240405.261 8      -103.652          51.000
C25  23786463.820 8 123862344.651 8     -2803.262          50.000
C28  23796018.930 8 123912092.012 8      2706.883          48.000
E12  22156759.953 8 116434576.806 8      1671.199          48.000    22156758.992 8  89216109.548 8      1280.532          51.000
E31  24075319.219 8 126516641.368 8     -1297.750          51.000    24075323.195 8  96941325.685 8      -994.359          51.000
E33  24363983.086 6 128033599.478 6     -1216.883          38.000    24363984.461 7  98103693.128 7      -932.875          44.000
> 2020 05 04 12 15 30.0000000  0 16        .000000000000
G14  24286263.336 6 127625166.069 6     -2531.633          40.000    24286263.977 5  99448193.253 5     -1972.713          31.000
G18  22274365.430 8 117052631.864 8      3185.219          49.000    22274365.906 7  91209836.760 7      2481.989          44.000
G21  22170008.047 7 116504188.691 7      2771.527          45.000    22170004.789 7  90782493.062 7      2159.635          43.000
G25  21302875.336 7 111947371.508 7     -2097.910          46.000    21302876.422 7  87231704.022 7     -1634.738          47.000
G29  20302902.602 8 106692464.739 8      -692.340          51.000    20302901.859 8  83136993.741 8      -539.486          51.000
R10  22380506.195 7 119300657.206 7     -3733.055          44.000
R11  19183230.453 8 102509407.559 8      -420.309          51.000    19183232.516 7  79729512.070 7      -326.907          47.000
R21  19288183.031 8 103214946.518 8      -894.949          48.000    19288184.891 7  80278312.142 7      -696.072          46.000
R22  20782459.164 8 110938169.557 8      3189.961          49.000    20782463.812 7  86285272.962 7      2481.084          46.000
C11  22230076.945 8 115757933.684 8     -1394.660          50.000    22230077.406 8  89511328.122 8     -1078.409          51.000
C23  21939314.211 8 114243754.184 8      -123.836          51.000
C25  23802640.164 8 123946580.306 8     -2816.762          49.000
C28  23780448.250 7 123831014.504 7      2694.027          47.000
E12  22147255.539 8 116384632.390 8      1654.148          48.000    22147255.195 8  89177840.469 8      1267.446          51.000
E31  24082755.344 8 126555717.231 8     -1311.625          51.000    24082758.836 8  96971266.920 8     -1004.993          51.000
E33  24370969.375 6 128070314.343 6     -1234.758          37.000    24370970.914 7  98131825.356 7      -945.949          43.000
> 2020 05 04 12 16  0.0000000  0 16        .000000000000
G14  24300720.609 6 127701140.170 6     -2533.770          40.000    24300721.938 4  99507393.779 4     -1974.375          28.000
G18  22256198.969 8 116957163.786 8      3179.168          51.000    22256198.555 7  91135446.068 7      2477.274          43.000
G21  22154205.453 7 116421148.079 7      2764.223          45.000    22154203.039 7  90717786.128 7      2153.940          43.000
G25  21314868.359 7 112010395.348 7     -2103.820          46.000    21314869.688 7  87280813.490 7     -1639.341          46.000
G29  20306881.180 8 106713371.685 8      -701.504          51.000    20306880.391 8  83153284.869 8      -546.626          51.000
R10  22401530.930 7 119412728.208 7     -3738.406          44.000
R11  19185639.750 8 102522281.965 8      -438.074          51.000    19185641.734 7  79739525.486 7      -340.724          47.000
R21  19293251.266 8 103242067.486 8      -913.176          48.000    19293253.102 8  80299406.216 8      -710.248          48.000
R22  20764565.641 8 110842651.364 8      3177.785          51.000    20764568.828 7  86210981.058 7      2471.614          44.000
C11  22238130.781 8 115799871.875 8     -1401.426          51.000    22238131.102 8  89543757.373 8     -1083.638          51.000
C23  21940058.789 8 114247632.443 8      -134.836          51.000
C25  23818879.953 8 124031148.103 8     -2821.184          48.000
C28  23764937.922 7 123750248.709 7      2690.336          47.000
E12  22137833.703 8 116335121.129 8      1646.523          49.000    22137834.055 8  89139903.283 8      1261.583          51.000
E31  24090255.539 8 126595130.218 8     -1316.078          51.000    24090258.938 8  97001466.465 8     -1008.367          51.000
E33  24378038.203 6 128107459.915 6     -1242.035          38.000    24378038.711 7  98160287.554 7      -951.809          43.000
> 2020 05 04 12 16 30.0000000  0 16        .000000000000
G14  24315205.484 6 127777259.528 6     -2540.508          38.000    24315208.469 5  99566707.510 5     -1979.616          33.000
G18  22238082.375 8 116861957.089 8      3168.734          51.000    22238081.195 7  91061259.082 7      2469.147          43.000
G21  22138459.734 7 116338406.088 7      2752.555          44.000    22138458.664 7  90653311.891 7      2144.851          44.000
G25  21326909.758 7 112073673.866 7     -2114.078          46.000    21326911.438 7  87330121.422 7     -1647.334          46.000
G29  20310926.891 8 106734631.883 8      -715.023          51.000    20310926.219 8  83169851.245 8      -557.161          51.000
R10  22422601.297 7 119525045.492 7     -3748.414          42.000
R11  19188163.648 8 102535770.061 8      -460.395          50.000    19188165.852 8  79750016.207 8      -358.088          48.000
R21  19298436.039 8 103269812.238 8      -935.582          48.000    19298438.242 8  80320985.474 8      -727.675          48.000
R22  20746756.977 8 110747584.740 8      3160.773          51.000    20746758.188 7  86137040.411 7      2458.382          44.000
C11  22246238.953 8 115842093.330 8     -1412.582          51.000    22246239.320 8  89576405.686 8     -1092.250          51.000
C23  21940882.031 8 114251919.624 8      -150.262          51.000
C25  23835159.656 8 124115925.745 8     -2829.883          48.000
C28  23749464.859 7 123669674.607 7      2682.086          47.000
E12  22128471.266 8 116285921.711 8      1634.316          50.000    22128472.062 8  89102205.036 8      1252.280          50.000
E31  24097796.688 8 126634758.443 8     -1325.016          51.000    24097799.922 8  97031830.942 8     -1015.227          51.000
E33  24385164.797 5 128144912.714 5     -1253.891          35.000    24385165.328 7  98188985.212 7      -960.791          43.000
> 2020 05 04 12 17  0.0000000  0 16        .000000000000
G14  24329728.508 6 127853581.495 6     -2547.848          36.000    24329733.336 5  99626179.079 5     -1985.333          35.000
G18  22220027.422 8 116767074.948 8      3157.121          51.000    22220025.805 7  90987325.002 7      2460.097          44.000
G21  22122782.781 7 116256025.266 7      2739.852          44.000    22122782.914 7  90589119.062 7      2134.949          44.000
G25  21339011.062 7 112137267.054 7     -2125.277          47.000    21339013.500 7  87379674.534 7     -1656.063          47.000
G29  20315050.945 8 106756304.357 8      -729.504          51.000    20315050.484 8  83186738.876 8      -568.445          51.000
R10  22443729.172 7 119637668.488 7     -3759.391          45.000
R11  19190814.094 8 102549934.375 8      -483.711          50.000    19190816.430 8  79761032.896 8      -376.220          48.000
R21  19303748.375 8 103298240.089 8      -959.117          48.000    19303750.359 7  80343095.992 7      -745.977          47.000
R22  20729044.992 8 110653033.566 8      3142.867          51.000    20729044.977 7  86063500.666 7      2444.455          44.000
C11  22254412.742 8 115884656.349 8     -1424.586          51.000    22254413.211 8  89609318.124 8     -1101.650          51.000
C23  21941795.641 8 114256676.115 8      -166.586          51.000
C25  23851491.641 8 124200971.759 8     -2839.496          48.000
C28  23734040.844 8 123589353.108 8      2672.938          48.000
E12  22119179.828 8 116237095.237 8      1621.117          49.000    22119181.102 8  89064792.578 8      1242.164          50.000
E31  24105390.242 8 126674662.434 8     -1335.000          51.000    24105393.203 8  97062406.735 8     -1022.904          51.000
E33  24392362.438 6 128182732.063 6     -1267.016          38.000    24392362.680 7  98217963.700 7      -970.803          43.000
> 2020 05 04 12 17 30.0000000  0 16        .000000000000
G14  24344285.805 5 127930083.482 5     -2553.254          35.000    24344292.164 5  99685790.944 5     -1989.561          34.000
G18  22202030.711 8 116672500.382 8      3147.367          50.000    22202028.875 7  90913630.571 7      2452.497          44.000
G21  22107171.062 7 116173988.088 7      2729.062          45.000    22107172.188 7  90525194.011 7      2126.542          44.000
G25  21351168.531 8 112201154.637 8     -2134.418          48.000    21351171.711 8  87429457.034 8     -1663.183          48.000
G29  20319249.523 8 106778368.152 8      -741.824          51.000    20319249.039 8  83203931.427 8      -578.045          51.000
R10  22464911.016 7 119750574.770 7     -3768.328          45.000
R11  19193587.188 8 102564755.489 8      -504.918          49.000    19193590.039 8  79772560.404 8      -392.714          48.000
R21  19309184.180 8 103327328.593 8      -980.566          50.000    19309186.227 8  80365720.390 8      -762.660          48.000
R22  20711425.820 8 110558979.872 8      3126.859          51.000    20711425.477 7  85990347.821 7      2432.002          45.000
C11  22262648.250 8 115927540.019 8     -1434.645          51.000    22262648.516 8  89642478.492 8     -1109.382          51.000
C23  21942795.641 8 114261882.907 8      -181.035          51.000
C25  23867871.344 7 124286265.266 7     -2847.184          47.000
C28  23718661.516 8 123509265.704 8      2665.781          48.000
E12  22109955.922 8 116188622.723 8      1609.945          51.000    22109957.344 8  89027651.336 8      1233.588          50.000
E31  24113032.734 8 126714822.673 8     -1342.840          51.000    24113035.406 8  97093178.860 8     -1028.962          51.000
E33  24399625.555 6 128220896.899 6     -1277.602          37.000    24399625.758 7  98247206.912 7      -979.103          43.000
> 2020 05 04 12 18  0.0000000  0 16        .000000000000
G14  24358878.359 6 128006769.707 6     -2559.734          36.000    24358885.414 5  99745546.445 5     -1994.595          32.000
G18  22184094.039 8 116578243.120 8      3136.324          49.000    22184092.758 7  90840183.382 7      2443.892          46.000
G21  22091627.117 7 116092304.417 7      2716.719          46.000    22091628.109 7  90461544.381 7      2116.924          43.000
G25  21363383.102 7 112265343.104 7     -2144.879          46.000    21363386.367 7  87479474.003 7     -1671.334          46.000
G29  20323523.758 8 106800829.295 8      -755.449          51.000    20323523.117 8  83221433.618 8      -588.662          51.000
R10  22486146.547 7 119863769.262 7     -3778.125          45.000
R11  19196484.891 8 102580241.433 8      -527.652          49.000    19196488.219 8  79784605.022 8      -410.399          48.000
R21  19314744.367 8 103357082.656 8     -1003.078          50.000    19314746.695 7  80388862.471 7      -780.169          47.000
R22  20693900.453 8 110465432.908 8      3109.574          49.000    20693901.883 7  85917589.084 7      2418.558          46.000
C11  22270946.375 8 115970749.727 8     -1445.996          51.000    22270946.375 8  89675890.960 8     -1118.166          51.000
C23  21943883.445 8 114267547.427 8      -196.707          51.000
C25  23884299.195 7 124371811.793 7     -2855.996          44.000
C28  23703327.344 7 123429420.314 7      2657.207          47.000
E12  22100801.133 8 116140511.891 8      1597.406          50.000    22100801.828 8  88990787.229 8      1223.987          50.000
E31  24120725.305 8 126755246.286 8     -1352.113          51.000    24120727.781 8  97124152.776 8     -1036.059          51.000
E33  24406954.922 6 128259413.019 6     -1290.172          41.000    24406954.609 7  98276719.230 7      -988.406          43.000
> 2020 05 04 12 18 30.0000000  0 16        .000000000000
G14  24373505.742 6 128083637.723 6     -2565.145          37.000    24373512.969 5  99805443.467 5     -1998.820          31.000
G18  22166218.031 8 116484306.477 8      3125.758          48.000    22166217.984 7  90766986.010 7      2435.655          47.000
G21  22076151.547 8 116010976.008 8      2705.176          50.000    22076151.062 7  90398171.631 7      2107.932          42.000
G25  21375654.992 7 112329832.558 7     -2154.527          46.000    21375657.570 7  87529725.524 7     -1678.852          46.000
G29  20327873.430 8 106823686.723 8      -768.375          51.000    20327872.781 8  83239244.620 8      -598.734          51.000
R10  22507434.992 7 119977250.852 7     -3787.418          45.000
R11  19199507.367 8 102596393.396 8      -549.352          49.000    19199510.773 8  79797167.649 8      -427.273          48.000
R21  19320428.883 8 103387500.602 8     -1024.910          50.000    19320430.617 8  80412520.854 8      -797.155          48.000
R22  20676470.305 8 110372395.535 8      3092.855          48.000    20676474.109 8  85845226.663 8      2405.554          48.000
C11  22279306.969 8 116014284.358 8     -1456.445          51.000    22279306.812 8  89709554.704 8     -1126.192          51.000
C23  21945059.523 8 114273670.725 8      -211.562          51.000
C25  23900774.914 7 124457610.465 7     -2864.043          43.000
C28  23688039.734 7 123349818.465 7      2649.324          47.000
E12  22091715.406 8 116092763.984 8      1585.648          51.000    22091715.078 8  88954201.189 8      1215.028          51.000
E31  24128468.047 8 126795933.945 8     -1360.559          51.000    24128470.023 8  97155329.020 8     -1042.458          51.000
E33  24414351.211 6 128298279.649 6     -1301.215          41.000    24414350.297 7  98306500.121 7      -996.978          44.000
> 2020 05 04 12 19  0.0000000  0 16        .000000000000
G14  24388167.984 6 128160687.294 6     -2570.477          36.000    24388175.219 5  99865482.052 5     -2002.969          34.000
G18  22148404.078 8 116390696.034 8      3115.379          48.000    22148404.883 7  90694042.833 7      2427.568          46.000
G21  22060744.820 8 115930008.392 8      2693.336          51.000    22060743.008 7  90335080.026 7      2098.706          42.000
G25  21387984.812 7 112394625.398 7     -2164.266          46.000    21387986.852 7  87580213.439 7     -1686.441          46.000
G29  20332298.852 8 106846942.234 8      -781.359          51.000    20332298.258 8  83257365.800 8      -608.851          51.000
R10  22528777.102 7 120091020.247 7     -3796.754          43.000
R11  19202655.414 8 102613215.095 8      -571.469          50.000    19202658.680 8  79810251.185 8      -444.476          48.000
R21  19326237.305 8 103418582.907 8     -1046.680          51.000    19326239.500 8  80436696.016 8      -814.084          48.000
R22  20659137.469 8 110279872.933 8      3075.871          49.000    20659142.766 8  85773264.647 8      2392.347          49.000
C11  22287730.180 8 116058145.445 8     -1466.988          51.000    22287729.984 8  89743470.884 8     -1134.332          51.000
C23  21946324.211 8 114280256.186 8      -226.703          51.000
C25  23917300.539 7 124543662.892 7     -2872.164          45.000
C28  23672799.844 7 123270463.986 7      2641.496          46.000
E12  22082699.383 8 116045382.603 8      1573.875          51.000    22082697.969 8  88917895.995 8      1205.872          50.000
E31  24136261.492 8 126836888.671 8     -1369.098          51.000    24136262.906 8  97186709.891 8     -1049.004          51.000
E33  24421814.227 6 128337498.420 6     -1312.906          38.000    24421813.531 7  98336550.832 7     -1005.682          44.000
> 2020 05 04 12 19 30.0000000  0 16        .000000000000
G14  24402861.711 5 128237901.755 5     -2576.289          34.000    24402868.734 4  99925649.062 4     -2007.495          29.000
G18  22130650.164 7 116297400.408 7      3104.250          47.000    22130651.461 7  90621344.981 7      2418.896          47.000
G21  22045404.352 8 115849389.654 8      2681.105          51.000    22045401.492 7  90272260.274 7      2089.176          43.000
G25  21400369.539 7 112459707.016 7     -2174.434          46.000    21400371.508 7  87630926.340 7     -1694.367          46.000
G29  20336796.953 8 106870580.548 8      -794.723          51.000    20336796.305 8  83275785.274 8      -619.261          51.000
R10  22550169.750 7 120205060.357 7     -3806.125          43.000
R11  19205926.359 8 102630692.958 8      -593.914          50.000    19205929.531 7  79823845.052 7      -461.936          47.000
R21  19332167.016 8 103450313.006 8     -1068.848          50.000    19332168.945 8  80461374.970 8      -831.326          48.000
R22  20641899.469 8 110187852.853 8      3058.531          51.000    20641905.008 8  85701693.488 8      2378.861          49.000
C11  22296213.008 8 116102317.368 8     -1477.961          51.000    22296212.758 8  89777627.421 8     -1142.784          51.000
C23  21947675.453 8 114287290.236 8      -242.371          51.000
C25  23933873.188 8 124629953.742 8     -2880.734          48.000
C28  23657605.086 7 123191343.864 7      2633.137          45.000
E12  22073750.414 8 115998354.285 8      1561.418          51.000    22073748.125 8  88881861.327 8      1196.366          50.000
E31  24144102.883 8 126878096.499 8     -1378.129          51.000    24144104.344 8  97218284.676 8     -1055.933          51.000
E33  24429341.031 6 128377053.760 6     -1324.336          41.000    24429340.555 7  98366859.532 7     -1014.769          43.000
> 2020 05 04 12 20  0.0000000  0 16        .000000000000
G14  24417588.875 5 128315292.357 5     -2582.297          33.000    24417595.656 4  99985953.405 4     -2012.179          29.000
G18  22112959.609 7 116204436.700 7      3093.328          47.000    22112961.234 7  90548905.770 7      2410.389          47.000
G21  22030133.148 8 115769136.638 8      2668.980          51.000    22030129.742 7  90209725.496 7      2079.725          43.000
G25  21412812.047 7 112525091.299 7     -2184.594          47.000    21412813.602 7  87681875.104 7     -1702.281          47.000
G29  20341370.422 8 106894614.807 8      -807.715          51.000    20341369.844 8  83294513.262 8      -629.388          51.000
R10  22571615.672 7 120319384.136 7     -3815.305          42.000
R11  19209322.992 8 102648842.378 8      -616.195          51.000    19209325.664 7  79837961.241 7      -479.263          47.000
R21  19338219.945 8 103482703.277 8     -1090.711          51.000    19338221.945 8  80486567.399 8      -848.331          49.000
R22  20624758.734 8 110096352.257 8      3041.250          49.000    20624763.852 8  85630526.370 8      2365.420          48.000
C11  22304757.867 8 116146812.891 8     -1488.645          51.000    22304757.641 8  89812034.184 8     -1151.066          51.000
C23  21949115.758 8 114294787.619 8      -257.699          51.000
C25  23950494.242 8 124716495.885 8     -2888.969          50.000
C28  23642458.195 7 123112473.379 7      2624.781          45.000
E12  22064871.203 8 115951694.135 8      1549.109          50.000    22064868.555 8  88846108.748 8      1186.947          50.000
E31  24151995.109 8 126919571.949 8     -1387.012          51.000    24151996.773 8  97250064.499 8     -1062.835          50.000
E33  24436934.930 6 128416959.137 6     -1336.066          41.000    24436933.852 7  98397436.312 7     -1023.700          43.000
> 2020 05 04 12 20 30.0000000  0 16        .000000000000
G14  24432348.258 5 128392852.765 5     -2588.160          31.000
G18  22095332.102 7 116111804.273 7      3082.246          47.000    22095334.125 7  90476724.710 7      2401.750          47.000
G21  22014930.781 8 115689247.567 8      2656.863          50.000    22014927.398 7  90147474.310 7      2070.283          42.000
G25  21425311.125 7 112590774.339 7     -2194.094          45.000    21425312.844 7  87733056.664 7     -1709.686          45.000
G29  20346018.438 8 106919040.250 8      -820.723          51.000    20346018.078 8  83313546.063 8      -639.524          51.000
R10  22593113.789 7 120433986.224 7     -3824.414          42.000
R11  19212845.125 8 102667660.355 8      -638.375          51.000    19212846.766 7  79852597.439 7      -496.514          47.000
R21  19344395.094 8 103515747.815 8     -1112.410          51.000    19344397.117 8  80512268.696 8      -865.211          48.000
R22  20607715.062 8 110005369.558 8      3024.055          51.000    20607719.398 7  85559762.107 7      2352.043          47.000
C11  22313363.961 8 116191627.067 8     -1499.145          51.000    22313363.891 8  89846687.364 8     -1159.167          51.000
C23  21950644.094 8 114302745.483 8      -272.953          51.000
C25  23967162.500 8 124803284.580 8     -2897.082          51.000
C28  23627359.352 7 123033850.128 7      2616.672          46.000
E12  22056061.180 8 115905399.405 8      1537.074          48.000    22056058.773 8  88810636.173 8      1177.764          50.000
E31  24159937.547 8 126961311.738 8     -1395.738          51.000    24159938.641 8  97282046.892 8     -1069.390          49.000
E33  24444594.102 6 128457209.596 6     -1347.363          37.000    24444593.484 7  98428277.538 7     -1032.335          43.000
> 2020 05 04 12 21  0.0000000  0 16        .000000000000
G14  24447140.250 5 128470587.713 5     -2593.199          32.000
G18  22077769.320 8 116019510.635 8      3071.051          48.000    22077771.602 8  90404807.611 8      2393.027          48.000
G21  21999798.719 8 115609729.461 8      2644.617          50.000    21999795.609 7  90085512.183 7      2060.744          43.000
G25  21437867.648 7 112656760.506 7     -2204.477          46.000    21437869.961 7  87784474.388 7     -1717.774          45.000
G29  20350741.641 8 106943860.499 8      -833.680          51.000    20350741.328 8  83332886.522 8      -649.621          51.000
R10  22614665.852 7 120548869.349 7     -3833.797          44.000
R11  19216493.188 8 102687152.415 8      -660.750          51.000    19216494.336 8  79867757.906 8      -513.920          48.000
R21  19350692.977 8 103549448.796 8     -1134.074          51.000    19350694.750 8  80538480.575 8      -882.058          48.000
R22  20590769.789 8 109914912.084 8      3006.719          51.000    20590773.086 7  85489406.333 7      2338.562          47.000
C11  22322031.906 8 116236763.312 8     -1509.648          51.000    22322031.945 8  89881589.582 8     -1167.425          51.000
C23  21952262.047 8 114311168.932 8      -288.207          51.000
C25  23983878.234 8 124890323.153 8     -2905.164          51.000
C28  23612309.828 7 122955479.799 7      2608.312          47.000
E12  22047321.531 8 115859475.545 8      1524.848          48.000    22047319.750 8  88775447.792 8      1168.369          51.000
E31  24167930.977 8 127003320.779 8     -1404.516          51.000    24167932.211 8  97314235.616 8     -1076.199          51.000
E33  24452319.328 6 128497808.648 6     -1358.867          39.000    24452319.812 7  98459385.920 7     -1041.189          44.000
> 2020 05 04 12 21 30.0000000  0 16        .000000000000
G14  24461961.938 5 128548475.111 5     -2598.312          35.000
G18  22060269.047 8 115927544.976 8      3060.566          48.000    22060271.500 8  90333146.093 8      2384.857          48.000
G21  21984735.016 8 115530571.278 8      2633.129          48.000    21984732.391 7  90023830.517 7      2051.789          44.000
G25  21450479.227 7 112723035.748 7     -2213.320          46.000    21450481.547 7  87836117.420 7     -1724.668          46.000
G29  20355537.258 8 106969060.806 8      -845.754          51.000    20355536.758 8  83352523.123 8      -659.029          51.000
R10  22636267.969 7 120664017.619 7     -3842.133          45.000
R11  19220264.852 8 102707305.604 8      -682.160          51.000    19220265.469 8  79883432.586 8      -530.572          48.000
R21  19357110.594 8 103583790.451 8     -1154.715          51.000    19357112.609 8  80565190.777 8      -898.112          48.000
R22  20573919.789 8 109824968.075 8      2990.121          50.000    20573922.555 7  85419449.881 7      2325.647          46.000
C11  22330758.602 8 116282206.606 8     -1519.234          51.000    22330758.641 8  89916729.193 8     -1174.642          51.000
C23  21953966.742 8 114320045.104 8      -302.766          51.000
C25  24000638.742 8 124977596.897 8     -2912.344          51.000
C28  23597306.477 8 122877350.034 8      2600.922          48.000
E12  22038650.062 8 115813909.761 8      1513.699          48.000    22038648.977 8  88740533.767 8      1159.835          51.000
E31  24175973.500 8 127045585.726 8     -1412.375          51.000    24175975.844 8  97346620.438 8     -1082.105          51.000
E33  24460108.812 6 128538741.648 6     -1368.949          40.000    24460109.297 7  98490750.128 7     -1049.139          44.000
> 2020 05 04 12 22  0.0000000  0 16        .000000000000
G14  24476815.750 6 128626528.979 6     -2603.898          36.000
G18  22042834.367 8 115835924.179 8      3048.441          48.000    22042836.609 7  90261753.295 7      2375.409          47.000
G21  21969742.648 7 115451789.380 7      2619.992          47.000    21969741.000 7  89962442.064 7      2041.552          45.000
G25  21463148.539 7 112789613.804 7     -2224.090          45.000    21463150.539 7  87887996.390 7     -1733.060          45.000
G29  20360407.648 8 106994654.317 8      -859.410          51.000    20360407.008 8  83372466.123 8      -669.667          51.000
R10  22657922.516 7 120779443.089 7     -3851.855          46.000
R11  19224162.992 8 102728134.729 8      -705.246          51.000    19224163.008 8  79899633.017 8      -548.525          48.000
R21  19363650.039 8 103618784.587 8     -1177.031          51.000    19363651.945 8  80592408.438 8      -915.469          48.000
R22  20557169.398 8 109735554.150 8      2971.848          51.000    20557171.938 7  85349905.739 7      2311.440          47.000
C11  22339546.805 8 116327969.546 8     -1530.453          51.000    22339546.758 8  89952115.994 8     -1183.465          51.000
C23  21955760.938 8 114329388.436 8      -319.031          51.000
C25  24017446.281 8 125065118.448 8     -2921.266          51.000
C28  23582352.633 8 122799475.847 8      2591.746          49.000
E12  22030049.602 7 115768716.889 7      1500.469          47.000    22030049.562 8  88705905.469 8      1149.704          51.000
E31  24184067.969 8 127088120.899 8     -1422.090          51.000    24184071.188 8  97379212.322 8     -1089.701          51.000
E33  24467963.766 6 128580021.466 6     -1381.656          37.000    24467964.555 7  98522380.029 7     -1058.576          44.000
> 2020 05 04 12 22 30.0000000  0 16        .000000000000
G14  24491697.344 6 128704728.938 6     -2609.441          37.000
G18  22025462.195 7 115744633.352 7      3037.273          47.000    22025464.047 7  90190617.575 7      2366.707          46.000
G21  21954818.906 7 115373367.975 7      2607.633          47.000    21954818.109 7  89901334.494 7      2031.925          44.000
G25  21475872.109 7 112856476.412 7     -2233.887          45.000    21475874.164 7  87940097.100 7     -1740.691          45.000
G29  20365349.117 8 107020621.810 8      -872.055          51.000    20365348.516 8  83392700.543 8      -679.523          51.000
R10  22679625.148 7 120895125.660 7     -3860.582          45.000
R11  19228184.258 8 102749622.647 8      -727.648          51.000    19228184.422 8  79916345.834 8      -565.949          49.000
R21  19370307.836 8 103654410.844 8     -1198.410          51.000    19370309.508 8  80620117.737 8      -932.097          48.000
R22  20540515.820 8 109646654.097 8      2954.387          50.000    20540519.023 8  85280761.310 8      2297.856          49.000
C11  22348392.828 8 116374033.055 8     -1540.805          51.000    22348392.891 8  89987735.205 8     -1191.403          51.000
C23  21957641.508 8 114339181.827 8      -334.199          51.000
C25  24034297.430 8 125152868.953 8     -2929.125          48.000
C28  23567443.727 8 122721840.690 8      2583.516          48.000
E12  22021516.758 7 115723879.890 7      1488.301          46.000    22021517.953 8  88671549.852 8      1140.353          51.000
E31  24192210.461 8 127130908.748 8     -1430.754          51.000    24192214.023 8  97411997.808 8     -1096.295          51.000
E33  24475880.578 6 128621628.961 6     -1392.832          36.000    24475882.594 7  98554261.109 7     -1067.049          44.000
> 2020 05 04 12 23  0.0000000  0 16        .000000000000
G14  24506609.727 5 128783090.039 5     -2614.156          34.000
G18  22008156.516 7 115653693.500 7      3025.645          47.000    22008158.516 7  90119755.327 7      2357.645          46.000
G21  21939968.039 8 115295327.642 8      2595.203          48.000    21939967.328 7  89840523.865 7      2022.239          45.000
G25  21488653.164 7 112923641.433 7     -2243.734          44.000    21488655.242 7  87992433.464 7     -1748.367          45.000
G29  20370365.016 8 107046980.663 8      -885.000          51.000    20370364.453 8  83413239.905 8      -689.613          51.000
R10  22701379.312 7 121011082.049 7     -3869.562          45.000
R11  19232332.453 8 102771788.330 8      -749.926          51.000    19232332.750 8  79933585.812 8      -583.276          49.000
R21  19377086.531 8 103690685.391 8     -1219.684          51.000    19377088.203 8  80648331.292 8      -948.643          48.000
R22  20523962.234 8 109558288.821 8      2936.789          50.000    20523966.547 8  85212032.799 8      2284.169          49.000
C11  22357299.672 8 116420413.758 8     -1551.152          51.000    22357299.984 8  90023599.705 8     -1199.356          51.000
C23  21959611.867 8 114349443.821 8      -349.738          51.000
C25  24051195.109 7 125240865.100 7     -2936.984          44.000
C28  23552583.664 8 122644463.615 8      2575.219          48.000
E12  22013055.648 7 115679417.666 7      1476.164          47.000    22013057.562 8  88637481.391 8      1131.024          51.000
E31  24200404.461 8 127173967.684 8     -1439.531          51.000    24200408.070 8  97444991.008 8     -1103.026          51.000
E33  24483863.852 6 128663581.323 6     -1403.738          38.000    24483866.203 7  98586406.401 7     -1075.729          44.000
> 2020 05 04 12 23 30.0000000  0 15        .000000000000
G18  21990918.672 8 115563109.039 8      3013.602          48.000    21990920.562 7  90049170.026 7      2348.261          47.000
G21  21925190.953 8 115217672.223 8      2582.238          50.000    21925189.680 7  89780013.189 7      2012.137          44.000
G25  21501491.914 7 112991110.187 7     -2253.988          44.000    21501494.117 7  88045006.487 7     -1756.358          44.000
G29  20375455.461 8 107073731.187 8      -898.027          51.000    20375454.883 8  83434084.464 8      -699.762          51.000
R10  22723184.516 7 121127311.947 7     -3878.711          44.000
R11  19236607.688 8 102794634.004 8      -772.758          51.000    19236608.109 8  79951354.681 8      -601.031          48.000
R21  19383986.211 8 103727607.707 8     -1241.391          51.000    19383988.008 8  80677048.631 8      -965.526          48.000
R22  20507509.562 8 109470462.447 8      2918.633          51.000    20507514.047 8  85143723.395 8      2270.048          49.000
C11  22366267.586 8 116467112.037 8     -1561.758          51.000    22366267.789 8  90059709.767 8     -1207.699          51.000
C23  21961672.633 8 114360176.581 8      -365.504          51.000
C25  24068137.734 6 125329107.331 6     -2945.449          38.000
C28  23537773.922 8 122567347.461 8      2566.258          48.000
E12  22004667.141 8 115635332.694 8      1463.355          48.000    22004669.023 8  88603701.995 8      1121.248          51.000
E31  24208650.328 8 127217299.660 8     -1448.879          51.000    24208653.859 8  97478193.417 8     -1110.189          51.000
E33  24491912.727 6 128705879.014 6     -1415.609          37.000    24491915.133 7  98618816.265 7     -1084.643          45.000
> 2020 05 04 12 24  0.0000000  0 16        .000000000000
G14  24536520.508 5 128940297.783 5     -2624.281          35.000
G18  21973744.859 8 115472860.286 8      3002.758          49.000    21973746.586 7  89978846.357 7      2339.814          45.000
G21  21910483.469 8 115140381.697 8      2570.238          50.000    21910481.766 7  89719786.855 7      2002.786          43.000
G25  21514384.266 7 113058859.762 7     -2263.031          45.000    21514386.641 7  88097798.344 7     -1763.401          44.000
G29  20380615.938 8 107100849.824 8      -910.172          51.000    20380615.508 8  83455215.850 8      -709.225          51.000
R10  22745035.836 7 121243790.240 7     -3886.797          44.000
R11  19241005.984 8 102818137.620 8      -794.453          51.000    19241006.773 8  79969635.268 8      -617.908          48.000
R21  19391002.148 8 103765152.336 8     -1261.887          51.000    19391004.344 8  80706250.005 8      -981.467          48.000
R22  20491153.484 8 109383154.045 8      2901.430          50.000    20491157.766 7  85075816.856 7      2256.668          47.000
C11  22375291.984 8 116514104.054 8     -1571.371          51.000    22375291.930 8  90096046.955 8     -1215.038          51.000
C23  21963819.609 8 114371358.330 8      -380.312          51.000
C25  24085122.273 6 125417571.918 6     -2952.344          40.000
C28  23523010.211 8 122490470.932 8      2558.410          48.000
E12  21996346.430 8 115591603.224 8      1451.723          49.000    21996347.883 8  88570194.989 8      1112.317          51.000
E31  24216943.812 8 127260882.366 8     -1456.996          51.000    24216947.547 8  97511587.954 8     -1116.397          51.000
E33  24500022.602 6 128748498.265 6     -1426.082          40.000    24500025.570 7  98651472.584 7     -1092.775          46.000
> 2020 05 04 12 24 30.0000000  0 15        .000000000000
G18  21956639.727 8 115382972.532 8      2990.906          48.000    21956641.086 7  89908803.997 7      2330.579          46.000
G21  21895849.945 8 115063481.040 8      2557.426          50.000    21895848.594 7  89659864.303 7      1992.802          44.000
G25  21527334.328 7 113126912.202 7     -2272.746          45.000    21527336.867 7  88150826.221 7     -1770.974          45.000
G29  20385850.625 8 107128357.884 8      -922.789          51.000    20385850.297 8  83476650.705 8      -719.056          51.000
R10  22766937.148 7 121360537.515 7     -3895.277          43.000
R11  19245531.703 8 102842322.558 8      -816.875          51.000    19245532.789 7  79988445.738 7      -635.347          47.000
R21  19398138.422 8 103803339.812 8     -1282.895          51.000    19398140.125 7  80735951.361 7      -997.807          47.000
R22  20474898.141 8 109296388.508 8      2883.738          50.000    20474902.398 7  85008332.588 7      2242.911          46.000
C11  22384376.711 8 116561410.744 8     -1581.363          51.000    22384376.703 8  90132627.487 8     -1222.889          51.000
C23  21966057.234 8 114383011.764 8      -395.695          51.000
C25  24102158.375 7 125506280.095 7     -2960.316          44.000
C28  23508297.555 8 122413857.329 8      2550.090          50.000
E12  21988097.477 7 115548252.397 7      1439.355          47.000    21988098.312 8  88536978.119 8      1102.892          51.000
E31  24225289.305 8 127304738.488 8     -1465.781          51.000    24225293.164 8  97545191.983 8     -1123.128          51.000
E33  24508198.297 6 128791460.463 6     -1436.980          41.000    24508201.430 7  98684391.642 7     -1101.147          46.000
> 2020 05 04 12 25  0.0000000  0 16        .000000000000
G14  24566539.406 5 129098035.784 5     -2632.289          33.000
G18  21939598.406 8 115293419.797 8      2979.984          48.000    21939599.375 7  89839022.683 7      2322.066          46.000
G21  21881285.203 8 114986942.827 8      2545.680          50.000    21881284.719 7  89600224.143 7      1983.647          45.000
G25  21540336.469 7 113195238.386 7     -2281.582          45.000    21540339.266 7  88204067.361 7     -1777.859          45.000
G29  20391153.703 8 107156225.286 8      -934.336          51.000    20391153.242 8  83498365.555 8      -728.054          51.000
R10  22788883.359 7 121477523.351 7     -3902.871          45.000
R11  19250179.586 8 102867160.076 8      -838.289          51.000    19250180.570 7  80007763.778 7      -652.006          46.000
R21  19405388.820 8 103842138.269 8     -1302.938          51.000    19405390.367 7  80766127.948 7     -1013.396          47.000
R22  20458740.188 8 109210138.877 8      2866.953          51.000    20458743.914 7  84941249.578 7      2229.852          47.000
C11  22393516.219 8 116609002.186 8     -1590.652          51.000    22393516.211 8  90169428.211 8     -1229.957          51.000
C23  21968379.945 8 114395108.880 8      -410.172          51.000
C25  24119236.906 7 125595201.988 7     -2967.102          46.000
C28  23493630.812 8 122337479.193 8      2542.559          50.000
E12  21979914.484 7 115505252.140 7      1427.977          45.000    21979915.156 8  88504029.894 8      1094.125          50.000
E31  24233681.531 8 127348839.477 8     -1473.629          51.000    24233684.883 8  97578983.631 8     -1129.141          51.000
E33  24516433.562 7 128834735.570 7     -1447.219          42.000    24516436.172 7  98717550.463 7     -1108.929          45.000
> 2020 05 04 12 25 30.0000000  0 15        .000000000000
G18  21922626.969 8 115204232.588 8      2967.047          49.000    21922627.539 7  89769526.176 7      2311.988          47.000
G21  21866795.203 8 114910797.357 8      2531.805          49.000    21866795.531 7  89540890.039 7      1972.838          46.000
G25  21553396.008 7 113263865.657 7     -2292.344          45.000    21553398.461 7  88257543.115 7     -1786.245          45.000
G29  20396530.219 8 107184478.771 8      -948.031          51.000    20396529.641 8  83520381.262 8      -738.726          51.000
R10  22810879.375 7 121594773.107 7     -3912.637          44.000
R11  19254954.906 8 102892678.890 8      -861.750          51.000    19254956.141 7  80027611.697 7      -670.253          46.000
R21  19412758.430 8 103881573.756 8     -1324.809          51.000    19412759.938 7  80796799.967 7     -1030.410          47.000
R22  20442685.508 8 109124435.063 8      2847.938          51.000    20442689.094 8  84874591.102 8      2215.066          49.000
C11  22402715.438 8 116656904.474 8     -1601.668          51.000    22402715.219 8  90206469.281 8     -1238.496          51.000
C23  21970793.602 8 114407677.529 8      -426.652          51.000
C25  24136361.227 7 125684363.727 7     -2975.887          47.000
C28  23479014.766 8 122261365.050 8      2532.969          50.000
E12  21971803.609 7 115462630.918 7      1414.680          47.000    21971803.922 8  88471372.080 8      1083.942          50.000
E31  24242125.797 8 127393213.250 8     -1483.426          51.000    24242128.414 8  97612984.289 8     -1136.645          51.000
E33  24524732.891 7 128878350.091 7     -1459.332          44.000    24524735.125 7  98750969.352 7     -1118.067          46.000
> 2020 05 04 12 26  0.0000000  0 16        .000000000000
G18  21905724.742 8 115115408.671 8      2954.637          49.000    21905725.203 7  89700312.744 7      2302.314          47.000
G21  21852379.461 8 114835041.923 8      2518.551          50.000    21852380.094 7  89481859.857 7      1962.510          46.000
G25  21566511.797 7 113332788.511 7     -2302.465          46.000    21566513.383 7  88311249.197 7     -1794.128          46.000
G29  20401979.023 8 107213112.351 8      -960.910          51.000    20401978.555 8  83542693.138 8      -748.761          51.000
G31  21139462.594 6 111088634.261 6       129.910          38.000    21139459.719 6  86562556.304 6       101.229          37.000
R10  22832923.320 7 121712279.810 7     -3921.215          42.000
R11  19259856.781 8 102918874.271 8      -884.617          51.000    19259858.453 7  80047985.848 7      -688.039          47.000
R21  19420245.625 8 103921638.524 8     -1346.094          51.000    19420247.016 7  80827961.448 7     -1046.962          47.000
R22  20426732.773 8 109039274.363 8      2829.445          51.000    20426736.039 8  84808355.029 8      2200.680          49.000
C11  22411972.836 8 116705111.258 8     -1612.027          51.000    22411972.688 8  90243745.816 8     -1246.546          51.000
C23  21973297.133 8 114420713.213 8      -442.477          51.000
C25  24153530.008 7 125773759.016 7     -2983.859          47.000
C28  23464448.273 8 122185510.967 8      2523.941          50.000
E12  21963764.477 8 115420384.405 8      1401.906          48.000    21963763.977 8  88439001.374 8      1074.170          49.000
E31  24250620.961 8 127437854.997 8     -1492.621          51.000    24250623.148 8  97647190.267 8     -1143.715          50.000
E33  24533095.938 7 128922297.827 7     -1470.504          45.000    24533097.984 7  98784643.575 7     -1126.798          45.000
> 2020 05 04 12 26 30.0000000  0 16        .000000000000
G18  21888889.742 8 115026939.687 8      2943.512          48.000    21888889.984 7  89631375.884 7      2293.645          47.000
G21  21838036.125 8 114759667.213 8      2506.633          50.000    21838036.844 7  89423126.352 7      1953.223          46.000
G25  21579681.617 7 113401995.419 7     -2311.125          46.000    21579682.680 7  88365176.624 7     -1800.877          46.000
G29  20407497.750 8 107242113.557 8      -972.320          51.000    20407497.312 8  83565291.463 8      -757.652          51.000
G31  21138776.641 6 111085020.275 6       111.645          40.000    21138775.805 6  86559740.209 6        86.999          39.000
R10  22855012.172 6 121830030.132 6     -3928.531          38.000
R11  19264883.141 8 102945735.454 8      -905.961          50.000    19264885.148 7  80068877.877 7      -704.636          47.000
R21  19427847.609 8 103962318.741 8     -1365.645          50.000    19427849.195 7  80859601.622 7     -1062.168          46.000
R22  20410879.516 8 108954647.374 8      2812.477          50.000    20410882.766 8  84742534.050 8      2187.482          49.000
C11  22421286.508 8 116753610.090 8     -1620.988          51.000    22421286.500 8  90281248.188 8     -1253.418          51.000
C23  21975888.203 8 114434205.302 8      -456.855          51.000
C25  24170740.531 7 125863375.509 7     -2990.410          46.000
C28  23449929.414 8 122109906.915 8      2516.508          50.000
E12  21955794.500 7 115378502.093 7      1390.609          47.000    21955793.469 8  88406909.750 8      1065.547          50.000
E31  24259164.852 8 127482753.789 8     -1500.465          51.000    24259166.828 8  97681593.183 8     -1149.617          50.000
E33  24541520.312 7 128966566.423 7     -1480.426          45.000    24541522.023 7  98818563.643 7     -1134.334          46.000
> 2020 05 04 12 27  0.0000000  0 16        .000000000000
G18  21872126.242 8 114938848.575 8      2929.168          48.000    21872126.328 7  89562733.475 7      2282.469          46.000
G21  21823769.656 8 114684696.177 8      2491.305          50.000    21823770.062 7  89364707.381 7      1941.276          45.000
G25  21592908.781 7 113471506.188 7     -2322.953          44.000    21592909.992 7  88419340.827 7     -1810.093          45.000
G29  20413089.953 8 107271501.422 8      -986.988          51.000    20413089.445 8  83588191.098 8      -769.082          51.000
G31  21138201.789 6 111081998.537 6        89.609          36.000    21138200.266 5  86557385.558 5        69.825          35.000
R10  22877146.227 5 121948041.916 5     -3939.176          32.000
R11  19270037.984 8 102973283.220 8      -930.637          50.000    19270040.625 8  80090303.940 8      -723.829          48.000
R21  19435567.984 8 104003632.612 8     -1388.574          50.000    19435569.398 7  80891734.623 7     -1080.002          46.000
R22  20395129.641 8 108870577.037 8      2792.086          49.000    20395133.586 8  84677145.992 8      2171.622          49.000
C11  22430659.953 8 116802419.551 8     -1632.988          51.000    22430659.992 8  90318990.761 8     -1262.691          51.000
C23  21978570.734 8 114448174.251 8      -474.527          51.000
C25  24187996.195 7 125953231.986 7     -3000.172          45.000
C28  23435461.711 8 122034574.027 8      2505.539          48.000
E12  21947897.500 7 115337004.882 7      1375.879          47.000    21947896.562 8  88375113.223 8      1054.308          50.000
E31  24267761.438 8 127527930.018 8     -1511.375          51.000    24267763.406 8  97716208.707 8     -1158.019          51.000
E33  24550009.000 7 129011174.836 7     -1493.559          45.000    24550010.445 7  98852744.103 7     -1144.238          46.000
> 2020 05 04 12 27 30.0000000  0 16        .000000000000
G18  21855436.539 8 114851143.886 8      2917.746          49.000    21855436.438 7  89494392.201 7      2273.568          46.000
G21  21809581.391 8 114610136.312 8      2479.211          50.000    21809581.406 7  89306608.813 7      1931.853          46.000
G25  21606194.664 7 113541326.162 7     -2331.645          43.000    21606197.008 7  88473745.984 7     -1816.866          42.000
G29  20418756.758 8 107301280.759 8      -998.305          51.000    20418756.141 8  83611395.764 8      -777.900          51.000
G31  21137740.234 5 111079574.919 5        71.344          35.000    21137738.875 5  86555497.060 5        55.599          35.000
R10  22899332.945 5 122066319.716 5     -3946.625          34.000
R11  19275322.422 8 103001524.115 8      -952.125          50.000    19275325.812 8  80112269.074 8      -740.545          48.000
R21  19443407.406 8 104045583.462 8     -1408.133          51.000    19443409.055 7  80924363.066 7     -1095.214          46.000
R22  20379485.211 8 108787070.808 8      2774.992          51.000    20379489.992 8  84612196.680 8      2158.327          49.000
C11  22440093.711 8 116851544.023 8     -1641.977          51.000    22440093.781 8  90356976.919 8     -1269.714          51.000
C23  21981346.211 8 114462626.148 8      -489.074          51.000
C25  24205298.984 7 126043332.782 7     -3006.586          46.000
C28  23421046.680 8 121959518.992 8      2497.996          48.000
E12  21940075.258 8 115295899.263 8      1364.258          48.000    21940074.648 8  88343616.741 8      1045.430          50.000
E31  24276411.805 8 127573389.685 8     -1519.309          51.000    24276414.539 8  97751041.406 8     -1164.166          51.000
E33  24558563.180 7 129056127.661 7     -1503.418          46.000    24558564.398 7  98887188.486 7     -1152.077          46.000
> 2020 05 04 12 28  0.0000000  0 16        .000000000000
G18  21838815.023 8 114763795.361 8      2906.074          50.000    21838815.008 7  89426328.477 7      2264.473          47.000
G21  21795465.344 7 114535957.040 7      2466.695          47.000    21795465.344 7  89248806.815 7      1922.103          47.000
G25  21619533.234 7 113611422.036 7     -2340.840          43.000    21619536.500 7  88528366.139 7     -1824.034          43.000
G29  20424491.625 8 107331417.463 8     -1010.059          51.000    20424490.781 8  83634878.914 8      -787.056          51.000
G31  21137386.000 4 111077717.592 4        52.402          29.000    21137385.516 5  86554049.791 5        40.833          31.000
R10  22921567.305 6 122184827.946 6     -3953.742          37.000
R11  19280730.883 8 103030424.936 8      -973.895          51.000    19280734.477 8  80134747.466 8      -757.474          48.000
R21  19451359.391 8 104088135.152 8     -1427.953          50.000    19451361.039 7  80957458.822 7     -1110.630          46.000
R22  20363941.875 8 108704097.353 8      2757.297          51.000    20363945.898 8  84547661.797 8      2144.567          48.000
C11  22449581.516 8 116900949.451 8     -1651.176          51.000    22449581.578 8  90395180.328 8     -1276.770          51.000
C23  21984208.359 8 114477528.723 8      -503.805          51.000
C25  24222642.680 7 126133643.985 7     -3013.535          47.000
C28  23406679.875 8 121884710.171 8      2489.906          48.000
E12  21932321.734 8 115255152.924 8      1352.594          48.000    21932321.094 8  88312395.532 8      1036.463          50.000
E31  24285110.328 8 127619100.011 8     -1527.426          51.000    24285113.641 8  97786066.179 8     -1170.359          51.000
E33  24567176.734 7 129101390.780 7     -1513.531          47.000    24567177.664 7  98921870.581 7     -1159.620          46.000
> 2020 05 04 12 28 30.0000000  0 16        .000000000000
G18  21822262.109 8 114676807.212 8      2892.984          51.000    21822262.492 8  89358545.536 8      2254.274          49.000
G21  21781422.102 7 114462161.380 7      2452.793          47.000    21781422.375 7  89191303.721 7      1911.264          47.000
G25  21632924.922 7 113681794.810 7     -2351.180          45.000    21632928.336 7  88583202.043 7     -1832.088          45.000
G29  20430294.453 8 107361911.505 8     -1023.031          51.000    20430293.398 8  83658640.517 8      -797.167          51.000
G31  21137139.844 5 111076419.260 5        33.430          31.000    21137140.078 5  86553055.054 5        26.043          34.000
R10  22943844.188 6 122303565.728 6     -3962.309          40.000
R11  19286263.211 8 103059987.691 8      -997.098          51.000    19286266.453 7  80157740.692 7      -775.523          47.000
R21  19459423.297 8 104131286.612 8     -1449.043          50.000    19459425.211 7  80991021.078 7     -1127.033          46.000
R22  20348499.406 8 108621659.977 8      2738.332          51.000    20348502.531 8  84483543.941 8      2129.817          49.000
C11  22459123.352 8 116950635.885 8     -1661.473          51.000    22459123.531 8  90433601.038 8     -1284.741          51.000
C23  21987157.133 8 114492883.803 8      -520.051          51.000
C25  24240026.930 7 126224165.659 7     -3021.426          47.000
C28  23392361.578 8 121810149.997 8      2480.570          50.000
E12  21924636.898 8 115214767.933 8      1339.594          49.000    21924636.055 8  88281451.192 8      1026.484          50.000
E31  24293856.922 8 127665062.627 8     -1536.840          51.000    24293860.648 8  97821284.252 8     -1177.540          51.000
E33  24575849.234 7 129146964.326 7     -1524.938          47.000    24575849.891 7  98956790.560 7     -1168.351          46.000
> 2020 05 04 12 29  0.0000000  0 16        .000000000000
G18  21805779.281 8 114590188.341 8      2880.344          50.000    21805780.242 8  89291050.330 8      2244.427          49.000
G21  21767453.383 7 114388757.905 7      2439.293          46.000    21767453.969 7  89134106.212 7      1900.748          46.000
G25  21646370.789 7 113752450.168 7     -2360.754          47.000    21646373.695 8  88638258.142 8     -1839.548          48.000
G29  20436166.297 8 107392767.978 8     -1035.457          51.000    20436165.156 8  83682684.528 8      -806.850          51.000
G31  21137004.023 5 111075704.526 5        13.012          35.000    21137003.805 5  86552498.191 5        10.142          35.000
R10  22966164.375 6 122422536.970 6     -3970.504          39.000
R11  19291920.734 8 103090218.743 8     -1019.715          51.000    19291923.227 7  80181253.695 7      -793.112          47.000
R21  19467600.188 8 104175041.622 8     -1469.445          50.000    19467601.672 7  81025052.732 7     -1142.902          46.000
R22  20333158.969 8 108539767.012 8      2719.742          51.000    20333161.438 8  84419849.468 8      2115.358          49.000
C11  22468719.906 8 117000607.966 8     -1671.383          51.000    22468720.258 8  90472242.631 8     -1292.413          51.000
C23  21990194.148 8 114508697.781 8      -535.684          51.000
C25  24257452.164 7 126314902.580 7     -3029.055          47.000
C28  23378092.625 8 121735845.571 8      2471.668          50.000
E12  21917022.102 8 115174751.107 8      1326.871          49.000    21917021.242 8  88250788.951 8      1016.729          50.000
E31  24302652.844 8 127711283.863 8     -1545.906          51.000    24302656.531 8  97856700.495 8     -1184.529          51.000
E33  24584581.750 8 129192853.233 8     -1535.691          48.000    24584582.000 7  98991952.206 7     -1176.726          47.000
> 2020 05 04 12 29 30.0000000  0 16        .000000000000
G18  21789368.953 8 114503952.819 8      2868.863          48.000    21789370.523 8  89223853.823 8      2235.481          48.000
G21  21753562.219 8 114315760.562 8      2427.102          48.000    21753562.969 7  89077225.166 7      1891.248          47.000
G25  21659872.617 7 113823399.025 7     -2369.035          47.000    21659874.797 7  88693542.952 7     -1846.001          47.000
G29  20442109.047 8 107423997.194 8     -1046.359          51.000    20442107.969 8  83707018.972 8      -815.345          51.000
G31  21136979.945 6 111075575.870 6        -5.336          37.000    21136979.648 6  86552397.934 6        -4.158          36.000
R10  22988529.516 6 122541751.778 6     -3977.000          39.000
R11  19297705.633 8 103121129.670 8     -1040.863          51.000    19297707.523 7  80205295.501 7      -809.560          47.000
R21  19475891.547 8 104219409.237 8     -1488.281          49.000    19475892.703 7  81059560.875 7     -1157.552          46.000
R22  20317921.586 8 108458431.809 8      2702.648          49.000    20317925.164 8  84356588.751 8      2102.057          50.000
C11  22478373.234 8 117050875.537 8     -1679.711          51.000    22478373.562 8  90511112.719 8     -1298.913          51.000
C23  21993321.516 8 114524982.249 8      -549.805          51.000
C25  24274920.203 8 126405864.652 8     -3034.984          48.000
C28  23363875.250 8 121661809.167 8      2464.273          50.000
E12  21909479.781 8 115135114.407 8      1315.562          49.000    21909479.000 8  88220417.971 8      1008.037          51.000
E31  24311500.195 8 127757775.224 8     -1553.484          51.000    24311503.734 8  97892323.715 8     -1190.392          51.000
E33  24593376.297 8 129239067.657 8     -1545.082          49.000    24593376.391 7  99027363.233 7     -1183.864          47.000
> 2020 05 04 12 30  0.0000000  0 16        .000000000000
G18  21773029.680 7 114418094.007 7      2855.926          46.000    21773032.273 7  89156950.835 7      2225.394          47.000
G21  21739747.219 8 114243161.503 8      2413.469          49.000    21739747.805 7  89020654.484 7      1880.628          47.000
G25  21673427.867 7 113894631.624 7     -2378.914          46.000    21673430.461 7  88749048.831 7     -1853.699          46.000
G29  20448120.602 8 107455588.591 8     -1058.852          51.000    20448119.719 8  83731635.641 8      -825.079          51.000
G31  21137065.203 5 111076024.455 5       -24.582          31.000    21137065.797 5  86552747.480 5       -19.161          32.000
R10  23010938.016 6 122661197.655 6     -3985.281          39.000
R11  19303615.977 8 103152711.495 8     -1063.629          51.000    19303617.875 8  80229859.116 8      -827.267          48.000
R21  19484294.781 8 104264377.193 8     -1508.684          49.000    19484296.375 7  81094535.970 7     -1173.421          46.000
R22  20302787.031 8 108377646.926 8      2683.910          50.000    20302791.516 8  84293756.035 8      2087.486          49.000
C11  22488081.508 8 117101427.953 8     -1689.641          51.000    22488081.609 8  90550203.054 8     -1306.471          51.000
C23  21996537.648 8 114541728.273 8      -565.703          51.000
C25  24292430.125 8 126497041.308 8     -3042.562          50.000
C28  23349707.688 8 121588032.472 8      2455.168          51.000
E12  21902008.047 8 115095849.026 8      1302.832          49.000    21902007.453 8  88190331.531 8       998.274          51.000
E31  24320396.906 8 127804527.483 8     -1562.543          51.000    24320400.562 8  97928146.848 8     -1197.240          51.000
E33  24602230.500 8 129285596.968 8     -1556.070          48.000    24602230.984 7  99063015.548 7     -1192.269          47.000
> 2020 05 04 12 30 30.0000000  0 16        .000000000000
G18  21756762.969 7 114332615.151 7      2842.984          47.000    21756766.430 8  89090343.946 8      2215.316          48.000
G21  21726008.734 8 114170963.679 8      2399.809          50.000    21726008.898 7  88964396.462 7      1869.981          47.000
G25  21687036.594 7 113966148.068 7     -2388.613          44.000    21687039.398 7  88804775.899 7     -1861.257          44.000
G29  20454201.023 8 107487541.673 8     -1071.191          51.000    20454200.219 8  83756534.144 8      -834.695          51.000
G31  21137260.680 6 111077051.563 6       -44.078          37.000    21137261.156 6  86553547.758 6       -34.347          38.000
R10  23033389.664 6 122780874.023 6     -3993.129          40.000
R11  19309651.852 8 103184964.885 8     -1086.410          50.000    19309653.844 8  80254945.088 8      -844.989          49.000
R21  19492809.922 8 104309943.514 8     -1528.824          48.000    19492811.156 7  81129976.442 7     -1189.089          45.000
R22  20287757.070 8 108297414.694 8      2665.152          51.000    20287761.008 8  84231353.218 8      2072.899          48.000
C11  22497844.312 8 117152264.374 8     -1699.285          51.000    22497844.211 8  90589512.991 8     -1313.962          51.000
C23  21999842.484 8 114558936.671 8      -581.332          51.000
C25  24309981.352 8 126588431.738 8     -3049.867          51.000
C28  23335590.516 8 121514517.007 8      2446.176          51.000
E12  21894607.047 8 115056956.188 8      1290.285          49.000    21894606.617 8  88160530.533 8       988.678          51.000
E31  24329342.852 8 127851541.417 8     -1571.492          51.000    24329346.945 8  97964170.491 8     -1204.106          51.000
E33  24611144.383 8 129332440.457 8     -1566.617          48.000    24611145.070 8  99098908.625 8     -1200.377          48.000
> 2020 05 04 12 31  0.0000000  0 16        .000000000000
G18  21740568.484 8 114247512.295 8      2830.191          49.000    21740571.883 8  89024030.072 8      2205.344          49.000
G21  21712345.445 8 114099162.064 8      2386.383          49.000    21712345.125 7  88908447.189 7      1859.522          46.000
G25  21700697.742 7 114037941.247 7     -2398.098          43.000    21700701.414 7  88860718.651 7     -1868.648          43.000
G29  20460348.742 8 107519848.284 8     -1083.219          51.000    20460347.875 8  83781708.125 8      -844.067          51.000
G31  21137565.547 6 111078650.225 6       -62.957          38.000    21137565.273 6  86554793.529 6       -49.057          37.000
R10  23055882.078 6 122900771.163 6     -4000.465          39.000
R11  19315812.273 8 103217883.513 8     -1108.734          50.000    19315814.430 8  80280548.488 8      -862.349          50.000
R21  19501434.789 8 104356098.807 8     -1548.652          49.000    19501436.227 7  81165875.005 7     -1204.507          45.000
R22  20272830.078 8 108217730.159 8      2646.621          51.000    20272833.055 8  84169376.412 8      2058.486          48.000
C11  22507659.984 8 117203376.891 8     -1708.719          51.000    22507659.797 8  90629036.438 8     -1321.278          51.000
C23  22003234.609 8 114576601.246 8      -596.738          51.000
C25  24327572.117 8 126680028.051 8     -3056.992          51.000
C28  23321522.461 8 121441257.258 8      2437.332          50.000
E12  21887275.711 8 115018429.855 8      1277.664          49.000    21887275.547 8  88131010.372 8       979.088          51.000
E31  24338337.398 8 127898810.494 8     -1580.258          49.000    24338341.875 8  98000389.682 8     -1210.832          51.000
E33  24620116.695 8 129379590.318 8     -1577.141          48.000    24620117.422 8  99135036.448 8     -1208.428          49.000
> 2020 05 04 12 31 30.0000000  0 16        .000000000000
G18  21724453.375 8 114162825.284 8      2816.508          49.000    21724456.273 7  88958040.255 7      2194.684          47.000
G21  21698764.859 8 114027796.406 8      2372.090          49.000    21698764.227 7  88852837.622 7      1848.382          43.000
G25  21714418.555 6 114110047.847 6     -2408.070          41.000    21714422.609 6  88916905.628 6     -1876.421          41.000
G29  20466570.664 8 107552544.678 8     -1095.805          51.000    20466569.672 8  83807185.853 8      -853.874          51.000
G31  21137985.398 5 111080858.361 5       -83.293          35.000    21137985.492 5  86556514.176 5       -64.901          35.000
R10  23078421.766 6 123020925.095 6     -4009.148          36.000
R11  19322104.438 8 103251505.012 8     -1131.812          51.000    19322106.750 8  80306698.557 8      -880.299          50.000
R21  19510176.664 8 104402878.223 8     -1569.137          48.000    19510178.164 7  81202259.020 7     -1220.440          45.000
R22  20258012.695 8 108138633.118 8      2627.285          51.000    20258015.523 8  84107856.557 8      2043.447          50.000
C11  22517535.383 8 117254800.832 8     -1718.805          51.000    22517535.148 8  90668800.693 8     -1329.010          51.000
C23  22006721.383 8 114594759.036 8      -612.910          51.000
C25  24345208.930 8 126771865.658 8     -3064.691          50.000
C28  23307508.656 7 121368290.969 7      2427.793          46.000
E12  21880021.227 8 114980307.713 8      1264.559          49.000    21880021.656 8  88101799.927 8       968.947          50.000
E31  24347387.125 8 127946372.017 8     -1589.781          48.000    24347392.539 8  98036832.944 8     -1218.045          51.000
E33  24629153.992 8 129427082.388 8     -1588.121          48.000    24629155.336 8  99171426.486 8     -1216.896          48.000
> 2020 05 04 12 32  0.0000000  0 18        .000000000000
G18  21708411.414 8 114078523.230 8      2804.418          48.000    21708413.828 7  88892350.391 7      2185.261          47.000
G21  21685261.008 8 113956834.501 8      2359.422          48.000    21685260.359 7  88797542.645 7      1838.511          44.000
G25  21728193.047 7 114182433.966 7     -2416.676          44.000    21728196.688 7  88973310.347 7     -1883.127          44.000
G26  22411040.625 5 117770809.905 5      2755.812          35.000
G29  20472860.156 8 107585595.944 8     -1106.840          51.000    20472859.227 8  83832940.104 8      -862.473          51.000
G31  21138514.633 6 111083642.555 6      -102.555          37.000    21138515.273 6  86558683.726 6       -79.907          37.000
R10  23101001.648 5 123141299.656 5     -4014.832          32.000
R11  19328521.641 8 103285795.690 8     -1153.438          51.000    19328523.914 8  80333369.076 8      -897.115          49.000
R12  20245444.352 5 108147545.706 5      2660.086          34.000
R21  19519028.242 8 104450244.824 8     -1587.914          48.000    19519029.812 7  81239099.716 7     -1235.041          45.000
R22  20243298.031 8 108060091.170 8      2609.551          49.000    20243302.461 8  84046768.401 8      2029.651          51.000
C11  22527463.898 8 117306501.531 8     -1727.211          51.000    22527463.633 8  90708778.953 8     -1335.604          51.000
C23  22010296.789 8 114613377.013 8      -627.578          51.000
C25  24362884.641 7 126863909.950 7     -3070.941          47.000
C28  23293544.680 7 121295585.859 7      2419.891          46.000
E12  21872837.336 8 114942556.775 8      1252.922          49.000    21872838.102 8  88072873.925 8       959.998          50.000
E31  24356486.492 8 127994192.578 8     -1597.535          49.000    24356492.727 8  98073474.677 8     -1224.100          51.000
E33  24638249.695 8 129474881.860 8     -1597.730          48.000    24638251.711 8  99208052.057 8     -1224.175          48.000
> 2020 05 04 12 32 30.0000000  0 17        .000000000000
G18  21692421.703 7 113994499.952 7      2798.188          44.000    21692424.539 7  88826877.731 7      2180.406          44.000
G21  21671813.859 8 113886170.052 8      2352.605          49.000    21671813.594 7  88742479.436 7      1833.199          45.000
G25  21742000.586 7 114254990.239 7     -2419.180          44.000    21742003.219 7  89029847.678 7     -1885.075          44.000
G26  22395310.234 5 117688139.104 5      2757.418          34.000
G29  20479196.320 8 107618892.275 8     -1111.801          51.000    20479195.523 8  83858885.305 8      -866.338          51.000
G31  21139135.609 5 111086893.292 5      -114.164          34.000    21139132.828 5  86561217.536 5       -88.956          35.000
R10  23123601.859 5 123261782.339 5     -4015.117          30.000
R11  19335043.312 8 103320645.021 8     -1168.695          51.000    19335045.680 7  80360474.111 7      -908.985          47.000
R21  19527968.633 7 104498085.323 7     -1600.254          47.000    19527970.297 7  81276308.990 7     -1244.642          42.000
R22  20228667.297 8 107981995.617 8      2597.906          50.000    20228672.828 8  83986027.413 8      2020.594          49.000
C11  22537424.648 8 117358369.796 8     -1729.512          51.000    22537424.234 8  90748886.768 8     -1337.423          51.000
C23  22013940.117 8 114632347.576 8      -636.039          51.000
C25  24380577.672 7 126956051.721 7     -3070.738          45.000
C28  23279611.523 7 121223034.925 7      2418.031          47.000
E12  21865703.570 8 114905068.791 8      1247.449          50.000    21865703.969 8  88044149.396 8       955.790          51.000
E31  24365615.289 8 128042163.520 8     -1599.375          51.000    24365621.273 8  98110231.621 8     -1225.477          51.000
E33  24647383.297 8 129522878.647 8     -1601.027          49.000    24647385.000 8  99244828.822 8     -1226.671          49.000
> 2020 05 04 12 33  0.0000000  0 17        .000000000000
G18  21676523.312 7 113910961.775 7      2777.047          42.000    21676527.758 7  88761782.979 7      2163.930          42.000
G21  21658462.656 8 113816008.518 8      2330.945          49.000    21658462.859 7  88687808.131 7      1816.321          45.000
G25  21755878.859 7 114327919.757 7     -2436.543          44.000    21755881.453 7  89086675.830 7     -1898.608          44.000
G26  22379628.211 5 117605725.488 5      2743.414          33.000
G29  20485617.594 8 107652636.512 8     -1131.613          51.000    20485616.805 8  83885179.536 8      -881.777          51.000
G31  21139880.945 6 111090816.256 6      -141.551          37.000    21139873.945 5  86564274.334 5      -110.299          32.000
R10  23146263.539 6 123382577.029 6     -4031.105          36.000
R11  19341707.719 8 103356259.677 8     -1199.246          50.000    19341710.523 8  80388174.373 8      -932.747          48.000
R21  19537035.547 8 104546604.277 8     -1627.891          48.000    19537036.906 7  81314045.946 7     -1266.137          44.000
R22  20214160.383 8 107904554.858 8      2571.066          51.000    20214165.586 8  83925795.716 8      1999.721          50.000
C11  22547456.172 8 117410605.943 8     -1746.641          51.000    22547455.477 8  90789279.045 8     -1350.740          51.000
C23  22017689.680 8 114651872.713 8      -659.445          51.000
C25  24398328.328 7 127048491.280 7     -3085.617          44.000
C28  23265747.914 7 121150840.905 7      2401.043          46.000
E12  21858658.875 8 114868047.867 8      1226.855          51.000    21858658.242 8  88015782.737 8       940.055          50.000
E31  24374811.750 8 128090488.480 8     -1616.074          51.000    24374816.906 8  98147259.827 8     -1238.315          51.000
E33  24656593.078 8 129571275.034 8     -1619.227          49.000    24656593.875 8  99281911.772 8     -1240.664          48.000
> 2020 05 04 12 33 30.0000000  0 17        .000000000000
G18  21660704.117 7 113827830.247 7      2764.457          47.000    21660708.406 7  88697005.169 7      2154.122          47.000
G21  21645192.320 8 113746270.875 8      2317.758          49.000    21645192.570 7  88633467.132 7      1806.048          46.000
G25  21769812.734 7 114401141.163 7     -2445.336          45.000    21769815.531 7  89143731.441 7     -1905.457          46.000
G26  22363979.820 5 117523489.444 5      2738.438          32.000
G29  20492108.281 8 107686745.647 8     -1142.773          51.000    20492107.406 8  83911758.090 8      -890.473          51.000
G31  21140739.938 5 111095330.044 5      -159.754          35.000    21140730.672 5  86567791.620 5      -124.484          33.000
R10  23168969.055 5 123503599.709 5     -4037.430          35.000
R11  19348499.828 8 103392557.799 8     -1221.035          51.000    19348503.016 8  80416406.246 8      -949.694          48.000
R21  19546213.703 7 104595716.663 7     -1646.629          46.000    19546215.102 7  81352244.487 7     -1280.711          44.000
R22  20199761.430 8 107827688.770 8      2552.883          51.000    20199765.461 8  83866011.014 8      1985.576          49.000
C11  22557542.625 8 117463128.403 8     -1755.289          51.000    22557541.961 8  90829892.735 8     -1357.295          51.000
C23  22021530.328 8 114671872.475 8      -674.285          51.000
C25  24416121.312 7 127141147.157 7     -3091.863          44.000
C28  23251937.391 7 121078924.632 7      2392.824          46.000
E12  21851687.797 8 114831413.650 8      1214.957          51.000    21851686.164 8  87987712.396 8       930.932          50.000
E31  24384060.258 8 128139086.722 8     -1624.215          51.000    24384064.719 8  98184497.418 8     -1244.534          51.000
E33  24665863.125 8 129619988.918 8     -1628.840          49.000    24665863.375 8  99319238.001 8     -1247.985          48.000
> 2020 05 04 12 34  0.0000000  0 16        .000000000000
G18  21644986.586 8 113745228.453 8      2747.301          50.000    21644989.727 8  88632640.157 8      2140.754          49.000
G21  21632026.023 8 113677079.375 8      2299.957          50.000    21632025.906 7  88579551.725 7      1792.174          46.000
G25  21783825.117 7 114474774.209 7     -2458.637          45.000    21783827.305 7  89201107.847 7     -1915.824          45.000
G29  20498691.055 8 107721338.976 8     -1158.469          51.000    20498690.320 8  83938713.919 8      -902.706          51.000
G31  21141733.422 5 111100559.109 5      -182.109          30.000    21141724.992 5  86571829.007 5      -141.913          30.000
R10  23191739.461 6 123624970.508 6     -4048.414          37.000
R11  19355442.781 8 103429661.609 8     -1247.480          50.000    19355446.195 8  80445264.757 8      -970.266          48.000
R21  19555524.477 8 104645542.120 8     -1670.000          48.000    19555525.719 7  81390997.598 7     -1298.892          43.000
R22  20185492.750 8 107751521.011 8      2530.082          50.000    20185495.758 7  83806769.431 7      1967.842          47.000
C11  22567706.453 8 117516054.926 8     -1768.273          51.000    22567706.234 8  90870818.878 8     -1367.338          51.000
C23  22025485.164 8 114692466.224 8      -693.645          51.000
C25  24433979.547 7 127234137.137 7     -3102.609          47.000
C28  23238202.922 7 121007406.142 7      2380.020          47.000
E12  21844813.188 8 114795286.928 8      1198.430          50.000    21844811.023 8  87960030.888 8       918.322          51.000
E31  24393383.375 8 128188078.594 8     -1636.891          50.000    24393387.523 8  98222036.595 8     -1254.238          51.000
E33  24675216.211 8 129669139.249 8     -1642.879          49.000    24675216.227 8  99356898.626 8     -1258.841          48.000
> 2020 05 04 12 34 30.0000000  0 15        .000000000000
G18  21629316.719 8 113662877.293 8      2737.453          51.000    21629318.469 8  88568470.458 8      2133.080          48.000
G21  21618910.523 8 113608154.792 8      2289.691          51.000    21618909.883 7  88525844.288 7      1784.175          46.000
G25  21797862.008 7 114548536.984 7     -2464.172          44.000    21797863.469 7  89258585.292 7     -1920.134          44.000
G29  20505312.281 8 107756134.251 8     -1166.570          50.000    20505311.688 8  83965827.103 8      -909.019          50.000
R10  23214520.219 5 123746401.396 5     -4052.301          35.000
R11  19362483.359 8 103467284.739 8     -1266.242          51.000    19362487.031 8  80474527.145 8      -984.858          49.000
R21  19564914.734 7 104695791.294 7     -1685.422          46.000    19564916.258 7  81430080.289 7     -1310.884          43.000
R22  20171300.812 8 107675767.467 8      2514.801          51.000    20171303.812 7  83747849.996 7      1955.956          46.000
C11  22577894.102 8 117569105.118 8     -1773.684          51.000    22577894.086 8  90911840.653 8     -1371.491          51.000
C23  22029500.547 8 114713375.173 8      -705.574          51.000
C25  24451848.633 8 127327180.876 8     -3105.641          48.000
C28  23224492.281 8 120936007.440 8      2374.629          48.000
E12  21837981.656 8 114759386.661 8      1189.645          51.000    21837979.203 8  87932522.903 8       911.489          51.000
E31  24402727.898 8 128237182.687 8     -1641.996          51.000    24402731.164 8  98259661.782 8     -1258.141          51.000
E33  24684598.500 8 129718443.234 8     -1649.371          48.000    24684598.570 8  99394676.986 8     -1263.765          48.000
> 2020 05 04 12 35  0.0000000  0 15        .000000000000
G18  21613713.383 8 113580877.601 8      2713.820          51.000    21613713.438 7  88504574.629 7      2114.668          46.000
G21  21605864.609 8 113539596.750 8      2265.457          51.000    21605863.695 7  88472422.469 7      1765.291          46.000
G25  21811942.125 7 114622527.080 7     -2483.676          45.000    21811943.258 7  89316239.874 7     -1935.332          45.000
G29  20511990.352 8 107791228.094 8     -1188.285          50.000    20511989.758 8  83993172.942 8      -925.936          50.000
G31  21143983.883 5 111112396.657 5      -228.133          34.000    21143985.125 5  86581070.023 5      -177.745          33.000
R11  19369640.312 8 103505527.224 8     -1298.898          51.000    19369643.461 8  80504271.289 8     -1010.254          49.000
R21  19574402.039 7 104746561.361 7     -1714.895          46.000    19574403.328 7  81469568.113 7     -1333.807          42.000
R22  20157205.898 8 107600529.425 8      2485.531          51.000    20157208.508 7  83689331.555 7      1933.191          47.000
C11  22588124.023 8 117622374.893 8     -1792.785          51.000    22588123.891 8  90953032.192 8     -1386.244          51.000
C23  22033594.766 8 114734696.733 8      -731.133          51.000
C25  24469746.406 8 127420374.221 8     -3122.344          50.000
C28  23210823.477 8 120864826.626 8      2355.676          49.000
E12  21831212.000 8 114723811.513 8      1166.824          50.000    21831209.445 8  87905264.013 8       894.114          51.000
E31  24412112.344 8 128286497.226 8     -1660.895          51.000    24412114.805 8  98297448.213 8     -1272.639          50.000
E33  24694028.406 7 129767997.664 7     -1669.605          47.000    24694028.852 8  99432647.268 8     -1279.278          48.000
> 2020 05 04 12 35 30.0000000  0 17        .000000000000
G18  21598211.141 8 113499411.473 8      2711.766          51.000    21598209.703 7  88441094.587 7      2113.067          45.000
G21  21592922.727 8 113471586.935 8      2263.141          50.000    21592921.539 7  88419427.838 7      1763.486          45.000
G25  21826099.359 7 114696923.485 7     -2481.273          43.000    21826100.336 7  89374211.046 7     -1933.463          43.000
G29  20518759.234 8 107826798.841 8     -1188.551          51.000    20518758.438 8  84020890.398 8      -926.143          51.000
G31  21145295.844 5 111119280.302 5      -236.879          35.000    21145296.508 5  86586443.485 5      -184.572          34.000
R10  23260217.727 4 123990058.063 4     -4064.191          28.000
R11  19376947.266 8 103544571.101 8     -1309.566          51.000    19376950.125 8  80534638.739 8     -1018.552          49.000
R12  20142977.781 5 107600170.355 5      2552.770          30.000
R21  19584020.578 7 104798032.407 7     -1722.078          46.000    19584022.367 7  81509601.155 7     -1339.391          42.000
R22  20143242.906 8 107525990.733 8      2478.234          51.000    20143245.125 8  83631357.067 8      1927.516          48.000
C11  22598429.992 8 117676040.650 8     -1790.219          51.000    22598429.898 8  90994529.949 8     -1384.302          51.000
C23  22037802.500 8 114756608.901 8      -735.109          51.000
C25  24487706.609 8 127513893.654 8     -3117.570          51.000
C28  23197229.977 8 120794042.543 8      2358.055          48.000
E12  21824538.203 8 114688741.449 8      1165.895          50.000    21824535.969 8  87878392.152 8       893.306          51.000
E31  24421571.023 8 128336201.830 8     -1658.121          51.000    24421573.109 8  98335533.524 8     -1270.437          51.000
E33  24703539.797 8 129817980.844 8     -1667.996          48.000    24703540.711 7  99470946.068 7     -1278.042          47.000
> 2020 05 04 12 36  0.0000000  0 17        .000000000000
G18  21582776.750 8 113418302.843 8      2696.191          50.000    21582774.422 7  88377893.129 7      2100.931          44.000
G21  21580050.977 8 113403948.393 8      2247.004          49.000    21580050.070 7  88366722.525 7      1750.912          45.000
G25  21840299.531 7 114771547.118 7     -2492.754          44.000    21840300.156 7  89432359.300 7     -1942.406          44.000
G29  20525584.742 8 107862666.593 8     -1202.023          51.000    20525583.945 8  84048839.287 8      -936.642          51.000
G31  21146707.828 6 111126700.140 6      -257.871          36.000    21146712.336 5  86592225.195 5      -200.935          35.000
R10  23283107.164 5 124112048.009 5     -4073.000          33.000
R11  19384370.266 8 103584234.998 8     -1333.906          51.000    19384372.961 8  80565488.419 8     -1037.483          48.000
R12  20128695.047 5 107523874.602 5      2534.359          31.000
R21  19593735.305 7 104850019.666 7     -1742.875          46.000    19593737.023 6  81550035.704 6     -1355.572          40.000
R22  20129377.320 8 107451971.722 8      2457.156          51.000    20129379.547 8  83573786.761 8      1911.122          49.000
C11  22608777.617 8 117729924.039 8     -1801.102          51.000    22608777.875 8  91036196.005 8     -1392.672          51.000
C23  22042089.500 8 114778934.861 8      -752.523          51.000
C25  24505694.664 8 127607560.706 8     -3126.109          50.000
C28  23183678.578 8 120723479.055 8      2347.074          49.000
E12  21817926.516 8 114653998.292 8      1151.246          50.000    21817924.953 8  87851770.790 8       882.163          51.000
E31  24431069.992 8 128386117.939 8     -1668.871          51.000    24431072.281 8  98373780.900 8     -1278.653          51.000
E33  24713098.469 8 129868212.815 8     -1679.973          48.000    24713099.586 7  99509435.491 7     -1287.249          47.000
> 2020 05 04 12 36 30.0000000  0 16        .000000000000
G18  21567418.516 8 113337595.003 8      2684.172          49.000    21567416.281 7  88315003.957 7      2091.566          45.000
G21  21567257.805 7 113336723.996 7      2234.633          46.000    21567257.977 7  88314339.892 7      1741.272          46.000
G25  21854550.883 7 114846438.050 7     -2500.156          44.000    21854552.188 7  89490715.849 7     -1948.177          44.000
G29  20532474.320 8 107898870.914 8     -1211.699          51.000    20532473.758 8  84077050.460 8      -944.181          51.000
G31  21148229.297 5 111134690.331 5      -275.625          31.000    21148234.336 5  86598451.343 5      -214.773          30.000
R10  23306047.461 6 124234320.954 6     -4078.340          37.000
R11  19391917.031 8 103624559.889 8     -1354.516          51.000    19391919.039 8  80596852.228 8     -1053.512          48.000
R21  19603554.516 7 104902561.922 7     -1759.859          45.000    19603555.586 6  81590901.876 6     -1368.780          41.000
R22  20115616.336 8 107378515.297 8      2439.863          50.000    20115619.250 8  83516654.034 8      1897.671          48.000
C11  22619174.523 8 117784063.931 8     -1808.301          51.000    22619175.023 8  91078060.414 8     -1398.314          51.000
C23  22046464.000 8 114801714.997 8      -766.324          51.000
C25  24523718.039 8 127701414.331 8     -3130.996          49.000
C28  23170177.844 8 120653177.359 8      2339.672          50.000
E12  21811385.117 8 114619623.242 8      1140.273          51.000    21811384.008 8  87825431.480 8       873.713          51.000
E31  24440616.766 8 128436286.328 8     -1675.820          51.000    24440619.656 8  98412221.577 8     -1284.103          51.000
E33  24722712.242 8 129918732.960 8     -1688.094          48.000    24722713.234 7  99548145.722 7     -1293.531          46.000
> 2020 05 04 12 37  0.0000000  0 16        .000000000000
G18  21552138.664 7 113257303.596 7      2669.312          45.000    21552138.477 7  88252439.252 7      2079.987          45.000
G21  21554546.867 8 113269928.287 8      2219.254          48.000    21554547.633 7  88262291.286 7      1729.286          47.000
G25  21868855.375 7 114921608.954 7     -2510.527          42.000    21868857.492 7  89549290.501 7     -1956.258          42.000
G29  20539430.172 8 107935423.701 8     -1224.395          51.000    20539429.711 8  84105533.158 8      -954.074          51.000
G31  21149860.984 6 111143267.373 6      -295.605          36.000    21149864.570 6  86605131.639 6      -230.339          37.000
R10  23329024.914 6 124356797.738 6     -4085.633          36.000
R11  19399589.500 8 103665558.847 8     -1378.035          51.000    19399591.891 8  80628740.266 8     -1071.805          48.000
R21  19613478.992 7 104955669.537 7     -1779.691          46.000    19613480.672 6  81632207.854 6     -1384.201          40.000
R22  20101962.625 8 107305636.394 8      2419.578          49.000    20101966.266 7  83459970.445 7      1881.894          47.000
C11  22629622.984 8 117838471.834 8     -1818.125          51.000    22629623.430 8  91120132.036 8     -1405.835          51.000
C23  22050928.547 8 114824962.337 8      -782.828          51.000
C25  24541779.203 8 127795466.034 8     -3138.512          48.000
C28  23156730.578 8 120583151.261 8      2329.453          51.000
E12  21804916.367 8 114585629.778 8      1126.711          50.000    21804915.547 8  87799384.544 8       863.315          51.000
E31  24450213.969 8 128486720.107 8     -1685.617          51.000    24450217.250 8  98450865.606 8     -1291.529          51.000
E33  24732383.180 7 129969553.054 7     -1698.992          47.000    24732384.344 7  99587085.786 7     -1301.861          46.000
> 2020 05 04 12 37 30.0000000  0 16        .000000000000
G18  21536937.781 7 113177430.764 7      2655.309          43.000    21536940.133 7  88190200.696 7      2069.072          43.000
G21  21541918.406 8 113203562.963 8      2204.848          50.000    21541918.734 7  88210578.058 7      1718.063          46.000
G25  21883212.891 6 114997058.914 6     -2519.871          40.000    21883214.633 6  89608082.643 6     -1963.539          40.000
G29  20546452.047 8 107972323.365 8     -1235.945          51.000    20546451.312 8  84134286.144 8      -963.074          51.000
G31  21151604.039 6 111152422.884 6      -315.547          37.000    21151606.109 6  86612265.787 6      -245.884          36.000
R10  23352037.172 5 124479476.581 5     -4092.750          32.000
R11  19407387.711 8 103707231.684 8     -1400.473          51.000    19407390.711 8  80661152.449 8     -1089.257          48.000
R21  19623508.875 7 105009339.527 7     -1798.340          45.000    19623510.148 6  81673951.159 6     -1398.709          39.000
R22  20088417.727 8 107233336.099 8      2400.199          51.000    20088421.844 8  83403736.876 8      1866.822          48.000
C11  22640122.633 8 117893146.068 8     -1827.109          51.000    22640122.836 8  91162409.612 8     -1412.761          51.000
C23  22055482.594 8 114848676.670 8      -798.375          51.000
C25  24559877.258 7 127889713.998 7     -3145.051          45.000
C28  23143336.242 8 120513401.305 8      2320.328          50.000
E12  21798519.883 8 114552017.983 8      1113.836          49.000    21798519.555 8  87773630.085 8       853.522          50.000
E31  24459861.359 8 128537418.998 8     -1694.504          51.000    24459865.102 8  98489712.794 8     -1298.383          51.000
E33  24742110.781 7 130020671.442 7     -1709.000          47.000    24742112.094 7  99626254.413 7     -1309.470          46.000
> 2020 05 04 12 38  0.0000000  0 15        .000000000000
G18  21521817.844 7 113097978.395 7      2641.199          44.000    21521821.398 7  88128289.765 7      2058.077          44.000
G21  21529372.250 8 113137629.354 8      2190.398          51.000    21529371.711 7  88159201.236 7      1706.807          45.000
G25  21897622.508 6 115072786.638 6     -2529.555          36.000    21897625.297 6  89667091.294 6     -1971.079          36.000
G29  20553539.492 8 108009568.195 8     -1247.414          51.000    20553538.812 8  84163308.094 8      -972.011          51.000
G31  21153457.500 6 111162160.462 6      -334.645          38.000    21153458.578 6  86619853.536 6      -260.759          37.000
R11  19415311.461 8 103749577.217 8     -1422.863          51.000    19415315.062 8  80694087.839 8     -1106.671          49.000
R21  19633642.523 7 105063568.182 7     -1817.000          45.000    19633643.633 6  81716129.043 6     -1413.222          38.000
R22  20074982.430 8 107161615.262 8      2380.883          51.000    20074985.758 8  83347954.021 8      1851.798          48.000
C11  22650673.086 8 117948084.510 8     -1835.867          51.000    22650673.023 8  91204891.494 8     -1419.603          51.000
C23  22060126.047 8 114872857.427 8      -813.957          51.000
C25  24578012.445 7 127984156.245 7     -3151.523          45.000
C28  23129994.781 8 120443927.785 8      2310.988          50.000
E12  21792196.078 8 114518787.654 8      1101.191          49.000    21792196.047 8  87748167.918 8       843.740          50.000
E31  24469558.930 8 128588382.391 8     -1703.367          51.000    24469563.195 8  98528762.657 8     -1305.139          51.000
E33  24751894.664 7 130072086.191 7     -1718.898          46.000    24751895.664 7  99665650.128 7     -1317.024          45.000
> 2020 05 04 12 38 30.0000000  0 16        .000000000000
G18  21506780.039 7 113018953.808 7      2626.059          47.000    21506783.688 7  88066712.176 7      2046.279          47.000
G21  21516909.320 8 113072133.661 8      2175.082          51.000    21516907.891 7  88108165.665 7      1694.869          45.000
G25  21912085.484 6 115148796.623 6     -2538.992          38.000    21912090.023 6  89726319.801 6     -1978.439          38.000
G29  20560693.211 8 108047161.690 8     -1259.707          50.000    20560692.945 8  84192601.714 8      -981.590          50.000
G31  21155422.391 6 111172485.201 6      -354.648          37.000    21155422.352 6  86627898.753 6      -276.352          37.000
R10  23398171.375 5 124725429.375 5     -4106.801          32.000
R11  19423362.117 8 103792600.080 8     -1446.129          51.000    19423366.188 8  80727550.049 8     -1124.767          49.000
R21  19643882.133 7 105118357.786 7     -1836.363          43.000    19643882.383 6  81758743.116 6     -1428.283          39.000
R22  20061657.094 8 107090480.526 8      2360.566          51.000    20061659.664 8  83292627.041 8      1835.996          48.000
C11  22661274.953 8 118003290.617 8     -1845.430          51.000    22661274.688 8  91247580.347 8     -1426.973          51.000
C23  22064860.609 8 114897509.332 8      -830.383          51.000
C25  24596186.773 7 128078796.101 7     -3158.746          46.000
C28  23116707.297 8 120374736.242 8      2300.879          50.000
E12  21785946.234 8 114485944.013 8      1087.547          49.000    21785946.164 8  87723002.043 8       833.333          51.000
E31  24479307.727 8 128639615.164 8     -1713.027          51.000    24479312.648 8  98568018.912 8     -1312.591          51.000
E33  24761735.453 7 130123800.759 7     -1729.672          47.000    24761736.016 7  99705275.568 7     -1325.348          45.000
> 2020 05 04 12 39  0.0000000  0 17        .000000000000
G18  21491821.273 8 112940343.142 8      2613.652          48.000    21491824.586 8  88005457.102 8      2036.612          48.000
G21  21504526.883 8 113007061.824 8      2162.191          51.000    21504524.711 7  88057460.383 7      1684.824          45.000
G25  21926600.328 6 115225071.888 6     -2546.895          41.000    21926604.570 6  89785755.052 6     -1984.593          41.000
G29  20567909.867 8 108085086.185 8     -1269.488          50.000    20567909.820 8  84222153.253 8      -989.212          49.000
G31  21157495.656 6 111183380.375 6      -372.617          38.000    21157494.539 6  86636388.471 6      -290.354          38.000
R10  23421301.469 5 124848690.660 5     -4111.316          34.000
R11  19431536.695 8 103836283.382 8     -1466.828          51.000    19431540.797 8  80761525.949 8     -1140.866          49.000
R21  19654220.969 7 105173688.535 7     -1853.117          46.000    19654222.953 6  81801778.215 6     -1441.313          39.000
R22  20048438.352 8 107019916.356 8      2342.750          51.000    20048441.031 8  83237743.830 8      1822.139          48.000
C11  22671924.750 8 118058746.731 8     -1852.516          51.000    22671924.398 8  91290462.526 8     -1432.446          51.000
C23  22069682.742 8 114922616.252 8      -844.305          51.000
C25  24614396.781 7 128173615.885 7     -3163.465          47.000
C28  23103471.078 8 120305811.320 8      2293.367          50.000
E12  21779766.820 8 114453471.076 8      1076.484          48.000    21779766.898 8  87698120.201 8       824.851          51.000
E24  21807169.977 6 114597454.062 6       822.617          41.000    21807180.609 6  87808479.674 6       630.057          39.000
E31  24489105.000 8 128691100.953 8     -1720.180          51.000    24489110.039 8  98607469.042 8     -1318.021          51.000
E33  24771629.828 7 130175797.456 7     -1737.562          47.000    24771630.180 7  99745117.180 7     -1331.475          44.000
> 2020 05 04 12 39 30.0000000  0 17        .000000000000
G18  21476943.719 8 112862158.458 8      2598.508          48.000    21476946.445 8  87944533.969 8      2024.814          48.000
G21  21492226.984 8 112942424.980 8      2146.789          51.000    21492224.430 7  88007094.075 7      1672.823          45.000
G25  21941167.766 6 115301621.450 6     -2556.422          41.000    21941171.758 6  89845404.020 6     -1992.017          41.000
G29  20575191.086 8 108123350.185 8     -1281.598          49.000    20575191.133 8  84251969.342 8      -998.648          49.000
G31  21159679.125 6 111194855.663 6      -392.770          39.000    21159676.930 6  86645330.235 6      -306.057          38.000
R10  23444462.242 6 124972141.386 6     -4118.676          36.000
R11  19439836.781 8 103880636.595 8     -1490.008          51.000    19439840.625 8  80796022.917 8     -1158.895          49.000
R21  19664663.844 7 105229567.644 7     -1872.191          43.000    19664664.688 6  81845239.687 6     -1456.152          38.000
R22  20035328.484 8 106949934.302 8      2322.543          51.000    20035331.523 8  83183313.343 8      1806.422          48.000
C11  22682624.070 8 118114460.887 8     -1861.891          51.000    22682623.781 8  91333544.249 8     -1439.813          51.000
C23  22074593.609 8 114948187.724 8      -860.695          51.000
C25  24632642.711 7 128268623.644 7     -3170.301          46.000
C28  23090287.133 8 120237163.324 8      2283.195          49.000
E12  21773659.648 7 114421378.792 7      1062.902          47.000    21773660.312 8  87673530.040 8       814.399          51.000
E24  21802503.578 6 114572931.854 6       812.430          41.000    21802515.836 6  87789689.927 6       622.376          40.000
E31  24498952.578 8 128742849.358 8     -1729.875          51.000    24498957.047 8  98647120.421 8     -1325.480          51.000
E33  24781579.578 7 130228084.564 7     -1748.191          46.000    24781579.680 7  99785181.315 7     -1339.574          43.000
> 2020 05 04 12 40  0.0000000  0 17        .000000000000
G18  21462147.969 8 112784404.085 8      2584.812          48.000    21462149.984 8  87883946.193 8      2014.143          48.000
G21  21480010.305 8 112878226.598 8      2132.758          50.000    21480007.602 7  87957069.400 7      1661.892          44.000
G25  21955787.500 6 115378446.720 6     -2565.316          41.000    21955791.516 6  89905267.819 6     -1998.948          41.000
G29  20582537.180 8 108161954.491 8     -1292.324          50.000    20582537.273 8  84282050.618 8     -1007.006          50.000
G31  21161973.398 6 111206912.562 6      -411.660          41.000    21161969.727 6  86654725.269 6      -320.771          40.000
R10  23467658.156 6 125095782.245 6     -4124.402          38.000
R11  19448262.727 8 103925661.170 8     -1511.875          51.000    19448266.312 8  80831042.033 8     -1175.903          49.000
R21  19675208.109 7 105285994.042 7     -1889.715          44.000    19675208.992 6  81889126.895 6     -1469.781          38.000
R22  20022327.883 8 106880537.589 8      2303.625          51.000    20022331.711 8  83129338.144 8      1791.711          48.000
C11  22693373.078 8 118170433.585 8     -1869.848          51.000    22693372.859 8  91376825.896 8     -1445.930          51.000
C23  22079594.156 8 114974225.569 8      -875.535          51.000
C25  24650923.945 7 128363819.822 7     -3176.172          45.000
C28  23077156.820 8 120168794.986 8      2274.469          49.000
E12  21767625.391 7 114389669.480 7      1050.734          47.000    21767626.594 8  87649233.321 8       805.084          51.000
E24  21797890.508 6 114548687.451 6       803.754          41.000    21797902.141 6  87771113.048 6       615.875          39.000
E31  24508850.430 8 128794862.375 8     -1737.992          51.000    24508854.555 8  98686974.524 8     -1331.723          51.000
E33  24791584.906 7 130280662.626 7     -1757.391          46.000    24791584.625 7  99825468.402 7     -1346.440          43.000
> 2020 05 04 12 40 30.0000000  0 17        .000000000000
G18  21447433.648 8 112707078.453 8      2570.578          48.000    21447434.953 7  87823692.529 7      2003.051          47.000
G21  21467876.547 8 112814464.759 8      2118.461          49.000    21467873.969 7  87907384.886 7      1650.752          44.000
G25  21970458.695 6 115455542.922 6     -2574.199          41.000    21970462.391 6  89965342.812 6     -2005.863          40.000
G29  20589947.094 8 108200893.619 8     -1303.133          51.000    20589947.203 8  84312392.802 8     -1015.428          51.000
G31  21164377.781 7 111219547.212 7      -430.504          42.000    21164374.203 6  86664570.391 6      -335.461          41.000
R10  23490887.852 6 125219606.076 6     -4130.160          37.000
R11  19456813.797 8 103971352.648 8     -1533.770          51.000    19456816.633 8  80866579.847 8     -1192.932          48.000
R21  19685853.875 7 105342960.772 7     -1907.469          44.000    19685855.008 6  81933434.334 6     -1483.590          38.000
R22  20009436.062 8 106811723.401 8      2284.539          51.000    20009439.914 7  83075816.053 7      1776.864          47.000
C11  22704170.680 8 118226659.413 8     -1877.977          51.000    22704170.414 8  91420303.253 8     -1452.210          51.000
C23  22084683.836 8 115000725.763 8      -890.660          51.000
C25  24669240.695 7 128459198.937 7     -3181.887          47.000
C28  23064080.461 8 120100703.152 8      2265.535          50.000
E12  21761663.352 7 114358339.405 7      1038.297          47.000    21761664.773 8  87625227.175 8       795.566          51.000
E24  21793329.461 6 114524718.089 6       794.734          41.000    21793339.266 6  87752746.920 6       608.761          39.000
E31  24518798.117 8 128847135.896 8     -1746.406          51.000    24518801.586 8  98727028.245 8     -1338.194          51.000
E33  24801644.453 7 130333526.294 7     -1766.551          47.000    24801644.516 7  99865974.313 7     -1353.471          43.000
> 2020 05 04 12 41  0.0000000  0 17        .000000000000
G18  21432799.766 8 112630175.363 8      2556.004          49.000    21432800.281 7  87763768.102 7      1991.691          47.000
G21  21455824.477 8 112751132.370 8      2103.551          50.000    21455822.055 7  87858034.986 7      1639.134          43.000
G25  21985178.586 5 115532900.834 5     -2582.840          35.000    21985182.203 5  90025621.694 5     -2012.606          34.000
G29  20597418.898 8 108240157.763 8     -1314.598          51.000    20597419.023 8  84342988.249 8     -1024.362          51.000
G31  21166890.703 7 111232750.874 7      -450.160          43.000    21166887.359 7  86674858.920 7      -350.774          43.000
R10  23514147.898 5 125343602.255 5     -4136.289          33.000
R11  19465487.773 8 104017701.823 8     -1556.352          51.000    19465489.719 7  80902629.211 7     -1210.496          47.000
R21  19696598.648 7 105400455.963 7     -1925.723          42.000    19696600.000 6  81978152.795 6     -1497.784          38.000
R22  19996652.211 8 106743484.403 8      2264.695          51.000    19996655.781 7  83022741.313 7      1761.430          47.000
C11  22715014.898 8 118283128.299 8     -1886.664          51.000    22715014.555 8  91463968.566 8     -1458.925          51.000
C23  22089860.453 8 115027679.728 8      -906.387          51.000
C25  24687591.391 8 128554750.979 8     -3188.363          49.000
C28  23051056.102 8 120032880.031 8      2255.805          51.000
E12  21755772.117 7 114327380.269 7      1025.332          47.000    21755773.250 8  87601505.248 8       785.707          51.000
E24  21788819.352 7 114501016.314 7       785.297          42.000    21788827.711 6  87734585.816 6       601.766          39.000
E31  24528793.727 8 128899661.282 8     -1755.359          50.000    24528796.570 8  98767274.953 8     -1345.067          51.000
E33  24811756.445 7 130386665.562 7     -1776.246          47.000    24811757.375 7  99906691.389 7     -1361.062          44.000
> 2020 05 04 12 41 30.0000000  0 17        .000000000000
G18  21418248.773 8 112553708.326 8      2542.109          49.000    21418249.016 7  87704183.431 7      1980.864          47.000
G21  21443856.664 8 112688242.171 8      2089.496          50.000    21443854.430 7  87809029.649 7      1628.179          44.000
G25  21999950.750 6 115610531.120 6     -2591.621          39.000    21999954.367 6  90086112.860 6     -2019.445          39.000
G29  20604954.383 8 108279756.672 8     -1324.934          51.000    20604954.359 8  84373844.544 8     -1032.416          51.000
G31  21169513.734 6 111246534.175 6      -468.305          41.000    21169510.570 6  86685599.147 6      -364.916          41.000
R10  23537439.109 4 125467804.369 4     -4142.086          28.000
R11  19474286.438 8 104064719.498 8     -1577.785          51.000    19474288.625 8  80939198.463 8     -1227.169          48.000
R21  19707443.086 6 105458487.885 6     -1942.551          39.000    19707445.492 6  82023288.783 6     -1510.870          37.000
R22  19983978.812 8 106675833.189 8      2245.789          51.000    19983982.523 8  82970123.696 8      1746.725          48.000
C11  22725907.648 8 118339849.842 8     -1894.391          51.000    22725907.375 8  91507829.255 8     -1464.863          51.000
C23  22095125.898 8 115055098.311 8      -921.094          51.000
C25  24705977.438 8 128650485.393 8     -3193.688          50.000
C28  23038085.430 8 119965337.365 8      2247.328          49.000
E12  21749953.672 7 114296803.442 7      1013.410          47.000    21749954.555 8  87578076.259 8       776.518          51.000
E24  21784361.859 6 114477594.449 6       776.770          41.000    21784370.664 6  87716639.216 6       595.073          40.000
E31  24538838.977 8 128952449.563 8     -1763.426          50.000    24538841.812 8  98807723.093 8     -1351.211          51.000
E33  24821922.906 7 130440090.094 7     -1784.906          46.000    24821924.406 7  99947627.072 7     -1367.697          44.000
> 2020 05 04 12 42  0.0000000  0 17        .000000000000
G18  21403779.695 7 112477674.698 7      2526.957          46.000    21403780.336 7  87644936.445 7      1969.057          46.000
G21  21431972.523 8 112625790.844 8      2074.129          50.000    21431970.664 7  87760366.279 7      1616.204          46.000
G25  22014774.953 7 115688428.053 7     -2601.137          42.000    22014777.906 7  90146811.729 7     -2026.860          42.000
G29  20612552.398 8 108319684.075 8     -1336.645          51.000    20612552.180 8  84404956.796 8     -1041.541          51.000
G31  21172245.242 6 111260891.784 6      -488.371          40.000    21172242.883 6  86696786.900 6      -380.549          40.000
R10  23560766.336 5 125592155.640 5     -4147.832          33.000
R11  19483208.992 8 104112400.039 8     -1600.625          51.000    19483211.500 7  80976283.288 7     -1244.931          47.000
R21  19718386.586 6 105517048.916 6     -1961.070          38.000    19718388.000 6  82068836.193 6     -1525.280          36.000
R22  19971415.250 8 106608765.823 8      2225.578          51.000    19971418.805 8  82917960.177 8      1731.002          48.000
C11  22736847.812 8 118396817.613 8     -1903.219          51.000    22736847.648 8  91551880.346 8     -1471.708          51.000
C23  22100479.398 8 115082976.461 8      -937.152          51.000
C25  24724397.016 8 128746395.709 8     -3200.234          50.000
C28  23025167.469 8 119898070.931 8      2237.348          49.000
E12  21744206.922 8 114266604.190 8      1000.066          48.000    21744207.891 8  87554936.590 8       766.312          51.000
E24  21779956.781 7 114454448.725 7       766.762          42.000    21779966.922 6  87698904.161 6       587.549          41.000
E31  24548933.141 8 129005495.669 8     -1772.742          50.000    24548935.938 8  98848368.815 8     -1358.347          51.000
E33  24832142.508 7 130493793.519 7     -1794.977          46.000    24832144.000 7  99988776.445 7     -1375.387          44.000
> 2020 05 04 12 42 30.0000000  0 17        .000000000000
G18  21389391.047 7 112402067.719 7      2511.676          45.000    21389393.141 7  87586021.905 7      1957.150          45.000
G21  21420170.500 8 112563770.918 8      2058.785          51.000    21420168.867 7  87712039.072 7      1604.251          46.000
G25  22029647.852 7 115766581.967 7     -2610.816          42.000    22029649.391 7  90207710.830 7     -2034.405          42.000
G29  20620210.969 8 108359929.613 8     -1348.223          51.000    20620210.664 8  84436316.957 8     -1050.563          51.000
G31  21175083.789 6 111275814.594 6      -508.438          40.000    21175082.852 6  86708415.039 6      -396.185          39.000
R10  23584125.977 5 125716669.027 5     -4154.273          35.000
R11  19492253.727 8 104160733.563 8     -1623.305          51.000    19492256.328 8  81013876.014 8     -1262.570          48.000
R21  19729427.633 6 105576126.345 6     -1979.094          36.000    19729428.164 5  82114785.335 5     -1539.292          35.000
R22  19958959.711 8 106542274.292 8      2205.414          51.000    19958962.703 7  82866244.548 7      1715.322          47.000
C11  22747833.250 8 118454021.104 8     -1912.082          51.000    22747833.070 8  91596113.708 8     -1478.468          51.000
C23  22105919.305 8 115111305.019 8      -953.082          51.000
C25  24742847.875 8 128842471.399 8     -3206.566          49.000
C28  23012301.297 8 119831072.439 8      2227.426          50.000
E12  21738530.445 8 114236773.709 8       986.812          49.000    21738531.141 8  87532079.468 8       756.165          51.000
E24  21775603.227 7 114431571.182 7       756.918          44.000    21775614.531 7  87681374.619 7       579.940          42.000
E31  24559074.773 8 129058790.450 8     -1782.035          51.000    24559077.656 8  98889205.080 8     -1365.420          51.000
E33  24842413.125 7 130547765.353 7     -1804.816          47.000    24842414.328 7 100030131.483 7     -1383.037          44.000
> 2020 05 04 12 43  0.0000000  0 17        .000000000000
G18  21375092.195 7 112326930.519 7      2498.332          44.000    21375095.375 7  87527473.474 7      1946.755          44.000
G21  21408458.438 8 112502224.756 8      2044.957          50.000    21408457.023 7  87664081.036 7      1593.473          45.000
G25  22044576.844 7 115845033.039 7     -2618.910          42.000    22044577.773 6  90268841.454 6     -2040.709          41.000
G29  20627937.508 8 108400532.657 8     -1358.109          51.000    20627937.203 8  84467955.685 8     -1058.267          51.000
G31  21178038.164 6 111291343.141 6      -526.457          40.000    21178037.758 6  86720515.198 6      -410.223          40.000
R10  23607523.727 5 125841383.724 5     -4158.594          32.000
R11  19501428.789 8 104209761.120 8     -1644.488          51.000    19501431.328 8  81052008.536 8     -1279.049          48.000
R21  19740570.422 6 105635758.920 6     -1995.422          39.000    19740572.312 5  82161166.269 5     -1551.995          34.000
R22  19946619.578 8 106476401.650 8      2186.711          51.000    19946621.609 7  82815010.316 7      1700.775          46.000
C11  22758871.305 8 118511499.393 8     -1919.281          51.000    22758871.047 8  91640559.559 8     -1484.034          51.000
C23  22111453.516 8 115140124.318 8      -967.566          51.000
C25  24761337.508 7 128938751.380 7     -3211.355          47.000
C28  22999494.531 8 119764383.085 8      2219.152          50.000
E12  21732932.133 8 114207353.091 8       975.117          48.000    21732932.273 8  87509536.379 8       747.177          51.000
E24  21771309.203 7 114409003.958 7       748.215          44.000    21771321.273 7  87664082.852 7       573.379          43.000
E31  24569271.789 8 129112374.705 8     -1789.699          51.000    24569274.719 8  98930263.129 8     -1371.310          51.000
E33  24852742.328 7 130602045.030 7     -1813.172          45.000    24852743.195 7 100071722.404 7     -1389.161          44.000
> 2020 05 04 12 43 30.0000000  0 17        .000000000000
G18  21360874.867 7 112252218.281 7      2482.855          46.000    21360878.445 7  87469256.194 7      1934.693          47.000
G21  21396827.805 8 112441106.800 8      2029.574          51.000    21396826.547 7  87616456.698 7      1581.486          45.000
G25  22059552.797 6 115923733.374 6     -2628.141          40.000    22059554.125 6  90330166.308 6     -2047.905          40.000
G29  20635722.922 8 108441444.828 8     -1369.383          51.000    20635722.578 8  84499835.280 8     -1067.052          51.000
G31  21181098.945 6 111307429.713 6      -545.883          39.000    21181098.781 6  86733050.174 6      -425.363          39.000
R10  23630949.195 5 125966249.662 5     -4164.855          33.000
R11  19510724.602 8 104259434.127 8     -1667.031          51.000    19510726.898 8  81090643.073 8     -1296.580          48.000
R21  19751808.875 6 105695895.762 6     -2013.570          40.000    19751810.539 5  82207939.318 5     -1566.110          34.000
R22  19934385.953 8 106411100.787 8      2166.617          50.000    19934387.859 7  82764220.836 7      1685.147          47.000
C11  22769952.797 8 118569204.175 8     -1927.758          51.000    22769952.484 8  91685180.541 8     -1490.674          51.000
C23  22117073.078 8 115169387.414 8      -983.289          51.000
C25  24779856.672 7 129035187.348 7     -3217.777          44.000
C28  22986738.336 8 119697956.841 8      2209.223          50.000
E12  21727402.641 8 114178295.336 8       962.062          48.000    21727403.172 8  87487271.362 8       737.105          51.000
E24  21767065.312 7 114386700.944 7       738.508          44.000    21767078.219 7  87646993.529 7       565.792          44.000
E31  24579514.930 8 129166201.125 8     -1798.738          51.000    24579518.125 8  98971506.730 8     -1378.272          51.000
E33  24863120.672 7 130656583.933 7     -1822.816          46.000    24863121.594 7 100113511.962 7     -1396.712          44.000
> 2020 05 04 12 44  0.0000000  0 17        .000000000000
G18  21346744.219 8 112177957.974 8      2467.516          49.000    21346747.039 8  87411391.045 8      1922.739          48.000
G21  21385284.055 8 112380443.315 8      2014.199          51.000    21385282.578 7  87569186.524 7      1569.509          44.000
G25  22074580.461 6 116002706.953 6     -2637.488          39.000    22074583.023 6  90391704.140 6     -2055.183          38.000
G29  20643571.586 8 108482689.641 8     -1380.723          51.000    20643571.102 8  84531974.087 8     -1075.891          51.000
G31  21184270.727 6 111324098.734 6      -565.590          40.000    21184270.648 6  86746038.955 6      -440.722          40.000
R10  23654406.750 5 126091289.458 5     -4171.395          34.000
R11  19520145.875 8 104309776.867 8     -1689.543          51.000    19520148.070 7  81129798.528 7     -1314.092          47.000
R21  19763144.977 6 105756558.828 6     -2031.152          41.000    19763148.516 5  82255121.767 5     -1579.782          34.000
R22  19922264.562 8 106346398.300 8      2146.410          51.000    19922267.586 8  82713896.694 8      1669.430          48.000
C11  22781082.242 8 118627158.529 8     -1936.332          51.000    22781082.008 8  91729994.514 8     -1497.246          51.000
C23  22122782.594 8 115199118.571 8      -999.227          51.000
C25  24798408.258 6 129131802.173 6     -3224.055          38.000
C28  22974037.719 8 119631818.877 8      2199.402          51.000
E12  21721946.867 8 114149625.369 8       948.934          48.000    21721947.844 8  87465303.479 8       727.096          51.000
E24  21762876.609 7 114364688.060 7       728.465          45.000    21762890.031 7  87630126.482 7       558.306          44.000
E31  24589808.484 8 129220294.320 8     -1807.828          51.000    24589812.109 8  99012954.735 8     -1385.192          51.000
E33  24873552.641 7 130711405.359 7     -1832.348          47.000    24873554.008 7 100155517.973 7     -1404.028          44.000
> 2020 05 04 12 44 30.0000000  0 17        .000000000000
G18  21332702.320 8 112104162.642 8      2450.586          51.000    21332703.961 7  87353888.217 7      1909.547          47.000
G21  21373829.414 8 112320246.776 8      1997.227          51.000    21373827.633 7  87522280.194 7      1556.283          45.000
G25  22089662.266 6 116081963.970 6     -2648.383          37.000    22089666.359 6  90453462.801 6     -2063.675          36.000
G29  20651485.375 8 108524276.534 8     -1393.496          51.000    20651484.602 8  84564379.453 8     -1085.841          51.000
G31  21187555.758 6 111341360.843 6      -586.980          41.000    21187555.617 6  86759489.905 6      -457.387          41.000
R10  23677898.844 5 126216511.065 5     -4178.461          32.000
R11  19529694.445 8 104360799.619 8     -1713.625          51.000    19529696.367 7  81169482.874 7     -1332.819          46.000
R21  19774582.477 6 105817756.059 6     -2050.328          41.000    19774585.398 5  82302719.573 5     -1594.700          32.000
R22  19910257.805 8 106282305.894 8      2124.707          51.000    19910261.500 7  82664047.034 7      1652.550          47.000
C11  22792261.367 8 118685371.597 8     -1946.223          51.000    22792261.234 8  91775008.550 8     -1504.961          51.000
C23  22128584.008 8 115229328.216 8     -1016.445          50.000
C25  24816993.125 6 129228604.929 6     -3231.133          36.000
C28  22961394.391 8 119565980.506 8      2188.074          51.000
E12  21716567.266 8 114121354.135 8       934.266          48.000    21716567.656 8  87443641.099 8       715.878          51.000
E24  21758745.336 7 114342977.147 7       717.309          45.000    21758758.758 7  87613490.874 7       549.563          44.000
E31  24600154.805 8 129274664.883 8     -1818.426          51.000    24600159.000 8  99054615.268 8     -1393.345          51.000
E33  24884040.281 7 130766518.618 7     -1843.309          45.000    24884041.719 7 100197747.600 7     -1412.576          43.000
> 2020 05 04 12 45  0.0000000  0 16        .000000000000
G18  21318745.078 8 112030812.755 8      2439.086          50.000    21318745.344 7  87296732.485 7      1900.589          47.000
G21  21362459.586 8 112260496.632 8      1985.773          51.000    21362457.828 7  87475721.687 7      1547.359          47.000
G25  22104794.523 6 116161481.871 6     -2653.195          39.000    22104798.500 6  90515424.793 6     -2067.428          39.000
G29  20659459.883 8 108566182.488 8     -1400.621          51.000    20659459.094 8  84597033.445 8     -1091.393          51.000
G31  21190949.539 6 111359193.637 6      -602.102          39.000    21190949.336 6  86773385.559 6      -469.173          39.000
R11  19539365.734 8 104412479.623 8     -1731.977          51.000    19539367.070 7  81209678.398 7     -1347.093          45.000
R21  19786113.320 6 105879462.126 6     -2063.875          40.000    19786115.727 5  82350713.215 5     -1605.236          32.000
R22  19898361.836 8 106218802.760 8      2108.453          51.000    19898364.727 7  82614655.712 7      1639.908          47.000
C11  22803485.805 8 118743820.308 8     -1950.758          51.000    22803485.648 8  91820204.796 8     -1508.401          51.000
C23  22134472.914 8 115259994.578 8     -1028.297          50.000
C25  24835614.180 6 129325572.539 6     -3233.621          40.000
C28  22948803.992 8 119500420.899 8      2182.176          50.000
E12  21711259.406 8 114093460.076 8       925.012          48.000    21711259.234 8  87422267.725 8       708.814          51.000
E24  21754667.445 7 114321547.726 7       711.039          44.000    21754680.766 7  87597070.914 7       544.870          45.000
E31  24610549.781 8 129329290.933 8     -1823.586          51.000    24610554.547 8  99096471.567 8     -1397.281          51.000
E33  24894579.156 7 130821900.503 7     -1848.945          45.000    24894580.047 7 100240183.078 7     -1416.754          43.000
> 2020 05 04 12 45 30.0000000  0 17        .000000000000
G18  21304862.961 8 111957860.087 8      2424.770          49.000    21304862.328 7  87239886.272 7      1889.431          47.000
G21  21351164.805 8 112201144.053 8      1971.379          49.000    21351163.875 8  87429472.949 8      1536.139          48.000
G25  22119966.562 6 116241209.596 6     -2661.406          39.000    22119970.141 6  90577550.264 6     -2073.823          40.000
G29  20667485.250 8 108608355.721 8     -1410.566          51.000    20667484.531 8  84629895.706 8     -1099.143          51.000
G31  21194442.016 6 111377546.053 6      -620.977          39.000    21194441.750 6  86787686.110 6      -483.881          40.000
R11  19549150.227 8 104464764.627 8     -1753.336          51.000    19549151.273 7  81250344.468 7     -1363.709          47.000
R12  19875170.453 5 106169536.165 5      2212.207          35.000    19875151.047 4  82576272.892 4      1720.612          27.000
R21  19797728.852 6 105941622.961 6     -2079.961          40.000    19797729.602 4  82399060.502 4     -1617.753          29.000
R22  19886566.633 8 106155838.573 8      2089.430          50.000    19886569.008 8  82565683.591 8      1625.115          48.000
C11  22814745.672 8 118802453.221 8     -1957.930          51.000    22814745.430 8  91865543.463 8     -1514.001          51.000
C23  22140439.945 8 115291067.327 8     -1042.918          50.000
C25  24854259.914 7 129422653.459 7     -3238.340          43.000
C28  22936257.148 8 119435090.664 8      2173.426          48.000
E12  21706013.578 8 114065892.832 8       912.914          48.000    21706013.617 8  87401144.790 8       699.595          51.000
E24  21750633.445 7 114300350.378 7       702.289          44.000    21750647.125 7  87580828.794 7       538.115          46.000
E31  24620983.523 8 129384121.883 8     -1831.598          51.000    24620988.453 8  99138484.861 8     -1403.396          51.000
E33  24905159.133 7 130877499.127 7     -1857.402          45.000    24905159.672 7 100282784.613 7     -1423.121          43.000
> 2020 05 04 12 46  0.0000000  0 16        .000000000000
G18  21291075.758 8 111885408.666 8      2407.648          50.000    21291075.227 8  87183430.634 8      1876.093          48.000
G21  21339964.797 7 112142292.728 7      1954.344          47.000    21339965.344 7  87383614.806 7      1522.865          47.000
G25  22135197.867 7 116321248.284 7     -2672.039          42.000    22135200.539 7  90639918.063 7     -2082.105          42.000
G29  20675580.531 8 108650896.698 8     -1423.121          51.000    20675579.445 8  84663044.520 8     -1108.926          51.000
G31  21198052.906 6 111396519.646 6      -642.051          41.000    21198052.094 6  86802470.738 6      -500.299          41.000
R11  19559066.875 8 104517757.495 8     -1777.289          51.000    19559068.578 7  81291561.088 7     -1382.339          47.000
R21  19809448.969 6 106004338.849 6     -2098.637          39.000    19809447.570 4  82447833.489 4     -1632.273          29.000
R22  19874891.805 8 106093518.069 8      2067.547          51.000    19874894.180 8  82517212.106 8      1608.092          48.000
C11  22826059.930 8 118861369.708 8     -1967.555          51.000    22826059.805 8  91911101.417 8     -1521.468          51.000
C23  22146504.219 8 115322647.116 8     -1060.074          49.000
C25  24872946.953 7 129519947.003 7     -3245.906          44.000
C28  22923774.445 8 119370091.344 8      2162.051          49.000
E12  21700849.320 8 114038754.392 8       898.457          48.000    21700849.375 8  87380350.444 8       688.371          50.000
E24  21746663.328 7 114279488.126 7       690.793          45.000    21746677.367 7  87564843.408 7       529.237          46.000
E31  24631475.805 8 129439259.380 8     -1842.031          51.000    24631480.375 8  99180733.056 8     -1411.510          51.000
E33  24915799.555 7 130933414.845 7     -1868.219          45.000    24915800.023 7 100325629.110 7     -1431.486          43.000
> 2020 05 04 12 46 30.0000000  0 17        .000000000000
G18  21277368.062 8 111813374.724 8      2393.523          51.000    21277367.922 8  87127300.305 8      1865.083          48.000
G21  21328844.039 7 112083857.776 7      1940.246          47.000    21328845.961 7  87338081.079 7      1511.880          47.000
G25  22150471.742 6 116401511.133 6     -2679.590          41.000    22150473.781 6  90702460.526 6     -2087.995          41.000
G29  20683729.109 8 108693718.055 8     -1432.707          51.000    20683727.727 8  84696411.829 8     -1116.395          51.000
G31  21201765.477 7 111416028.157 7      -659.922          43.000    21201764.078 7  86817672.171 7      -514.225          43.000
R11  19569099.062 8 104571369.878 8     -1798.004          51.000    19569101.484 8  81333259.580 8     -1398.447          49.000
R12  19850541.148 5 106038009.712 5      2174.293          32.000    19850531.859 5  82473982.179 5      1691.117          30.000
R21  19821255.508 6 106067519.219 6     -2114.453          38.000    19821254.367 4  82496973.781 4     -1644.575          28.000
R22  19863321.531 8 106031754.686 8      2048.855          51.000    19863323.812 8  82469173.916 8      1593.554          49.000
C11  22837411.922 8 118920483.098 8     -1974.391          51.000    22837412.055 8  91956811.648 8     -1526.636          51.000
C23  22152649.305 8 115354648.467 8     -1074.395          50.000
C25  24891657.656 7 129617366.301 7     -3249.969          45.000
C28  22911339.391 8 119305338.352 8      2153.680          49.000
E12  21695750.234 8 114011958.902 8       886.777          48.000    21695749.641 8  87359818.844 8       679.536          49.000
E24  21742740.859 7 114258876.058 7       682.238          45.000    21742755.117 7  87549049.740 7       522.793          47.000
E31  24642010.312 8 129494617.258 8     -1849.523          51.000    24642014.047 8  99223150.103 8     -1417.140          51.000
E33  24926483.953 7 130989560.193 7     -1875.824          46.000    24926484.242 7 100368649.572 7     -1437.398          43.000
> 2020 05 04 12 47  0.0000000  0 16        .000000000000
G18  21263749.930 8 111741809.865 8      2377.480          51.000    21263750.008 8  87071535.508 8      1852.585          49.000
G21  21317812.734 8 112025889.762 8      1924.305          49.000    21317815.047 8  87292911.180 8      1499.458          48.000
G25  22165797.414 6 116482046.897 6     -2689.137          40.000    22165799.383 6  90765215.593 6     -2095.434          40.000
G29  20691940.141 8 108736868.034 8     -1443.988          51.000    20691938.977 8  84730035.193 8     -1125.186          51.000
G31  21205589.438 7 111436120.074 7      -679.742          45.000    21205587.297 7  86833328.223 7      -529.669          45.000
R11  19579256.398 8 104625651.038 8     -1820.672          49.000    19579259.312 8  81375478.264 8     -1416.078          50.000
R21  19833157.164 6 106131211.302 6     -2131.910          38.000    19833157.352 5  82546512.094 5     -1658.149          30.000
R22  19851864.961 8 105970599.620 8      2028.160          51.000    19851868.180 8  82421608.890 8      1577.461          50.000
C11  22848810.977 8 118979840.855 8     -1982.855          51.000    22848811.273 8  92002710.829 8     -1533.167          51.000
C23  22158885.453 8 115387119.956 8     -1090.465          51.000
C25  24910400.641 7 129714958.746 7     -3256.020          45.000
C28  22898960.844 8 119240881.304 8      2143.500          48.000
E12  21690725.867 8 113985555.879 8       873.406          48.000    21690724.609 8  87339587.975 8       669.254          49.000
E24  21738875.766 7 114238564.742 7       671.922          45.000    21738890.000 7  87533486.512 7       514.789          47.000
E31  24652596.078 8 129550244.801 8     -1858.938          51.000    24652599.352 8  99265773.781 8     -1424.381          51.000
E33  24937221.148 7 131045983.185 7     -1885.551          44.000    24937221.094 7 100411882.744 7     -1444.728          43.000
> 2020 05 04 12 47 30.0000000  0 17        .000000000000
G18  21250222.188 8 111670719.830 8      2362.098          51.000    21250222.344 8  87016140.701 8      1840.596          48.000
G21  21306872.078 8 111968393.944 8      1909.012          51.000    21306873.695 8  87248109.232 8      1487.542          48.000
G25  22181175.617 6 116562858.383 6     -2697.934          40.000    22181177.336 6  90828185.522 6     -2102.286          40.000
G29  20700214.078 8 108780348.708 8     -1454.406          51.000    20700213.273 8  84763916.246 8     -1133.304          51.000
G31  21209524.648 7 111456798.374 7      -698.973          44.000    21209522.312 7  86849441.206 7      -544.654          44.000
R11  19589539.500 8 104680603.832 8     -1842.676          48.000    19589543.070 8  81418219.366 8     -1433.189          51.000
R12  19826326.281 5 105908675.396 5      2136.023          30.000
R21  19845155.125 6 106195415.925 6     -2148.270          36.000    19845155.906 4  82596448.995 4     -1670.879          28.000
R22  19840523.000 8 105910057.511 8      2008.285          50.000    19840527.398 8  82374520.610 8      1562.003          50.000
C11  22860257.508 8 119039445.077 8     -1990.445          51.000    22860257.852 8  92048800.602 8     -1539.275          51.000
C23  22165212.727 8 115420064.866 8     -1105.684          51.000
C25  24929176.812 7 129812726.306 7     -3261.508          45.000
C28  22886640.281 8 119176724.365 8      2133.961          50.000
E12  21685776.961 8 113959549.073 8       860.578          48.000    21685776.031 8  87319660.715 8       659.395          49.000
E24  21735068.984 7 114218558.910 7       662.082          47.000    21735082.914 7  87518157.366 7       507.283          47.000
E31  24663233.398 8 129606145.456 8     -1867.559          51.000    24663236.883 8  99308606.719 8     -1431.052          51.000
E33  24948011.453 7 131102685.893 7     -1894.488          43.000    24948011.320 7 100455330.274 7     -1451.516          42.000
> 2020 05 04 12 48  0.0000000  0 16        .000000000000
G18  21236781.961 8 111600090.701 8      2346.633          51.000    21236782.125 8  86961105.056 8      1828.548          48.000
G21  21296018.828 8 111911355.673 8      1893.602          51.000    21296019.477 8  87203663.851 8      1475.534          48.000
G25  22196602.133 5 116643928.793 5     -2706.266          35.000    22196604.461 6  90891357.276 6     -2108.778          36.000
G29  20708547.773 8 108824142.919 8     -1465.004          51.000    20708546.992 8  84798041.619 8     -1141.565          51.000
G31  21213568.062 7 111478047.082 7      -717.926          42.000    21213566.000 6  86865998.651 6      -559.420          41.000
R11  19599945.727 8 104736210.980 8     -1864.383          51.000    19599949.695 8  81461469.407 8     -1450.076          51.000
R21  19857242.945 6 106260113.094 6     -2164.691          38.000    19857246.023 5  82646769.054 5     -1683.652          30.000
R22  19829292.891 8 105850112.903 8      1988.242          50.000    19829298.086 8  82327897.066 8      1546.414          50.000
C11  22871747.953 8 119099278.302 8     -1998.191          51.000    22871748.289 8  92095067.438 8     -1545.095          51.000
C23  22171627.336 8 115453466.917 8     -1121.012          51.000
C25  24947982.508 7 129910651.370 7     -3266.934          44.000
C28  22874374.516 8 119112852.199 8      2124.469          49.000
E12  21680900.258 8 113933922.449 8       847.980          48.000    21680900.148 8  87300024.779 8       649.706          50.000
E24  21731317.555 8 114198843.543 8       652.469          48.000    21731331.227 8  87503050.786 8       499.923          48.000
E31  24673919.492 8 129662302.874 8     -1876.191          50.000    24673923.453 8  99351636.412 8     -1437.577          51.000
E33  24958851.414 7 131159650.770 7     -1903.137          44.000    24958851.969 7 100498978.702 7     -1458.275          43.000
> 2020 05 04 12 48 30.0000000  0 17        .000000000000
G18  21223432.000 8 111529937.039 8      2331.277          50.000    21223432.133 8  86906439.910 8      1816.580          48.000
G21  21285255.086 8 111854788.847 8      1878.320          51.000    21285255.039 8  87159585.842 8      1463.629          48.000
G25  22212078.984 5 116725263.817 5     -2714.727          33.000    22212083.156 5  90954739.964 5     -2115.374          33.000
G26  21910803.062 5 115142046.643 5      2544.512          30.000
G29  20716943.289 8 108868261.675 8     -1475.336          51.000    20716942.477 8  84832419.854 8     -1149.612          51.000
G31  21217721.578 6 111499877.536 6      -736.586          41.000    21217720.594 6  86883009.394 6      -573.963          41.000
R11  19610477.055 8 104792484.128 8     -1886.184          51.000    19610480.688 8  81505237.421 8     -1467.032          51.000
R21  19869426.875 6 106325312.852 6     -2181.102          40.000    19869432.195 4  82697479.959 4     -1696.415          26.000
R22  19818178.352 8 105790779.639 8      1968.273          51.000    19818182.898 8  82281748.999 8      1530.882          50.000
C11  22883284.328 8 119159351.415 8     -2005.781          50.000    22883284.625 8  92141519.773 8     -1550.928          51.000
C23  22178131.750 8 115487338.105 8     -1136.105          51.000
C25  24966820.031 7 130008744.679 7     -3271.965          43.000
C28  22862165.398 8 119049277.828 8      2114.855          49.000
E12  21676098.523 8 113908688.582 8       835.281          49.000    21676098.242 8  87280689.750 8       640.015          49.000
E24  21727623.906 8 114179432.276 8       642.594          48.000    21727637.297 8  87488177.228 8       492.389          48.000
E31  24684656.703 8 129718729.351 8     -1884.727          49.000    24684661.367 8  99394872.284 8     -1444.135          51.000
E33  24969743.367 7 131216888.893 7     -1911.820          45.000    24969744.758 7 100542836.455 7     -1464.865          42.000
> 2020 05 04 12 49  0.0000000  0 17        .000000000000
G18  21210169.844 8 111460245.193 8      2315.840          50.000    21210169.852 7  86852134.616 7      1804.551          47.000
G21  21274577.789 8 111798679.117 8      1863.195          50.000    21274577.727 8  87115864.037 8      1451.844          48.000
G25  22227605.781 6 116806859.046 6     -2723.445          40.000    22227610.383 6  91018320.691 6     -2122.162          40.000
G26  21896287.797 4 115065768.325 4      2538.289          29.000
G29  20725397.305 8 108912687.968 8     -1485.551          50.000    20725396.531 8  84867037.731 8     -1157.572          50.000
G31  21221983.242 7 111522273.235 7      -755.438          45.000    21221982.367 7  86900460.606 7      -588.650          45.000
R11  19621129.789 8 104849406.496 8     -1907.875          51.000    19621133.008 8  81549510.374 8     -1483.903          50.000
R21  19881701.945 5 106390995.740 5     -2197.539          35.000
R22  19807175.516 8 105732042.141 8      1948.418          51.000    19807178.773 8  82236064.299 8      1515.436          48.000
C11  22894863.492 8 119219647.369 8     -2013.227          50.000    22894863.664 8  92188144.426 8     -1556.764          51.000
C23  22184723.461 8 115521662.299 8     -1151.180          51.000
C25  24985686.180 7 130106988.947 7     -3276.973          42.000
C28  22850010.391 8 118985986.164 8      2105.391          49.000
E12  21671368.625 8 113883831.753 8       822.719          50.000    21671367.953 8  87261643.595 8       630.386          51.000
E24  21723985.023 8 114160310.398 8       633.004          48.000    21723998.398 8  87473525.403 8       485.047          49.000
E31  24695442.078 8 129775408.840 8     -1893.051          49.000    24695447.500 8  99438302.037 8     -1450.558          51.000
E33  24980684.094 7 131274382.933 7     -1920.430          42.000    24980685.578 7 100586890.312 7     -1471.459          42.000
> 2020 05 04 12 49 30.0000000  0 16        .000000000000
G18  21196993.672 8 111391004.399 8      2300.254          51.000    21196993.516 7  86798180.777 7      1792.406          47.000
G21  21263985.008 8 111743014.887 8      1847.812          50.000    21263985.242 8  87072489.358 8      1439.857          48.000
G25  22243179.766 7 116888694.843 7     -2732.273          42.000    22243183.477 7  91082088.809 7     -2129.047          42.000
G29  20733907.094 8 108957407.542 8     -1495.875          51.000    20733906.273 8  84901884.152 8     -1165.617          51.000
G31  21226350.375 7 111545220.820 7      -774.379          45.000    21226348.867 7  86918341.879 7      -603.412          46.000
R11  19631901.070 8 104906963.739 8     -1929.484          51.000    19631904.219 8  81594277.092 8     -1500.713          48.000
R21  19894063.531 6 106457145.569 6     -2213.129          38.000    19894073.859 4  82800035.524 4     -1721.319          25.000
R22  19796282.000 8 105673888.265 8      1928.414          51.000    19796284.383 8  82190833.518 8      1499.878          49.000
C11  22906482.898 8 119280151.810 8     -2020.625          50.000    22906482.773 8  92234930.272 8     -1562.330          51.000
C23  22191399.367 8 115556426.420 8     -1166.434          51.000
C25  25004578.773 7 130205369.809 7     -3281.844          42.000
C28  22837908.055 8 118922964.966 8      2095.871          50.000
E12  21666707.891 8 113859339.075 8       810.043          50.000    21666707.617 8  87242876.511 8       620.688          51.000
E24  21720398.938 8 114141466.141 8       623.172          48.000    21720412.531 8  87459086.285 8       477.444          49.000
E31  24706273.406 8 129832328.333 8     -1901.547          50.000    24706279.297 8  99481915.652 8     -1457.029          51.000
E33  24991670.586 6 131332118.473 6     -1928.723          41.000    24991671.688 7 100631129.266 7     -1477.963          42.000
> 2020 05 04 12 50  0.0000000  0 16        .000000000000
G18  21183907.484 8 111322236.861 8      2283.734          49.000    21183907.547 7  86744595.687 7      1779.533          46.000
G21  21253481.172 8 111687817.544 8      1831.484          50.000    21253481.547 8  87029478.449 8      1427.131          49.000
G25  22258802.922 7 116970790.452 7     -2741.414          42.000    22258806.070 7  91146059.317 7     -2136.167          42.000
G29  20742476.180 8 109002438.685 8     -1506.832          51.000    20742475.250 8  84936973.347 8     -1174.155          51.000
G31  21230825.930 7 111568739.813 7      -794.023          45.000    21230824.016 7  86936668.327 7      -618.720          45.000
R11  19642794.500 8 104965175.128 8     -1951.871          51.000    19642797.367 7  81639552.580 7     -1518.125          47.000
R21  19906516.000 6 106523779.703 6     -2229.699          40.000
R22  19785501.797 8 105616339.608 8      1907.551          51.000    19785503.695 8  82146073.441 8      1483.651          50.000
C11  22918145.789 8 119340883.125 8     -2028.773          50.000    22918145.562 8  92281891.571 8     -1568.791          51.000
C23  22198163.070 8 115591649.947 8     -1182.398          51.000
C25  25023501.422 7 130303905.585 7     -3287.730          43.000
C28  22825862.000 8 118860234.777 8      2085.500          50.000
E12  21662120.430 8 113835230.727 8       796.535          50.000    21662120.086 8  87224403.909 8       610.350          51.000
E24  21716869.797 8 114122920.656 8       612.539          48.000    21716883.570 8  87444876.099 8       469.396          49.000
E31  24717154.648 8 129889507.663 8     -1910.883          51.000    24717159.938 8  99525728.358 8     -1464.177          51.000
E33  25002706.609 6 131390114.225 6     -1938.000          41.000    25002707.367 7 100675567.575 7     -1485.081          42.000
> 2020 05 04 12 50 30.0000000  0 16        .000000000000
G18  21170909.156 7 111253934.748 7      2268.809          46.000    21170909.828 7  86691373.281 7      1767.903          45.000
G21  21243064.562 8 111633078.270 8      1816.840          50.000    21243065.203 8  86986824.465 8      1415.719          50.000
G25  22274473.391 6 117053135.272 6     -2749.375          41.000    22274473.391 6  91210223.978 6     -2142.376          41.000
G29  20751102.594 8 109047770.807 8     -1516.367          51.000    20751101.664 8  84972297.070 8     -1181.585          51.000
G31  21235408.094 7 111592819.659 7      -812.086          44.000    21235405.961 7  86955431.837 7      -632.791          44.000
R11  19653808.070 8 105024029.668 8     -1972.879          51.000    19653810.484 7  81685328.269 7     -1534.464          46.000
R21  19919056.781 6 106590884.902 6     -2244.914          41.000    19919063.875 4  82904026.950 4     -1746.041          28.000
R22  19774832.695 8 105559386.385 8      1888.207          51.000    19774834.320 8  82101776.486 8      1468.605          50.000
C11  22929849.852 8 119401830.137 8     -2035.516          49.000    22929849.836 8  92329019.643 8     -1573.857          51.000
C23  22205013.844 8 115627322.601 8     -1196.898          51.000
C25  25042452.297 7 130402584.802 7     -3292.105          45.000
C28  22813869.844 8 118797786.326 8      2076.641          51.000
E12  21657604.250 8 113811496.839 8       784.684          50.000    21657603.133 8  87206218.191 8       601.227          51.000
E24  21713395.938 8 114104665.176 8       603.371          49.000    21713409.781 8  87430888.126 8       462.437          50.000
E31  24728083.828 8 129946936.718 8     -1918.680          51.000    24728087.906 8  99569732.401 8     -1470.133          50.000
E33  25013790.273 6 131448358.847 6     -1946.094          39.000    25013790.641 6 100720196.506 6     -1490.971          41.000
> 2020 05 04 12 51  0.0000000  0 17        .000000000000
G18  21158001.188 7 111186109.306 7      2252.547          45.000    21158002.492 7  86638522.343 7      1755.234          44.000
G21  21232737.352 8 111578807.571 8      1800.789          50.000    21232738.023 8  86944535.615 8      1403.212          50.000
G25  22290192.398 6 117135737.640 6     -2758.148          39.000    22290190.992 6  91274589.354 6     -2149.210          38.000
G29  20759787.766 8 109093411.745 8     -1526.758          51.000    20759786.961 8  85007861.437 8     -1189.681          51.000
G31  21240098.172 7 111617468.987 7      -831.473          44.000    21240096.289 7  86974639.068 7      -647.901          44.000
R11  19664943.719 8 105083535.664 8     -1994.750          51.000    19664946.141 7  81731610.663 7     -1551.475          47.000
R21  19931687.133 6 106658467.529 6     -2260.902          39.000    19931694.969 4  82956591.209 4     -1758.480          29.000
R22  19764276.312 8 105503039.132 8      1867.785          51.000    19764278.445 8  82057950.861 8      1452.722          50.000
C05  39630656.242 5 206367225.972 5        20.605          35.000    39630655.398 6 159576225.543 6        15.936          38.000
C11  22941596.883 8 119463000.492 8     -2043.160          48.000    22941596.938 8  92376320.448 8     -1579.810          50.000
C23  22211952.594 8 115663453.079 8     -1212.266          51.000
C25  25061432.461 7 130501414.964 7     -3297.266          44.000
C28  22801933.719 8 118735629.327 8      2066.676          51.000
E12  21653160.906 8 113788146.672 8       771.629          50.000    21653159.625 8  87188326.496 8       591.236          51.000
E24  21709979.305 8 114086710.011 8       593.145          49.000    21709992.875 8  87417130.266 8       454.508          50.000
E31  24739062.156 8 130004624.516 8     -1927.609          51.000    24739064.305 8  99613934.697 8     -1476.984          49.000
E33  25024922.359 6 131506859.929 6     -1954.918          36.000    25024922.961 6 100765022.046 6     -1497.757          40.000
> 2020 05 04 12 51 30.0000000  0 17        .000000000000
G18  21145187.289 7 111118774.158 7      2236.648          45.000    21145188.758 7  86586053.429 7      1742.843          45.000
G21  21222501.836 8 111525018.513 8      1785.301          50.000    21222502.133 8  86902622.084 8      1391.147          49.000
G25  22305960.305 5 117218608.348 5     -2766.562          31.000    22305961.680 5  91339163.930 5     -2155.763          32.000
G29  20768533.570 8 109139371.497 8     -1536.895          51.000    20768532.898 8  85043674.225 8     -1197.580          51.000
G31  21244898.758 7 111642698.210 7      -850.262          46.000    21244897.508 7  86994298.183 7      -662.545          45.000
R11  19676203.617 8 105143703.743 8     -2016.238          51.000    19676206.148 8  81778408.040 8     -1568.185          48.000
R21  19944407.820 6 106726536.135 6     -2276.566          41.000    19944410.234 4  83009533.473 4     -1770.663          29.000
R22  19753835.742 8 105447310.128 8      1847.785          51.000    19753838.055 8  82014606.088 8      1437.166          49.000
C05  39630538.609 5 206366613.274 5        20.715          35.000    39630536.570 6 159575748.664 6        16.124          37.000
C11  22953389.000 8 119524404.205 8     -2050.285          48.000    22953388.844 8  92423801.700 8     -1585.450          49.000
C23  22218980.883 8 115700052.448 8     -1227.395          50.000
C25  25080443.281 7 130600405.869 7     -3301.891          43.000
C28  22790055.727 8 118673775.799 8      2057.082          51.000
E12  21648792.523 8 113765191.794 8       758.938          49.000    21648791.844 8  87170737.729 8       581.539          51.000
E24  21706622.281 8 114069067.823 8       583.320          50.000    21706635.375 8  87403612.239 8       446.864          50.000
E31  24750091.578 8 130062582.344 8     -1936.035          51.000    24750092.414 8  99658343.898 8     -1483.402          49.000
E33  25036105.062 6 131565620.655 6     -1962.805          38.000    25036106.047 6 100810051.893 6     -1503.976          39.000
> 2020 05 04 12 52  0.0000000  0 17        .000000000000
G18  21132461.516 8 111051898.577 8      2221.816          48.000    21132463.148 7  86533942.606 7      1731.286          45.000
G21  21212351.938 8 111471679.621 8      1770.871          50.000    21212351.438 7  86861059.321 7      1379.900          47.000
G25  22321774.180 6 117301713.925 6     -2773.465          37.000    22321776.570 6  91403921.564 6     -2161.141          37.000
G29  20777333.609 8 109185616.063 8     -1545.770          51.000    20777333.008 8  85079708.954 8     -1204.496          51.000
G31  21249803.828 7 111668474.185 7      -867.824          47.000    21249802.719 7  87014383.362 7      -676.227          47.000
R11  19687581.047 8 105204499.352 8     -2036.629          51.000    19687583.445 8  81825693.483 8     -1584.045          49.000
R21  19957213.047 6 106795054.394 6     -2290.875          38.000    19957212.820 5  83062825.372 5     -1781.789          30.000
R22  19743505.125 8 105392166.912 8      1828.652          51.000    19743507.289 8  81971716.967 8      1422.288          49.000
C05  39630417.258 5 206365982.018 5        21.914          35.000    39630415.336 6 159575259.369 6        16.855          38.000
C11  22965219.438 8 119586007.220 8     -2056.363          48.000    22965219.055 8  92471437.047 8     -1590.104          50.000
C23  22226092.961 8 115737087.681 8     -1241.348          51.000
C25  25099477.875 6 130699523.465 6     -3305.738          41.000
C28  22778229.000 8 118612193.831 8      2048.555          49.000
E12  21644493.109 8 113742599.463 8       747.352          48.000    21644492.555 8  87153426.734 8       572.670          51.000
E24  21703318.758 8 114051706.928 8       574.305          50.000    21703331.430 8  87390309.728 8       440.144          50.000
E31  24761165.656 8 130120777.209 8     -1943.441          51.000    24761166.266 8  99702934.722 8     -1489.118          51.000
E33  25047332.492 6 131624620.876 6     -1970.113          40.000    25047333.508 6 100855259.845 6     -1509.421          39.000
> 2020 05 04 12 52 30.0000000  0 17        .000000000000
G18  21119829.820 8 110985515.773 8      2204.551          49.000    21119831.281 7  86482215.768 7      1717.835          47.000
G21  21202293.781 8 111418823.520 8      1753.789          51.000    21202292.508 7  86819872.762 7      1366.592          46.000
G25  22337639.938 6 117385084.970 6     -2783.305          39.000    22337641.008 6  91468886.004 6     -2168.815          39.000
G29  20786193.617 8 109232175.539 8     -1557.156          51.000    20786193.055 8  85115989.059 8     -1213.365          51.000
G31  21254818.758 7 111694827.246 7      -888.082          46.000    21254817.578 7  87034918.215 7      -692.012          46.000
R11  19699081.586 8 105265952.993 8     -2059.402          51.000    19699083.797 8  81873490.741 8     -1601.757          49.000
R21  19970105.859 6 106864050.585 6     -2307.559          39.000    19970107.227 5  83116489.139 5     -1794.765          33.000
R22  19733290.430 8 105337641.970 8      1807.188          50.000    19733293.086 8  81929308.717 8      1405.590          50.000
C05  39630298.688 5 206365363.839 5        20.559          35.000    39630296.883 6 159574781.778 6        15.692          37.000
C11  22977093.539 7 119647839.070 7     -2064.812          47.000    22977093.344 8  92519249.362 8     -1596.716          49.000
C23  22233294.836 8 115774589.286 8     -1257.770          51.000
C25  25118542.125 6 130798797.022 6     -3311.781          39.000
C28  22766459.586 8 118550914.940 8      2037.598          49.000
E12  21640268.602 7 113720400.902 7       733.453          47.000    21640267.367 8  87136417.443 8       561.955          50.000
E24  21700074.742 8 114034659.644 8       563.016          50.000    21700087.031 8  87377247.525 8       431.396          50.000
E31  24772290.609 8 130179240.113 8     -1953.219          51.000    24772292.023 8  99747730.933 8     -1496.673          51.000
E33  25058609.727 6 131683883.304 6     -1980.016          39.000    25058610.805 6 100900668.697 6     -1516.882          38.000
> 2020 05 04 12 53  0.0000000  0 17        .000000000000
G18  21107290.180 8 110919616.776 8      2188.906          49.000    21107291.586 8  86430865.920 8      1705.641          48.000
G21  21192325.688 8 111366439.982 8      1738.422          51.000    21192323.336 7  86779054.437 7      1354.614          45.000
G25  22353553.969 6 117468709.645 6     -2791.430          41.000    22353555.398 6  91534047.969 6     -2175.143          41.000
G29  20795111.219 8 109279037.351 8     -1566.816          51.000    20795110.688 8  85152504.761 8     -1220.896          51.000
G31  21259941.016 7 111721745.370 7      -906.289          46.000    21259939.977 7  87055893.330 7      -706.202          46.000
R11  19710702.438 8 105328052.276 8     -2080.461          51.000    19710705.180 8  81921790.175 8     -1618.136          48.000
R21  19983086.766 6 106933510.773 6     -2322.930          36.000    19983088.164 5  83170513.705 5     -1806.723          33.000
R22  19723189.711 8 105283724.787 8      1787.430          51.000    19723193.289 8  81887373.130 8      1390.223          50.000
C05  39630180.859 5 206364750.442 5        20.758          35.000    39630179.148 6 159574307.429 6        15.876          37.000
C11  22989009.047 7 119709887.485 7     -2071.480          47.000    22989009.117 8  92567229.143 8     -1601.909          48.000
C23  22240584.383 8 115812545.818 8     -1272.555          51.000
C25  25137633.539 6 130898213.951 6     -3316.070          37.000
C28  22754746.914 8 118489928.715 8      2028.215          50.000
E12  21636116.797 7 113698585.102 7       721.113          46.000    21636115.242 8  87119701.431 8       552.550          51.000
E24  21696888.555 8 114017916.039 8       553.281          51.000    21696900.367 8  87364418.007 8       424.021          50.000
E31  24783464.555 8 130237959.799 8     -1961.316          51.000    24783466.258 8  99792723.924 8     -1502.821          51.000
E33  25069934.547 6 131743395.367 6     -1987.723          37.000    25069935.320 6 100946268.815 6     -1522.866          39.000
> 2020 05 04 12 53 30.0000000  0 17        .000000000000
G18  21094842.898 8 110854203.711 8      2172.898          49.000    21094844.570 8  86379894.747 8      1693.168          49.000
G21  21182447.984 8 111314530.498 8      1722.902          51.000    21182444.625 7  86738605.518 7      1342.521          45.000
G25  22369515.922 7 117552587.219 7     -2799.512          42.000    22369517.938 7  91599407.083 7     -2181.435          42.000
G29  20804086.203 8 109326200.558 8     -1576.551          51.000    20804085.617 8  85189255.318 8     -1228.481          51.000
G31  21265170.867 7 111749228.351 7      -925.035          47.000    21265169.438 7  87077308.624 7      -720.807          47.000
R11  19722442.953 7 105390796.090 7     -2101.699          47.000    19722446.789 7  81970590.926 7     -1634.652          47.000
R21  19996152.195 6 107003431.635 6     -2337.629          39.000    19996153.859 5  83224896.612 5     -1818.159          34.000
R22  19713203.523 8 105230416.297 8      1767.309          51.000    19713207.156 8  81845910.969 8      1374.573          50.000
C05  39630063.797 5 206364140.514 5        20.801          35.000    39630062.234 6 159573836.556 6        15.958          37.000
C11  23000966.195 7 119772151.095 7     -2078.426          47.000    23000966.023 8  92615375.293 8     -1607.249          48.000
C23  22247961.492 8 115850956.991 8     -1287.375          51.000
C25  25156751.961 6 130997772.822 6     -3320.348          38.000
C28  22743091.773 8 118429235.857 8      2018.730          51.000
E12  21632037.719 7 113677152.199 7       708.562          46.000    21632036.625 8  87103278.848 8       542.930          51.000
E24  21693760.391 8 114001477.382 8       543.316          50.000    21693771.805 8  87351822.167 8       416.319          50.000
E31  24794687.469 8 130296936.167 8     -1969.699          51.000    24794689.539 8  99837913.599 8     -1509.286          51.000
E33  25081307.234 6 131803155.792 6     -1995.688          38.000    25081307.016 6 100992059.275 6     -1529.037          39.000
> 2020 05 04 12 54  0.0000000  0 17        .000000000000
G18  21082486.586 8 110789269.673 8      2156.438          50.000    21082488.680 8  86329296.847 8      1680.344          49.000
G21  21172658.938 8 111263087.385 8      1706.891          51.000    21172655.234 7  86698520.024 7      1330.048          45.000
G25  22385523.250 6 117636708.126 6     -2807.996          38.000    22385526.258 6  91664955.784 6     -2188.049          38.000
G29  20813116.586 8 109373654.837 8     -1586.727          51.000    20813115.797 8  85226232.674 8     -1236.410          51.000
G31  21270506.297 7 111777266.184 7      -943.848          47.000    21270504.297 7  87099156.299 7      -735.466          47.000
R11  19734301.477 7 105454174.213 7     -2123.242          46.000    19734307.117 7  82019884.975 7     -1651.414          47.000
R21  20009303.023 6 107073801.279 6     -2352.949          39.000    20009304.672 5  83279628.492 5     -1830.075          35.000
R22  19703329.719 8 105177707.951 8      1746.832          51.000    19703332.953 8  81804915.593 8      1358.647          49.000
C05  39629945.938 5 206363527.320 5        20.934          35.000    39629944.555 6 159573364.398 6        15.955          37.000
C11  23012962.867 7 119834619.701 7     -2085.711          46.000    23012962.344 8  92663679.956 8     -1612.768          48.000
C23  22255423.883 8 115889813.471 8     -1302.602          51.000
C25  25175895.617 6 131097463.191 6     -3325.047          38.000
C28  22731491.891 8 118368828.104 8      2008.816          51.000
E12  21628030.117 7 113656093.265 7       695.750          47.000    21628029.148 8  87087142.802 8       533.113          50.000
E24  21690688.617 8 113985335.835 8       533.102          51.000    21690700.000 8  87339453.973 8       408.445          51.000
E31  24805957.461 8 130356160.065 8     -1978.297          51.000    24805959.562 8  99883292.937 8     -1515.802          51.000
E33  25092725.328 6 131863154.287 6     -2003.934          41.000    25092724.406 6 101038032.128 6     -1535.365          39.000
> 2020 05 04 12 54 30.0000000  0 18        .000000000000
G18  21070217.016 8 110724791.773 8      2142.707          50.000    21070219.180 8  86279054.346 8      1669.645          48.000
G21  21162953.828 8 111212087.194 8      1693.641          51.000    21162950.547 7  86658779.667 7      1319.720          46.000
G25  22401571.656 6 117721046.518 6     -2813.781          40.000    22401575.977 6  91730674.032 6     -2192.557          40.000
G26  21739462.391 5 114241654.855 5      2457.305          33.000
G29  20822197.289 8 109421374.182 8     -1594.008          51.000    20822196.570 8  85263416.579 8     -1242.084          51.000
G31  21275942.414 7 111805833.299 7      -959.961          47.000    21275940.602 7  87121416.374 7      -748.025          47.000
R11  19746275.328 8 105518160.155 8     -2141.875          50.000    19746281.070 8  82069651.796 8     -1665.903          48.000
R21  20022532.148 5 107144591.136 5     -2365.609          34.000    20022533.398 5  83334687.246 5     -1839.918          34.000
R22  19693563.477 8 105125575.050 8      1729.191          51.000    19693566.406 8  81764367.808 8      1344.930          49.000
C05  39629822.539 5 206362884.437 5        22.824          35.000    39629821.258 6 159572868.017 6        17.960          37.000
C11  23024993.680 7 119897267.245 7     -2090.117          45.000    23024993.344 8  92712123.004 8     -1616.260          48.000
C23  22262966.578 8 115929090.061 8     -1315.172          51.000
C25  25195059.805 6 131197258.781 6     -3327.145          38.000
C28  22719941.836 8 118308681.348 8      2001.562          51.000
E12  21624089.305 8 113635383.419 8       685.621          48.000    21624087.750 8  87071274.209 8       525.394          50.000
E24  21687668.805 8 113969467.621 8       525.391          51.000    21687680.484 8  87327295.196 8       402.626          51.000
E31  24817269.570 8 130415606.350 8     -1984.141          51.000    24817272.328 8  99928842.673 8     -1520.286          51.000
E33  25104183.266 6 131923364.466 6     -2009.402          40.000    25104182.789 6 101084167.181 6     -1539.726          39.000
> 2020 05 04 12 55  0.0000000  0 17        .000000000000
G18  21058042.977 8 110660817.300 8      2119.688          49.000    21058044.961 7  86229204.113 7      1651.705          47.000
G21  21153341.773 8 111161576.440 8      1671.102          51.000    21153339.336 7  86619420.688 7      1302.160          47.000
G25  22417670.133 6 117805647.019 6     -2828.551          38.000    22417675.516 6  91796596.504 6     -2204.066          38.000
G29  20831336.742 8 109469402.381 8     -1610.465          51.000    20831336.281 8  85300841.140 8     -1254.908          51.000
G31  21281487.805 7 111834974.038 7      -985.336          47.000    21281486.492 7  87144123.436 7      -767.794          47.000
R11  19758372.430 8 105582798.689 8     -2169.934          51.000    19758377.180 8  82119926.191 8     -1687.726          49.000
R21  20035846.531 6 107215844.151 6     -2387.191          37.000    20035848.055 5  83390106.305 5     -1856.704          34.000
R22  19683913.758 8 105074064.454 8      1702.281          51.000    19683916.812 8  81724304.031 8      1323.997          50.000
C05  39629702.234 5 206362257.768 5        16.441          35.000    39629701.086 6 159572384.237 6        12.587          37.000
C11  23037067.008 7 119960137.123 7     -2103.660          45.000    23037067.180 7  92760737.989 7     -1626.717          47.000
C23  22270598.141 8 115968831.141 8     -1336.715          51.000
C25  25214252.648 6 131297202.910 6     -3338.301          36.000
C28  22708449.805 8 118248841.067 8      1985.188          51.000
E12  21620223.500 8 113615067.901 8       666.250          48.000    21620221.891 8  87055707.800 8       510.440          51.000
E24  21684709.781 8 113953919.144 8       508.516          51.000    21684721.945 8  87315381.430 8       389.642          51.000
E31  24828632.234 8 130475320.158 8     -1999.336          51.000    24828636.125 8  99974597.388 8     -1531.992          51.000
E33  25115689.320 6 131983830.252 6     -2024.426          37.000    25115690.352 6 101130498.090 6     -1551.216          39.000
> 2020 05 04 12 55 30.0000000  0 17        .000000000000
G18  21045973.234 8 110597391.175 8      2108.734          49.000    21045974.617 7  86179781.194 7      1643.170          47.000
G21  21143831.172 8 111111599.208 8      1660.688          51.000    21143829.625 7  86580477.422 7      1294.045          47.000
G25  22433826.938 6 117890552.106 6     -2831.621          37.000    22433832.219 6  91862756.288 6     -2206.461          37.000
G29  20840542.969 8 109517781.500 8     -1614.824          51.000    20840542.688 8  85338539.131 8     -1258.305          51.000
G31  21287150.359 7 111864730.597 7      -998.605          47.000    21287149.328 7  87167310.347 7      -778.134          47.000
R11  19770599.523 8 105648132.140 8     -2185.723          51.000    19770603.531 8  82170741.083 8     -1700.010          49.000
R21  20049255.070 5 107287601.087 5     -2396.523          35.000    20049257.602 5  83445917.291 5     -1863.960          32.000
R22  19674388.703 8 105023220.132 8      1687.426          51.000    19674392.594 8  81684758.447 8      1312.445          51.000
C05  39629593.406 5 206361691.216 5        21.766          35.000    39629592.250 6 159571946.120 6        16.516          37.000
C11  23049191.031 7 120023270.585 7     -2105.398          45.000    23049191.500 7  92809556.787 7     -1627.961          46.000
C23  22278327.203 8 116009078.738 8     -1346.379          51.000
C25  25233481.273 5 131397336.573 5     -3337.688          34.000
C28  22697025.047 8 118189350.370 8      1980.789          51.000
E12  21616441.000 8 113595189.780 8       658.859          49.000    21616439.914 8  87040476.534 8       504.933          51.000
E24  21681819.992 8 113938734.550 8       503.566          51.000    21681832.586 8  87303746.467 8       385.933          51.000
E31  24840053.984 8 130535344.179 8     -2002.391          51.000    24840058.969 8 100020589.810 8     -1534.308          51.000
E33  25127251.914 6 132044593.111 6     -2026.867          37.000    25127254.523 6 101177056.658 6     -1552.886          39.000
> 2020 05 04 12 56  0.0000000  0 17        .000000000000
G18  21033988.156 8 110534408.841 8      2089.988          50.000    21033988.758 8  86130704.073 8      1628.562          48.000
G21  21134402.117 8 111062050.007 8      1642.527          51.000    21134401.203 7  86541867.673 7      1279.891          46.000
G25  22450021.492 6 117975654.208 6     -2842.055          37.000    22450024.727 6  91929069.608 6     -2214.588          37.000
G29  20849795.383 8 109566403.439 8     -1626.734          51.000    20849795.039 8  85376426.328 8     -1267.585          51.000
G31  21292909.422 7 111894995.598 7     -1019.164          47.000    21292908.500 7  87190893.457 7      -794.154          46.000
R11  19782936.164 8 105714051.047 8     -2209.105          51.000    19782939.500 8  82222011.344 8     -1718.193          49.000
R21  20062736.570 6 107359750.348 6     -2413.660          39.000    20062740.031 4  83502033.442 4     -1877.288          27.000
R22  19664967.664 8 104972934.750 8      1664.848          51.000    19664973.188 8  81645647.601 8      1294.882          51.000
C05  39629475.711 5 206361078.270 5        19.191          35.000    39629474.500 6 159571472.121 6        15.190          37.000
C11  23061345.305 7 120086560.680 7     -2114.293          44.000    23061345.547 7  92858496.687 7     -1634.788          44.000
C23  22286133.133 8 116049726.806 8     -1363.660          51.000
C25  25252725.789 5 131497552.456 5     -3343.527          34.000
C28  22685647.828 8 118130104.230 8      1968.863          51.000
E12  21612721.602 8 113575642.439 8       644.195          49.000    21612720.641 8  87025498.709 8       493.562          51.000
E24  21678979.508 8 113923808.340 8       491.234          51.000    21678992.242 8  87292309.493 8       376.457          51.000
E31  24851514.469 8 130595571.655 8     -2012.902          49.000    24851520.297 8 100066738.130 8     -1542.306          51.000
E33  25138850.805 6 132105545.166 6     -2036.855          38.000    25138853.766 6 101223760.173 6     -1560.606          38.000
> 2020 05 04 12 56 30.0000000  0 17        .000000000000
G18  21022099.391 8 110471932.150 8      2074.148          51.000    21022099.422 7  86082020.967 7      1616.223          47.000
G21  21125066.094 8 111012990.009 8      1627.195          51.000    21125065.523 7  86503639.126 7      1267.944          46.000
G25  22466264.031 5 118061012.632 5     -2849.676          34.000    22466264.328 5  91995582.624 5     -2220.530          34.000
G29  20859105.258 8 109615327.060 8     -1635.770          51.000    20859104.812 8  85414548.612 8     -1274.626          51.000
G31  21298776.352 7 111925828.103 7     -1037.156          47.000    21298775.117 7  87214918.777 7      -808.174          47.000
R11  19795393.305 8 105780614.835 8     -2229.469          51.000    19795395.883 8  82273783.169 8     -1734.031          48.000
R21  20076303.906 6 107432349.915 6     -2427.160          39.000
R22  19655663.750 8 104923269.572 8      1645.281          51.000    19655669.500 8  81607019.149 8      1279.663          51.000
C05  39629360.344 5 206360477.517 5        19.934          35.000    39629359.359 6 159571008.372 6        15.414          37.000
C11  23073540.859 7 120150065.470 7     -2120.266          44.000    23073540.539 7  92907602.594 7     -1639.596          43.000
C23  22294027.312 8 116090834.141 8     -1377.836          51.000
C25  25271997.922 5 131597908.504 5     -3347.461          34.000
C28  22674328.766 8 118071162.596 8      1959.762          51.000
E12  21609076.312 8 113556485.782 8       632.129          49.000    21609075.352 8  87010820.234 8       484.326          51.000
E24  21676199.875 8 113909201.574 8       481.617          51.000    21676212.641 8  87281117.308 8       369.031          51.000
E31  24863024.852 8 130656062.297 8     -2020.672          49.000    24863031.180 8 100113088.087 8     -1548.295          51.000
E33  25150496.602 6 132166744.912 6     -2044.102          38.000    25150498.695 6 101270653.490 6     -1566.517          37.000
> 2020 05 04 12 57  0.0000000  0 17        .000000000000
G18  21010304.273 8 110409947.316 8      2058.543          51.000    21010303.961 8  86033721.120 8      1604.059          48.000
G21  21115820.320 8 110964405.141 8      1612.133          49.000    21115819.711 7  86465780.788 7      1256.207          46.000
G25  22482553.070 6 118146610.819 6     -2856.816          38.000    22482553.172 6  92062282.468 6     -2226.094          37.000
G29  20868469.406 8 109664535.448 8     -1644.465          51.000    20868468.906 8  85452892.786 8     -1281.404          51.000
G31  21304748.094 7 111957211.462 7     -1054.680          46.000    21304746.703 7  87239373.350 7      -821.831          47.000
R11  19807968.023 8 105847806.158 8     -2249.566          51.000    19807969.445 7  82326043.075 7     -1749.663          46.000
R21  20089952.852 5 107505380.684 5     -2441.047          31.000    20089957.047 4  83615306.330 4     -1898.595          26.000
R22  19646473.805 8 104874209.290 8      1625.844          51.000    19646478.781 8  81568861.183 8      1264.545          51.000
C05  39629244.766 5 206359876.557 5        20.773          35.000    39629243.914 6 159570542.874 6        16.148          37.000
C11  23085774.312 7 120213767.966 7     -2126.184          44.000    23085773.523 7  92956861.355 7     -1644.163          43.000
C23  22302007.070 8 116132384.640 8     -1391.859          51.000
C25  25291295.383 5 131698387.379 5     -3350.363          35.000
C28  22663064.930 8 118012510.423 8      1950.797          51.000
E12  21605502.281 8 113537704.057 8       620.352          48.000    21605501.594 8  86996429.052 8       475.313          51.000
E24  21673478.141 8 113894899.666 8       472.238          51.000    21673491.055 8  87270158.693 8       361.830          51.000
E31  24874582.711 8 130716800.107 8     -2028.121          50.000    24874589.102 8 100159627.434 8     -1554.015          51.000
E33  25162185.953 5 132228175.240 5     -2051.277          35.000    25162186.984 6 101317723.403 6     -1571.557          36.000
> 2020 05 04 12 57 30.0000000  0 17        .000000000000
G18  20998602.805 8 110348454.738 8      2041.660          51.000    20998602.266 8  85985804.856 8      1590.904          49.000
G21  21106664.688 8 110916294.229 8      1595.863          49.000    21106663.977 7  86428291.782 7      1243.530          46.000
G25  22498888.094 6 118232446.646 6     -2865.395          39.000    22498889.391 6  92129167.488 6     -2232.778          38.000
G29  20877887.141 8 109714025.663 8     -1654.324          51.000    20877886.555 8  85491456.574 8     -1289.084          51.000
G31  21310824.203 8 111989143.123 8     -1073.445          48.000    21310823.195 7  87264255.138 7      -836.451          47.000
R11  19820659.461 8 105915621.939 8     -2270.891          51.000    19820659.773 7  82378788.632 7     -1766.248          46.000
R21  20103679.617 5 107578837.862 5     -2455.379          32.000
R22  19637397.094 8 104825752.734 8      1605.191          51.000    19637401.281 8  81531172.764 8      1248.482          51.000
C05  39629128.516 5 206359271.029 5        20.547          35.000    39629127.602 6 159570074.628 6        15.988          38.000
C11  23098045.094 7 120277665.230 7     -2133.156          43.000    23098044.141 7  93006270.747 7     -1649.332          44.000
C23  22310071.523 8 116174376.195 8     -1406.949          51.000
C25  25310616.320 5 131798986.108 5     -3354.223          30.000
C28  22651857.031 8 117954146.778 8      1940.711          51.000
E12  21601999.547 8 113519295.716 8       607.449          49.000    21601998.750 8  86982323.969 8       465.484          51.000
E24  21670814.406 8 113880902.210 8       461.641          51.000    21670827.297 8  87259433.367 8       353.683          51.000
E31  24886187.469 8 130777783.323 8     -2036.754          50.000    24886192.914 8 100206354.841 8     -1560.621          51.000
E33  25173918.078 5 132289834.059 5     -2059.297          34.000    25173918.906 6 101364967.765 6     -1577.589          36.000
> 2020 05 04 12 58  0.0000000  0 17        .000000000000
G18  20986995.930 8 110287459.878 8      2025.426          51.000    20986995.227 8  85938276.407 8      1578.254          49.000
G21  21097600.461 8 110868662.215 8      1580.336          50.000    21097599.391 7  86391175.937 7      1231.431          45.000
G25  22515268.609 7 118318522.854 7     -2872.793          42.000    22515270.148 7  92196239.786 7     -2238.540          42.000
G29  20887358.898 8 109763800.250 8     -1663.305          51.000    20887358.156 8  85530241.951 8     -1296.085          51.000
G31  21317005.539 8 112021625.790 8     -1091.363          49.000    21317005.234 8  87289566.289 8      -850.413          48.000
R11  19833467.977 8 105984064.537 8     -2291.238          51.000    19833467.742 7  82432021.697 7     -1782.077          47.000
R21  20117486.516 5 107652722.062 5     -2469.160          33.000
R22  19628434.250 8 104777904.180 8      1585.336          51.000    19628437.586 8  81493957.230 8      1233.039          51.000
C05  39629012.234 5 206358665.189 5        20.328          35.000    39629011.305 6 159569606.508 6        16.208          37.000
C11  23110353.695 7 120341759.511 7     -2139.289          43.000    23110353.000 7  93055832.505 7     -1654.062          44.000
C23  22318221.078 8 116216811.801 8     -1421.379          51.000
C25  25329960.000 5 131899746.712 5     -3359.145          30.000
C28  22640705.422 8 117896075.685 8      1931.320          51.000
E12  21598568.453 8 113501264.265 8       595.301          49.000    21598567.242 8  86968507.663 8       456.187          51.000
E24  21668209.656 8 113867213.848 8       451.676          51.000    21668222.469 8  87248944.877 8       346.119          51.000
E31  24897839.891 8 130839015.279 8     -2044.613          51.000    24897843.852 8 100253272.798 8     -1566.598          50.000
E33  25185695.438 6 132351721.706 6     -2066.102          38.000    25185694.852 5 101412388.209 5     -1583.219          34.000
> 2020 05 04 12 58 30.0000000  0 17        .000000000000
G18  20975482.906 8 110226959.062 8      2008.203          50.000    20975481.930 8  85891132.919 8      1564.834          48.000
G21  21088626.844 8 110821504.517 8      1563.879          51.000    21088625.016 7  86354429.713 7      1218.610          46.000
G25  22531693.867 6 118404832.988 6     -2881.199          41.000    22531695.203 6  92263494.460 6     -2245.090          40.000
G29  20896883.391 8 109813852.249 8     -1673.168          51.000    20896882.688 8  85569243.496 8     -1303.767          51.000
G31  21323290.734 8 112054653.368 8     -1110.148          48.000    21323291.344 8  87315302.040 8      -865.054          48.000
R11  19846391.883 8 106053126.921 8     -2312.574          51.000    19846392.148 8  82485736.833 8     -1798.669          48.000
R21  20131371.891 5 107727024.785 5     -2483.816          35.000    20131378.250 4  83787706.230 4     -1931.860          25.000
R22  19619584.008 8 104730658.270 8      1564.645          51.000    19619586.336 8  81457210.460 8      1216.946          51.000
C05  39628894.969 5 206358055.027 5        20.531          35.000    39628894.070 6 159569134.322 6        15.640          37.000
C11  23122698.789 7 120406043.962 7     -2145.840          43.000    23122698.570 7  93105541.316 7     -1659.435          44.000
C23  22326454.672 8 116259685.267 8     -1436.562          51.000
C25  25349325.289 5 132000581.761 5     -3362.293          31.000
C28  22629608.578 8 117838292.168 8      1921.172          51.000
E12  21595207.727 8 113483604.064 8       582.336          48.000    21595206.508 8  86954975.822 8       446.241          51.000
E24  21665662.883 8 113853830.112 8       440.910          51.000    21665675.781 8  87238689.804 8       337.837          51.000
E31  24909538.703 8 130900490.179 8     -2053.344          51.000    24909540.961 8 100300376.903 8     -1573.359          49.000
E33  25197514.867 6 132413832.222 6     -2074.172          39.000    25197513.594 5 101459979.344 5     -1589.360          34.000
> 2020 05 04 12 59  0.0000000  0 17        .000000000000
G18  20964066.281 8 110166965.540 8      1992.215          49.000    20964065.461 8  85844384.704 8      1552.375          49.000
G21  21079745.969 8 110774833.690 8      1548.492          51.000    21079743.867 8  86318062.879 8      1206.620          48.000
G25  22548164.781 6 118491387.761 6     -2888.324          38.000    22548166.477 6  92330939.650 6     -2250.645          39.000
G29  20906462.656 8 109864192.132 8     -1681.902          51.000    20906462.148 8  85608469.364 8     -1310.573          51.000
G31  21329681.438 8 112088235.418 8     -1127.633          49.000    21329682.492 8  87341469.875 8      -878.675          48.000
R11  19859433.398 8 106122818.942 8     -2332.590          51.000    19859434.273 8  82539941.741 8     -1814.237          49.000
R21  20145336.469 6 107801754.227 6     -2497.199          36.000
R22  19610848.352 8 104684027.281 8      1545.090          51.000    19610850.000 8  81420941.923 8      1201.734          50.000
C05  39628778.953 5 206357450.593 5        21.211          35.000    39628778.016 6 159568666.912 6        16.308          37.000
C11  23135082.438 7 120470528.447 7     -2152.066          43.000    23135082.344 7  93155404.832 7     -1663.897          43.000
C23  22334774.102 8 116303007.267 8     -1450.664          51.000
C25  25368713.938 5 132101541.126 5     -3365.871          33.000
C28  22618568.766 8 117780808.009 8      1912.105          51.000
E12  21591919.703 8 113466326.401 8       570.422          48.000    21591918.969 8  86941737.099 8       437.151          51.000
E24  21663176.484 8 113840763.451 8       431.184          51.000    21663189.414 8  87228677.679 8       330.411          51.000
E31  24921285.758 8 130962219.064 8     -2060.867          50.000    24921287.406 8 100347675.618 8     -1579.148          50.000
E33  25209378.555 6 132476175.505 6     -2081.055          38.000    25209377.758 5 101507748.776 5     -1594.332          34.000
> 2020 05 04 12 59 30.0000000  0 17        .000000000000
G18  20952744.547 8 110107470.771 8      1974.676          49.000    20952744.242 8  85798025.158 8      1538.708          49.000
G21  21070955.961 8 110728640.386 8      1531.574          51.000    21070954.055 8  86282068.135 8      1193.434          49.000
G25  22564679.438 6 118578175.947 6     -2897.070          39.000    22564681.758 6  92398566.742 6     -2257.457          40.000
G29  20916094.461 8 109914808.100 8     -1692.035          51.000    20916094.125 8  85647910.375 8     -1318.469          51.000
G31  21336175.531 8 112122361.113 8     -1146.754          49.000    21336176.414 8  87368061.330 8      -893.574          49.000
R11  19872590.453 8 106193128.677 8     -2354.129          51.000    19872592.070 8  82594627.099 8     -1830.989          49.000
R21  20159378.914 6 107876896.903 6     -2511.836          41.000    20159385.547 4  83904268.250 4     -1953.647          27.000
R22  19602225.695 8 104638000.713 8      1523.852          51.000    19602227.734 8  81385143.490 8      1185.218          50.000
C05  39628662.125 5 206356841.358 5        19.754          35.000    39628661.164 6 159568196.547 6        15.659          38.000
C11  23147502.352 7 120535201.375 7     -2159.035          43.000    23147502.133 7  93205414.037 7     -1669.572          43.000
C23  22343177.203 8 116346766.970 8     -1466.230          51.000
C25  25388125.094 5 132202631.977 5     -3371.461          31.000
C28  22607584.750 8 117723613.521 8      1901.348          51.000
E12  21588702.438 8 113449420.895 8       557.102          48.000    21588702.109 8  86928783.544 8       426.855          51.000
E24  21660748.688 8 113828004.640 8       419.906          51.000    21660761.664 8  87218901.446 8       321.791          51.000
E31  24933078.773 8 131024191.349 8     -2070.066          50.000    24933080.578 8 100395160.859 8     -1586.020          50.000
E33  25221284.727 6 132538739.735 6     -2089.488          36.000    25221285.297 5 101555687.586 5     -1600.740          35.000
