     3.02           OBSERVATION DATA    M (MIXED)           RINEX VERSION / TYPE
SAVERINEX           SC600               20200512 145931 LCL PGM / RUN BY / DATE
       G = GPS       R = GLONASS       C = COMPASS          COMMENT
       S = SBAS      J = QZSS          E = GALILEO          COMMENT
BEAN                                                        MARKER NAME
1                                                           MARKER NUMBER
GEODETIC                                                    MARKER TYPE
Unige DICCA         GTER                                    OBSERVER / AGENCY
SC60291900056       SC600               2.12(191226)        REC # / TYPE / VERS
                    HEMA45          NONE                    ANT # / TYPE
  4509407.8091   693652.4678  4442337.6214                  APPROX POSITION XYZ
        0.0000        0.0000        0.0000                  ANTENNA: DELTA H/E/N
G    8 C1C L1C D1C S1C C2Y L2Y D2Y S2Y                      SYS / # / OBS TYPES
R    8 C1C L1C D1C S1C C2P L2P D2P S2P                      SYS / # / OBS TYPES
C    8 C1I L1I D1I S1I C7I L7I D7I S7I                      SYS / # / OBS TYPES
E    8 C1C L1C D1C S1C C7Q L7Q D7Q S7Q                      SYS / # / OBS TYPES
DBHZ                                                        COMMENT
     30.000                                                 INTERVAL
  2020    05    12    12    00    0.0000000     GPS         TIME OF FIRST OBS
  2020    05    12    12    59   30.0000000     GPS         TIME OF LAST OBS
     0                                                      RCV CLOCK OFFS APPL
G L1C  0.00000                                              SYS / PHASE SHIFT
G L2Y  0.00000                                              SYS / PHASE SHIFT
R L1C  0.00000                                              SYS / PHASE SHIFT
R L2P  0.25000                                              SYS / PHASE SHIFT
C L1I  0.00000                                              SYS / PHASE SHIFT
C L7I  0.00000                                              SYS / PHASE SHIFT
E L1C  0.50000                                              SYS / PHASE SHIFT
E L7Q -0.25000                                              SYS / PHASE SHIFT
 14 R05  1 R06 -4 R07  5 R08  6 R09 -2 R10 -7 R11  0 R12 -1 GLONASS SLOT / FRQ #
    R16 -1 R19  3 R20  2 R21  4 R22 -3 R23  3               GLONASS SLOT / FRQ #
 C1C   71.950 C2C   71.950 C2P   71.950                     GLONASS COD/PHS/BIS
    18                                                      LEAP SECONDS
*** Above antenna height is from mark to ANTENNA BOTTOM.    COMMENT
    17     4        0.0000        ANT MEASURE TYPE/HEIGT    COMMENT
    0.0000    0.0000    0.0458    0.0405    0.0000          COMMENT
                    BASE STATION                            COMMENT
                                                            END OF HEADER
> 2020 05 12 12 00  0.0000000  0 18        .000000000000
G18  21820056.156 8 114665233.399 8      2909.023          50.000    21820057.812 7  89349514.488 7      2266.772          47.000
G21  21822537.008 8 114678265.489 8      2496.246          48.000    21822537.281 7  89359661.947 7      1945.127          45.000
G25  21780173.602 7 114455566.667 7     -2450.074          43.000    21780175.438 7  89186168.385 7     -1909.149          43.000
G26  22367946.523 5 117544304.354 5      2738.125          34.000    22367937.383 5  91592967.555 5      2133.598          33.000
G29  20491491.906 8 107683516.876 8     -1142.363          51.000    20491491.094 8  83909238.392 8      -890.150          51.000
G31  21133541.523 6 111057542.926 6      -156.977          39.000    21133538.188 6  86538308.056 6      -122.319          39.000
R10  23124914.859 5 123268759.385 5     -4024.641          35.000
R11  19334945.602 8 103320101.931 8     -1174.840          51.000    19334948.008 8  80360041.801 8      -913.764          49.000
R21  19526177.062 7 104488515.730 7     -1605.383          47.000    19526178.859 7  81268890.584 7     -1248.631          44.000
R22  20226193.273 8 107968786.057 8      2588.219          51.000    20226199.156 8  83975750.355 8      2013.059          50.000
C11  22441490.156 8 116858747.500 8      1624.434          49.000    22441490.984 8  90362621.130 8      1256.200          51.000
C12  21968905.578 8 114397931.212 8     -1398.203          51.000    21968905.117 8  88459758.961 8     -1081.098          51.000
C24  24036568.031 8 125164785.720 8     -2915.953          50.000
C25  21966815.492 8 114386975.264 8      -108.176          51.000
E13  23901673.562 8 125604148.531 8      1800.227          51.000    23901676.508 8  96242161.350 8      1379.448          51.000
E15  23704681.414 8 124568953.926 8     -1080.141          51.000    23704684.094 7  95448949.937 7      -827.538          43.000
E27  23647439.406 8 124268124.212 8     -1147.625          51.000    23647442.492 8  95218441.786 8      -879.325          51.000
E30  26439940.898 5 138942826.659 5     -2688.312          34.000
> 2020 05 12 12 00 30.0000000  0 17        .000000000000
G18  21803496.000 8 114578209.396 8      2885.414          48.000    21803497.547 7  89281703.566 7      2248.375          46.000
G21  21808335.008 8 114603630.766 8      2472.066          50.000    21808334.352 7  89301505.052 7      1926.286          44.000
G25  21794198.492 7 114529267.408 7     -2470.395          43.000    21794200.180 7  89243597.508 7     -1924.983          42.000
G29  20498058.312 8 107718023.903 8     -1165.258          51.000    20498057.586 8  83936126.984 8      -907.993          51.000
G31  21134503.227 6 111062596.017 6      -186.902          39.000    21134498.594 6  86542245.533 6      -145.635          39.000
R10  23147592.969 5 123389653.343 5     -4042.879          34.000
R11  19341615.242 8 103355743.940 8     -1208.586          50.000    19341618.062 8  80387763.335 8      -940.011          49.000
R21  19535242.352 8 104537027.794 8     -1636.227          48.000    19535244.398 7  81306622.165 7     -1272.624          45.000
R22  20211711.578 8 107891479.274 8      2558.129          51.000    20211716.789 8  83915622.843 8      1989.656          50.000
C11  22432175.070 8 116810242.423 8      1602.105          48.000    22432175.930 8  90325113.961 8      1238.753          51.000
C12  21977001.695 8 114440090.454 8     -1419.535          51.000    21977001.484 8  88492359.156 8     -1097.693          51.000
C24  24053401.648 8 125252443.197 8     -2935.023          49.000
C25  21967494.875 8 114390513.901 8      -134.914          51.000
E13  23891439.180 8 125550368.819 8      1777.902          51.000    23891442.938 8  96200953.524 8      1362.271          51.000
E15  23710892.242 8 124601592.015 8     -1103.027          51.000    23710894.406 7  95473958.329 7      -845.048          42.000
E27  23654029.789 8 124302756.156 8     -1168.305          51.000    23654032.688 8  95244977.940 8      -895.200          51.000
E30  26455309.609 6 139023589.316 6     -2703.094          37.000
> 2020 05 12 12 01  0.0000000  0 17        .000000000000
G18  21787001.086 7 114491531.157 7      2885.141          47.000    21787002.836 7  89214162.054 7      2248.162          45.000
G21  21794202.500 8 114529360.315 8      2471.188          51.000    21794201.164 7  89243632.004 7      1925.601          44.000
G25  21808271.039 7 114603218.251 7     -2467.418          42.000    21808272.398 7  89301221.507 7     -1922.663          42.000
G29  20504686.484 8 107752855.530 8     -1164.832          51.000    20504685.859 8  83963268.494 8      -907.661          51.000
G31  21135569.156 6 111068200.546 6      -194.141          37.000    21135566.133 6  86546612.657 6      -151.281          36.000
R10  23170306.734 5 123510735.300 5     -4037.777          33.000
R11  19348404.844 8 103392029.875 8     -1218.742          50.000    19348408.312 8  80415985.704 8      -947.911          48.000
R21  19544412.008 7 104586093.804 7     -1643.113          45.000    19544413.773 7  81344784.615 7     -1277.974          44.000
R22  20197330.336 8 107814707.371 8      2551.789          51.000    20197334.320 8  83855911.361 8      1984.725          48.000
C11  22422920.680 8 116762052.558 8      1602.629          50.000    22422921.500 8  90287850.501 8      1239.294          51.000
C12  21985152.203 8 114482532.198 8     -1417.852          51.000    21985152.062 8  88525177.787 8     -1096.303          51.000
C24  24070275.844 8 125340313.861 8     -2930.977          48.000
C25  21968259.656 8 114394497.594 8      -138.660          51.000
E13  23881263.547 8 125496898.084 8      1778.812          51.000    23881267.508 8  96159982.447 8      1363.034          51.000
E15  23717164.734 8 124634554.307 8     -1102.578          51.000    23717166.141 6  95499215.164 6      -844.740          41.000
E27  23660669.258 8 124337646.502 8     -1165.664          51.000    23660672.141 8  95271712.096 8      -893.177          51.000
E30  26470692.844 6 139104426.046 6     -2694.273          37.000
> 2020 05 12 12 01 30.0000000  0 18        .000000000000
G18  21770552.469 7 114405096.693 7      2876.375          45.000    21770554.320 7  89146810.503 7      2241.331          44.000
G21  21780119.773 8 114455351.308 8      2461.832          51.000    21780117.969 7  89185962.692 7      1918.314          44.000
G25  21822370.836 7 114677314.074 7     -2473.059          43.000    21822372.586 7  89358958.456 7     -1927.059          43.000
G26  22321184.828 5 117298594.992 5      2726.742          32.000    22321174.859 5  91401483.235 5      2124.722          31.000
G29  20511356.188 8 107787905.911 8     -1172.613          50.000    20511355.742 8  83990580.467 8      -913.725          50.000
G31  21136720.430 6 111074251.853 6      -210.219          37.000    21136718.422 6  86551327.953 6      -163.804          36.000
R10  23193036.695 6 123631897.536 6     -4041.016          37.000
R11  19355295.109 8 103428853.096 8     -1237.148          50.000    19355299.172 8  80444625.994 8      -962.227          49.000
R21  19553663.711 7 104635604.710 7     -1658.438          47.000    19553665.727 7  81383293.104 7     -1289.896          44.000
R22  20183028.945 8 107738365.861 8      2536.754          49.000    20183032.250 7  83796534.635 7      1973.031          47.000
C11  22413707.383 8 116714074.490 8      1595.086          51.000    22413707.719 8  90250750.811 8      1233.349          51.000
C12  21993336.742 8 114525151.421 8     -1424.328          51.000    21993336.609 8  88558133.646 8     -1101.333          51.000
C24  24087170.664 8 125428292.654 8     -2935.301          48.000
C25  21969090.383 8 114398823.182 8      -150.535          51.000
E13  23871127.469 8 125443632.472 8      1771.375          51.000    23871130.719 8  96119168.553 8      1357.305          51.000
E15  23723478.891 8 124667735.114 8     -1110.391          51.000    23723480.359 7  95524639.460 7      -850.897          42.000
E27  23667338.055 8 124372690.914 8     -1171.387          51.000    23667340.930 8  95298564.300 8      -897.634          51.000
E30  26486070.812 6 139185236.770 6     -2693.938          38.000
> 2020 05 12 12 02  0.0000000  0 17        .000000000000
G18  21754194.156 8 114319133.681 8      2850.777          48.000    21754195.477 7  89079826.358 7      2221.388          43.000
G21  21766129.922 8 114381831.486 8      2435.715          51.000    21766127.633 7  89128674.569 7      1897.960          44.000
G25  21836541.250 7 114751779.289 7     -2495.031          43.000    21836543.117 7  89416983.279 7     -1944.180          44.000
G29  20518110.180 8 107823398.772 8     -1197.227          50.000    20518109.625 8  84018237.226 8      -932.904          50.000
G31  21137999.422 6 111080975.037 6      -242.309          36.000    21137998.008 6  86556566.791 6      -188.809          36.000
R10  23215823.867 5 123753365.677 5     -4061.164          34.000
R11  19362329.203 8 103466442.562 8     -1272.617          51.000    19362333.805 8  80473862.198 8      -989.813          49.000
R21  19563041.664 7 104685786.796 7     -1690.719          46.000    19563043.656 7  81422323.587 7     -1315.003          43.000
R22  20168850.203 8 107662685.017 8      2504.840          49.000    20168853.844 7  83737671.761 7      1948.209          46.000
C11  22404577.961 8 116666531.703 8      1570.824          51.000    22404577.484 8  90213987.685 8      1214.682          51.000
C12  22001597.852 8 114568169.659 8     -1447.316          51.000    22001597.797 8  88591398.070 8     -1119.151          51.000
C24  24104129.430 8 125516601.222 8     -2955.703          50.000
C25  21970029.844 8 114403714.314 8      -179.094          51.000
E13  23861073.766 8 125390797.891 8      1747.238          51.000    23861076.109 8  96078684.921 8      1338.811          51.000
E15  23729877.211 8 124701358.491 8     -1134.914          51.000    23729878.828 7  95550402.827 7      -869.684          42.000
E27  23674079.172 8 124408114.736 8     -1193.922          51.000    23674081.383 8  95325707.215 8      -914.778          51.000
E30  26501485.453 6 139266246.093 6     -2710.703          37.000    26501485.969 5 106710501.751 5     -2076.832          32.000
> 2020 05 12 12 02 30.0000000  0 17        .000000000000
G18  21737925.523 8 114233639.468 8      2847.363          49.000    21737925.289 7  89013207.551 7      2218.728          43.000
G21  21752232.102 8 114308797.476 8      2431.668          51.000    21752229.734 7  89071764.988 7      1894.809          45.000
G25  21850780.781 7 114826608.171 7     -2495.098          43.000    21850782.430 7  89475291.463 7     -1944.232          43.000
G29  20524947.203 8 107859327.686 8     -1199.504          51.000    20524946.484 8  84046233.774 8      -934.678          51.000
G31  21139405.062 6 111088365.497 6      -252.090          37.000    21139405.734 6  86562325.574 6      -196.437          37.000
R10  23238683.250 5 123875263.531 5     -4059.066          30.000
R11  19369506.375 8 103504792.815 8     -1285.562          51.000    19369510.516 8  80503690.167 8      -999.882          49.000
R21  19572543.016 7 104736631.832 7     -1700.387          46.000    19572544.812 7  81461869.736 7     -1322.523          42.000
R22  20154795.789 8 107587661.051 8      2495.285          51.000    20154798.727 8  83679319.805 8      1940.777          48.000
C11  22395531.000 8 116619419.235 8      1568.578          51.000    22395529.953 8  90177557.350 8      1213.000          51.000
C12  22009934.453 8 114611580.447 8     -1448.172          51.000    22009934.352 8  88624966.043 8     -1119.864          51.000
C24  24121150.586 8 125605233.016 8     -2954.352          50.000
C25  21971076.812 8 114409166.254 8      -185.805          50.000
E13  23851101.172 8 125338389.879 8      1745.195          51.000    23851102.938 8  96038528.138 8      1337.192          51.000
E15  23736358.445 8 124735417.967 8     -1137.176          50.000    23736359.586 7  95576500.353 7      -871.307          42.000
E27  23680891.727 8 124443913.000 8     -1194.148          51.000    23680892.977 8  95353137.034 8      -915.006          51.000
E30  26516936.516 6 139347448.315 6     -2704.824          37.000    26516939.906 5 106772721.557 5     -2072.528          35.000
> 2020 05 12 12 03  0.0000000  0 17        .000000000000
G18  21721712.531 8 114148437.820 8      2833.391          49.000    21721711.453 7  88946816.702 7      2207.837          44.000
G21  21738392.781 8 114236072.242 8      2417.324          51.000    21738390.953 7  89015096.022 7      1883.632          46.000
G25  21865055.242 6 114901621.260 6     -2505.352          41.000    21865057.023 6  89533743.160 6     -1952.225          41.000
G29  20531832.984 8 107895512.456 8     -1212.227          51.000    20531832.414 8  84074429.697 8      -944.592          51.000
G31  21140904.414 6 111096243.401 6      -272.758          38.000    21140906.766 6  86568464.218 6      -212.539          37.000
R10  23261546.695 4 123997132.683 4     -4065.965          29.000
R11  19376791.867 8 103543721.607 8     -1309.121          51.000    19376795.672 8  80533968.090 8     -1018.205          49.000
R21  19582133.898 7 104787955.004 7     -1720.520          45.000    19582136.242 7  81501787.759 7     -1338.182          43.000
R22  20140831.609 8 107513114.033 8      2475.141          51.000    20140833.844 8  83621338.812 8      1925.109          49.000
C11  22386532.344 8 116572560.306 8      1556.004          50.000    22386531.102 8  90141323.071 8      1203.144          51.000
C12  22018312.320 8 114655205.134 8     -1459.480          51.000    22018311.938 8  88658699.403 8     -1128.554          51.000
C24  24138199.219 8 125694009.423 8     -2963.363          50.000
C25  21972197.422 8 114415002.278 8      -202.586          49.000
E13  23841175.594 8 125286230.391 8      1732.691          51.000    23841177.328 8  95998561.771 8      1327.653          51.000
E15  23742888.492 8 124769733.616 8     -1149.926          50.000    23742889.883 7  95602794.170 7      -881.064          42.000
E27  23687741.656 8 124479907.078 8     -1204.887          51.000    23687742.602 8  95380716.867 8      -923.234          50.000
E30  26532390.641 6 139428664.013 6     -2708.715          38.000    26532396.242 6 106834951.722 6     -2075.868          36.000
> 2020 05 12 12 03 30.0000000  0 17        .000000000000
G18  21705574.578 8 114063631.453 8      2822.027          49.000    21705573.977 7  88880733.850 7      2198.982          47.000
G21  21724631.734 8 114163757.847 8      2405.406          51.000    21724630.547 7  88958747.166 7      1874.343          46.000
G25  21879383.828 6 114976918.113 6     -2512.883          39.000    21879385.430 6  89592415.997 6     -1958.094          39.000
G29  20538786.359 8 107932051.934 8     -1222.191          51.000    20538785.898 8  84102902.018 8      -952.357          51.000
G31  21142515.586 6 111104709.535 6      -289.797          38.000    21142520.258 6  86575061.190 6      -225.819          38.000
R10  23284439.758 5 124119155.039 5     -4072.211          31.000
R11  19384204.812 8 103583330.909 8     -1329.910          51.000    19384208.266 8  80564775.294 8     -1034.378          48.000
R21  19591832.258 7 104839855.369 7     -1737.836          46.000    19591834.898 6  81542154.728 6     -1351.653          40.000
R22  20126975.594 8 107439147.139 8      2457.637          51.000    20126978.164 8  83563809.030 8      1911.498          49.000
C11  22377600.727 8 116526054.525 8      1545.934          49.000    22377600.195 8  90105361.836 8      1195.435          51.000
C12  22026749.992 8 114699141.647 8     -1468.109          51.000    22026749.461 8  88692673.902 8     -1135.202          51.000
C24  24155294.273 8 125783028.258 8     -2969.590          49.000
C25  21973410.633 8 114421322.168 8      -217.094          49.000
E13  23831316.336 8 125234420.314 8      1722.863          51.000    23831318.156 8  95958863.137 8      1320.116          51.000
E15  23749486.195 8 124804404.466 8     -1159.930          49.000    23749488.523 7  95629360.139 7      -888.690          43.000
E27  23694647.711 8 124516197.432 8     -1212.996          51.000    23694648.547 8  95408523.710 8      -929.427          50.000
E30  26547867.398 6 139509993.005 6     -2711.055          37.000    26547873.523 6 106897268.641 6     -2077.430          37.000
> 2020 05 12 12 04  0.0000000  0 17        .000000000000
G18  21689506.547 8 113979192.883 8      2806.438          50.000    21689506.305 7  88814937.550 7      2186.831          47.000
G21  21710943.562 8 114091825.867 8      2389.453          51.000    21710942.773 7  88902696.290 7      1861.912          47.000
G25  21893759.734 6 115052467.974 6     -2524.020          36.000    21893761.836 6  89651286.035 6     -1966.772          37.000
G29  20545801.328 8 107968914.905 8     -1236.137          51.000    20545800.648 8  84131626.402 8      -963.223          51.000
G31  21144232.875 5 111113733.758 5      -312.293          35.000    21144236.219 5  86582093.109 5      -243.345          35.000
R10  23307379.727 5 124241431.969 5     -4080.871          34.000
R11  19391739.375 8 103623589.791 8     -1354.762          51.000    19391742.000 8  80596087.746 8     -1053.707          48.000
R21  19601633.047 7 104892299.600 7     -1759.105          46.000    19601635.047 7  81582944.644 7     -1368.193          42.000
R22  20113221.672 8 107365731.240 8      2436.027          49.000    20113225.172 8  83506707.776 8      1894.688          48.000
C11  22368730.992 8 116479872.403 8      1532.168          48.000    22368731.578 8  90069650.895 8      1184.736          51.000
C12  22035241.484 8 114743358.704 8     -1480.492          51.000    22035240.891 8  88726865.340 8     -1144.807          51.000
C24  24172429.555 8 125872258.382 8     -2979.867          49.000
C25  21974711.227 8 114428096.527 8      -235.270          49.000
E13  23821518.078 8 125182930.352 8      1709.043          51.000    23821519.844 8  95919409.780 8      1309.559          51.000
E15  23756145.445 8 124839399.238 8     -1173.770          48.000    23756147.836 7  95656174.326 7      -899.394          44.000
E27  23701604.367 8 124552754.179 8     -1224.918          51.000    23701605.180 8  95436534.676 8      -938.568          51.000
E30  26563360.266 6 139591404.640 6     -2717.039          39.000    26563365.570 6 106959648.893 6     -2081.896          37.000
> 2020 05 12 12 04 30.0000000  0 17        .000000000000
G18  21673519.938 8 113895180.770 8      2794.871          51.000    21673519.711 7  88749473.554 7      2177.822          46.000
G21  21697339.219 8 114020334.574 8      2377.188          51.000    21697338.648 7  88846988.789 7      1852.354          47.000
G25  21908194.594 6 115128326.531 6     -2531.922          39.000    21908197.188 6  89710396.584 6     -1972.923          39.000
G29  20552888.195 8 108006156.040 8     -1246.102          51.000    20552887.477 8  84160645.473 8      -970.988          51.000
G31  21146067.109 5 111123371.924 5      -329.473          35.000    21146069.227 5  86589603.379 5      -256.735          35.000
R10  23330363.344 5 124363944.976 5     -4086.055          35.000
R11  19399405.742 8 103664555.147 8     -1375.707          51.000    19399408.438 8  80627949.649 8     -1069.997          48.000
R21  19611545.430 7 104945341.717 7     -1776.398          45.000    19611548.102 6  81624199.661 6     -1381.643          40.000
R22  20099581.422 8 107292924.992 8      2418.301          49.000    20099585.938 7  83450080.701 7      1880.901          47.000
C11  22359934.422 8 116434069.753 8      1521.926          49.000    22359935.758 8  90034233.418 8      1176.847          51.000
C12  22043797.398 8 114787910.585 8     -1489.098          51.000    22043796.680 8  88761315.668 8     -1151.474          51.000
C24  24189615.953 8 125961753.961 8     -2985.977          50.000
C25  21976110.023 8 114435381.441 8      -249.859          49.000
E13  23811791.648 8 125131817.391 8      1698.957          51.000    23811793.383 8  95880245.313 8      1301.843          51.000
E15  23762876.859 8 124874772.991 8     -1183.918          48.000    23762878.953 7  95683278.881 7      -907.131          44.000
E27  23708622.344 8 124589633.702 8     -1233.191          51.000    23708623.281 8  95464792.989 8      -944.880          51.000
E30  26578879.594 6 139672954.595 6     -2719.199          39.000    26578884.016 6 107022135.151 6     -2083.476          37.000
> 2020 05 12 12 05  0.0000000  0 17        .000000000000
G18  21657604.695 8 113811542.826 8      2780.703          51.000    21657604.023 7  88684301.128 7      2166.782          45.000
G21  21683808.570 8 113949231.296 8      2362.523          51.000    21683808.203 7  88791583.645 7      1840.927          46.000
G25  21922678.297 6 115204438.370 6     -2542.355          41.000    21922681.344 6  89769704.439 6     -1981.059          41.000
G29  20560036.273 8 108043719.280 8     -1258.543          51.000    20560035.867 8  84189915.522 8      -980.683          51.000
G31  21148007.711 5 111133569.233 5      -350.375          35.000    21148007.969 5  86597549.358 5      -273.023          35.000
R10  23353377.562 5 124486636.011 5     -4093.824          31.000
R11  19407193.430 8 103706170.728 8     -1399.074          51.000    19407196.539 8  80660317.301 8     -1088.169          48.000
R21  19621558.977 7 104998923.224 7     -1796.078          45.000    19621560.805 6  81665874.134 6     -1396.950          40.000
R22  20086046.250 8 107220674.267 8      2398.027          51.000    20086050.617 7  83393885.686 7      1865.132          47.000
C11  22351200.922 8 116388592.653 8      1509.453          50.000    22351202.180 8  89999067.659 8      1167.196          51.000
C12  22052406.891 8 114832741.562 8     -1499.977          51.000    22052406.141 8  88795981.821 8     -1159.901          51.000
C24  24206842.891 8 126051459.290 8     -2994.719          49.000
C25  21977596.602 8 114443123.000 8      -266.723          49.000
E13  23802126.586 8 125081027.324 8      1686.586          51.000    23802128.320 8  95841328.272 8      1292.304          51.000
E15  23769669.703 7 124910469.719 7     -1196.242          47.000    23769672.203 7  95710630.912 7      -916.607          45.000
E27  23715691.156 8 124626781.376 8     -1243.812          51.000    23715692.617 8  95493256.769 8      -953.024          51.000
E30  26594414.703 6 139754587.507 6     -2723.578          39.000    26594418.398 6 107084684.946 6     -2086.826          38.000
> 2020 05 12 12 05 30.0000000  0 16        .000000000000
G18  21641764.336 8 113728299.449 8      2768.254          51.000    21641762.984 7  88619436.201 7      2157.084          43.000
G21  21670355.164 8 113878535.486 8      2349.816          49.000    21670354.781 7  88736496.011 7      1831.029          45.000
G25  21937213.805 6 115280820.865 6     -2550.527          41.000    21937217.148 7  89829223.212 7     -1987.424          42.000
G29  20567248.766 8 108081621.321 8     -1268.922          51.000    20567248.438 8  84219449.564 8      -988.770          51.000
G31  21150057.789 6 111144343.500 6      -368.605          38.000    21150056.609 6  86605944.825 6      -287.228          37.000
R11  19415105.844 8 103748454.725 8     -1420.512          51.000    19415109.625 8  80693204.823 8     -1104.842          49.000
R21  19631674.836 7 105053059.240 7     -1813.730          46.000    19631677.570 6  81707979.974 6     -1410.679          40.000
R22  20072619.703 8 107148998.551 8      2379.707          51.000    20072623.266 8  83338137.940 8      1850.886          48.000
C11  22342533.859 8 116343459.191 8      1498.832          51.000    22342534.664 8  89964167.614 8      1158.986          51.000
C12  22061072.977 8 114877867.924 8     -1508.926          51.000    22061072.328 8  88830876.389 8     -1166.891          51.000
C24  24224113.375 8 126141390.599 8     -3001.301          48.000
C25  21979174.375 8 114451339.399 8      -281.688          49.000
E13  23792526.609 8 125030578.807 8      1676.059          51.000    23792528.219 8  95802672.940 8      1284.214          51.000
E15  23776527.078 7 124946506.114 7     -1206.793          46.000    23776530.180 7  95738243.225 7      -924.599          45.000
E27  23722814.367 8 124664215.282 8     -1252.484          51.000    23722816.594 8  95521939.892 8      -959.711          51.000
E30  26609968.797 5 139836328.783 5     -2726.047          34.000    26609972.016 6 107147311.665 6     -2088.684          38.000
> 2020 05 12 12 06  0.0000000  0 17        .000000000000
G18  21626000.820 8 113645461.882 8      2754.711          50.000    21625998.422 6  88554887.546 6      2146.531          41.000
G21  21656981.289 8 113808257.941 8      2335.859          50.000    21656980.430 7  88681734.298 7      1820.150          44.000
G25  21951802.484 7 115357481.905 7     -2559.727          43.000    21951805.609 7  89888959.064 7     -1994.592          43.000
G29  20574527.047 8 108119869.619 8     -1280.469          50.000    20574526.750 8  84249253.413 8      -997.768          50.000
G31  21152219.516 6 111155703.365 6      -388.012          38.000    21152216.086 6  86614796.694 6      -302.347          38.000
R10  23399521.531 5 124732625.538 5     -4106.547          35.000
R11  19423144.961 8 103791415.780 8     -1442.922          51.000    19423149.367 8  80726618.941 8     -1122.273          49.000
R21  19641897.016 7 105107756.120 7     -1832.152          43.000    19641899.102 6  81750521.929 6     -1425.007          40.000
R22  20059302.797 8 107077908.164 8      2360.172          51.000    20059305.766 7  83282845.464 7      1835.692          47.000
C11  22333934.664 8 116298678.207 8      1487.039          51.000    22333934.875 8  89929540.137 8      1149.885          51.000
C12  22069797.141 8 114923296.878 8     -1519.125          51.000    22069796.484 8  88866004.924 8     -1174.602          51.000
C24  24241427.992 7 126231555.120 7     -3008.973          45.000
C25  21980845.219 8 114460039.672 8      -297.777          50.000
E13  23782993.508 8 124980481.271 8      1664.352          51.000    23782995.133 8  95764286.536 8      1275.276          51.000
E15  23783450.500 7 124982889.806 7     -1218.367          47.000    23783454.133 7  95766121.645 7      -933.629          46.000
E27  23729993.781 8 124701944.371 8     -1262.266          51.000    23729996.273 8  95550849.208 8      -967.235          51.000
E30                                                                  26625545.719 6 107210021.611 6     -2091.495          38.000
> 2020 05 12 12 06 30.0000000  0 17        .000000000000
G18  21610311.445 8 113563015.004 8      2741.539          49.000    21610308.789 7  88490643.315 7      2136.267          42.000
G21  21643684.320 8 113738382.761 8      2322.203          50.000    21643682.648 7  88627286.126 7      1809.509          44.000
G25  21966440.203 6 115434403.334 6     -2568.352          41.000    21966443.523 6  89948897.805 6     -2001.316          40.000
G29  20581867.719 8 108158445.323 8     -1291.504          50.000    20581867.484 8  84279312.391 8     -1006.367          50.000
G31  21154489.539 6 111167630.915 6      -407.250          40.000    21154483.711 6  86624090.923 6      -317.335          40.000
R10  23422649.750 6 124855891.548 6     -4112.273          37.000
R11  19431307.648 8 103835035.240 8     -1465.156          51.000    19431312.188 8  80760545.165 8     -1139.566          49.000
R21  19652218.320 7 105162992.549 7     -1850.258          45.000    19652221.406 6  81793483.653 6     -1439.089          40.000
R22  20046092.109 8 107007386.683 8      2341.066          51.000    20046095.008 7  83227995.445 7      1820.829          47.000
C11  22325399.906 8 116254232.490 8      1475.805          51.000    22325399.320 8  89895171.931 8      1141.095          51.000
C12  22078575.852 8 114969009.690 8     -1528.727          51.000    22078575.180 8  88901352.966 8     -1182.087          51.000
C24  24258782.914 7 126321933.999 7     -3016.359          44.000
C25  21982605.836 8 114469206.719 8      -313.551          51.000
E13  23773523.992 8 124930717.814 8      1652.984          51.000    23773525.898 8  95726156.121 8      1266.563          51.000
E15  23790436.414 7 125019601.907 7     -1229.379          46.000    23790440.188 7  95794251.688 7      -941.971          46.000
E27  23737226.031 8 124739951.277 8     -1271.746          51.000    23737228.422 8  95579971.394 8      -974.473          51.000
E30                                                                  26641136.000 6 107272800.853 6     -2094.201          37.000
> 2020 05 12 12 07  0.0000000  0 17        .000000000000
G18  21594701.000 8 113480983.490 8      2727.805          49.000    21594699.391 7  88426722.671 7      2125.562          43.000
G21  21630468.641 8 113668934.116 8      2308.340          49.000    21630466.312 7  88573170.326 7      1798.706          43.000
G25  21981131.055 6 115511606.594 6     -2577.590          38.000    21981134.945 6  90009056.206 6     -2008.512          38.000
G29  20589274.719 8 108197369.176 8     -1302.773          51.000    20589274.578 8  84309642.670 8     -1015.148          51.000
G31  21156871.875 6 111180148.341 6      -426.398          40.000    21156866.508 6  86633844.717 6      -332.262          40.000
R10  23445813.344 6 124979358.179 6     -4118.227          38.000
R11  19439597.664 8 103879335.332 8     -1487.488          51.000    19439602.055 8  80795000.802 8     -1156.935          49.000
R21  19662645.711 7 105218788.521 7     -1868.691          44.000    19662647.773 6  81836880.451 6     -1453.430          38.000
R22  20032992.219 8 106937457.785 8      2321.590          51.000    20032995.297 7  83173606.308 7      1805.681          47.000
C11  22316933.758 8 116210144.301 8      1464.156          51.000    22316932.195 8  89861080.146 8      1132.175          51.000
C12  22087412.867 8 115015026.726 8     -1538.516          51.000    22087412.367 8  88936936.257 8     -1189.642          51.000
C24  24276184.828 7 126412547.663 7     -3023.840          47.000
C25  21984460.508 8 114478862.794 8      -329.621          51.000
E13  23764122.266 8 124881311.192 8      1641.449          51.000    23764124.531 8  95688299.119 8      1257.734          51.000
E15  23797489.109 7 125056663.358 7     -1240.746          46.000    23797492.500 7  95822649.429 7      -950.666          46.000
E27  23744515.523 8 124778258.266 8     -1281.434          51.000    23744517.758 8  95609323.507 8      -981.845          51.000
E30  26656744.062 5 140082124.099 5     -2736.328          35.000    26656747.180 6 107335665.885 6     -2096.505          36.000
> 2020 05 12 12 07 30.0000000  0 16        .000000000000
G18  21579160.789 8 113399321.917 8      2715.199          48.000    21579160.164 7  88363090.250 7      2115.737          45.000
G21  21617325.203 8 113599866.189 8      2295.223          48.000    21617322.477 7  88519351.199 7      1788.485          43.000
G25  21995865.508 6 115589043.173 6     -2585.453          36.000    21995869.758 6  90069396.439 6     -2014.639          36.000
G29  20596738.633 8 108236591.950 8     -1313.094          51.000    20596738.508 8  84340205.870 8     -1023.190          51.000
G31  21159356.969 7 111193207.386 7      -444.941          43.000    21159352.852 7  86644020.536 7      -346.711          43.000
R10  23469004.070 6 125102974.332 6     -4123.793          39.000
R11  19448005.914 8 103924266.898 8     -1508.941          50.000    19448010.172 8  80829947.576 8     -1173.621          49.000
R21  19673167.195 7 105275092.076 7     -1885.715          43.000    19673168.781 6  81880672.131 6     -1466.670          38.000
R22  20019994.172 8 106868074.452 8      2303.000          51.000    20019997.578 7  83119641.522 7      1791.222          47.000
C11  22308526.859 8 116166366.418 8      1453.348          51.000    22308524.359 8  89827228.303 8      1123.839          51.000
C12  22096298.875 8 115061299.271 8     -1547.336          50.000    22096298.492 8  88972717.124 8     -1196.544          51.000
C24  24293623.539 8 126503347.315 8     -3030.418          50.000
C25  21986399.930 8 114488960.853 8      -344.652          51.000
E13  23754779.391 8 124832214.253 8      1630.738          51.000    23754781.828 8  95650679.396 8      1249.551          51.000
E15  23804599.031 7 125094025.164 7     -1251.188          46.000    23804602.461 7  95851277.303 7      -958.534          46.000
E27  23751853.086 8 124816817.674 8     -1290.250          51.000    23751855.227 8  95638868.999 8      -988.630          51.000
> 2020 05 12 12 08  0.0000000  0 16        .000000000000
G18  21563701.828 7 113318087.734 7      2700.980          47.000    21563702.391 7  88299790.829 7      2104.660          47.000
G21  21604264.828 8 113531235.029 8      2280.805          49.000    21604262.062 7  88465872.400 7      1777.250          43.000
G25  22010655.984 7 115666767.546 7     -2595.289          42.000    22010659.797 6  90129960.872 6     -2022.303          41.000
G29  20604269.594 8 108276167.209 8     -1324.750          51.000    20604269.367 8  84371043.732 8     -1032.273          51.000
G31  21161955.656 7 111206862.709 7      -464.734          42.000    21161952.148 7  86654661.063 7      -362.131          42.000
R10  23492232.516 6 125226793.569 6     -4130.211          38.000
R11  19456542.992 8 103969885.419 8     -1531.844          51.000    19456546.852 8  80865428.636 8     -1191.434          48.000
R21  19683793.992 7 105331956.253 7     -1904.410          44.000    19683795.547 6  81924899.782 6     -1481.208          38.000
R22  20007108.844 8 106799293.715 8      2282.922          51.000    20007112.141 8  83066145.452 8      1775.609          48.000
C11  22300189.648 8 116122953.642 8      1441.277          51.000    22300186.492 8  89793658.798 8      1114.541          50.000
C12  22105244.234 8 115107880.346 8     -1557.617          50.000    22105243.695 8  89008736.535 8     -1204.316          51.000
C24  24311107.891 8 126594385.887 8     -3038.242          50.000
C25  21988434.945 8 114499555.705 8      -361.207          51.000
E13  23745505.719 8 124783482.610 8      1618.621          51.000    23745508.609 8  95613339.585 8      1240.239          51.000
E15  23811776.141 7 125131741.026 7     -1262.711          46.000    23811779.945 7  95880176.483 7      -967.592          47.000
E27  23759249.211 8 124855684.601 8     -1300.348          51.000    23759251.312 8  95668650.108 8      -996.370          51.000
> 2020 05 12 12 08 30.0000000  0 16        .000000000000
G18  21548323.148 8 113237273.356 8      2687.250          48.000    21548324.555 8  88236818.554 8      2093.961          48.000
G21  21591286.359 8 113463032.825 8      2266.535          50.000    21591283.984 7  88412727.848 7      1766.131          44.000
G25  22025499.906 7 115744769.013 7     -2604.133          43.000    22025503.328 7  90190741.165 7     -2029.197          43.000
G29  20611865.461 8 108316083.801 8     -1335.898          51.000    20611865.195 8  84402147.554 8     -1040.960          51.000
G31  21164665.742 7 111221104.042 7      -484.191          42.000    21164662.891 7  86665758.186 7      -377.292          42.000
R10  23515495.180 5 125350803.554 5     -4136.836          35.000
R11  19465206.523 8 104016180.289 8     -1554.070          51.000    19465209.570 8  80901435.746 8     -1208.724          48.000
R21  19694523.328 6 105389367.922 6     -1922.430          41.000    19694525.219 6  81969553.321 6     -1495.220          38.000
R22  19994334.891 8 106731106.784 8      2263.398          51.000    19994338.266 8  83013111.166 8      1760.421          48.000
C11  22291920.469 8 116079896.185 8      1429.734          51.000    22291917.258 8  89760364.057 8      1105.465          51.000
C12  22114246.500 8 115154758.604 8     -1567.219          50.000    22114246.070 8  89044985.762 8     -1211.852          51.000
C24  24328635.461 8 126685652.055 8     -3045.645          49.000
C25  21990563.758 8 114510637.741 8      -377.129          51.000
E13  23736299.578 8 124735106.986 8      1606.980          51.000    23736302.930 8  95576272.570 8      1231.290          51.000
E15  23819018.641 7 125169799.802 7     -1273.984          45.000    23819022.156 7  95909338.400 7      -976.155          47.000
E27  23766701.961 8 124894849.282 8     -1310.098          51.000    23766703.836 8  95698659.370 8     -1003.838          51.000
> 2020 05 12 12 09  0.0000000  0 17        .000000000000
G12  24643899.656 4 129504565.949 4     -3269.859          29.000
G18  21533026.859 8 113156889.318 8      2671.914          49.000    21533028.727 8  88174181.652 8      2082.011          48.000
G21  21578391.547 8 113395269.397 8      2251.117          51.000    21578389.695 7  88359925.211 7      1754.120          45.000
G25  22040397.930 6 115823055.157 6     -2614.754          41.000    22040399.977 6  90251743.278 6     -2037.474          41.000
G29  20619527.680 8 108356348.958 8     -1348.289          51.000    20619527.539 8  84433522.993 8     -1050.615          51.000
G31  21167488.344 6 111235939.582 6      -504.613          40.000    21167486.469 6  86677318.331 6      -393.208          40.000
R10  23538793.742 5 125475009.411 5     -4143.191          32.000
R11  19473998.023 8 104063159.342 8     -1577.652          51.000    19474000.938 8  80937974.991 8     -1227.066          48.000
R21  19705355.344 6 105447332.510 6     -1941.617          40.000    19705357.867 6  82014636.916 6     -1510.147          37.000
R22  19981674.117 8 106663523.127 8      2242.359          51.000    19981677.797 8  82960546.088 8      1744.054          49.000
C11  22283721.047 8 116037202.379 8      1416.738          51.000    22283718.680 8  89727350.496 8      1095.500          51.000
C12  22123307.234 8 115201940.630 8     -1578.160          51.000    22123306.984 8  89081469.893 8     -1220.334          51.000
C24  24346207.477 7 126777152.376 7     -3054.301          47.000
C25  21992787.633 8 114522215.285 8      -394.488          51.000
E13  23727162.812 8 124687096.117 8      1593.945          51.000    23727166.555 8  95539485.029 8      1221.353          51.000
E15  23826327.820 7 125208208.394 7     -1286.438          45.000    23826330.672 7  95938768.355 7      -985.733          47.000
E27  23774212.938 8 124934319.961 8     -1321.160          51.000    23774214.539 8  95728903.116 8     -1012.362          51.000
> 2020 05 12 12 09 30.0000000  0 16        .000000000000
G18  21517809.211 8 113076918.460 8      2658.824          50.000    21517811.320 8  88111866.732 8      2071.811          48.000
G21  21565576.820 8 113327926.962 8      2237.805          50.000    21565575.609 7  88307450.604 7      1743.747          45.000
G25  22055345.898 6 115901605.490 6     -2622.707          38.000    22055347.133 6  90312951.297 6     -2043.671          38.000
G29  20627252.164 8 108396941.313 8     -1358.426          51.000    20627252.180 8  84465153.392 8     -1058.514          51.000
G31  21170420.078 6 111251349.111 6      -523.371          40.000    21170419.203 6  86689325.757 6      -407.822          40.000
R10  23562126.758 5 125599389.937 5     -4148.762          34.000
R11  19482913.898 8 104110802.018 8     -1599.168          51.000    19482916.594 8  80975030.374 8     -1243.800          48.000
R21  19716286.578 6 105505826.904 6     -1958.590          40.000    19716287.805 6  82060132.491 6     -1523.348          36.000
R22  19969123.453 8 106596524.078 8      2223.531          51.000    19969126.703 8  82908435.696 8      1729.410          48.000
C11  22275587.852 8 115994852.947 8      1405.984          51.000    22275586.727 8  89694603.225 8      1087.205          51.000
C12  22132422.492 8 115249405.676 8     -1586.836          51.000    22132422.164 8  89118172.852 8     -1226.958          51.000
C24  24363819.352 7 126868865.916 7     -3060.711          44.000
C25  21995102.898 8 114534269.213 8      -409.672          51.000
E13  23718091.633 8 124639430.998 8      1583.098          50.000    23718095.961 8  95502962.429 8      1213.068          51.000
E15  23833699.477 7 125246945.957 7     -1296.793          44.000    23833702.312 7  95968450.380 7      -993.539          47.000
E27  23781778.336 8 124974077.171 8     -1330.000          51.000    23781780.172 8  95759366.389 8     -1019.097          51.000
> 2020 05 12 12 10  0.0000000  0 16        .000000000000
G18  21502671.055 8 112997366.320 8      2644.996          51.000    21502673.227 7  88049878.085 7      2061.039          47.000
G21  21552843.016 8 113261010.536 8      2223.840          50.000    21552842.297 7  88255307.944 7      1732.862          45.000
G25  22070343.406 5 115980422.608 5     -2631.156          34.000    22070346.133 5  90374367.124 5     -2050.255          33.000
G29  20635039.305 8 108437862.626 8     -1368.973          51.000    20635039.297 8  84497040.113 8     -1066.732          51.000
G31  21173461.906 6 111267335.481 6      -542.027          41.000    21173461.758 6  86701782.670 6      -422.359          41.000
R10  23585494.227 5 125723945.211 5     -4154.203          34.000
R11  19491954.422 8 104159110.751 8     -1621.043          51.000    19491957.023 8  81012603.823 8     -1260.811          48.000
R21  19727317.453 6 105564851.428 6     -1975.516          38.000    19727318.164 6  82106040.450 6     -1536.512          36.000
R22  19956683.109 8 106530114.191 8      2204.234          51.000    19956685.508 7  82856783.590 7      1714.405          47.000
C11  22267521.500 8 115952851.237 8      1394.625          50.000    22267521.273 8  89662124.844 8      1078.416          51.000
C12  22141592.328 8 115297155.342 8     -1595.949          51.000    22141591.969 8  89155095.917 8     -1234.150          51.000
C24  24381471.305 7 126960794.281 7     -3067.254          42.000
C25  21997509.945 8 114546802.857 8      -425.387          51.000
E13  23709087.406 8 124592115.403 8      1571.703          51.000    23709091.578 8  95466707.640 8      1204.277          51.000
E15  23841133.820 7 125286014.365 7     -1307.305          44.000    23841137.430 8  95998385.927 8     -1001.773          48.000
E27  23789398.844 8 125014124.136 8     -1339.398          51.000    23789400.930 8  95790051.694 8     -1026.274          51.000
> 2020 05 12 12 10 30.0000000  0 16        .000000000000
G18  21487611.930 8 112918229.204 8      2630.820          51.000    21487613.367 7  87988212.825 7      2049.990          44.000
G21  21540189.445 8 113194515.839 8      2209.289          49.000    21540189.016 7  88203493.899 7      1721.524          45.000
G25  22085390.094 6 116059499.604 6     -2640.344          37.000    22085394.398 6  90435985.548 6     -2057.411          37.000
G29  20642887.617 8 108479105.673 8     -1380.238          51.000    20642887.492 8  84529177.541 8     -1075.510          51.000
G31  21176612.305 6 111283892.386 6      -561.422          39.000    21176612.219 6  86714684.154 6      -437.469          40.000
R10  23608892.898 4 125848683.050 4     -4160.312          28.000
R11  19501118.484 8 104208078.878 8     -1643.344          51.000    19501120.844 8  81050690.115 8     -1278.156          48.000
R21  19738444.008 6 105624396.790 6     -1993.535          39.000    19738445.578 5  82152353.557 5     -1550.527          35.000
R22  19944351.352 8 106464288.245 8      2184.367          51.000    19944352.484 7  82805585.668 7      1698.952          46.000
C11  22259520.984 8 115911191.343 8      1382.805          50.000    22259520.906 8  89629910.791 8      1069.381          51.000
C12  22150815.438 8 115345182.218 8     -1605.637          51.000    22150815.062 8  89192233.328 8     -1241.547          51.000
C24  24399163.594 7 127052929.973 7     -3074.652          42.000
C25  22000007.648 8 114559810.451 8      -441.578          51.000
E13  23700149.359 8 124545143.846 8      1559.812          51.000    23700152.188 8  95430716.435 8      1195.223          51.000
E15  23848629.711 7 125325406.336 7     -1318.633          43.000    23848633.609 8  96028569.370 8     -1010.342          48.000
E27  23797073.352 8 125054454.945 8     -1349.215          51.000    23797075.336 8  95820954.524 8     -1033.802          51.000
> 2020 05 12 12 11  0.0000000  0 17        .000000000000
G18  21472633.250 8 112839514.448 8      2617.121          51.000    21472633.180 7  87926876.696 7      2039.315          44.000
G21  21527617.398 8 113128448.943 8      2195.414          49.000    21527617.102 7  88152013.223 7      1710.712          46.000
G25  22100488.828 6 116138840.913 6     -2648.375          38.000    22100493.391 6  90497809.904 6     -2063.672          38.000
G26  22032227.609 5 115780137.100 5      2601.125          30.000
G29  20650797.852 8 108520673.935 8     -1390.617          51.000    20650797.508 8  84561568.382 8     -1083.598          51.000
G31  21179872.070 6 111301024.105 6      -580.492          40.000    21179871.758 6  86728033.469 6      -452.332          39.000
R10  23632321.539 5 125973572.837 5     -4165.352          32.000
R11  19510406.531 8 104257710.599 8     -1665.086          51.000    19510408.742 7  81089292.547 7     -1295.070          47.000
R21  19749669.281 6 105684465.049 6     -2010.531          41.000    19749671.336 5  82199073.255 5     -1563.750          35.000
R22  19932129.719 8 106399052.517 8      2164.988          50.000    19932131.305 8  82754846.826 8      1683.883          48.000
C11  22251587.539 8 115869878.466 8      1371.688          51.000    22251587.312 8  89597965.078 8      1060.718          51.000
C12  22160092.438 8 115393489.727 8     -1614.480          51.000    22160092.117 8  89229587.745 8     -1248.392          51.000
C24  24416897.914 7 127145276.386 7     -3081.129          43.000
C25  22002597.484 8 114573297.050 8      -457.125          51.000
E13  23691278.086 8 124498521.830 8      1548.684          51.000    23691279.578 8  95394993.067 8      1186.690          51.000
E15  23856187.789 6 125365125.508 6     -1328.898          41.000    23856191.523 8  96059003.533 8     -1018.241          48.000
E27  23804802.859 8 125095074.632 8     -1358.359          51.000    23804805.273 8  95852078.690 8     -1040.800          51.000
> 2020 05 12 12 11 30.0000000  0 16        .000000000000
G18  21457732.297 8 112761207.386 8      2603.199          51.000    21457730.680 7  87865858.241 7      2028.470          44.000
G21  21515123.891 8 113062794.808 8      2181.273          48.000    21515123.836 7  88100854.177 7      1699.694          46.000
G25  22115635.039 6 116218428.789 6     -2657.137          41.000    22115638.445 6  90559826.421 6     -2070.496          41.000
G29  20658766.492 8 108562549.206 8     -1401.102          51.000    20658766.125 8  84594198.453 8     -1091.767          51.000
G31  21183238.414 6 111318713.383 6      -598.934          40.000    21183237.586 6  86741817.297 6      -466.702          40.000
R10  23655778.203 5 126098613.029 5     -4170.965          33.000
R11  19519815.375 8 104307988.156 8     -1686.898          51.000    19519817.492 7  81128397.295 7     -1312.032          47.000
R21  19760987.977 6 105745035.756 6     -2027.621          40.000    19760991.672 5  82246183.871 5     -1577.039          35.000
R22  19920016.227 8 106334390.804 8      2145.578          51.000    19920018.727 8  82704554.384 8      1668.783          48.000
C11  22243717.500 8 115828895.862 8      1360.441          50.000    22243717.523 8  89566274.736 8      1051.892          51.000
C12  22169419.758 8 115442059.613 8     -1623.512          51.000    22169419.492 8  89267145.066 8     -1255.454          51.000
C24  24434669.867 7 127237815.142 7     -3088.066          44.000
C25  22005276.016 8 114587246.037 8      -472.844          51.000
E13  23682470.180 8 124452232.917 8      1537.156          51.000    23682471.188 8  95359524.956 8      1177.824          51.000
E15  23863804.531 6 125405153.611 6     -1339.660          40.000    23863808.555 8  96089674.417 8     -1026.484          49.000
E27  23812584.641 8 125135966.323 8     -1367.812          51.000    23812587.164 8  95883411.283 8     -1048.082          51.000
> 2020 05 12 12 12  0.0000000  0 16        .000000000000
G18  21442911.680 8 112683322.780 8      2589.109          51.000    21442909.766 7  87805168.959 7      2017.488          46.000
G21  21502711.078 7 112997567.625 7      2167.277          46.000    21502711.477 7  88050027.802 7      1688.788          46.000
G25  22130830.109 7 116298274.940 7     -2665.945          42.000    22130832.984 7  90622044.163 7     -2077.363          42.000
G29  20666795.648 8 108604742.435 8     -1411.664          51.000    20666795.273 8  84627076.290 8     -1099.998          51.000
G31  21186713.227 6 111336972.175 6      -618.207          41.000    21186711.945 7  86756044.883 7      -481.720          42.000
R10  23679265.602 5 126223812.858 5     -4175.496          35.000
R11  19529347.250 8 104358923.582 8     -1708.711          51.000    19529349.414 7  81168013.709 7     -1328.997          46.000
R21  19772403.727 6 105806118.648 6     -2044.566          40.000    19772406.977 5  82293692.736 5     -1590.218          34.000
R22  19908013.086 8 106270316.812 8      2126.141          51.000    19908015.766 7  82654719.047 7      1653.665          47.000
C11  22235913.047 8 115788255.891 8      1349.066          50.000    22235913.688 8  89534849.335 8      1043.150          51.000
C12  22178799.594 8 115490902.664 8     -1632.531          51.000    22178799.195 8  89304913.593 8     -1262.461          51.000
C24  24452480.695 7 127330557.058 7     -3094.750          44.000
C25  22008045.727 8 114601669.882 8      -488.574          51.000
E13  23673728.305 8 124406290.143 8      1525.711          51.000    23673729.219 8  95324322.065 8      1169.024          51.000
E15  23871482.133 6 125445501.830 6     -1350.180          41.000    23871486.656 8  96120590.567 8     -1034.625          49.000
E27  23820420.766 8 125177142.485 8     -1377.285          51.000    23820422.914 8  95914961.836 8     -1055.275          51.000
> 2020 05 12 12 12 30.0000000  0 15        .000000000000
G18  21428174.094 8 112605875.515 8      2574.438          51.000    21428172.617 7  87744820.456 7      2006.058          47.000
G21  21490382.133 8 112932781.631 8      2152.309          48.000    21490382.867 7  87999545.187 7      1677.124          46.000
G25  22146076.281 7 116378391.166 7     -2674.633          42.000    22146078.758 7  90684472.369 7     -2084.129          42.000
G29  20674887.477 8 108647265.122 8     -1422.777          51.000    20674886.758 8  84660210.844 8     -1108.658          51.000
G31  21190298.703 6 111355812.720 6      -637.785          41.000    21190297.148 6  86770725.859 6      -496.975          40.000
R11  19539004.219 8 104410528.607 8     -1731.156          51.000    19539006.344 7  81208150.908 7     -1346.455          46.000
R21  19783915.680 6 105867723.297 6     -2062.051          39.000    19783919.008 5  82341607.481 5     -1603.814          35.000
R22  19896123.125 8 106206844.680 8      2105.844          51.000    19896124.938 7  82605351.813 7      1637.875          47.000
C11  22228176.961 8 115747971.103 8      1337.098          51.000    22228177.875 8  89503698.589 8      1033.820          51.000
C12  22188234.086 8 115540029.968 8     -1642.145          51.000    22188233.445 8  89342901.916 8     -1269.853          51.000
C24  24470332.078 7 127423512.967 7     -3101.941          44.000
C25  22010909.148 8 114616581.234 8      -504.984          51.000
E13  23665054.836 8 124360706.611 8      1513.609          51.000    23665055.680 8  95289394.437 8      1159.725          51.000
E15  23879223.016 6 125486181.468 6     -1361.344          41.000    23879227.344 8  96151760.641 8     -1043.152          49.000
E27  23828313.250 8 125218615.805 8     -1387.285          51.000    23828315.164 8  95946740.072 8     -1062.967          51.000
> 2020 05 12 12 13  0.0000000  0 15        .000000000000
G18  21413519.414 8 112528865.659 8      2559.703          50.000    21413518.703 8  87684812.783 8      1994.574          48.000
G21  21478137.844 8 112868436.064 8      2137.426          51.000    21478138.211 7  87949405.793 7      1665.527          46.000
G25  22161372.656 6 116458774.672 6     -2683.898          41.000    22161374.469 6  90747108.836 6     -2091.349          41.000
G29  20683041.148 8 108690113.180 8     -1433.715          51.000    20683040.102 8  84693598.943 8     -1117.180          51.000
G31  21193994.195 6 111375232.169 6      -656.773          41.000    21193992.945 6  86785857.854 6      -511.775          41.000
R11  19548785.977 8 104462800.174 8     -1753.500          51.000    19548787.992 7  81248806.533 7     -1363.833          47.000
R21  19795523.414 6 105929844.492 6     -2079.398          40.000    19795526.961 5  82389923.948 5     -1617.316          32.000
R22  19884345.031 8 106143973.067 8      2085.699          51.000    19884346.695 8  82556451.696 8      1622.214          48.000
C11  22220508.820 8 115708039.562 8      1325.203          51.000    22220509.484 8  89472820.969 8      1024.692          51.000
C12  22197722.398 8 115589437.786 8     -1651.668          51.000    22197721.758 8  89381107.165 8     -1277.108          51.000
C24  24488223.398 7 127516679.100 7     -3109.059          45.000
C25  22013865.734 8 114631977.967 8      -521.277          51.000
E13  23656449.055 8 124315480.595 8      1501.551          51.000    23656449.953 8  95254740.743 8      1150.563          51.000
E15  23887026.836 6 125527188.968 6     -1372.652          39.000    23887030.312 8  96183181.921 8     -1051.557          49.000
E27  23836261.844 8 125260384.130 8     -1397.223          51.000    23836263.297 8  95978744.346 8     -1070.554          51.000
> 2020 05 12 12 13 30.0000000  0 15        .000000000000
G18  21398945.180 8 112452278.775 8      2546.066          51.000    21398944.984 8  87625134.681 8      1983.948          48.000
G21  21465975.039 8 112804515.778 8      2123.645          51.000    21465974.602 7  87899597.810 7      1654.791          46.000
G25  22176717.062 7 116539407.769 7     -2691.797          43.000    22176718.258 7  90809939.809 7     -2097.504          43.000
G29  20691253.375 8 108733269.259 8     -1443.555          51.000    20691252.492 8  84727227.066 8     -1124.848          51.000
G31  21197796.758 7 111395213.210 7      -675.199          43.000    21197795.453 7  86801427.480 7      -526.129          43.000
R11  19558688.992 8 104515720.346 8     -1774.680          51.000    19558691.742 8  81289966.603 8     -1380.309          48.000
R21  19807225.062 6 105992461.985 6     -2095.469          40.000    19807226.312 5  82438626.379 5     -1629.806          33.000
R22  19872676.391 8 106081685.902 8      2066.641          51.000    19872677.836 7  82508006.156 7      1607.387          47.000
C11  22212905.031 8 115668444.655 8      1314.406          50.000    22212905.227 8  89442203.685 8      1016.255          51.000
C12  22207260.977 8 115639108.200 8     -1659.840          51.000    22207260.547 8  89419515.503 8     -1283.578          51.000
C24  24506152.234 7 127610037.412 7     -3115.051          47.000
C25  22016912.469 8 114647843.609 8      -536.512          51.000
E13  23647907.820 8 124270595.870 8      1490.535          51.000    23647908.891 8  95220348.570 8      1142.077          51.000
E15  23894889.609 6 125568506.202 6     -1382.543          40.000    23894892.625 8  96214840.605 8     -1059.142          50.000
E27  23844263.195 8 125302430.734 8     -1406.090          51.000    23844264.555 8  96010961.846 8     -1077.394          51.000
> 2020 05 12 12 14  0.0000000  0 16        .000000000000
G18  21384452.211 8 112376118.256 8      2531.418          51.000    21384452.242 8  87565788.807 8      1972.533          48.000
G21  21453893.727 8 112741023.526 8      2109.145          51.000    21453892.445 7  87850123.364 7      1643.492          47.000
G25  22192108.898 6 116620290.992 6     -2700.621          40.000    22192109.992 6  90872965.640 6     -2104.380          40.000
G26  21943777.938 5 115315331.322 5      2562.559          33.000
G29  20699524.102 8 108776732.754 8     -1454.086          51.000    20699523.461 8  84761094.726 8     -1133.054          51.000
G31  21201706.531 7 111415756.581 7      -694.332          45.000    21201704.875 7  86817435.285 7      -541.038          45.000
R11  19568713.359 8 104569289.565 8     -1796.559          51.000    19568716.367 8  81331631.533 8     -1397.323          48.000
R21  19819019.641 6 106055573.857 6     -2112.125          39.000    19819020.188 5  82487713.363 5     -1642.767          31.000
R22  19861117.867 8 106019985.344 8      2046.758          51.000    19861119.445 8  82460016.841 8      1591.926          48.000
C11  22205365.773 8 115629187.650 8      1302.902          49.000    22205365.727 8  89411847.714 8      1007.333          51.000
C12  22216849.945 8 115689040.743 8     -1668.902          51.000    22216849.578 8  89458126.515 8     -1290.568          51.000
C24  24524118.281 8 127703587.476 8     -3121.711          49.000
C25  22020049.617 8 114664179.342 8      -552.500          51.000
E13  23639431.602 8 124226054.068 8      1478.789          51.000    23639432.836 8  95186219.152 8      1133.089          51.000
E15  23902810.953 6 125610133.141 6     -1392.875          40.000    23902814.141 8  96246736.565 8     -1067.301          50.000
E27  23852317.438 8 125344756.809 8     -1415.750          51.000    23852319.070 8  96043393.488 8     -1084.831          51.000
> 2020 05 12 12 14 30.0000000  0 16        .000000000000
G18  21370043.977 8 112300403.169 8      2515.957          50.000    21370044.312 7  87506790.043 7      1960.486          47.000
G21  21441897.039 8 112677977.532 8      2093.613          51.000    21441895.188 8  87800996.652 8      1631.387          48.000
G25  22207550.547 5 116701440.371 5     -2709.949          35.000    22207552.852 5  90936198.852 5     -2111.649          35.000
G26  21929173.375 5 115238583.543 5      2554.141          30.000
G29  20707856.328 8 108820519.205 8     -1465.324          51.000    20707855.648 8  84795214.047 8     -1141.811          51.000
G31  21205726.039 7 111436878.008 7      -713.898          44.000    21205724.320 7  86833893.576 7      -556.284          44.000
R11  19578862.250 8 104623524.004 8     -1819.371          50.000    19578865.477 8  81373813.867 8     -1415.066          50.000
R21  19830908.172 6 106119194.008 6     -2129.688          38.000    19830909.117 5  82537195.751 5     -1656.421          34.000
R22  19849672.234 8 105958889.374 8      2026.012          51.000    19849675.172 8  82412497.769 8      1575.787          49.000
C11  22197894.633 8 115590285.289 8      1290.352          49.000    22197894.680 8  89381765.950 8       997.827          51.000
C12  22226492.219 8 115739250.660 8     -1678.754          51.000    22226491.789 8  89496952.006 8     -1298.040          51.000
C24  24542123.984 8 127797344.271 8     -3129.098          50.000
C25  22023280.227 8 114681001.976 8      -569.262          51.000
E13  23631023.805 8 124181872.514 8      1466.312          51.000    23631024.938 8  95152365.761 8      1123.544          51.000
E15  23910793.945 6 125652085.213 6     -1404.301          40.000    23910797.672 8  96278881.652 8     -1075.969          50.000
E27  23860427.883 8 125387379.190 8     -1426.074          50.000    23860429.922 8  96076052.165 8     -1092.685          51.000
> 2020 05 12 12 15  0.0000000  0 15        .000000000000
G18  21355723.398 8 112225149.563 8      2500.953          49.000    21355723.773 7  87448150.899 7      1948.795          47.000
G21  21429987.844 8 112615393.385 8      2078.660          51.000    21429985.867 7  87752229.807 7      1619.735          47.000
G25  22223043.625 5 116782868.780 5     -2718.262          34.000    22223048.500 5  90999649.663 5     -2118.123          34.000
G29  20716252.422 8 108864641.127 8     -1476.051          51.000    20716251.594 8  84829594.747 8     -1150.172          51.000
G31  21209857.258 7 111458591.496 7      -733.039          42.000    21209856.273 7  86850813.167 7      -571.199          42.000
R11  19589138.273 8 104678436.889 8     -1841.465          50.000    19589141.812 8  81416523.893 8     -1432.250          50.000
R21  19842894.430 6 106183333.768 6     -2146.500          39.000    19842895.344 5  82587082.174 5     -1669.506          31.000
R22  19838342.453 8 105898412.784 8      2005.863          50.000    19838346.680 8  82365460.450 8      1560.119          49.000
C11  22190494.180 8 115551751.353 8      1278.391          48.000    22190494.492 8  89351969.085 8       988.714          51.000
C12  22236190.188 8 115789750.215 8     -1687.887          51.000    22236189.680 8  89536001.475 8     -1305.100          51.000
C24  24560171.406 8 127891319.958 8     -3135.898          50.000
C25  22026607.008 8 114698325.241 8      -585.508          51.000
E13  23622687.227 8 124138065.456 8      1454.297          51.000    23622688.086 8  95118799.334 8      1114.334          51.000
E15  23918840.992 7 125694374.950 7     -1415.113          42.000    23918845.273 8  96311285.478 8     -1084.191          51.000
E27  23868597.133 8 125430311.729 8     -1435.953          50.000    23868599.922 8  96108948.516 8     -1100.234          51.000
> 2020 05 12 12 15 30.0000000  0 15        .000000000000
G18  21341484.680 8 112150327.354 8      2486.133          49.000    21341484.953 7  87389847.922 7      1937.246          46.000
G21  21418160.195 8 112553240.384 8      2063.809          51.000    21418158.789 7  87703798.903 7      1608.163          47.000
G25  22238585.945 6 116864543.395 6     -2727.352          41.000    22238589.859 6  91063292.265 6     -2125.209          40.000
G29  20724705.977 8 108909064.741 8     -1486.535          51.000    20724705.125 8  84864210.533 8     -1158.339          51.000
G31  21214095.250 7 111480863.709 7      -752.465          44.000    21214094.492 7  86868168.152 7      -586.336          44.000
R11  19599535.297 8 104733994.272 8     -1863.371          51.000    19599538.969 8  81459735.221 8     -1449.286          51.000
R21  19854969.305 6 106247956.519 6     -2162.695          37.000    19854971.273 5  82637344.356 5     -1682.096          34.000
R22  19827123.008 8 105838523.997 8      1985.703          51.000    19827127.648 8  82318880.332 8      1544.436          49.000
C11  22183158.250 8 115513553.849 8      1266.926          48.000    22183158.531 8  89322432.343 8       979.707          51.000
C12  22245937.391 8 115840505.959 8     -1696.871          51.000    22245936.852 8  89575249.040 8     -1312.056          51.000
C24  24578253.992 8 127985480.941 8     -3142.543          50.000
C25  22030024.000 8 114716117.119 8      -601.637          51.000
E13  23614416.086 8 124094601.078 8      1442.379          51.000    23614416.703 8  95085495.483 8      1105.184          51.000
E15  23926946.000 7 125736968.719 7     -1425.465          44.000    23926950.414 8  96343922.246 8     -1092.287          50.000
E27  23876819.430 8 125473522.118 8     -1445.633          51.000    23876822.664 8  96142057.783 8     -1107.723          51.000
> 2020 05 12 12 16  0.0000000  0 15        .000000000000
G18  21327329.328 8 112075942.679 8      2472.613          49.000    21327329.297 7  87331885.857 7      1926.712          46.000
G21  21406414.945 8 112491524.047 8      2050.449          48.000    21406414.844 8  87655708.242 8      1597.753          48.000
G25  22254176.555 7 116946467.417 7     -2734.391          42.000    22254177.836 7  91127129.077 7     -2130.697          42.000
G29  20733217.352 8 108953792.676 8     -1495.508          51.000    20733216.508 8  84899063.458 8     -1165.331          51.000
G31  21218440.633 7 111503697.813 7      -770.051          46.000    21218439.672 7  86885960.977 7      -600.043          46.000
R11  19610053.758 8 104790199.251 8     -1883.828          51.000    19610057.195 8  81503450.217 8     -1465.200          51.000
R21  19867135.766 6 106313063.687 6     -2177.879          40.000    19867141.055 5  82687983.241 5     -1693.906          33.000
R22  19816015.578 8 105779227.769 8      1967.125          51.000    19816019.352 8  82272761.070 8      1529.986          49.000
C11  22175887.805 8 115475696.642 8      1256.812          48.000    22175887.688 8  89293158.751 8       971.796          51.000
C12  22255734.156 8 115891520.121 8     -1704.223          51.000    22255733.578 8  89614696.433 8     -1317.831          51.000
C24  24596372.203 8 128079829.473 8     -3147.523          49.000
C25  22033531.672 8 114734381.475 8      -616.211          51.000
E13  23606211.094 8 124051483.751 8      1431.949          51.000    23606211.570 8  95052457.545 8      1097.187          51.000
E15  23935109.570 7 125779869.040 7     -1434.602          42.000    23935114.188 8  96376793.903 8     -1099.213          50.000
E27  23885095.594 8 125517014.270 8     -1453.883          51.000    23885098.828 8  96175382.920 8     -1114.020          51.000
> 2020 05 12 12 16 30.0000000  0 15        .000000000000
G18  21313257.875 8 112001997.553 8      2457.195          49.000    21313257.312 7  87274266.290 7      1914.698          46.000
G21  21394752.789 7 112430245.304 7      2034.898          47.000    21394753.836 7  87607958.545 7      1585.632          47.000
G25  22269814.469 7 117028639.750 7     -2743.719          43.000    22269814.711 7  91191159.328 7     -2137.966          43.000
G29  20741786.336 8 108998823.205 8     -1506.480          51.000    20741785.359 8  84934152.169 8     -1173.881          51.000
G31  21222892.867 7 111527092.936 7      -789.512          47.000    21222891.758 7  86904190.929 7      -615.204          47.000
R11  19620693.156 8 104847050.654 8     -1906.254          51.000    19620696.367 8  81547667.976 8     -1482.642          50.000
R21  19879392.648 5 106378651.729 5     -2194.520          35.000    19879396.352 4  82738996.099 4     -1706.849          29.000
R22  19805019.242 8 105720524.947 8      1946.457          51.000    19805021.703 8  82227103.332 8      1513.911          48.000
C11  22168683.180 8 115438179.729 8      1244.508          49.000    22168682.617 8  89264148.329 8       962.245          51.000
C12  22265580.312 8 115942791.170 8     -1713.691          51.000    22265579.555 8  89654342.451 8     -1325.192          51.000
C24  24614526.141 8 128174363.831 8     -3154.598          48.000
C25  22037130.102 8 114753118.215 8      -632.887          51.000
E13  23598072.203 8 124008713.774 8      1419.410          51.000    23598072.461 8  95019685.733 8      1087.639          51.000
E15  23943331.781 7 125823074.371 7     -1445.477          43.000    23943336.242 8  96409899.336 8     -1107.708          51.000
E27  23893425.586 8 125560788.056 8     -1464.254          51.000    23893428.742 8  96208923.850 8     -1121.949          51.000
> 2020 05 12 12 17  0.0000000  0 15        .000000000000
G18  21299273.477 8 111928508.802 8      2442.238          49.000    21299272.273 7  87217002.319 7      1903.043          45.000
G21  21383177.781 8 112369420.383 8      2020.098          49.000    21383178.867 7  87560562.494 7      1574.102          47.000
G25  22285502.203 6 117111074.334 6     -2752.027          40.000    22285501.539 6  91255393.881 6     -2144.440          40.000
G29  20750415.445 8 109044169.668 8     -1516.594          51.000    20750414.398 8  84969487.059 8     -1181.761          51.000
G31  21227454.492 7 111551063.306 7      -808.316          46.000    21227453.195 7  86922869.117 7      -629.860          46.000
R11  19631455.938 8 104904562.212 8     -1927.762          51.000    19631458.914 8  81592399.157 8     -1499.373          48.000
R21  19891740.914 6 106444732.333 6     -2211.172          38.000    19891745.102 5  82790392.183 5     -1719.794          31.000
R22  19794136.977 8 105662431.054 8      1926.484          51.000    19794138.820 8  82181919.195 8      1498.377          50.000
C11  22161546.859 8 115401017.519 8      1233.023          50.000    22161546.297 8  89235412.162 8       953.455          51.000
C12  22275478.406 8 115994332.129 8     -1722.258          51.000    22275477.430 8  89694197.179 8     -1331.810          51.000
C24  24632718.102 7 128269096.892 7     -3160.879          47.000
C25  22040822.117 8 114772341.770 8      -648.711          51.000
E13  23590002.203 8 123966306.143 8      1407.742          51.000    23590002.281 8  94987191.547 8      1078.672          51.000
E15  23951614.312 7 125866598.160 7     -1455.867          46.000    23951618.477 8  96443248.711 8     -1115.538          50.000
E27  23901812.117 8 125604858.104 8     -1473.719          51.000    23901815.055 8  96242691.780 8     -1129.225          51.000
> 2020 05 12 12 17 30.0000000  0 15        .000000000000
G18  21285377.148 8 111855482.974 8      2426.996          48.000    21285375.930 7  87160099.082 7      1891.166          45.000
G21  21371690.953 8 112309055.069 8      2004.984          51.000    21371691.219 7  87513524.594 7      1562.325          46.000
G25  22301239.820 5 117193774.608 5     -2760.414          34.000    22301239.570 5  91319835.595 5     -2150.975          34.000
G29  20759105.352 8 109089835.280 8     -1527.008          51.000    20759104.398 8  85005070.651 8     -1189.876          51.000
G31  21232125.742 7 111575612.468 7      -827.625          45.000    21232124.391 7  86941998.298 7      -644.906          45.000
R11  19642342.695 8 104962737.452 8     -1949.637          51.000    19642345.031 7  81637646.530 7     -1516.384          46.000
R21  19904181.961 6 106511307.008 6     -2226.949          39.000    19904186.039 4  82842172.504 4     -1732.072          26.000
R22  19783369.578 8 105604951.309 8      1906.242          51.000    19783371.328 8  82137212.727 8      1482.633          50.000
C11  22154479.469 8 115364214.457 8      1221.324          49.000    22154479.266 8  89206953.692 8       944.345          51.000
C12  22285428.812 8 116046145.947 8     -1731.156          51.000    22285427.766 8  89734262.891 8     -1338.637          51.000
C24  24650949.016 7 128364031.421 7     -3167.254          47.000
C25  22044608.328 8 114792056.529 8      -664.801          51.000
E13  23582002.094 8 123924265.731 8      1395.746          51.000    23582002.289 8  94954978.755 8      1069.417          51.000
E15  23959957.891 7 125910443.336 7     -1466.371          47.000    23959961.711 8  96476844.338 8     -1123.634          50.000
E27  23910255.797 8 125649228.786 8     -1483.574          51.000    23910258.445 8  96276690.074 8     -1136.741          51.000
> 2020 05 12 12 18  0.0000000  0 14        .000000000000
G18  21271568.250 8 111782917.062 8      2411.582          49.000    21271567.719 7  87103554.243 7      1879.155          47.000
G21  21360291.258 8 112249145.769 8      1989.832          51.000    21360290.633 7  87466842.040 7      1550.522          47.000
G29  20767854.750 8 109135813.574 8     -1537.344          51.000    20767854.008 8  85040897.887 8     -1197.930          51.000
G31  21236905.898 7 111600734.468 7      -846.582          46.000    21236904.688 7  86961573.848 7      -659.674          46.000
R11  19653352.359 8 105021569.827 8     -1971.574          51.000    19653354.164 7  81683404.989 7     -1533.450          47.000
R21  19916714.094 6 106578367.236 6     -2242.738          39.000    19916715.906 4  82894330.391 4     -1744.352          29.000
R22  19772715.773 8 105548081.371 8      1885.926          51.000    19772717.789 8  82092980.535 8      1466.831          51.000
C11  22147479.930 8 115327765.418 8      1209.543          49.000    22147480.266 8  89178768.987 8       935.265          51.000
C12  22295430.289 8 116098226.013 8     -1740.027          51.000    22295429.203 8  89774534.484 8     -1345.439          51.000
C24  24669217.680 7 128459160.732 7     -3173.660          47.000
C25  22048487.797 8 114812257.308 8      -680.895          51.000
E13  23574071.219 8 123882587.783 8      1383.672          51.000    23574071.555 8  94923043.696 8      1060.243          51.000
E15  23968361.367 8 125954603.416 8     -1476.844          48.000    23968365.297 8  96510681.284 8     -1131.524          50.000
E27  23918755.789 8 125693894.940 8     -1493.391          51.000    23918758.125 8  96310914.772 8     -1144.235          51.000
> 2020 05 12 12 18 30.0000000  0 15        .000000000000
G18  21257842.969 8 111710789.411 8      2397.039          50.000    21257843.000 7  87047350.911 7      1867.823          46.000
G21  21348974.000 8 112189670.121 8      1975.395          51.000    21348973.055 7  87420497.406 7      1539.268          47.000
G25  22332856.594 6 117359948.901 6     -2776.902          38.000    22332857.656 6  91449314.377 6     -2163.820          37.000
G29  20776658.953 8 109182079.573 8     -1546.812          51.000    20776658.289 8  85076949.309 8     -1205.308          51.000
G31  21241790.664 7 111626404.867 7      -864.648          47.000    21241789.609 7  86981576.763 7      -673.755          47.000
R11  19664480.219 8 105081034.140 8     -1992.477          51.000    19664482.078 8  81729654.966 8     -1549.704          48.000
R21  19929331.828 6 106645885.664 6     -2258.047          39.000    19929334.141 5  82946844.693 5     -1756.259          31.000
R22  19762170.836 8 105491797.612 8      1866.504          50.000    19762173.891 8  82049204.276 8      1451.725          50.000
C11  22140543.812 8 115291646.851 8      1198.574          49.000    22140544.695 8  89150839.844 8       926.829          51.000
C12  22305478.086 8 116150547.299 8     -1747.906          51.000    22305476.992 8  89814992.610 8     -1351.595          51.000
C24  24687519.180 8 128554459.584 8     -3179.172          48.000
C25  22052455.805 8 114832920.455 8      -696.266          51.000
E13  23566204.875 8 123841248.895 8      1372.410          51.000    23566205.367 8  94891368.451 8      1051.557          51.000
E15  23976820.008 8 125999053.282 8     -1486.312          48.000    23976824.109 8  96544740.270 8     -1138.884          50.000
E27  23927307.398 8 125738832.699 8     -1502.328          51.000    23927309.477 8  96345347.582 8     -1151.114          51.000
> 2020 05 12 12 19  0.0000000  0 15        .000000000000
G18  21244200.992 8 111639099.242 8      2382.039          49.000    21244200.977 7  86991488.446 7      1856.134          46.000
G21  21337738.609 8 112130626.598 8      1960.582          51.000    21337737.891 7  87374489.491 7      1527.729          47.000
G25  22348733.852 7 117443375.791 7     -2785.180          42.000    22348735.312 7  91514322.290 7     -2170.273          42.000
G29  20785516.992 8 109228628.726 8     -1556.672          51.000    20785516.438 8  85113221.366 8     -1212.991          51.000
G31  21246779.250 8 111652619.822 8      -883.340          48.000    21246778.227 8  87002003.985 8      -688.317          48.000
R11  19675725.844 8 105141126.357 8     -2013.840          51.000    19675727.852 8  81776393.336 8     -1566.323          48.000
R21  19942034.266 6 106713856.008 6     -2273.520          39.000    19942036.492 5  82999710.524 5     -1768.293          32.000
R22  19751735.695 8 105436097.754 8      1846.547          51.000    19751738.836 8  82005882.176 8      1436.203          48.000
C11  22133670.516 8 115255855.725 8      1187.242          49.000    22133671.898 8  89123163.900 8       918.000          51.000
C12  22315571.289 8 116203105.409 8     -1756.246          51.000    22315570.172 8  89855633.857 8     -1358.038          51.000
C24  24705852.828 8 128649923.487 8     -3185.184          48.000
C25  22056511.641 8 114854042.965 8      -712.094          51.000
E13  23558402.422 8 123800246.455 8      1360.688          51.000    23558403.117 8  94859951.006 8      1042.620          51.000
E15  23985333.023 8 126043788.596 8     -1496.383          48.000    23985336.836 8  96579017.966 8     -1146.570          49.000
E27  23935910.016 8 125784039.085 8     -1511.734          51.000    23935911.727 8  96379986.224 8     -1158.381          51.000
> 2020 05 12 12 19 30.0000000  0 15        .000000000000
G18  21230647.406 8 111567875.034 8      2365.945          48.000    21230647.234 7  86935989.077 7      1843.594          46.000
G21  21326590.234 8 112072042.780 8      1944.695          50.000    21326589.703 7  87328839.761 7      1515.350          46.000
G25  22364658.383 6 117527059.837 6     -2794.117          41.000    22364659.703 6  91579530.515 6     -2177.240          41.000
G29  20794433.711 8 109275486.035 8     -1567.395          51.000    20794433.125 8  85149733.553 8     -1221.346          51.000
G31  21251876.398 8 111679405.020 8      -902.781          48.000    21251875.383 7  87022875.537 7      -703.469          47.000
R11  19687093.766 8 105201871.944 8     -2036.113          51.000    19687095.820 8  81823639.868 8     -1583.644          49.000
R21  19954825.680 6 106782302.307 6     -2289.531          38.000    19954826.977 5  83052946.478 5     -1780.747          33.000
R22  19741415.570 8 105381009.571 8      1825.609          51.000    19741418.547 8  81963035.868 8      1419.921          49.000
C11  22126864.961 7 115220418.336 7      1175.020          47.000    22126866.914 8  89095761.473 8       908.657          51.000
C12  22325714.680 8 116255925.059 8     -1765.340          51.000    22325713.539 8  89896477.341 8     -1365.021          51.000
C24  24724222.930 7 128745576.997 7     -3191.922          47.000
C25  22060661.000 8 114875650.915 8      -728.668          51.000
E13  23550668.898 8 123759607.321 8      1348.203          51.000    23550670.062 8  94828811.951 8      1033.075          51.000
E15  23993904.984 8 126088834.411 8     -1506.996          49.000    23993908.383 8  96613533.581 8     -1154.762          50.000
E27  23944568.680 8 125829540.507 8     -1521.934          51.000    23944569.820 8  96414850.931 8     -1166.163          51.000
> 2020 05 12 12 20  0.0000000  0 15        .000000000000
G18  21217182.711 7 111497119.892 7      2350.891          46.000    21217182.836 7  86880855.228 7      1831.866          45.000
G21  21315529.875 8 112013921.185 8      1929.863          51.000    21315529.055 7  87283550.208 7      1503.793          45.000
G25  22380631.828 7 117611001.228 7     -2802.004          42.000    22380633.352 6  91644939.323 6     -2183.380          41.000
G29  20803409.023 8 109322651.213 8     -1577.027          51.000    20803408.367 8  85186485.635 8     -1228.852          51.000
G31  21257082.047 8 111706760.623 8      -921.133          48.000    21257080.703 8  87044191.558 8      -717.766          48.000
R11  19698584.062 8 105263270.812 8     -2057.281          51.000    19698585.922 8  81871394.512 8     -1600.108          48.000
R21  19967704.328 6 106851222.095 6     -2305.059          38.000    19967706.438 5  83106550.818 5     -1792.823          34.000
R22  19731210.383 8 105326534.913 8      1805.867          50.000    19731213.992 8  81920666.704 8      1404.563          50.000
C11  22120127.344 7 115185335.621 7      1163.781          47.000    22120129.797 8  89068633.317 8       899.885          51.000
C12  22335908.336 8 116309005.792 8     -1773.359          51.000    22335907.047 8  89937522.712 8     -1371.349          51.000
C24  24742628.273 7 128841419.464 7     -3197.508          43.000
C25  22064903.938 8 114897745.202 8      -744.312          51.000
E13  23543004.789 8 123719332.875 8      1336.613          51.000    23543006.398 8  94797952.323 8      1024.185          51.000
E15  24002536.008 8 126134190.391 8     -1516.797          50.000    24002539.164 8  96648286.845 8     -1162.263          50.000
E27  23953283.609 8 125875337.913 8     -1531.289          51.000    23953284.281 8  96449942.416 8     -1173.248          51.000
> 2020 05 12 12 20 30.0000000  0 15        .000000000000
G18  21203811.070 7 111426853.319 7      2333.699          46.000    21203811.391 7  86826102.069 7      1818.467          46.000
G21  21304561.445 8 111956280.643 8      1912.809          51.000    21304559.969 7  87238635.520 7      1490.500          45.000
G25  22396656.828 6 117695216.574 6     -2812.277          39.000    22396658.219 6  91710561.647 6     -2191.382          38.000
G29  20812446.008 8 109370140.442 8     -1588.855          51.000    20812445.266 8  85223490.224 8     -1238.069          51.000
G31  21262399.391 8 111734703.119 8      -941.707          49.000    21262397.352 8  87065964.933 8      -733.798          48.000
R11  19710199.289 8 105325339.544 8     -2080.656          51.000    19710201.555 8  81919670.174 8     -1618.288          48.000
R21  19980675.695 6 106920630.304 6     -2322.371          38.000    19980677.352 5  83160534.950 5     -1806.289          35.000
R22  19721123.688 8 105272691.795 8      1783.852          51.000    19721127.953 8  81878788.738 8      1387.443          50.000
C11  22113461.633 8 115150624.719 8      1150.441          48.000    22113463.711 8  89041792.652 8       889.549          51.000
C12  22346155.078 8 116362363.423 8     -1783.602          51.000    22346153.867 8  89978782.200 8     -1379.245          51.000
C24  24761068.930 5 128937466.483 5     -3205.074          34.000
C25  22069243.195 8 114920342.949 8      -762.031          50.000
E13  23535413.594 8 123679440.865 8      1322.898          51.000    23535415.477 8  94767385.721 8      1013.637          51.000
E15  24011229.094 8 126179872.586 8     -1528.645          50.000    24011232.297 8  96683290.070 8     -1171.290          50.000
E27  23962058.336 8 125921448.637 8     -1542.684          51.000    23962058.820 8  96485273.975 8     -1182.077          51.000
> 2020 05 12 12 21  0.0000000  0 16        .000000000000
G18  21190533.789 8 111357080.658 8      2320.125          48.000    21190534.250 7  86771733.789 7      1807.890          46.000
G21  21293685.641 8 111899125.782 8      1899.602          51.000    21293683.352 7  87194099.295 7      1480.209          45.000
G25  22412734.102 6 117779708.248 6     -2818.473          37.000    22412737.719 6  91776399.315 6     -2196.212          38.000
G26  21743176.555 5 114261163.615 5      2456.934          33.000
G29  20821544.914 8 109417955.584 8     -1596.609          51.000    20821544.289 8  85260748.774 8     -1244.111          51.000
G31  21267828.680 8 111763234.970 8      -958.234          48.000    21267826.438 8  87088197.542 8      -746.676          48.000
R11  19721939.391 8 105388079.984 8     -2099.883          49.000    19721942.969 8  81968468.264 8     -1633.242          48.000
R21  19993737.484 6 106990526.717 6     -2335.258          39.000    19993738.836 6  83214898.825 6     -1816.312          37.000
R22  19711156.531 8 105219484.275 8      1765.668          51.000    19711160.352 8  81837405.109 8      1373.297          49.000
C11  22106867.977 7 115116288.997 7      1140.797          47.000    22106869.500 8  89015242.082 8       882.182          51.000
C12  22356455.250 8 116415999.746 8     -1789.879          51.000    22356454.398 8  90020257.206 8     -1384.093          51.000
C24  24779548.977 5 129033719.586 5     -3209.969          33.000
C25  22073679.750 8 114943447.320 8      -775.961          51.000
E13  23527895.602 8 123639934.955 8      1313.008          51.000    23527897.891 8  94737114.983 8      1006.020          51.000
E15  24019984.555 8 126225882.893 8     -1536.500          51.000    24019987.602 8  96718544.724 8     -1177.384          49.000
E27  23970893.281 8 125967875.955 8     -1550.297          51.000    23970893.914 8  96520848.102 8     -1187.905          51.000
> 2020 05 12 12 21 30.0000000  0 15        .000000000000
G18  21177330.172 8 111287694.209 8      2304.832          49.000    21177330.750 7  86717666.448 7      1795.973          47.000
G21  21282881.625 8 111842348.082 8      1884.637          51.000    21282878.805 7  87149856.961 7      1468.548          46.000
G25  22428842.211 5 117864365.746 5     -2826.098          33.000    22428848.570 5  91842366.198 5     -2202.154          34.000
G29  20830684.656 8 109465985.631 8     -1606.238          51.000    20830684.273 8  85298174.770 8     -1251.614          51.000
G31  21273349.117 8 111792245.596 8      -976.625          48.000    21273347.070 8  87110803.207 8      -761.006          48.000
R11  19733783.242 7 105451379.217 7     -2120.965          46.000    19733788.766 8  82017700.958 8     -1649.639          48.000
R21  20006870.273 6 107060796.562 6     -2350.590          40.000    20006871.102 6  83269553.134 6     -1828.237          37.000
R22  19701287.547 8 105166801.520 8      1745.645          51.000    19701290.695 8  81796429.645 8      1357.727          49.000
C11  22100324.820 7 115082219.491 7      1129.566          45.000    22100326.430 8  88988897.396 8       873.549          51.000
C12  22366787.820 8 116469804.461 8     -1797.938          51.000    22366787.242 8  90061862.421 8     -1390.155          51.000
C24  24798055.086 6 129130068.612 6     -3214.695          41.000
C25  22078192.984 8 114966949.333 8      -791.680          51.000
E13  23520430.328 8 123600705.702 8      1301.457          51.000    23520432.961 8  94707056.216 8       997.238          51.000
E15  24028781.250 8 126272110.201 8     -1546.094          51.000    24028783.875 8  96753965.621 8     -1184.645          49.000
E27  23979767.625 8 126014509.953 8     -1559.430          51.000    23979768.453 8  96556580.597 8     -1194.876          51.000
> 2020 05 12 12 22  0.0000000  0 15        .000000000000
G18  21164217.578 8 111218786.284 8      2289.035          49.000    21164217.977 7  86663971.957 7      1783.664          47.000
G21  21272166.453 8 111786039.027 8      1869.340          51.000    21272163.477 7  87105979.794 7      1456.628          46.000
G25  22445000.203 5 117949278.382 5     -2834.508          34.000    22445006.336 5  91908531.932 5     -2208.707          35.000
G29  20839882.312 8 109514319.587 8     -1615.996          51.000    20839882.055 8  85335837.567 8     -1259.221          51.000
G31  21278977.742 8 111821824.125 8      -995.234          48.000    21278976.141 8  87133851.404 8      -775.507          48.000
R11  19745749.727 8 105515327.795 8     -2142.207          49.000    19745756.203 8  82067438.737 8     -1666.161          49.000
R21  20020088.719 6 107131528.533 6     -2365.184          38.000    20020089.289 6  83324566.869 6     -1839.587          37.000
R22  19691533.766 8 105114735.892 8      1725.496          51.000    19691536.805 8  81755934.177 8      1342.053          50.000
C11  22093850.219 7 115048505.637 7      1118.070          47.000    22093851.562 8  88962827.714 8       864.539          51.000
C12  22377169.695 8 116523865.685 8     -1806.125          51.000    22377169.156 8  90103665.983 8     -1396.595          51.000
C24  24816595.711 7 129226601.308 7     -3220.598          45.000
C25  22082799.820 8 114990938.255 8      -807.520          51.000
E13  23513035.211 8 123561843.709 8      1289.449          51.000    23513038.102 8  94677278.843 8       988.029          51.000
E15  24037636.125 8 126318643.355 8     -1556.004          51.000    24037638.750 8  96789620.867 8     -1192.263          50.000
E27  23988698.492 8 126061440.866 8     -1569.148          51.000    23988699.359 8  96592540.611 8     -1202.320          51.000
> 2020 05 12 12 22 30.0000000  0 15        .000000000000
G18  21151195.047 8 111150352.821 8      2273.180          48.000    21151195.672 7  86610647.171 7      1771.309          47.000
G21  21261539.148 8 111730194.153 8      1853.691          50.000    21261536.711 7  87062464.299 7      1444.435          45.000
G25  22461206.602 6 118034439.480 6     -2842.941          38.000    22461210.633 6  91974891.230 6     -2215.279          39.000
G29  20849136.344 8 109562949.823 8     -1626.004          51.000    20849136.102 8  85373731.236 8     -1267.016          51.000
G31  21284713.016 8 111851963.663 8     -1014.152          48.000    21284711.828 8  87157336.735 8      -790.249          48.000
R11  19757837.594 8 105579918.360 8     -2163.645          50.000    19757843.703 8  82117675.854 8     -1682.835          51.000
R21  20033390.336 6 107202713.263 6     -2380.281          37.000    20033391.578 6  83379932.811 6     -1851.327          36.000
R22  19681894.617 8 105063281.578 8      1704.969          51.000    19681897.898 8  81715914.161 8      1326.087          51.000
C11  22087443.594 8 115015141.474 8      1106.336          48.000    22087443.586 8  88937028.409 8       855.513          51.000
C12  22387599.391 8 116578175.940 8     -1814.418          51.000    22387598.703 8  90145662.097 8     -1403.096          51.000
C24  24835169.562 7 129323310.014 7     -3226.617          45.000
C25  22087499.273 8 115015407.893 8      -823.727          51.000
E13  23505708.820 8 123523343.256 8      1277.324          51.000    23505711.773 8  94647778.498 8       978.777          51.000
E15  24046547.820 8 126365474.935 8     -1566.020          51.000    24046550.969 8  96825504.798 8     -1199.949          50.000
E27  23997684.562 8 126108662.571 8     -1578.941          51.000    23997685.414 8  96628723.457 8     -1209.802          51.000
> 2020 05 12 12 23  0.0000000  0 15        .000000000000
G18  21138262.906 8 111082394.053 8      2257.066          49.000    21138263.875 7  86557692.299 7      1758.753          46.000
G21  21250999.844 8 111674812.799 8      1838.012          50.000    21250998.273 7  87019310.020 7      1432.217          44.000
G25  22477460.078 6 118119846.303 6     -2851.121          40.000    22477461.805 6  92041441.916 6     -2221.656          40.000
G29  20858446.227 8 109611873.264 8     -1635.926          51.000    20858445.898 8  85411853.380 8     -1274.747          51.000
G31  21290554.531 8 111882661.573 8     -1032.793          48.000    21290553.477 8  87181257.179 8      -804.774          48.000
R11  19770044.977 8 105645147.469 8     -2185.168          51.000    19770050.375 8  82168409.598 8     -1699.575          51.000
R21  20046776.367 6 107274345.909 6     -2395.715          36.000    20046777.820 5  83435647.099 5     -1863.331          35.000
R22  19672369.328 8 105012437.409 8      1684.270          51.000    19672373.727 8  81676368.692 8      1309.987          51.000
C11  22081103.852 8 114982125.060 8      1094.480          48.000    22081102.453 8  88911498.012 8       846.304          51.000
C12  22398076.242 8 116632731.881 8     -1822.879          51.000    22398075.500 8  90187848.190 8     -1409.584          51.000
C24  24853775.570 7 129420191.261 7     -3232.598          45.000
C25  22092290.758 8 115040356.266 8      -839.895          51.000
E13  23498450.648 8 123485202.819 8      1265.004          51.000    23498453.305 8  94618554.029 8       969.265          51.000
E15  24055515.805 8 126412601.778 8     -1576.121          51.000    24055519.273 8  96861614.958 8     -1207.653          50.000
E27  24006725.461 8 126156173.156 8     -1588.871          51.000    24006726.594 8  96665127.660 8     -1217.405          51.000
> 2020 05 12 12 23 30.0000000  0 15        .000000000000
G18  21125423.828 8 111014922.692 8      2240.355          49.000    21125424.578 7  86505117.214 7      1745.735          46.000
G21  21240551.211 8 111619906.965 8      1821.719          50.000    21240549.703 7  86976526.263 7      1419.521          44.000
G25  22493762.305 7 118205508.777 7     -2860.188          43.000    22493763.000 7  92108191.838 7     -2228.718          42.000
G29  20867813.688 8 109661099.183 8     -1646.430          51.000    20867813.219 8  85450211.215 8     -1282.932          51.000
G31  21296504.117 8 111913927.513 8     -1052.211          48.000    21296502.789 8  87205620.237 8      -819.905          48.000
R11  19782373.828 8 105711024.806 8     -2207.227          51.000    19782378.227 8  82219647.519 8     -1716.732          50.000
R21  20060246.766 6 107346434.143 6     -2411.148          37.000    20060249.227 5  83491715.793 5     -1875.338          31.000
R22  19662960.219 8 104962214.747 8      1663.172          51.000    19662965.883 8  81637306.626 8      1293.578          51.000
C11  22074832.406 7 114949466.949 7      1082.234          47.000    22074830.633 8  88886244.694 8       836.786          51.000
C12  22408602.094 8 116687542.765 8     -1831.754          51.000    22408601.375 8  90230231.431 8     -1416.419          51.000
C24  24872415.727 7 129517253.986 7     -3238.879          42.000
C25  22097176.109 8 115065793.771 8      -856.566          51.000
E13  23491263.438 8 123447433.450 8      1252.293          51.000    23491265.320 8  94589613.867 8       959.552          51.000
E15  24064541.781 8 126460033.212 8     -1586.617          51.000    24064544.969 8  96897958.505 8     -1215.738          51.000
E27  24015823.188 8 126203983.243 8     -1599.195          51.000    24015825.148 8  96701761.347 8     -1225.334          51.000
> 2020 05 12 12 24  0.0000000  0 15        .000000000000
G18  21112676.328 8 110947932.342 8      2224.781          50.000    21112676.445 7  86452916.949 7      1733.596          46.000
G21  21230191.922 8 111565469.534 8      1806.629          50.000    21230190.492 7  86934107.487 7      1407.763          45.000
G25  22510111.383 7 118291417.658 7     -2867.543          42.000    22510112.227 7  92175133.782 7     -2234.452          42.000
G29  20877236.891 8 109710618.155 8     -1655.574          51.000    20877236.242 8  85488797.410 8     -1290.058          51.000
G31  21302559.953 8 111945752.187 8     -1070.207          48.000    21302558.516 8  87230418.657 8      -833.928          48.000
R11  19794822.047 8 105777540.445 8     -2227.887          51.000    19794825.336 8  82271381.877 8     -1732.804          48.000
R21  20073802.016 6 107418966.321 6     -2425.270          39.000    20073801.742 4  83548129.587 4     -1886.321          29.000
R22  19653667.047 8 104912605.687 8      1643.301          51.000    19653672.633 8  81598721.829 8      1278.123          51.000
C11  22068627.961 8 114917158.794 8      1071.082          48.000    22068626.391 8  88861261.993 8       828.207          51.000
C12  22419175.102 8 116742598.864 8     -1839.375          51.000    22419174.344 8  90272804.288 8     -1422.303          51.000
C24  24891088.016 6 129614488.295 6     -3243.688          39.000
C25  22102153.625 8 115091711.908 8      -872.031          51.000
E13  23484145.344 8 123410027.079 8      1240.844          51.000    23484146.617 8  94560951.850 8       950.711          51.000
E15  24073623.711 8 126507759.460 8     -1595.840          51.000    24073626.641 8  96934527.959 8     -1222.783          51.000
E27  24024976.148 8 126252084.354 8     -1608.273          51.000    24024979.023 8  96738618.048 8     -1232.292          51.000
> 2020 05 12 12 24 30.0000000  0 15        .000000000000
G18  21100019.219 8 110881417.574 8      2209.277          50.000    21100018.711 7  86401087.294 7      1721.515          47.000
G21  21219920.781 8 111511494.154 8      1791.527          49.000    21219919.367 7  86892048.730 7      1395.995          45.000
G25  22526505.320 7 118377564.850 7     -2875.598          43.000    22526506.375 7  92242261.396 7     -2240.728          43.000
G29  20886714.180 8 109760421.642 8     -1664.781          51.000    20886713.367 8  85527605.303 8     -1297.232          51.000
G31  21308720.695 8 111978127.111 8     -1088.379          49.000    21308719.633 8  87255645.842 8      -848.087          49.000
R11  19807388.039 8 105844685.345 8     -2248.594          51.000    19807389.828 7  82323605.665 7     -1748.909          46.000
R21  20087438.992 4 107491931.674 4     -2439.836          28.000    20087438.016 4  83604880.403 4     -1897.650          28.000
R22  19644487.875 8 104863602.951 8      1623.277          51.000    19644492.898 8  81560608.627 8      1262.552          51.000
C11  22062489.555 8 114885193.208 8      1059.812          48.000    22062488.055 8  88836544.190 8       819.508          51.000
C12  22429793.539 8 116797891.516 8     -1847.074          51.000    22429792.734 8  90315560.057 8     -1428.263          51.000
C24  24909791.211 6 129711885.246 6     -3249.348          37.000
C25  22107221.859 8 115118103.117 8      -887.535          51.000
E13  23477094.875 8 123372976.595 8      1229.023          51.000    23477095.742 8  94532562.540 8       941.749          51.000
E15  24082760.148 8 126555771.827 8     -1605.207          51.000    24082763.305 8  96971316.649 8     -1229.979          51.000
E27  24034183.023 8 126300469.046 8     -1617.535          51.000    24034186.531 8  96775692.048 8     -1239.431          51.000
> 2020 05 12 12 25  0.0000000  0 15        .000000000000
G18  21087453.547 8 110815383.720 8      2193.633          50.000    21087452.594 8  86349632.369 8      1709.324          48.000
G21  21209738.562 8 111457985.881 8      1776.375          49.000    21209737.164 7  86850353.996 7      1384.191          44.000
G25  22542944.820 6 118463952.625 6     -2882.996          41.000    22542946.375 6  92309576.519 6     -2246.494          40.000
G29  20896245.922 8 109810511.470 8     -1673.797          51.000    20896245.180 8  85566636.327 8     -1304.257          51.000
G31  21314986.602 8 112011054.568 8     -1106.129          49.000    21314986.312 8  87281303.581 8      -861.919          49.000
R11  19820072.031 8 105912461.377 8     -2269.117          51.000    19820072.414 7  82376320.315 7     -1764.872          46.000
R21  20101152.289 5 107565308.205 5     -2453.230          35.000    20101151.727 4  83661916.711 4     -1908.074          25.000
R22  19635423.117 8 104815210.529 8      1603.523          51.000    19635427.477 8  81522970.095 8      1247.188          51.000
C11  22056417.250 7 114853573.274 7      1048.832          47.000    22056416.133 8  88812093.673 8       811.002          51.000
C12  22440457.766 8 116853422.408 8     -1854.395          51.000    22440456.930 8  90358500.054 8     -1433.948          51.000
C24  24928526.406 5 129809446.394 5     -3253.871          35.000
C25  22112381.398 8 115144970.392 8      -902.926          51.000
E13  23470112.859 8 123336285.617 8      1217.641          51.000    23470113.234 8  94504448.705 8       933.000          51.000
E15  24091951.492 8 126604072.218 8     -1614.133          51.000    24091955.055 8  97008326.031 8     -1236.851          51.000
E27  24043444.664 8 126349140.538 8     -1626.574          51.000    24043448.414 8  96812985.795 8     -1246.294          51.000
> 2020 05 12 12 25 30.0000000  0 15        .000000000000
G18  21074978.742 8 110749827.186 8      2177.137          51.000    21074977.648 8  86298549.393 8      1696.473          48.000
G21  21199644.203 8 111404939.716 8      1760.414          50.000    21199642.414 7  86809019.380 7      1371.754          42.000
G25  22559428.078 6 118550574.800 6     -2891.441          39.000    22559429.484 6  92377074.246 6     -2253.071          40.000
G29  20905830.805 8 109860880.772 8     -1683.688          51.000    20905830.289 8  85605885.124 8     -1311.964          51.000
G31  21321356.500 8 112044528.233 8     -1124.984          49.000    21321357.266 8  87307386.940 8      -876.611          49.000
R11  19832872.578 8 105980861.406 8     -2290.395          51.000    19832872.664 7  82429520.276 7     -1781.421          47.000
R21  20114951.945 5 107639131.768 5     -2467.941          32.000    20114952.656 4  83719354.448 4     -1919.510          26.000
R22  19626471.773 8 104767423.394 8      1582.836          51.000    19626475.109 8  81485802.338 8      1231.098          51.000
C11  22050409.633 7 114822293.610 7      1037.023          47.000    22050409.664 8  88787906.266 8       801.771          51.000
C12  22451166.414 8 116909184.851 8     -1862.551          51.000    22451165.617 8  90401619.106 8     -1440.345          51.000
C24  24947290.219 5 129907164.884 5     -3259.730          33.000
C25  22117630.836 8 115172308.098 8      -919.047          51.000
E13  23463198.383 8 123299948.948 8      1205.238          51.000    23463197.984 8  94476606.330 8       923.524          51.000
E15  24101196.289 8 126652653.781 8     -1624.145          51.000    24101199.906 8  97045550.871 8     -1244.528          51.000
E27  24052760.117 8 126398093.241 8     -1636.621          51.000    24052763.828 8  96850495.005 8     -1253.954          51.000
> 2020 05 12 12 26  0.0000000  0 15        .000000000000
G18  21062600.148 8 110684776.344 8      2160.008          51.000    21062599.125 8  86247860.437 8      1683.123          49.000
G21  21189643.203 8 111352383.378 8      1743.855          51.000    21189640.344 7  86768066.449 7      1358.851          43.000
G25  22575960.367 6 118637456.840 6     -2901.027          38.000    22575962.297 6  92444774.481 6     -2260.541          39.000
G29  20915473.586 8 109911554.510 8     -1694.055          51.000    20915473.242 8  85645371.141 8     -1320.043          51.000
G31  21327835.164 8 112078573.186 8     -1144.305          49.000    21327836.609 8  87333915.478 8      -891.666          49.000
R11  19845794.000 8 106049910.976 8     -2312.449          51.000    19845794.836 8  82483225.442 8     -1798.575          48.000
R21  20128829.258 6 107713403.559 6     -2482.906          36.000    20128832.766 4  83777121.399 4     -1931.155          28.000
R22  19617638.383 8 104720268.313 8      1561.395          51.000    19617640.641 8  81449126.203 8      1214.421          50.000
C11  22044472.789 8 114791380.231 8      1024.434          48.000    22044473.648 8  88764002.063 8       792.181          51.000
C12  22461924.219 8 116965203.535 8     -1871.441          51.000    22461923.359 8  90444936.284 8     -1447.069          51.000
C24  24966088.219 5 130005065.018 5     -3266.402          32.000
C25  22122975.516 8 115200142.019 8      -935.953          51.000
E13  23456356.062 8 123263993.228 8      1192.273          51.000    23456355.648 8  94449055.869 8       913.572          51.000
E15  24110499.328 8 126701541.523 8     -1634.570          51.000    24110502.555 8  97083010.298 8     -1252.463          51.000
E27  24062133.977 8 126447353.412 8     -1646.996          51.000    24062137.492 8  96888239.780 8     -1262.011          51.000
> 2020 05 12 12 26 30.0000000  0 15        .000000000000
G18  21050313.047 8 110620206.981 8      2144.602          51.000    21050312.469 8  86197546.658 8      1671.118          50.000
G21  21179730.922 8 111300292.361 8      1728.918          51.000    21179727.812 7  86727476.072 7      1347.209          46.000
G25  22592537.172 6 118724571.747 6     -2907.480          39.000    22592538.211 6  92512656.202 6     -2265.572          39.000
G29  20925169.164 8 109962505.702 8     -1702.680          51.000    20925168.938 8  85685073.369 8     -1326.763          51.000
G31  21334417.156 8 112113162.047 8     -1161.715          48.000    21334418.367 8  87360867.824 8      -905.232          49.000
R11  19858831.570 8 106119581.755 8     -2332.406          51.000    19858832.891 8  82537413.845 8     -1814.094          48.000
R21  20142784.609 5 107788094.008 5     -2496.375          34.000    20142791.320 4  83835214.046 4     -1941.625          25.000
R22  19608918.094 8 104673719.427 8      1541.816          51.000    19608919.859 8  81412921.527 8      1199.191          50.000
C11  22038601.562 8 114760807.191 8      1013.633          48.000    22038602.758 8  88740361.051 8       783.989          51.000
C12  22472725.930 8 117021451.153 8     -1878.449          51.000    22472725.031 8  90488430.498 8     -1452.448          51.000
C24  24984916.586 5 130103119.341 5     -3271.098          33.000
C25  22128410.781 8 115228446.043 8      -951.020          51.000
E13  23449581.227 8 123228392.626 8      1181.133          51.000    23449581.641 8  94421777.511 8       905.072          51.000
E15  24119855.453 8 126750707.947 8     -1643.125          51.000    24119858.547 8  97120683.263 8     -1259.012          51.000
E27  24071561.359 8 126496894.859 8     -1655.648          51.000    24071564.492 8  96926200.062 8     -1268.608          51.000
> 2020 05 12 12 27  0.0000000  0 15        .000000000000
G18  21038113.078 8 110556096.008 8      2129.016          51.000    21038113.008 8  86147590.068 8      1658.973          50.000
G21  21169902.734 8 111248642.837 8      1713.992          51.000    21169900.078 8  86687229.702 8      1335.581          48.000
G25  22609153.719 6 118811893.742 6     -2914.488          40.000    22609154.906 6  92580699.282 6     -2271.033          40.000
G29  20934912.516 8 110013707.814 8     -1711.254          51.000    20934912.406 8  85724971.121 8     -1333.445          51.000
G31  21341097.820 8 112148269.120 8     -1179.352          49.000    21341097.422 8  87388223.961 8      -918.978          49.000
R11  19871980.141 8 106189846.857 8     -2352.363          51.000    19871982.219 8  82592064.479 8     -1829.616          50.000
R21  20156815.094 6 107863174.717 6     -2509.387          41.000    20156816.922 4  83893610.892 4     -1951.751          29.000
R22  19600306.664 8 104627751.724 8      1522.191          51.000    19600308.438 8  81377168.865 8      1183.927          50.000
C11  22032790.812 8 114730549.477 8      1003.035          48.000    22032791.883 8  88716963.910 8       775.632          51.000
C12  22483566.562 8 117077901.524 8     -1885.398          51.000    22483565.781 8  90532081.494 8     -1457.864          51.000
C24  25003772.922 6 130201301.361 6     -3275.004          37.000
C25  22133931.555 8 115257195.034 8      -966.082          50.000
E13  23442869.406 8 123193122.442 8      1169.887          51.000    23442870.688 8  94394752.307 8       896.425          51.000
E15  24129259.641 8 126800126.699 8     -1651.801          51.000    24129263.000 8  97158549.569 8     -1265.651          51.000
E27  24081037.680 8 126546692.409 8     -1664.453          51.000    24081040.305 8  96964356.593 8     -1275.363          51.000
> 2020 05 12 12 27 30.0000000  0 16        .000000000000
G18  21025991.898 8 110492399.038 8      2116.852          50.000    21025992.047 8  86097956.081 8      1649.495          50.000
G21  21160149.742 8 111197389.409 8      1702.273          51.000    21160147.570 8  86647291.984 8      1326.447          49.000
G25  22625800.609 6 118899375.755 6     -2918.457          40.000    22625802.867 6  92648867.034 6     -2274.122          40.000
G26  21564757.000 5 113323551.062 5      2353.852          32.000    21564750.898 4  88304048.607 4      1834.170          28.000
G29  20944694.625 8 110065113.323 8     -1716.352          51.000    20944694.562 8  85765027.363 8     -1337.417          51.000
G31  21347868.062 8 112183846.860 8     -1193.297          49.000    21347866.000 8  87415946.851 8      -929.842          49.000
R11  19885231.133 8 106260657.592 8     -2368.895          51.000    19885233.680 8  82647139.473 8     -1842.474          49.000
R21  20170911.750 5 107938595.130 5     -2519.172          35.000    20170916.508 5  83952271.206 5     -1959.353          31.000
R22  19591795.180 8 104582318.433 8      1506.121          51.000    19591796.609 8  81341831.877 8      1171.431          48.000
C11  22027032.219 8 114700561.221 8       995.695          50.000    22027032.344 8  88693775.116 8       769.880          51.000
C12  22494437.117 8 117134507.388 8     -1888.852          51.000    22494436.586 8  90575852.749 8     -1460.586          51.000
C24  25022646.047 6 130299563.794 6     -3276.258          40.000
C25  22139528.742 8 115286342.922 8      -977.727          49.000
E13  23436211.477 8 123158136.607 8      1162.074          51.000    23436213.711 8  94367944.981 8       890.391          51.000
E15  24138702.734 8 126849750.127 8     -1656.941          51.000    24138706.320 8  97196572.725 8     -1269.610          51.000
E27  24090553.805 8 126596699.711 8     -1669.801          51.000    24090556.312 8  97002673.828 8     -1279.494          51.000
> 2020 05 12 12 28  0.0000000  0 17        .000000000000
G18  21013991.422 8 110429337.183 8      2094.363          50.000    21013991.617 8  86048816.977 8      1631.971          49.000
G21  21150513.633 8 111146752.421 8      1680.527          51.000    21150512.102 8  86607834.616 8      1309.502          49.000
G25  22642519.461 6 118987236.027 6     -2932.148          38.000    22642522.148 6  92717329.579 6     -2284.791          38.000
G26  21551369.586 5 113253211.319 5      2339.695          30.000
G29  20954556.984 8 110116940.037 8     -1731.594          51.000    20954556.688 8  85805411.806 8     -1349.294          51.000
G31  21354769.414 8 112220113.342 8     -1217.344          50.000    21354767.297 8  87444206.398 8      -948.583          50.000
R11  19898626.078 8 106332235.412 8     -2395.730          51.000    19898628.492 8  82702811.084 8     -1863.346          48.000
R21  20185110.656 6 108014575.225 6     -2539.285          39.000    20185116.477 4  84011366.975 4     -1974.997          27.000
R22  19583425.430 8 104537642.792 8      1479.516          51.000    19583426.547 8  81307084.181 8      1150.734          48.000
C05  39631964.641 5 206374038.253 5        18.660          35.000    39631963.102 6 159581491.607 6        14.511          36.000
C11  22021367.195 8 114671059.446 8       978.207          50.000    22021366.500 8  88670962.488 8       756.397          51.000
C12  22505379.094 8 117191484.579 8     -1902.477          51.000    22505378.625 8  90619911.124 8     -1471.052          51.000
C24  25041576.172 6 130398122.104 6     -3287.363          41.000
C25  22145244.812 8 115316106.482 8      -999.410          51.000
E13  23429649.281 8 123123654.545 8      1143.988          50.000    23429652.531 8  94341523.678 8       876.539          51.000
E15  24148226.141 8 126899796.039 8     -1672.270          51.000    24148229.680 8  97234919.579 8     -1281.316          51.000
E27  24100151.367 8 126647135.779 8     -1685.340          51.000    24100154.086 8  97041319.594 8     -1291.349          51.000
> 2020 05 12 12 28 30.0000000  0 17        .000000000000
G18  21002069.266 8 110366687.371 8      2080.320          50.000    21002069.445 8  85999998.942 8      1621.029          49.000
G21  21140952.102 8 111096507.957 8      1666.965          51.000    21140951.188 8  86568683.100 8      1298.934          48.000
G25  22659266.742 6 119075248.908 6     -2937.770          38.000    22659270.219 6  92785911.043 6     -2289.171          39.000
G29  20964456.523 8 110168961.907 8     -1738.531          51.000    20964455.875 8  85845948.314 8     -1354.700          51.000
G31  21361758.961 8 112256842.494 8     -1233.246          50.000    21361757.859 8  87472826.500 8      -960.971          50.000
R11  19912121.109 8 106404349.847 8     -2414.023          51.000    19912123.898 7  82758900.047 7     -1877.574          47.000
R12  19542896.805 5 104394652.690 5      1598.211          34.000    19542899.555 4  81195847.011 4      1243.053          25.000
R21  20199370.953 6 108090883.164 6     -2550.344          40.000    20199373.898 4  84070725.427 4     -1983.607          26.000
R22  19575155.562 8 104493496.355 8      1461.496          51.000    19575156.992 8  81272748.079 8      1136.722          49.000
C05  39631845.820 5 206373420.155 5        20.930          35.000    39631844.227 6 159581012.125 6        15.776          36.000
C11  22015752.422 8 114641821.221 8       969.098          49.000    22015751.805 8  88648353.656 8       749.304          51.000
C12  22516349.258 8 117248608.838 8     -1907.855          51.000    22516348.633 8  90664083.222 8     -1475.278          51.000
C24  25060519.562 7 130496751.741 7     -3290.270          42.000
C25  22151036.516 8 115346262.483 8     -1013.035          51.000
E13  23423140.688 8 123089451.592 8      1134.234          51.000    23423144.227 8  94315316.225 8       869.047          51.000
E15  24157786.812 8 126950038.171 8     -1679.207          51.000    24157790.156 8  97273416.781 8     -1286.662          51.000
E27  24109787.734 8 126697775.602 8     -1692.668          51.000    24109790.711 8  97080121.500 8     -1296.952          51.000
> 2020 05 12 12 29  0.0000000  0 17        .000000000000
G18  20990242.227 8 110304536.757 8      2063.086          50.000    20990242.453 8  85951569.888 8      1607.599          49.000
G21  21131481.938 8 111046742.635 8      1650.707          51.000    21131481.453 8  86529904.913 8      1286.265          49.000
G25  22676059.695 6 119163498.813 6     -2945.938          41.000    22676063.500 6  92854677.177 6     -2295.536          41.000
G29  20974409.180 8 110221262.984 8     -1748.219          51.000    20974408.328 8  85886702.394 8     -1362.251          51.000
G31  21368852.500 8 112294118.437 8     -1251.801          50.000    21368852.711 8  87501872.661 8      -975.429          50.000
R11  19925731.938 8 106477086.028 8     -2435.168          48.000    19925735.641 7  82815472.585 7     -1894.020          46.000
R12  19533981.992 5 104347039.511 5      1575.309          32.000    19533994.453 5  81158814.521 5      1225.237          30.000
R21  20213708.680 5 108167602.534 5     -2564.328          35.000    20213709.352 4  84130396.038 4     -1994.480          27.000
R22  19567001.039 8 104449965.887 8      1440.523          51.000    19567002.656 8  81238891.040 8      1120.407          49.000
C05  39631728.070 5 206372806.690 5        20.812          35.000    39631726.281 6 159580538.260 6        15.538          36.000
C11  22010203.852 8 114612930.940 8       957.016          48.000    22010204.070 8  88626013.866 8       740.037          51.000
C12  22527363.484 8 117305963.276 8     -1915.867          51.000    22527362.656 8  90708433.290 8     -1481.440          51.000
C24  25079491.664 6 130595535.609 6     -3295.492          41.000
C25  22156919.422 8 115376895.145 8     -1029.383          51.000
E13  23416701.688 8 123055613.318 8      1121.730          51.000    23416705.078 8  94289388.181 8       859.493          51.000
E15  24167400.805 8 127000560.408 8     -1688.930          51.000    24167403.961 8  97312128.615 8     -1294.094          51.000
E27  24119479.195 8 126748704.293 8     -1702.637          51.000    24119482.680 8  97119144.761 8     -1304.588          51.000
> 2020 05 12 12 29 30.0000000  0 17        .000000000000
G18  20978512.578 8 110242897.841 8      2046.168          49.000    20978513.000 8  85903539.582 8      1594.420          48.000
G21  21122105.438 8 110997468.200 8      1634.355          51.000    21122105.031 8  86491509.263 8      1273.524          49.000
G25  22692900.328 6 119251995.539 6     -2954.047          40.000    22692902.828 6  92923635.633 6     -2301.858          40.000
G29  20984416.719 8 110273852.761 8     -1757.719          51.000    20984416.039 8  85927681.439 8     -1369.651          51.000
G31  21376051.852 8 112331950.692 8     -1270.234          51.000    21376052.852 8  87531352.334 8      -989.793          51.000
R11  19939460.867 8 106550453.205 8     -2456.059          48.000    19939464.844 7  82872535.925 7     -1910.268          45.000
R12  19525191.336 4 104300086.781 4      1553.801          28.000    19525203.594 4  81122328.690 4      1208.506          25.000
R21  20228124.055 5 108244740.932 5     -2578.277          30.000    20228124.273 4  84190392.675 4     -2005.318          29.000
R22  19558963.891 8 104407063.037 8      1419.688          51.000    19558966.008 8  81205522.137 8      1104.201          50.000
C05  39631613.453 5 206372210.809 5        19.461          35.000    39631611.914 6 159580076.921 6        15.263          36.000
C11  22004724.430 8 114584399.185 8       945.164          49.000    22004724.797 8  88603951.279 8       730.846          51.000
C12  22538423.719 8 117363557.198 8     -1923.629          51.000    22538422.758 8  90752968.546 8     -1487.517          51.000
C24  25098494.523 6 130694482.631 6     -3300.977          41.000
C25  22162895.961 8 115408014.653 8     -1045.383          51.000
E13  23410334.039 8 123022150.653 8      1109.223          51.000    23410337.430 8  94263747.965 8       849.891          51.000
E15  24177069.891 8 127051372.133 8     -1698.477          51.000    24177073.172 8  97351062.257 8     -1301.427          51.000
E27  24129227.602 8 126799932.468 8     -1712.527          51.000    24129231.438 8  97158397.524 8     -1312.217          51.000
> 2020 05 12 12 30  0.0000000  0 17        .000000000000
G18  20966878.469 8 110181761.051 8      2029.324          50.000    20966879.406 8  85855900.543 8      1581.292          49.000
G21  21112820.438 8 110948674.189 8      1618.191          51.000    21112819.875 8  86453487.984 8      1260.928          49.000
G25  22709785.461 6 119340726.757 6     -2961.914          39.000    22709787.492 6  92992776.743 6     -2307.985          39.000
G29  20994476.672 8 110326718.300 8     -1767.004          51.000    20994476.250 8  85968875.366 8     -1376.886          51.000
G31  21383354.578 8 112370326.538 8     -1288.543          50.000    21383355.641 8  87561255.583 8     -1004.059          50.000
R11  19953305.680 8 106624437.791 8     -2476.672          49.000    19953309.484 7  82930079.484 7     -1926.300          46.000
R12  19516521.109 4 104253786.035 4      1531.172          29.000
R21  20242613.625 5 108322283.771 5     -2591.703          33.000    20242614.820 5  84250703.820 5     -2015.769          30.000
R22  19551042.188 8 104364775.948 8      1399.016          51.000    19551044.594 8  81172632.190 8      1088.126          51.000
C05  39631500.109 5 206371620.042 5        19.867          35.000    39631498.539 6 159579621.401 6        15.124          36.000
C11  21999311.852 8 114556214.366 8       933.508          49.000    21999311.734 8  88582156.985 8       721.887          51.000
C12  22549527.578 8 117421377.849 8     -1931.375          51.000    22549526.648 8  90797679.120 8     -1493.374          51.000
C24  25117525.789 6 130793579.843 6     -3305.844          40.000
C25  22168963.750 8 115439609.283 8     -1061.332          51.000
E13  23404035.852 8 122989052.302 8      1096.941          51.000    23404038.844 8  94238386.911 8       840.543          51.000
E15  24186791.633 8 127102460.513 8     -1707.707          51.000    24186795.195 8  97390207.889 8     -1308.473          51.000
E27  24139030.555 8 126851448.509 8     -1722.176          51.000    24139035.055 8  97197870.839 8     -1319.589          51.000
> 2020 05 12 12 30 30.0000000  0 19        .000000000000
G18  20955338.844 8 110121119.466 8      2013.164          50.000    20955339.742 8  85808647.382 8      1568.702          49.000
G21  21103625.125 8 110900352.943 8      1602.891          50.000    21103624.477 8  86415835.107 8      1249.006          49.000
G25  22726713.773 6 119429683.145 6     -2969.129          40.000    22726716.242 6  93062093.270 6     -2313.610          40.000
G26  21485191.336 5 112905442.029 5      2297.043          31.000
G29  21004587.211 8 110379849.731 8     -1775.363          51.000    21004586.727 8  86010276.467 8     -1383.400          51.000
G31  21390758.812 8 112409236.075 8     -1305.719          50.000    21390759.148 8  87591574.693 8     -1017.443          50.000
R11  19967264.391 8 106699029.534 8     -2496.422          50.000    19967268.617 8  82988095.258 8     -1941.664          48.000
R12  19507974.203 5 104208130.828 5      1511.223          32.000
R21  20257176.820 6 108400219.176 6     -2604.066          37.000    20257179.977 5  84311320.259 5     -2025.385          33.000
R22  19543234.039 8 104323096.157 8      1379.258          51.000    19543236.773 8  81140214.614 8      1072.756          51.000
C05  39631386.391 5 206371028.115 5        19.684          35.000    39631384.836 6 159579163.153 6        15.399          36.000
C11  21993964.227 8 114528367.694 8       922.609          49.000    21993963.633 8  88560624.200 8       713.520          51.000
C12  22560673.031 8 117479415.225 8     -1938.031          51.000    22560672.289 8  90842557.304 8     -1498.566          51.000
C24  25136582.961 6 130892816.936 6     -3309.879          37.000
C25  22175120.828 8 115471670.047 8     -1076.309          51.000
E13  23397805.617 8 122956309.821 8      1085.648          51.000    23397807.445 8  94213298.526 8       831.855          51.000
E15  24196564.188 8 127153815.473 8     -1716.145          51.000    24196567.547 8  97429557.780 8     -1314.950          51.000
E26  25987145.539 6 136563369.577 6      2919.043          38.000
E27  24148886.711 8 126903243.599 8     -1730.988          51.000    24148891.531 8  97237557.964 8     -1326.354          51.000
> 2020 05 12 12 31  0.0000000  0 19        .000000000000
G18  20943894.812 8 110060979.760 8      1999.066          50.000    20943895.086 8  85761785.285 8      1557.717          49.000
G21  21094520.586 8 110852510.502 8      1589.508          50.000    21094519.906 8  86378555.287 8      1238.578          48.000
G25  22743686.328 7 119518868.449 7     -2974.086          43.000    22743689.180 7  93131588.295 7     -2317.470          42.000
G26  21472102.273 5 112836658.241 5      2289.965          31.000
G29  21014749.133 8 110433251.012 8     -1781.699          51.000    21014748.352 8  86051887.836 8     -1388.337          51.000
G31  21398265.297 8 112448682.799 8     -1321.047          50.000    21398263.961 8  87622312.375 8     -1029.387          50.000
R11  19981338.078 8 106774231.457 8     -2514.047          51.000    19981342.297 8  83046585.612 8     -1955.370          48.000
R12  19499551.328 5 104163104.975 5      1491.895          33.000    19499558.547 4  81015772.253 4      1160.362          26.000
R21  20271815.812 6 108478548.957 6     -2614.801          38.000    20271819.328 5  84372243.398 5     -2033.734          34.000
R22  19535540.531 8 104282028.816 8      1361.473          51.000    19535543.727 8  81108273.349 8      1058.926          51.000
C05  39631273.148 5 206370437.853 5        22.160          35.000    39631271.805 6 159578707.461 6        17.586          36.000
C11  21988682.508 8 114500863.895 8       913.824          49.000    21988681.484 8  88539356.533 8       706.654          51.000
C12  22571860.789 8 117537672.805 8     -1942.871          51.000    22571860.195 8  90887605.751 8     -1502.273          51.000
C24  25155666.898 6 130992197.179 6     -3312.031          37.000
C25  22181368.031 8 115504201.343 8     -1089.480          51.000
E13  23391644.078 8 122923928.277 8      1076.211          51.000    23391644.992 8  94188486.705 8       824.617          51.000
E15  24206388.258 8 127205440.510 8     -1722.504          51.000    24206390.953 8  97469114.613 8     -1319.802          50.000
E26  25970496.250 6 136475875.325 6      2917.105          41.000
E27  24158797.039 8 126955322.458 8     -1737.863          51.000    24158801.805 8  97277462.513 8     -1331.601          51.000
> 2020 05 12 12 31 30.0000000  0 17        .000000000000
G18  20932540.109 8 110001309.512 8      1980.410          51.000    20932539.859 8  85715289.012 8      1543.180          48.000
G21  21085500.977 8 110805113.823 8      1571.703          50.000    21085500.383 8  86341622.784 8      1224.704          48.000
G25  22760695.562 7 119608247.760 7     -2983.320          43.000    22760698.477 7  93201234.480 7     -2324.668          43.000
G29  21024955.656 8 110486886.665 8     -1792.531          51.000    21024954.742 8  86093681.841 8     -1396.778          51.000
G31  21405867.250 8 112488631.458 8     -1340.664          50.000    21405864.875 8  87653441.193 8     -1044.673          49.000
R11  19995518.930 8 106850007.100 8     -2536.148          51.000    19995523.008 8  83105522.199 8     -1972.563          48.000
R21  20286520.602 5 108557234.803 5     -2629.918          30.000    20286522.938 5  84433443.545 5     -2045.486          33.000
R22  19527954.773 8 104241539.120 8      1339.258          51.000    19527958.523 8  81076781.387 8      1041.648          51.000
C05  39631154.102 5 206369818.477 5        20.598          34.000    39631152.742 6 159578228.775 6        15.565          36.000
C11  21983460.195 8 114473668.942 8       900.559          49.000    21983458.781 8  88518327.654 8       696.339          51.000
C12  22583084.133 8 117596115.315 8     -1951.945          51.000    22583083.602 8  90932797.203 8     -1509.383          51.000
C24  25174771.586 6 131091685.001 6     -3319.062          37.000
C25  22187698.992 8 115537168.860 8     -1106.891          51.000
E13  23385544.477 8 122891873.646 8      1062.336          51.000    23385545.250 8  94163925.410 8       813.692          51.000
E15  24216256.945 8 127257300.071 8     -1733.281          51.000    24216259.367 8  97508851.158 8     -1328.197          50.000
E26  25953865.039 6 136388479.597 6      2910.738          39.000
E27  24168754.898 8 127007650.687 8     -1749.289          51.000    24168759.289 8  97317558.143 8     -1340.373          51.000
> 2020 05 12 12 32  0.0000000  0 18        .000000000000
G18  20921289.203 8 109942184.872 8      1962.863          51.000    20921288.781 7  85669217.882 7      1529.504          47.000
G21  21076580.766 8 110758238.506 8      1554.953          49.000    21076580.680 8  86305096.545 8      1211.652          49.000
G25  22777755.391 7 119697894.467 7     -2991.406          42.000    22777758.195 7  93271089.027 7     -2330.966          43.000
G26  21446085.672 5 112699925.595 5      2269.148          34.000
G29  21035220.695 8 110540829.542 8     -1802.051          51.000    21035219.859 8  86135715.236 8     -1404.195          51.000
G31  21413578.461 8 112529155.279 8     -1359.320          50.000    21413576.203 8  87685018.184 8     -1059.211          50.000
R11  20009820.633 8 106926430.249 8     -2556.957          51.000    20009824.523 7  83164962.405 7     -1988.747          46.000
R21  20301304.672 5 108636350.025 5     -2643.625          32.000    20301306.773 5  84494977.515 5     -2056.156          34.000
R22  19520491.945 8 104201703.056 8      1318.078          51.000    19520495.320 8  81045797.824 8      1025.175          51.000
C05  39631043.141 5 206369240.849 5        19.617          35.000    39631041.742 6 159577781.091 6        15.332          36.000
C11  21978311.062 8 114446856.280 8       888.480          50.000    21978309.812 8  88497594.399 8       687.075          51.000
C12  22594356.875 8 117654815.139 8     -1959.805          51.000    22594356.305 8  90978187.613 8     -1515.442          51.000
C24  25193911.281 6 131191352.449 6     -3324.160          38.000
C25  22194127.609 8 115570645.821 8     -1123.305          51.000
E13  23379521.000 8 122860220.479 8      1049.531          51.000    23379521.641 8  94139671.685 8       804.195          51.000
E15  24226184.016 8 127309467.175 8     -1742.855          51.000    24226186.781 8  97548823.333 8     -1335.411          51.000
E26  25937266.258 6 136301257.948 6      2905.641          37.000
E27  24178774.125 8 127060302.491 8     -1759.324          50.000    24178777.945 8  97357901.694 8     -1348.060          51.000
> 2020 05 12 12 32 30.0000000  0 17        .000000000000
G18  20910135.992 8 109883574.086 8      1945.531          51.000    20910135.672 8  85623547.174 8      1515.998          48.000
G21  21067753.398 8 110711851.420 8      1538.695          49.000    21067754.258 8  86268950.772 8      1198.983          49.000
G25  22794859.008 6 119787774.356 6     -2999.336          40.000    22794862.516 6  93341125.248 6     -2337.145          40.000
G29  21045537.617 8 110595045.027 8     -1811.117          51.000    21045537.055 8  86177961.055 8     -1411.260          51.000
G31  21421392.680 8 112570219.386 8     -1377.195          51.000    21421391.203 8  87717016.184 8     -1073.139          51.000
R11  20024236.953 8 107003464.956 8     -2577.488          51.000    20024239.961 7  83224878.266 7     -2004.716          47.000
R21  20316158.859 5 108715857.892 5     -2656.281          33.000    20316171.438 6  84556807.340 6     -2065.997          36.000
R22  19513145.047 8 104162486.562 8      1297.410          51.000    19513148.359 8  81015296.101 8      1009.097          51.000
C05  39630934.094 6 206368672.996 6        19.340          36.000    39630932.719 6 159577342.944 6        15.142          36.000
C11  21973229.047 8 114420392.667 8       876.816          51.000    21973227.961 8  88477131.069 8       678.113          51.000
C12  22605672.305 8 117713737.833 8     -1967.277          51.000    22605671.727 8  91023750.366 8     -1521.163          51.000
C24  25213079.508 6 131291164.701 6     -3328.805          39.000
C25  22200647.352 8 115604598.677 8     -1139.039          51.000
E13  23373567.484 8 122828935.505 8      1037.320          51.000    23373567.742 8  94115700.083 8       794.827          51.000
E15  24236162.930 8 127361906.964 8     -1751.961          51.000    24236165.961 8  97589004.469 8     -1342.370          50.000
E26  25920694.445 5 136214178.074 5      2900.738          34.000
E27  24188848.422 8 127113244.243 8     -1768.879          50.000    24188852.227 8  97398467.407 8     -1355.456          51.000
> 2020 05 12 12 33  0.0000000  0 17        .000000000000
G18  20899076.867 8 109825457.299 8      1927.348          51.000    20899076.820 8  85578261.384 8      1501.829          48.000
G21  21059015.016 8 110665931.653 8      1521.309          50.000    21059016.805 8  86233169.173 8      1185.435          50.000
G25  22812002.281 6 119877864.801 6     -3008.543          41.000    22812006.562 6  93411325.597 6     -2344.316          41.000
G29  21055902.039 8 110649510.255 8     -1821.305          51.000    21055901.648 8  86220401.484 8     -1419.198          51.000
G31  21429305.516 8 112611800.698 8     -1396.316          51.000    21429304.703 8  87749417.218 8     -1088.036          51.000
R11  20038763.492 8 107081087.650 8     -2598.805          51.000    20038765.977 8  83285251.438 8     -2021.293          48.000
R12  19467087.531 5 103989691.946 5      1398.070          30.000
R21  20331087.594 5 108795731.443 5     -2670.152          34.000    20331095.219 5  84618931.230 5     -2076.782          33.000
R22  19505910.086 8 104123867.637 8      1275.637          51.000    19505913.672 8  80985259.137 8       992.162          51.000
C05  39630822.773 5 206368093.497 5        17.598          35.000    39630821.477 6 159576894.852 6        13.958          36.000
C11  21968210.133 8 114394256.473 8       864.242          51.000    21968208.758 8  88456920.926 8       668.254          51.000
C12  22617026.125 8 117772860.483 8     -1975.656          51.000    22617025.648 8  91069467.739 8     -1527.670          51.000
C24  25232271.734 6 131391098.703 6     -3334.781          39.000
C25  22207254.625 8 115639005.438 8     -1156.008          51.000
E13  23367680.055 8 122797997.223 8      1023.906          51.000    23367680.305 8  94091994.131 8       784.564          51.000
E15  24246189.359 8 127414596.413 8     -1762.051          51.000    24246192.344 8  97629376.902 8     -1350.125          50.000
E27  24198974.000 8 127166454.128 8     -1779.730          51.000    24198977.180 8  97439238.592 8     -1363.651          51.000
> 2020 05 12 12 33 30.0000000  0 16        .000000000000
G18  20888114.719 8 109767852.347 8      1911.781          48.000    20888115.359 8  85533374.428 8      1489.700          48.000
G21  21050369.250 8 110620497.137 8      1506.668          51.000    21050371.242 8  86197765.684 8      1174.027          49.000
G25  22829188.602 6 119968181.107 6     -3013.957          41.000    22829193.656 6  93481701.991 6     -2348.538          40.000
G29  21066316.836 8 110704240.110 8     -1828.465          51.000    21066316.352 8  86263048.118 8     -1424.778          51.000
G31  21437319.633 8 112653913.831 8     -1412.410          51.000    21437319.031 8  87782232.641 8     -1100.579          51.000
R11  20053402.281 8 107159312.879 8     -2617.289          51.000    20053404.961 8  83346093.246 8     -2035.669          49.000
R21  20346088.445 5 108875985.008 5     -2681.453          34.000    20346081.867 4  84681350.553 4     -2085.578          28.000
R22  19498790.828 8 104085863.096 8      1256.766          51.000    19498793.773 8  80955700.055 8       977.484          50.000
C05  39630712.312 5 206367517.540 5        19.434          35.000    39630711.008 6 159576450.243 6        15.199          36.000
C11  21963256.930 8 114368463.593 8       854.277          50.000    21963255.359 8  88436976.237 8       660.678          51.000
C12  22628421.242 8 117832197.820 8     -1981.316          51.000    22628420.922 8  91115351.130 8     -1531.962          51.000
C24  25251489.750 6 131491168.803 6     -3337.547          37.000
C25  22213952.344 8 115673881.632 8     -1170.152          51.000
E13  23361861.766 8 122767421.977 8      1013.395          51.000    23361862.375 8  94068566.355 8       776.509          51.000
E15  24256266.008 8 127467550.340 8     -1769.270          51.000    24256269.203 8  97669951.984 8     -1355.614          50.000
E27  24209153.930 8 127219948.121 8     -1787.602          51.000    24209156.602 8  97480227.486 8     -1369.700          51.000
> 2020 05 12 12 34  0.0000000  0 17        .000000000000
G18  20877247.750 7 109710750.421 7      1894.379          47.000    20877249.188 7  85488879.475 7      1476.142          47.000
G21  21041814.125 8 110575538.025 8      1490.180          51.000    21041815.586 7  86162732.632 7      1161.179          47.000
G25  22846415.391 6 120058711.989 6     -3021.668          39.000    22846420.867 6  93552245.524 6     -2354.546          39.000
G29  21076779.727 8 110759222.953 8     -1837.523          51.000    21076779.133 8  86305891.886 8     -1431.836          51.000
G31  21445432.734 8 112696547.049 8     -1430.277          51.000    21445432.023 8  87815453.306 8     -1114.505          51.000
R11  20068151.484 8 107238127.880 8     -2637.516          51.000    20068154.398 8  83407393.778 8     -2051.404          49.000
R12  19451599.023 5 103906972.390 5      1356.312          30.000    19451601.039 4  80816525.619 4      1054.916          25.000
R22  19491784.805 8 104048461.925 8      1236.129          51.000    19491786.898 8  80926610.260 8       961.434          50.000
C05  39630600.836 5 206366937.965 5        18.957          35.000    39630599.531 6 159576000.319 6        14.771          36.000
C11  21958367.406 8 114343003.368 8       842.586          51.000    21958366.000 8  88417288.809 8       651.517          51.000
C12  22639855.383 8 117891738.101 8     -1988.613          51.000    22639855.133 8  91161391.456 8     -1537.695          51.000
C24  25270730.828 5 131591362.947 5     -3342.461          35.000
C25  22220737.992 8 115709216.358 8     -1186.000          51.000
E13  23356110.438 8 122737199.431 8      1000.961          51.000    23356111.297 8  94045408.835 8       766.991          51.000
E15  24266390.727 8 127520756.864 8     -1778.246          51.000    24266394.445 8  97710720.622 8     -1362.594          50.000
E21  23711576.242 6 124605172.942 6       896.258          40.000    23711573.039 5  95476678.282 5       686.743          35.000
E27  24219385.695 8 127273715.545 8     -1797.391          51.000    24219388.484 8  97521425.878 8     -1377.194          51.000
> 2020 05 12 12 34 30.0000000  0 18        .000000000000
G18  20866481.703 8 109654176.477 8      1877.906          48.000    20866483.242 7  85444795.878 7      1463.301          47.000
G21  21033353.969 8 110531078.216 8      1474.629          51.000    21033354.164 7  86128088.656 7      1149.061          47.000
G25  22863686.797 5 120149479.730 5     -3028.730          35.000    22863691.828 5  93622973.538 5     -2360.062          34.000
G29  21087295.062 8 110814480.939 8     -1845.613          51.000    21087294.172 8  86348950.033 8     -1438.140          51.000
G31  21453648.805 8 112739722.382 8     -1447.355          51.000    21453647.594 8  87849096.382 8     -1127.812          51.000
R11  20083015.156 8 107317554.246 8     -2656.801          51.000    20083018.117 8  83469169.821 8     -2066.401          49.000
R12  19444051.352 5 103866647.018 5      1333.543          33.000
R21  20376286.984 5 109037636.313 5     -2706.176          34.000    20376296.508 5  84807048.970 5     -2104.803          30.000
R22  19484896.172 8 104011687.830 8      1216.207          51.000    19484898.031 8  80898008.202 8       945.939          50.000
C05  39630492.586 5 206366373.791 5        19.176          35.000    39630491.430 6 159575565.822 6        14.834          36.000
C11  21953546.438 8 114317898.703 8       831.785          51.000    21953545.094 8  88397876.294 8       643.204          51.000
C12  22651332.602 8 117951502.986 8     -1995.047          50.000    22651332.320 8  91207605.445 8     -1542.664          51.000
C24  25289998.625 5 131691702.457 5     -3346.480          33.000
C25  22227616.234 8 115745032.089 8     -1201.016          51.000
E13  23350430.633 8 122707352.882 8       989.551          51.000    23350431.328 8  94022539.414 8       758.221          51.000
E15  24276567.875 8 127574237.806 8     -1786.340          51.000    24276571.828 8  97751699.530 8     -1368.754          50.000
E21  23706489.453 7 124578440.569 7       886.734          42.000    23706489.617 6  95456195.065 6       679.290          37.000
E27  24229673.594 8 127327779.411 8     -1806.148          51.000    24229676.805 8  97562851.412 8     -1383.950          51.000
> 2020 05 12 12 35  0.0000000  0 18        .000000000000
G18  20855813.164 8 109598112.851 8      1859.836          48.000    20855814.219 8  85401109.902 8      1449.220          48.000
G21  21024985.445 8 110487099.814 8      1457.582          51.000    21024984.102 7  86093819.786 7      1135.778          47.000
G25  22880999.172 5 120240464.044 5     -3036.352          35.000    22881000.844 5  93693870.170 5     -2365.985          35.000
G29  21097858.828 8 110869993.451 8     -1854.941          51.000    21097857.688 8  86392206.520 8     -1445.409          51.000
G31  21461963.711 8 112783419.120 8     -1465.664          51.000    21461962.578 8  87883145.743 8     -1142.079          51.000
R11  20097989.328 8 107397570.739 8     -2677.434          51.000    20097992.367 8  83531404.842 8     -2082.448          50.000
R12  19436624.867 5 103826977.509 5      1310.891          33.000    19436620.422 4  80754285.180 4      1019.585          25.000
R21  20391504.062 5 109119007.132 5     -2718.707          33.000    20391494.438 4  84870337.100 4     -2114.562          28.000
R22  19478121.328 8 103975521.406 8      1195.035          51.000    19478123.312 8  80869878.773 8       929.475          51.000
C05  39630384.102 5 206365809.085 5        18.430          35.000    39630383.008 5 159575129.151 5        14.496          35.000
C11  21948790.008 8 114293130.130 8       819.691          51.000    21948788.945 8  88378723.654 8       633.825          51.000
C12  22662849.000 8 118011472.116 8     -2002.703          50.000    22662848.570 8  91253977.370 8     -1548.671          50.000
C24  25309289.367 5 131792166.560 5     -3351.539          30.000
C25  22234583.156 8 115781309.192 8     -1217.324          51.000
E13  23344818.852 8 122677863.212 8       976.766          51.000    23344819.367 8  93999943.434 8       748.413          51.000
E15  24286793.352 8 127627972.586 8     -1795.691          51.000    24286797.133 8  97792872.931 8     -1375.913          49.000
E21  23701458.961 6 124552005.259 6       875.895          41.000    23701461.344 6  95435939.444 6       671.200          38.000
E27  24240014.180 8 127382120.204 8     -1816.281          51.000    24240017.875 8  97604489.143 8     -1391.690          51.000
> 2020 05 12 12 35 30.0000000  0 18        .000000000000
G18  20845244.625 8 109542575.063 8      1844.066          49.000    20845245.555 8  85357833.711 8      1436.935          48.000
G21  21016711.305 8 110443617.403 8      1442.781          51.000    21016708.766 7  86059937.384 7      1124.245          47.000
G25  22898356.016 5 120331677.963 5     -3042.938          34.000    22898360.438 5  93764946.001 5     -2371.120          35.000
G29  21108473.469 8 110925773.232 8     -1862.102          51.000    21108472.219 8  86435671.281 8     -1450.988          51.000
G31  21470380.016 8 112827649.776 8     -1481.598          49.000    21470379.562 8  87917611.157 8     -1154.492          49.000
R11  20113076.023 8 107478189.412 8     -2695.676          51.000    20113079.203 8  83594108.220 8     -2096.640          49.000
R12  19429325.523 5 103787968.995 5      1289.465          31.000    19429322.875 4  80723966.214 4      1002.917          26.000
R22  19471462.586 8 103939976.536 8      1176.059          51.000    19471464.938 8  80842232.775 8       914.715          51.000
C05  39630278.055 5 206365256.836 5        20.098          35.000    39630277.000 6 159574702.119 6        15.335          36.000
C11  21944100.367 8 114268711.380 8       809.770          50.000    21944099.984 8  88359841.535 8       626.111          51.000
C12  22674407.070 8 118071657.922 8     -2008.211          49.000    22674406.461 8  91300516.845 8     -1552.936          50.000
C24  25328607.523 5 131892706.542 5     -3353.922          32.000
C25  22241641.367 8 115818060.949 8     -1231.422          51.000
E13  23339277.781 8 122648744.488 8       966.066          51.000    23339278.289 8  93977631.701 8       740.242          51.000
E15  24297069.461 8 127681973.759 8     -1802.883          50.000    24297073.000 8  97834250.436 8     -1381.352          49.000
E21  23696487.633 6 124525882.224 6       867.250          39.000    23696490.766 6  95415923.092 6       664.423          38.000
E26  25821799.672 5 135694474.526 5      2874.039          35.000
E27  24250410.094 8 127436751.658 8     -1824.281          51.000    24250413.438 8  97646349.621 8     -1397.850          51.000
> 2020 05 12 12 36  0.0000000  0 19        .000000000000
G18  20834767.336 8 109487515.100 8      1826.242          51.000    20834767.875 7  85314929.876 7      1423.046          47.000
G21  21008522.039 8 110400582.332 8      1426.047          51.000    21008519.258 7  86026403.566 7      1111.205          47.000
G25  22915749.344 6 120423071.167 6     -3050.609          38.000    22915753.672 6  93836161.542 6     -2377.098          39.000
G29  21119129.188 8 110981769.410 8     -1871.207          51.000    21119128.008 8  86479304.656 8     -1458.083          51.000
G31  21478888.477 8 112872363.375 8     -1499.605          50.000    21478888.828 8  87952452.900 8     -1168.524          50.000
R11  20128265.477 8 107559357.769 8     -2715.777          50.000    20128268.773 8  83657239.119 8     -2112.274          48.000
R12  19422146.312 5 103749618.607 5      1266.578          31.000    19422150.422 4  80694150.159 4       985.110          29.000
R21  20422107.539 5 109282813.513 5     -2742.293          30.000    20422105.477 5  84997760.636 5     -2132.901          32.000
R22  19464910.492 8 103905002.943 8      1155.133          51.000    19464913.367 8  80815031.121 8       898.437          51.000
C05  39630165.086 5 206364667.937 5        19.410          35.000    39630163.875 6 159574246.743 6        14.768          36.000
C11  21939468.289 8 114244592.950 8       797.824          51.000    21939468.320 8  88341191.647 8       617.025          51.000
C12  22685997.031 8 118132009.898 8     -2015.547          48.000    22685996.438 8  91347184.792 8     -1558.488          50.000
C24  25347944.445 5 131993393.392 5     -3358.750          31.000
C25  22248781.031 8 115855237.543 8     -1247.344          51.000
E13  23333797.852 8 122619947.189 8       953.484          51.000    23333798.414 8  93955566.259 8       730.598          51.000
E15  24307386.594 8 127736190.245 8     -1811.777          49.000    24307390.086 8  97875792.940 8     -1388.338          49.000
E21  23691565.727 6 124500023.144 6       856.426          39.000    23691570.469 6  95396108.960 6       656.252          40.000
E26  25805408.117 6 135608326.469 6      2868.602          36.000
E27  24260851.828 8 127491623.922 8     -1834.141          51.000    24260855.336 8  97688394.599 8     -1405.371          51.000
> 2020 05 12 12 36 30.0000000  0 17        .000000000000
G18  20824391.039 8 109432984.028 8      1809.176          51.000    20824391.055 8  85272438.156 8      1409.750          48.000
G21  21000427.227 8 110358044.729 8      1409.949          51.000    21000424.672 7  85993257.396 7      1098.662          47.000
G25  22933186.250 6 120514692.089 6     -3057.508          39.000    22933190.188 6  93907554.501 6     -2382.474          39.000
G29  21129835.148 8 111038030.133 8     -1879.449          51.000    21129834.422 8  86523144.170 8     -1464.506          51.000
G31  21487498.125 8 112917607.475 8     -1516.656          51.000    21487498.953 8  87987708.045 8     -1181.810          51.000
R11  20143566.117 7 107641124.170 7     -2735.230          47.000    20143570.398 8  83720835.183 8     -2127.401          48.000
R12  19415099.266 5 103711970.124 5      1243.930          34.000    19415103.023 5  80664868.026 5       967.504          31.000
R22  19458474.805 8 103870650.500 8      1135.035          51.000    19458478.141 8  80788312.576 8       882.808          51.000
C05  39630054.508 5 206364092.547 5        18.844          35.000
C11  21934903.758 8 114220823.755 8       786.805          51.000    21934903.391 8  88322811.810 8       608.474          51.000
C12  22697628.125 8 118192575.620 8     -2022.141          48.000    22697627.641 8  91394018.046 8     -1563.514          51.000
C25  22256011.141 8 115892887.421 8     -1262.625          51.000
E13  23328388.578 8 122591520.793 8       941.789          51.000    23328389.297 8  93933785.020 8       721.619          51.000
E15  24317753.820 8 127790670.114 8     -1820.000          49.000    24317757.430 8  97917537.253 8     -1394.495          49.000
E21  23686704.305 6 124474478.575 6       846.594          41.000    23686710.281 6  95376535.802 6       648.799          40.000
E26  25789044.844 6 135522331.234 6      2864.289          36.000
E27  24271348.641 8 127546786.222 8     -1843.066          51.000    24271352.656 8  97730661.790 8     -1412.286          51.000
> 2020 05 12 12 37  0.0000000  0 17        .000000000000
G18  20814114.867 8 109378980.002 8      1791.570          51.000    20814114.492 7  85230357.110 7      1396.029          47.000
G21  20992426.492 8 110316001.859 8      1393.492          50.000    20992424.422 7  85960496.740 7      1085.838          47.000
G25  22950665.477 6 120606536.422 6     -3064.832          38.000    22950669.055 6  93979121.510 6     -2388.181          38.000
G29  21140590.617 8 111094551.151 8     -1888.098          51.000    21140590.391 8  86567186.506 8     -1471.245          51.000
G31  21496207.914 8 112963377.548 8     -1534.180          51.000    21496208.734 8  88023373.029 8     -1195.465          51.000
R11  20158977.312 8 107723482.982 8     -2755.043          48.000    20158983.062 8  83784892.065 8     -2142.811          49.000
R12  19408181.633 6 103675014.017 6      1219.941          36.000    19408185.258 5  80636124.322 5       948.843          32.000
R22  19452155.055 8 103836915.741 8      1114.418          51.000    19452158.539 8  80762074.454 8       866.770          51.000
C05                                                                  39629944.055 6 159573361.415 6        14.888          36.000
C11  21930405.414 8 114197400.082 8       775.207          51.000    21930405.109 8  88304699.150 8       599.521          51.000
C12  22709299.477 8 118253350.521 8     -2029.082          48.000    22709298.938 8  91441013.045 8     -1568.955          50.000
C25  22263331.602 8 115931006.563 8     -1278.246          51.000
E13  23323049.281 8 122563461.993 8       929.414          51.000    23323050.477 8  93912285.426 8       712.154          51.000
E15  24328170.188 8 127845408.554 8     -1828.617          49.000    24328173.914 8  97959479.702 8     -1401.172          48.000
E21  23681902.828 7 124449246.353 7       835.918          42.000    23681908.961 6  95357202.012 6       640.634          41.000
E26  25772709.328 6 135436486.550 6      2859.312          36.000
E27  24281900.039 8 127602234.831 8     -1852.797          51.000    24281904.703 8  97773148.344 8     -1419.655          51.000
> 2020 05 12 12 37 30.0000000  0 17        .000000000000
G18  20803937.211 8 109325495.288 8      1773.176          51.000    20803937.008 8  85188680.734 8      1381.695          48.000
G21  20984518.180 8 110274445.154 8      1376.148          50.000    20984516.859 8  85928114.906 8      1072.327          48.000
G25  22968184.000 6 120698593.977 6     -3073.078          41.000    22968187.250 6  94050854.595 6     -2394.606          41.000
G29  21151393.633 8 111151321.628 8     -1897.473          51.000    21151393.539 8  86611423.233 8     -1478.550          51.000
G31  21505015.859 8 113009662.602 8     -1552.395          51.000    21505016.211 8  88059439.299 8     -1209.658          51.000
R11  20174498.602 8 107806422.857 8     -2775.352          50.000    20174504.453 8  83849400.871 8     -2158.607          49.000
R12  19401391.734 5 103638743.416 5      1196.328          35.000    19401393.930 5  80607913.858 5       930.474          32.000
R22  19445949.047 8 103803789.174 8      1093.148          51.000    19445952.641 8  80736309.376 8       850.230          50.000
C05  39629836.766 5 206362958.297 5        18.312          35.000    39629835.133 6 159572922.991 6        13.731          36.000
C11  21925971.281 8 114174312.464 8       763.000          50.000    21925971.594 8  88286846.351 8       590.036          51.000
C12  22721008.906 8 118314323.984 8     -2036.762          48.000    22721008.219 8  91488161.596 8     -1574.905          50.000
C25  22270740.484 8 115969585.174 8     -1294.566          51.000
E13  23317778.203 8 122535761.569 8       916.387          51.000    23317779.711 8  93891060.430 8       702.175          51.000
E15  24338633.773 8 127900394.967 8     -1838.020          49.000    24338637.438 8  98001612.128 8     -1408.293          48.000
E21  23677159.773 7 124424318.507 7       824.910          43.000    23677164.508 6  95338101.460 6       632.029          41.000
E26  25756400.328 6 135350784.358 6      2853.379          36.000
E27  24292504.445 8 127657960.200 8     -1863.137          51.000    24292509.703 8  97815846.983 8     -1427.622          51.000
> 2020 05 12 12 38  0.0000000  0 19        .000000000000
G18  20793858.469 8 109272529.962 8      1757.805          51.000    20793858.570 8  85147409.081 8      1369.718          49.000
G21  20976702.492 8 110233374.249 8      1361.953          51.000    20976701.680 8  85896111.628 8      1061.262          48.000
G25  22985742.094 6 120790862.257 6     -3078.055          41.000    22985744.703 6  94122751.836 6     -2398.490          40.000
G29  21162243.672 8 111208338.922 8     -1903.672          51.000    21162243.445 8  86655852.288 8     -1483.384          51.000
G31  21513921.391 8 113056459.763 8     -1567.379          51.000    21513921.211 8  88095904.615 8     -1221.334          51.000
R11  20190128.703 8 107889940.121 8     -2792.504          51.000    20190133.734 8  83914358.710 8     -2171.947          48.000
R12  19394730.773 6 103603159.051 6      1176.199          36.000    19394734.352 5  80580237.152 5       914.822          34.000
R21  20484122.906 5 109614688.652 5     -2788.098          31.000    20484133.023 5  85255894.527 5     -2168.517          33.000
R22  19439856.859 8 103771268.984 8      1074.863          51.000    19439860.195 8  80711015.915 8       836.005          50.000
C05  39629727.812 5 206362391.062 5        20.070          35.000    39629725.867 6 159572483.575 6        15.275          36.000
C11  21921601.594 8 114151559.209 8       753.953          51.000    21921602.078 8  88269252.089 8       582.989          51.000
C12  22732755.867 8 118375493.258 8     -2041.305          48.000    22732755.078 8  91535461.544 8     -1578.406          49.000
C24  25425547.578 5 132397484.462 5     -3373.891          33.000
C25  22278236.812 8 116008621.135 8     -1307.770          51.000
E13  23312574.961 8 122508418.078 8       906.480          51.000    23312576.570 8  93870108.930 8       694.585          51.000
E15  24349143.961 8 127955626.401 8     -1844.156          48.000    24349147.625 7  98043932.298 7     -1413.049          47.000
E21  23672474.641 7 124399694.756 7       816.785          43.000    23672477.672 6  95319233.920 6       625.747          41.000
E26  25740117.773 5 135265224.218 5      2850.531          35.000
E27  24303161.250 8 127713960.609 8     -1870.238          51.000    24303166.258 8  97858756.375 8     -1433.022          51.000
> 2020 05 12 12 38 30.0000000  0 19        .000000000000
G18  20783879.414 8 109220088.665 8      1739.031          51.000    20783879.758 8  85106545.757 8      1355.089          49.000
G21  20968980.031 8 110192792.759 8      1344.297          51.000    20968979.281 8  85864489.717 8      1047.507          48.000
G25  23003341.633 6 120883343.545 6     -3086.383          40.000    23003341.617 6  94194814.936 6     -2404.980          41.000
G29  21173141.117 8 111265605.237 8     -1913.293          51.000    21173140.727 8  86700475.372 8     -1490.878          51.000
G31  21522924.641 8 113103770.663 8     -1585.797          51.000    21522924.477 8  88132770.251 8     -1235.686          51.000
R11  20205866.883 8 107974035.910 8     -2813.125          51.000    20205871.031 7  83979766.514 7     -2187.986          46.000
R12  19388199.219 6 103568267.111 6      1151.488          36.000    19388203.219 5  80553099.001 5       895.602          35.000
R21  20499804.156 4 109698527.885 4     -2801.195          28.000    20499794.719 4  85321102.686 4     -2178.707          29.000
R22  19433879.008 8 103739358.100 8      1053.320          51.000    19433882.102 8  80686196.367 8       819.249          50.000
C05  39629619.141 6 206361825.860 6        18.148          36.000    39629617.109 6 159572044.704 6        14.378          36.000
C11  21917296.914 8 114129143.264 8       741.406          51.000    21917297.164 8  88251918.664 8       573.215          51.000
C12  22744540.789 8 118436860.131 8     -2049.230          48.000    22744539.969 8  91582914.289 8     -1584.501          49.000
C24  25444998.086 5 132498779.802 5     -3379.086          32.000
C25  22285821.102 8 116048116.933 8     -1324.465          51.000
E13  23307440.195 8 122481434.769 8       893.168          51.000    23307441.953 8  93849433.417 8       684.334          51.000
E15  24359701.016 8 128011104.626 8     -1853.586          48.000    24359704.812 7  98086441.594 7     -1420.358          47.000
E21  23667847.922 7 124375379.545 7       804.953          44.000    23667850.039 6  95300602.759 6       617.037          41.000
E26  25723863.023 6 135179810.447 6      2844.344          36.000
E27  24313870.711 8 127770239.029 8     -1880.824          51.000    24313875.555 8  97901878.752 8     -1441.187          51.000
> 2020 05 12 12 39  0.0000000  0 18        .000000000000
G18  20774003.266 8 109168189.552 8      1721.309          51.000    20774003.453 8  85066104.930 8      1341.279          48.000
G21  20961354.094 8 110152718.279 8      1327.773          51.000    20961353.148 8  85833262.878 8      1034.632          48.000
G25  23020984.656 6 120976053.527 6     -3093.691          36.000    23020984.047 5  94267056.336 5     -2410.672          35.000
G29  21184088.789 8 111323135.795 8     -1921.648          51.000    21184088.391 8  86745304.363 8     -1497.388          51.000
G31  21532028.281 8 113151610.361 8     -1603.027          51.000    21532028.445 8  88170047.926 8     -1249.112          51.000
R11  20221715.625 8 108058724.967 8     -2832.281          51.000    20221719.109 7  84045635.736 7     -2202.888          45.000
R12  19381800.297 6 103534087.092 6      1128.215          37.000    19381804.336 6  80526514.434 6       877.497          36.000
R22  19428018.664 8 103708073.457 8      1032.910          51.000    19428021.492 8  80661863.856 8       803.375          51.000
C05  39629514.062 6 206361278.281 6        18.289          36.000    39629512.086 6 159571621.293 6        14.342          36.000
C11  21913059.914 8 114107080.800 8       729.977          50.000    21913060.109 8  88234858.581 8       564.500          51.000
C12  22756366.500 7 118498439.790 7     -2055.754          47.000    22756365.789 8  91630531.568 8     -1589.600          49.000
C24  25464473.375 5 132600205.623 5     -3382.754          31.000
C25  22293496.812 8 116088088.393 8     -1339.758          51.000
E13  23302377.102 8 122454828.332 8       881.066          51.000    23302378.930 8  93829046.671 8       675.103          51.000
E15  24370307.953 8 128066844.970 8     -1861.820          48.000    24370311.586 7  98129151.713 7     -1426.617          47.000
E21  23663283.312 7 124351390.695 7       794.676          45.000    23663284.570 7  95282221.718 7       608.895          42.000
E26  25707639.578 6 135094560.816 6      2839.258          37.000
E27  24324636.359 8 127826811.787 8     -1890.191          51.000    24324640.094 8  97945226.668 8     -1448.305          51.000
> 2020 05 12 12 39 30.0000000  0 18        .000000000000
G18  20764225.812 8 109116809.952 8      1705.754          50.000    20764225.242 7  85026068.904 7      1329.159          47.000
G21  20953820.414 8 110113127.445 8      1313.266          51.000    20953819.078 7  85802412.871 7      1023.324          47.000
G29  21195081.930 8 111380905.265 8     -1927.965          51.000    21195081.445 8  86790319.516 8     -1502.310          51.000
G31  21541227.500 8 113199953.138 8     -1618.102          50.000    21541227.969 8  88207717.605 8     -1260.858          50.000
R11  20237669.898 8 108143980.623 8     -2849.586          51.000    20237672.844 7  84111945.603 7     -2216.348          45.000
R12  19375531.219 6 103500596.720 6      1106.320          39.000    19375535.242 6  80500466.370 6       860.468          37.000
R21  20531359.461 5 109867359.596 5     -2821.438          32.000    20531324.320 4  85452327.909 4     -2194.457          28.000
R22  19422271.078 8 103677390.216 8      1014.426          51.000    19422273.664 8  80637999.124 8       789.001          51.000
C05  39629407.875 6 206360725.589 6        19.895          36.000    39629405.969 6 159571195.405 6        15.643          36.000
C11  21908886.188 8 114085347.680 8       720.672          50.000    21908886.281 8  88218053.166 8       557.230          51.000
C12  22768228.148 7 118560207.071 7     -2060.371          46.000    22768227.672 8  91678293.949 8     -1593.288          49.000
C24  25483969.883 5 132701720.121 5     -3384.309          32.000
C25  22301259.094 8 116128510.846 8     -1353.398          51.000
E13  23297381.148 8 122428574.560 8       870.930          51.000    23297382.969 8  93808930.154 8       667.300          51.000
E15  24380959.984 8 128122821.869 8     -1868.066          48.000    24380962.914 7  98172043.082 7     -1431.453          46.000
E21  23658776.258 7 124327705.301 7       785.965          44.000    23658776.547 7  95264073.177 7       602.362          42.000
E26  25691443.516 6 135009452.217 6      2836.203          36.000
E27  24335453.445 8 127883654.361 8     -1897.555          51.000    24335456.766 8  97988781.339 8     -1453.961          51.000
> 2020 05 12 12 40  0.0000000  0 18        .000000000000
G18  20754546.875 8 109065948.334 8      1686.648          50.000    20754545.891 7  84986436.488 7      1314.272          47.000
G21  20946378.438 8 110074017.834 8      1295.504          51.000    20946376.609 7  85771937.837 7      1009.484          47.000
G29  21206119.797 8 111438909.610 8     -1937.531          51.000    21206119.211 8  86835517.695 8     -1509.765          51.000
G31  21550521.516 8 113248794.539 8     -1636.500          50.000    21550521.797 8  88245775.815 8     -1275.195          50.000
R11  20253729.648 8 108229797.816 8     -2869.996          51.000    20253732.062 7  84178692.234 7     -2232.222          46.000
R12  19369391.516 6 103467795.347 6      1081.641          40.000    19369395.234 6  80474954.217 6       841.276          37.000
R21  20547216.164 6 109952278.443 6     -2833.863          37.000
R22  19416635.391 8 103647304.910 8       992.746          51.000    19416637.453 8  80614599.445 8       772.136          50.000
C05  39629300.211 6 206360164.881 6        18.871          36.000    39629298.359 6 159570761.348 6        14.671          36.000
C11  21904775.250 8 114063940.433 8       708.000          51.000    21904775.055 8  88201499.729 8       547.525          51.000
C12  22780124.914 7 118622157.584 7     -2068.172          45.000    22780124.727 8  91726198.016 8     -1599.254          48.000
C24  25503486.461 5 132803350.732 5     -3389.195          32.000
C25  22309107.656 8 116169380.615 8     -1369.879          51.000
E13  23292451.789 8 122402670.524 8       857.461          51.000    23292453.516 8  93789081.619 8       657.045          51.000
E15  24391656.219 7 128179030.906 7     -1877.566          47.000    24391658.516 7  98215112.323 7     -1438.715          45.000
E21  23654326.086 7 124304321.638 7       774.250          44.000    23654326.477 7  95246155.813 7       593.319          43.000
E26  25675274.047 6 134924482.858 6      2829.492          36.000
E27  24346320.875 8 127940763.526 8     -1908.164          51.000    24346324.336 8  98032540.270 8     -1462.133          51.000
> 2020 05 12 12 40 30.0000000  0 19        .000000000000
G18  20744975.352 8 109015649.670 8      1667.723          51.000    20744974.320 7  84947242.740 7      1299.524          47.000
G21  20939036.430 8 110035433.803 8      1277.887          51.000    20939033.867 7  85741872.367 7       995.759          46.000
G25  23074143.602 6 121255425.202 6     -3115.309          36.000    23074146.281 6  94484771.456 6     -2427.510          36.000
G29  21217210.461 8 111497191.122 8     -1946.812          51.000    21217209.867 8  86880931.840 8     -1516.997          51.000
G31  21559918.344 8 113298176.222 8     -1654.559          51.000    21559917.891 8  88284255.019 8     -1289.266          50.000
R11  20269902.047 8 108316218.353 8     -2890.207          51.000    20269904.227 7  84245908.175 7     -2247.939          47.000
R12  19363389.180 6 103435730.076 6      1057.176          39.000    19363391.820 6  80450014.535 6       822.248          37.000
R21  20563123.391 5 110037401.155 5     -2846.230          35.000
R22  19411119.719 8 103617861.652 8       971.289          51.000    19411121.781 8  80591699.131 8       755.447          51.000
C05  39629199.203 5 206359638.497 5        17.652          35.000    39629197.484 6 159570355.123 6        13.290          36.000
C11  21900735.164 8 114042902.183 8       695.641          50.000    21900734.820 8  88185231.629 8       537.871          51.000
C12  22792064.984 7 118684333.338 7     -2075.691          45.000    22792065.078 8  91774276.258 8     -1605.062          48.000
C24  25523029.727 5 132905122.880 5     -3393.926          31.000
C25  22317050.758 8 116210740.166 8     -1386.246          51.000
E13  23287597.406 8 122377159.821 8       844.285          51.000    23287598.789 8  93769534.457 8       646.950          51.000
E15  24402404.680 7 128235514.257 7     -1886.645          47.000    24402406.984 7  98258391.766 7     -1445.769          46.000
E21  23649942.320 7 124281284.427 7       762.598          45.000    23649942.844 7  95228503.924 7       584.430          44.000
E26  25659139.562 5 134839688.294 5      2823.477          32.000    25659148.000 5 103318752.904 5      2163.745          33.000
E27  24357246.766 8 127998182.550 8     -1918.621          49.000    24357250.984 8  98076536.632 8     -1470.139          51.000
> 2020 05 12 12 41  0.0000000  0 19        .000000000000
G18  20735500.727 8 108965860.372 8      1649.758          50.000    20735499.844 8  84908445.900 8      1285.526          48.000
G21  20931784.062 8 109997320.727 8      1261.164          51.000    20931780.898 7  85712173.902 7       982.728          47.000
G25  23091944.422 5 121348966.820 5     -3122.891          32.000    23091945.180 5  94557660.990 5     -2433.421          31.000
G26  21221740.953 5 111521001.262 5      2092.676          34.000
G29  21228343.148 8 111555693.623 8     -1955.195          51.000    21228342.578 8  86926518.203 8     -1523.529          51.000
G31  21569407.289 8 113348041.623 8     -1671.578          50.000    21569406.133 8  88323111.148 8     -1302.528          50.000
R11  20286176.008 8 108403184.180 8     -2909.418          50.000    20286178.828 8  84313548.250 8     -2262.881          48.000
R12  19357514.156 6 103404346.956 6      1033.156          40.000    19357517.539 6  80425605.452 6       803.566          38.000
R22  19405713.695 8 103589004.156 8       950.715          51.000    19405716.242 8  80569254.432 8       739.445          51.000
C05  39629094.695 6 206359093.947 6        17.223          36.000
C11  21896755.523 8 114022177.973 8       684.219          51.000    21896755.211 8  88169206.357 8       529.130          51.000
C12  22804037.758 7 118746678.360 7     -2082.379          45.000    22804037.820 7  91822485.359 7     -1610.164          47.000
C24  25542588.539 5 133006980.449 5     -3398.020          30.000
C25  22325077.461 8 116252534.262 8     -1401.754          51.000
E13  23282807.305 8 122351987.362 8       832.031          51.000    23282808.445 8  93750246.477 8       637.569          51.000
E15  24413194.688 7 128292215.500 7     -1895.062          47.000    24413197.453 7  98301838.155 7     -1451.995          46.000
E21  23645614.156 7 124258539.828 7       751.902          45.000    23645615.141 7  95211076.252 7       576.145          45.000
E26                                                                  25643036.336 5 103253883.017 5      2159.289          32.000
E27  24368220.594 7 128055856.028 7     -1928.125          47.000    24368225.695 8  98120727.996 8     -1477.323          51.000
> 2020 05 12 12 41 30.0000000  0 17        .000000000000
G18  20726125.422 8 108916594.391 8      1633.527          50.000    20726125.023 8  84870056.852 8      1272.881          48.000
G21  20924623.531 8 109959692.187 8      1246.297          51.000    20924620.641 7  85682853.014 7       971.140          47.000
G29  21239520.047 8 111614428.477 8     -1961.637          51.000    21239519.375 8  86972285.615 8     -1528.548          51.000
G31  21578990.500 8 113398401.691 8     -1686.832          51.000    21578988.961 8  88362352.731 8     -1314.415          51.000
R11  20302553.297 8 108490705.910 8     -2926.555          48.000    20302557.641 7  84381620.719 7     -2276.209          47.000
R12  19351769.609 7 103373661.444 7      1011.074          42.000    19351773.367 6  80401738.919 6       786.391          37.000
R21  20595126.297 5 110208679.831 5     -2866.738          30.000
R22  19400419.719 8 103560744.852 8       932.043          51.000    19400422.367 8  80547274.978 8       724.922          51.000
C05  39628988.969 6 206358543.932 6        18.547          36.000    39628986.953 6 159569507.924 6        14.278          36.000
C11  21892838.695 8 114001780.030 8       674.551          51.000    21892838.422 8  88153433.364 8       521.642          51.000
C12  22816045.336 7 118809203.905 7     -2087.352          46.000    22816045.023 7  91870834.049 7     -1613.922          45.000
C24  25562165.289 5 133108934.190 5     -3399.848          32.000
C25  22333189.945 8 116294774.591 8     -1415.414          51.000
E13  23278083.859 8 122327165.777 8       821.570          51.000    23278084.984 8  93731227.358 8       629.509          51.000
E15  24424028.312 8 128349145.852 8     -1901.480          48.000    24424031.359 7  98345460.081 7     -1456.916          45.000
E21  23641344.258 7 124236101.671 7       742.969          46.000    23641346.023 7  95193883.349 7       569.312          45.000
E27  24379245.938 8 128113796.302 8     -1935.816          49.000    24379250.914 8  98165123.812 8     -1483.258          51.000
> 2020 05 12 12 42  0.0000000  0 17        .000000000000
G18  20716853.828 8 108867872.458 8      1615.379          50.000    20716853.914 8  84832091.708 8      1258.737          50.000
G21  20917558.750 8 109922567.868 8      1229.398          51.000    20917556.102 7  85653925.019 7       957.973          47.000
G25  23127660.320 5 121536669.592 5     -3135.457          33.000
G29  21250744.578 8 111673413.823 8     -1969.949          51.000    21250743.766 8  87018248.226 8     -1535.025          51.000
G31  21588671.445 8 113449273.908 8     -1703.953          51.000    21588669.672 8  88401993.394 8     -1327.756          51.000
R11  20319038.500 8 108578800.767 8     -2945.535          49.000    20319043.250 7  84450138.935 7     -2290.972          46.000
R12  19346160.008 6 103343695.467 6       987.379          41.000    19346162.414 6  80378432.080 6       767.964          36.000
R22  19395240.781 8 103533102.958 8       911.523          51.000    19395244.094 8  80525775.741 8       708.966          51.000
C05  39628885.672 6 206358005.657 6        17.883          36.000    39628883.320 5 159569090.696 5        13.849          35.000
C11  21888987.938 8 113981727.193 8       663.023          51.000    21888987.578 8  88137927.244 8       512.686          51.000
C12  22828091.047 7 118871927.791 7     -2093.723          46.000    22828090.164 7  91919336.133 7     -1619.084          45.000
C24  25581764.625 5 133211001.535 5     -3404.031          34.000
C25  22341391.594 8 116337479.533 8     -1430.895          51.000
E13  23273430.914 8 122302714.359 8       809.223          51.000    23273431.938 8  93712491.869 8       620.021          51.000
E15  24434908.859 7 128406323.191 7     -1909.664          46.000    24434911.867 7  98389271.260 7     -1463.189          45.000
E21  23637136.797 7 124213990.447 7       731.906          47.000    23637139.188 7  95176940.998 7       560.817          45.000
E27  24390326.305 8 128172022.367 8     -1945.293          51.000    24390331.016 8  98209738.597 8     -1490.558          51.000
> 2020 05 12 12 42 30.0000000  0 18        .000000000000
G18  20707679.359 8 108819660.820 8      1597.922          50.000    20707679.930 8  84794524.198 8      1245.134          50.000
G21  20910583.523 8 109885913.313 8      1213.371          51.000    20910580.734 7  85625363.042 7       945.484          47.000
G25  23145576.211 6 121630805.057 6     -3141.246          37.000    23145578.633 6  94777267.561 6     -2447.724          37.000
G29  21262009.922 8 111732613.707 8     -1977.449          51.000    21262009.164 8  87064378.004 8     -1540.870          51.000
G31  21598443.016 8 113500621.727 8     -1720.137          51.000    21598440.984 8  88442004.669 8     -1340.366          51.000
R11  20335624.734 8 108667430.853 8     -2963.926          51.000    20335628.531 7  84519073.371 7     -2305.279          44.000
R12  19340678.414 7 103314415.730 7       964.000          42.000    19340680.508 6  80355658.947 6       749.781          38.000
R21  20627427.969 5 110381531.572 5     -2887.949          31.000    20627438.430 4  85852352.236 4     -2246.186          25.000
R22  19390171.180 8 103506042.670 8       891.711          51.000    19390174.703 8  80504728.869 8       693.553          51.000
C05  39628778.062 6 206357445.487 6        18.738          36.000    39628775.562 6 159568657.026 6        14.278          36.000
C11  21885196.719 8 113961984.386 8       652.344          51.000    21885195.945 8  88122660.850 8       504.382          51.000
C12  22840167.688 7 118934813.936 7     -2099.309          44.000    22840166.469 7  91967963.670 7     -1623.382          44.000
C24  25601379.383 5 133313146.061 5     -3406.469          35.000
C25  22349675.266 8 116380613.588 8     -1445.617          51.000
E13  23268841.594 8 122278597.987 8       797.648          51.000    23268842.578 8  93694013.089 8       611.200          51.000
E15  24445829.500 7 128463711.078 7     -1916.977          44.000    24445832.289 7  98433243.783 7     -1468.879          46.000
E21  23632984.922 7 124192172.302 7       721.777          46.000    23632987.453 7  95160223.209 7       552.984          46.000
E27  24401454.727 8 128230498.790 8     -1954.066          51.000    24401458.750 8  98254545.216 8     -1497.260          51.000
> 2020 05 12 12 43  0.0000000  0 19        .000000000000
G18  20698604.477 8 108771972.972 8      1583.008          49.000    20698605.594 8  84757364.847 8      1233.513          50.000
G21  20903700.227 8 109849741.380 8      1199.852          51.000    20903697.711 8  85597177.126 8       934.949          48.000
G25  23163527.594 6 121725132.420 6     -3145.184          41.000    23163528.078 6  94850769.410 6     -2450.792          41.000
G29  21273318.164 8 111792038.766 8     -1982.332          50.000    21273317.516 8  87110683.237 8     -1544.674          50.000
G31  21608306.758 8 113552455.403 8     -1733.676          49.000    21608304.531 8  88482394.543 8     -1350.916          49.000
R11  20352313.602 8 108756606.460 8     -2979.344          51.000    20352315.898 7  84588432.093 7     -2317.270          45.000
R12  19335328.375 7 103285836.939 7       943.227          42.000    19335331.008 6  80333430.976 6       733.621          38.000
R21  20643644.219 5 110468314.330 5     -2895.840          33.000    20643631.133 4  85919793.901 4     -2252.314          24.000
R22  19385213.055 8 103479575.638 8       874.590          51.000    19385216.172 8  80484143.417 8       680.237          50.000
C05  39628668.570 6 206356875.572 6        21.141          36.000    39628665.867 6 159568214.851 6        16.202          36.000
C11  21881467.297 8 113942563.250 8       644.176          51.000    21881466.391 8  88107643.199 8       498.127          51.000
C12  22852277.406 7 118997873.172 7     -2102.766          44.000    22852276.273 7  92016725.055 7     -1626.001          45.000
C24  25621011.859 6 133415378.105 6     -3406.598          36.000
C25  22358042.828 8 116424187.915 8     -1457.586          51.000
E13  23264318.320 8 122254828.725 8       788.637          51.000    23264319.438 8  93675800.280 8       604.283          51.000
E15  24456792.180 7 128521320.218 7     -1921.852          44.000    24456795.055 7  98477385.861 7     -1472.552          45.000
E21  23628891.102 7 124170660.547 7       714.125          46.000    23628893.617 7  95143740.172 7       547.154          46.000
E26  25578884.727 5 134417950.806 5      2802.188          35.000
E27  24412633.055 8 128289237.388 8     -1960.152          51.000    24412636.898 8  98299552.688 8     -1501.965          51.000
> 2020 05 12 12 43 30.0000000  0 19        .000000000000
G18  20689638.781 8 108724858.559 8      1561.344          50.000    20689640.242 8  84720652.334 8      1216.631          50.000
G21  20896918.102 8 109814100.870 8      1179.730          51.000    20896915.953 8  85569405.326 8       919.270          48.000
G25  23181523.664 6 121819698.489 6     -3155.680          40.000    23181524.266 6  94924457.223 6     -2458.974          41.000
G29  21284678.266 8 111851736.185 8     -1993.926          49.000    21284677.492 8  87157200.690 8     -1553.708          50.000
G31  21618271.398 7 113604821.701 7     -1754.004          46.000    21618269.430 7  88523199.440 7     -1366.756          46.000
R11  20369113.352 8 108846374.312 8     -3001.637          51.000    20369115.047 7  84658251.481 7     -2334.609          47.000
R12  19330119.016 6 103258010.689 6       915.449          41.000    19330121.781 6  80311788.363 6       712.016          38.000
R21  20659922.383 5 110555416.415 5     -2908.938          31.000    20659909.258 4  85987491.057 4     -2262.507          26.000
R22  19380375.055 8 103453750.615 8       850.602          51.000    19380378.164 8  80464057.291 8       661.579          51.000
C05  39628566.414 6 206356343.927 6        17.445          36.000    39628563.688 5 159567803.760 5        13.345          35.000
C11  21877808.406 8 113923511.502 8       629.309          51.000    21877807.922 8  88092911.202 8       486.673          51.000
C12  22864429.344 7 119061152.062 7     -2112.605          44.000    22864428.734 7  92065656.295 7     -1633.453          45.000
C24  25640670.859 6 133517743.843 6     -3413.977          37.000
C25  22366503.805 8 116468249.674 8     -1476.379          51.000
E13  23259870.500 8 122231454.910 8       773.012          51.000    23259871.852 8  93657890.483 8       592.299          51.000
E15  24467805.609 7 128579197.626 7     -1933.266          44.000    24467809.250 7  98521733.481 7     -1481.271          46.000
E21  23624864.922 7 124149504.726 7       699.801          46.000    23624867.828 7  95127529.858 7       536.223          47.000
E26  25562921.312 5 134334058.855 5      2793.160          34.000
E27  24423870.375 8 128348286.195 8     -1972.988          51.000    24423873.438 8  98344797.846 8     -1511.803          51.000
> 2020 05 12 12 44  0.0000000  0 19        .000000000000
G18  20680773.281 8 108678270.370 8      1541.758          50.000    20680774.820 8  84684349.847 8      1201.370          49.000
G21  20890227.977 8 109778943.677 8      1161.344          51.000    20890226.031 8  85542010.121 8       904.943          49.000
G25  23199555.000 6 121914453.712 6     -3164.004          38.000    23199555.672 6  94998292.397 6     -2465.461          38.000
G29  21296080.688 8 111911656.393 8     -2003.555          49.000    21296079.484 8  87203891.744 8     -1561.211          49.000
G31  21628327.820 8 113657670.271 8     -1772.043          48.000    21628326.148 8  88564380.138 8     -1380.813          48.000
R11  20386013.641 8 108936682.467 8     -3021.621          50.000    20386015.742 8  84728491.133 8     -2350.150          48.000
R12  19325041.117 7 103230889.684 7       889.625          42.000    19325043.641 6  80290694.224 6       691.931          38.000
R21  20676274.562 5 110642884.309 5     -2921.742          33.000
R22  19375648.094 8 103428517.738 8       828.777          51.000    19375651.133 8  80444431.713 8       644.605          50.000
C05  39628462.445 6 206355802.652 6        15.805          36.000    39628459.562 5 159567384.179 5        12.164          35.000
C11  21874210.883 8 113904780.653 8       616.641          50.000    21874210.805 8  88078427.312 8       476.805          51.000
C12  22876614.148 7 119124601.260 7     -2120.328          44.000    22876613.922 7  92114719.226 7     -1639.605          45.000
C24  25660346.984 6 133620193.438 6     -3418.820          37.000
C25  22375048.859 8 116512749.884 8     -1493.062          51.000
E13  23255488.570 8 122208427.927 8       759.297          51.000    23255490.312 8  93640246.451 8       581.811          51.000
E15  24478860.648 7 128637293.354 7     -1942.680          45.000    24478864.977 7  98566248.374 7     -1488.529          45.000
E21  23620897.547 7 124128657.500 7       687.242          47.000    23620901.023 7  95111555.990 7       526.654          47.000
E26  25546985.070 5 134250312.193 5      2786.184          33.000    25546981.180 5 102867104.868 5      2135.254          34.000
E27  24435157.250 8 128407596.241 8     -1983.805          51.000    24435159.539 8  98390243.134 8     -1520.061          49.000
> 2020 05 12 12 44 30.0000000  0 18        .000000000000
G18  20672017.672 8 108632259.646 8      1526.898          48.000    20672019.211 8  84648497.332 8      1189.791          48.000
G21  20883639.375 8 109744320.463 8      1148.047          51.000    20883637.883 8  85515031.011 8       894.582          50.000
G25  23217630.898 6 122009447.064 6     -3167.113          36.000    23217631.773 5  95072313.137 5     -2467.884          35.000
G29  21307534.773 8 111971848.383 8     -2008.207          48.000    21307533.156 8  87250794.583 8     -1564.837          48.000
G31  21638485.734 8 113711049.746 8     -1785.379          49.000    21638484.102 8  88605974.532 8     -1391.204          49.000
R11  20403023.688 8 109027579.501 8     -3036.930          49.000    20403026.836 8  84799188.836 8     -2362.056          49.000
R12  19320105.938 7 103204526.799 7       869.012          43.000    19320108.633 6  80270189.790 6       675.898          39.000
R22  19371041.539 8 103403927.300 8       811.762          51.000    19371044.391 8  80425305.835 8       631.373          50.000
C05  39628366.164 6 206355301.290 6        18.395          36.000    39628363.336 5 159566996.487 5        14.351          35.000
C11  21870684.500 8 113886419.795 8       608.648          50.000    21870684.664 8  88064229.530 8       470.534          51.000
C12  22888840.859 7 119188268.998 7     -2123.160          43.000    22888840.883 7  92163951.132 7     -1641.823          44.000
C24  25680048.516 6 133722774.700 6     -3418.660          36.000
C25  22383687.359 8 116557737.244 8     -1504.891          51.000
E13  23251181.969 8 122185797.648 8       750.414          51.000    23251184.000 8  93622906.377 8       574.939          51.000
E15  24489966.570 7 128695655.924 7     -1947.312          44.000    24489970.781 7  98610967.726 7     -1491.962          45.000
E21  23616998.648 7 124108169.959 7       679.477          47.000    23617002.562 8  95095857.746 8       520.707          48.000
E26                                                                  25531085.531 6 102803093.429 6      2133.458          36.000
E27  24446502.703 8 128467217.167 8     -1989.883          51.000    24446503.062 8  98435926.639 8     -1524.736          49.000
> 2020 05 12 12 45  0.0000000  0 18        .000000000000
G18  20663355.836 7 108586742.566 7      1507.910          47.000    20663357.383 7  84613029.490 7      1174.998          47.000
G21  20877136.266 8 109710146.754 8      1130.547          51.000    20877135.250 8  85488402.157 8       880.946          50.000
G25  23235735.391 6 122104592.637 6     -3175.289          39.000    23235737.773 6  95146452.448 6     -2474.251          39.000
G29  21319024.211 8 112032225.820 8     -2016.668          48.000    21319022.453 8  87297841.905 8     -1571.430          48.000
G31  21648728.156 8 113764872.825 8     -1802.434          49.000    21648726.469 8  88647914.586 8     -1404.494          49.000
R11  20420127.406 8 109118976.695 8     -3055.875          50.000    20420131.250 8  84870275.541 8     -2376.792          49.000
R12  19315296.695 7 103178838.166 7       843.895          43.000    19315300.148 6  80250209.731 6       656.362          40.000
R22  19366539.289 8 103379892.631 8       790.848          51.000    19366541.539 8  80406612.218 8       615.104          50.000
C05  39628261.297 6 206354754.741 6        17.770          36.000    39628258.461 5 159566574.601 5        13.861          35.000
C11  21867213.062 8 113868344.370 8       596.676          50.000    21867213.375 8  88050252.477 8       461.472          51.000
C12  22901093.078 7 119252069.738 7     -2129.980          43.000    22901093.117 7  92213285.901 7     -1646.915          44.000
C24  25699758.508 5 133825401.724 5     -3422.406          34.000
C25  22392403.297 8 116603126.573 8     -1520.785          50.000
E13  23246934.898 8 122163478.958 8       737.746          51.000    23246936.844 8  93605805.039 8       565.316          51.000
E15  24501106.859 7 128754198.929 7     -1955.387          44.000    24501110.570 7  98655825.337 7     -1498.232          45.000
E21  23613152.523 8 124087958.218 8       668.121          48.000    23613156.195 8  95080370.825 8       511.922          48.000
E26                                                                  25515210.453 6 102739167.983 6      2128.747          37.000
E27  24457890.727 8 128527063.571 8     -1999.645          51.000    24457890.938 8  98481782.890 8     -1532.213          49.000
> 2020 05 12 12 45 30.0000000  0 18        .000000000000
G18  20654795.984 7 108541762.690 7      1489.137          47.000    20654797.617 7  84577980.252 7      1160.369          47.000
G21  20870726.883 8 109676465.402 8      1113.281          51.000    20870726.195 8  85462156.956 8       867.492          51.000
G25  23253877.523 7 122199931.589 7     -3182.508          42.000    23253879.766 7  95220742.467 7     -2479.876          42.000
G29  21330556.758 8 112092829.758 8     -2025.199          48.000    21330555.094 8  87345065.734 8     -1578.077          48.000
G31  21659062.281 7 113819179.953 7     -1819.578          47.000    21659060.969 7  88690231.820 7     -1417.853          47.000
R11  20437332.625 8 109210914.508 8     -3074.820          51.000    20437336.328 8  84941782.700 8     -2391.527          49.000
R12  19310622.117 7 103153868.737 7       818.926          44.000    19310625.977 6  80230789.051 6       636.942          40.000
R21  20725631.445 4 110906993.806 4     -2950.695          28.000    20725600.898 3  86260906.241 3     -2294.991          23.000
R22  19362149.000 8 103356455.948 8       769.984          51.000    19362151.375 8  80388383.703 8       598.877          50.000
C05  39628156.102 6 206354207.010 6        17.039          36.000    39628153.102 5 159566150.571 5        12.901          35.000
C11  21863804.547 8 113850595.938 8       584.895          50.000    21863804.789 8  88036528.288 8       452.407          51.000
C12  22913378.711 7 119316044.150 7     -2136.750          43.000    22913378.422 7  92262754.936 7     -1652.135          42.000
C25  22401204.609 8 116648958.960 8     -1536.371          50.000
E13  23242755.227 8 122141514.103 8       725.051          51.000    23242757.320 8  93588974.837 8       555.624          51.000
E15  24512289.195 7 128812963.299 7     -1963.730          44.000    24512293.008 7  98700852.570 7     -1504.623          45.000
E21  23609367.211 8 124068065.812 8       656.539          48.000    23609370.664 8  95065128.594 8       503.062          49.000
E26                                                                  25499364.570 6 102675361.816 6      2124.117          38.000
E27  24469329.922 8 128587177.356 8     -2009.418          51.000    24469329.859 8  98527844.073 8     -1539.735          50.000
> 2020 05 12 12 46  0.0000000  0 18        .000000000000
G18  20646347.758 8 108497367.132 8      1471.613          49.000    20646349.180 8  84543386.297 8      1146.712          48.000
G21  20864419.836 8 109643322.586 8      1097.293          51.000    20864419.375 8  85436331.393 8       855.033          51.000
G25  23272064.805 6 122295508.863 6     -3188.383          40.000    23272066.477 6  95295218.197 6     -2484.457          40.000
G29  21342140.961 8 112153705.087 8     -2032.234          48.000    21342139.445 8  87392501.050 8     -1583.559          48.000
G31  21669496.648 7 113874015.345 7     -1835.184          47.000    21669496.172 7  88732960.665 7     -1430.013          46.000
R11  20454647.102 8 109303437.143 8     -3092.344          51.000    20454650.680 8  85013744.729 8     -2405.156          49.000
R12  19306091.820 7 103129667.170 7       795.305          46.000    19306095.609 6  80211965.623 6       618.570          41.000
R22  19357879.250 8 103333663.446 8       750.504          51.000    19357881.734 8  80370656.216 8       583.725          50.000
C05  39628059.320 6 206353702.693 6        17.137          36.000    39628056.203 5 159565760.081 5        13.532          35.000
C11  21860467.445 8 113833219.654 8       574.516          50.000    21860467.758 8  88023091.867 8       444.179          51.000
C12  22925706.141 7 119380236.436 7     -2142.129          42.000    22925705.289 7  92312392.458 7     -1656.321          42.000
C24  25739233.664 5 134030942.440 5     -3428.520          32.000
C25  22410100.023 8 116695278.965 8     -1550.734          50.000
E13  23238651.555 8 122119948.836 8       713.672          51.000    23238653.875 8  93572450.835 8       546.813          51.000
E15  24523522.281 7 128871993.517 7     -1970.590          44.000    24523526.656 7  98746083.519 7     -1509.909          45.000
E21  23605651.555 8 124048539.771 8       646.148          48.000    23605655.031 8  95050167.059 8       495.185          49.000
E26                                                                  25483556.734 6 102611710.872 6      2120.118          37.000
E27  24480828.812 8 128647604.008 8     -2017.973          51.000    24480829.422 8  98574144.992 8     -1546.230          51.000
> 2020 05 12 12 46 30.0000000  0 19        .000000000000
G18  20637998.469 8 108453490.306 8      1454.254          49.000    20637999.469 8  84509196.570 8      1133.185          48.000
G21  20858202.531 8 109610652.141 8      1081.469          50.000    20858202.188 8  85410873.901 8       842.703          50.000
G25  23290283.789 6 122391256.682 6     -3194.223          39.000    23290286.219 6  95369826.857 6     -2489.008          39.000
G29  21353763.930 7 112214783.756 7     -2038.969          47.000    21353762.750 8  87440094.804 8     -1588.807          48.000
G31  21680018.648 7 113929310.626 7     -1850.590          47.000    21680018.844 7  88776047.875 7     -1442.018          47.000
R11  20472057.688 8 109396474.393 8     -3109.414          51.000    20472061.242 8  85086106.996 8     -2418.436          48.000
R12  19301692.875 7 103106168.108 7       771.891          46.000    19301696.672 7  80193688.582 7       600.359          42.000
R21  20758820.812 4 111084635.318 4     -2969.328          29.000
R22  19353717.523 8 103311446.665 8       731.320          51.000    19353719.758 8  80353376.505 8       568.805          50.000
C05  39627958.250 6 206353175.745 6        18.719          36.000    39627955.008 5 159565352.621 5        13.973          35.000
C11  21857188.938 8 113816149.012 8       564.234          49.000    21857189.633 8  88009891.754 8       436.426          51.000
C12  22938062.523 7 119444579.229 7     -2147.109          42.000    22938061.609 7  92362146.338 7     -1660.040          43.000
C24  25758995.258 5 134133846.898 5     -3431.062          35.000
C25  22419076.570 8 116742019.538 8     -1564.676          50.000
E13  23234611.328 8 122098716.317 8       702.602          51.000    23234613.469 8  93556181.770 8       538.369          51.000
E15  24534793.227 7 128931221.480 7     -1977.172          44.000    24534797.742 7  98791465.962 7     -1514.949          45.000
E21  23601993.180 8 124029314.473 8       636.207          48.000    23601996.469 8  95035435.978 8       487.519          49.000
E26                                                                  25467774.859 6 102548164.764 6      2116.526          37.000
E27  24492374.414 8 128708276.418 8     -2026.074          51.000    24492375.438 8  98620634.241 8     -1552.491          51.000
> 2020 05 12 12 47  0.0000000  0 19        .000000000000
G18  20629751.570 8 108410152.046 8      1434.164          50.000    20629752.359 8  84475426.557 8      1117.533          49.000
G21  20852078.625 8 109578473.021 8      1062.969          49.000    20852078.273 8  85385799.266 8       828.287          49.000
G25  23308538.969 6 122487192.761 6     -3202.574          40.000    23308542.953 6  95444582.197 6     -2495.512          40.000
G29  21365428.969 7 112276083.671 7     -2048.355          46.000    21365428.203 7  87487860.951 7     -1596.121          46.000
G31  21690631.570 8 113985082.462 8     -1868.406          49.000    21690632.492 8  88819506.426 8     -1455.901          49.000
R11  20489567.805 8 109490042.751 8     -3129.203          51.000    20489571.109 7  85158882.333 7     -2433.828          47.000
R12  19297429.406 7 103083392.463 7       745.680          47.000    19297433.469 7  80175974.188 7       579.973          43.000
R21  20775499.328 5 111173857.372 5     -2979.637          30.000    20775483.891 4  86468528.768 4     -2317.495          25.000
R22  19349666.633 8 103289824.005 8       709.414          51.000    19349669.555 8  80336558.899 8       551.766          51.000
C05  39627856.398 6 206352645.945 6        16.348          36.000
C11  21853972.664 8 113799402.090 8       551.371          49.000    21853973.742 8  87996941.991 8       426.337          51.000
C12  22950451.422 7 119509089.789 7     -2154.512          43.000    22950450.711 7  92412030.014 7     -1666.005          43.000
C24  25778772.203 6 134236829.961 6     -3435.676          36.000
C25  22428137.375 8 116789198.363 8     -1581.359          51.000
E13  23230637.805 8 122077835.148 8       688.730          51.000    23230639.914 8  93540181.917 8       527.749          51.000
E15  24546105.227 7 128990664.448 7     -1986.434          42.000    24546109.164 7  98837013.161 7     -1521.992          45.000
E21  23598395.797 8 124010409.783 8       623.305          49.000    23598398.711 8  95020950.572 8       477.633          49.000
E26  25452028.047 5 133751309.169 5      2754.613          35.000    25452023.086 6 102484738.721 6      2111.064          37.000
E27  24503970.406 8 128769212.940 8     -2037.066          51.000    24503972.109 8  98667325.860 8     -1560.881          51.000
> 2020 05 12 12 47 30.0000000  0 18        .000000000000
G18  20621613.070 8 108367381.271 8      1417.098          51.000    20621613.359 8  84442098.701 8      1104.232          49.000
G21  20846053.867 8 109546813.693 8      1047.523          50.000    20846053.484 8  85361129.648 8       816.252          50.000
G25  23326835.930 6 122583343.796 6     -3207.676          40.000    23326840.789 6  95519505.028 6     -2499.491          41.000
G29  21377141.000 7 112337631.118 7     -2054.691          43.000    21377140.461 7  87535819.987 7     -1601.061          44.000
G31  21701340.328 8 114041356.461 8     -1883.289          50.000    21701341.547 8  88863356.293 8     -1467.498          50.000
R11  20507182.086 8 109584167.853 8     -3145.832          51.000    20507184.742 7  85232090.705 7     -2446.758          47.000
R12  19293306.859 7 103061370.268 7       722.367          46.000    19293311.492 7  80158845.808 7       561.838          44.000
R22  19345732.023 8 103268823.071 8       690.625          51.000    19345735.547 8  80320224.821 8       537.153          50.000
C05  39627759.078 6 206352138.707 6        17.059          36.000    39627755.703 5 159564550.385 5        13.451          35.000
C11  21850824.117 8 113783006.104 8       541.672          50.000    21850825.070 8  87984263.577 8       418.822          51.000
C12  22962877.781 7 119573794.339 7     -2159.113          43.000    22962876.953 7  92462063.704 7     -1669.581          44.000
C24  25798569.047 5 134339917.365 5     -3437.105          34.000
C25  22437287.273 8 116836841.872 8     -1594.984          51.000
E13  23226736.297 8 122057332.838 8       678.051          51.000    23226738.695 8  93524472.363 8       519.530          51.000
E15  24557463.266 6 129050348.651 6     -1992.586          41.000    24557466.461 7  98882745.241 7     -1526.799          45.000
E21  23594864.859 8 123991854.499 8       613.617          49.000    23594867.461 8  95006732.881 8       470.138          50.000
E26  25436310.633 6 133668718.055 6      2750.750          36.000    25436306.203 6 102421454.721 6      2107.930          38.000
E27  24515621.914 8 128830440.787 8     -2044.840          51.000    24515623.586 8  98714240.686 8     -1566.852          51.000
> 2020 05 12 12 48  0.0000000  0 19        .000000000000
G18  20613575.953 8 108325143.795 8      1399.477          51.000    20613575.781 8  84409186.376 8      1090.501          49.000
G21  20840121.570 8 109515638.811 8      1031.508          51.000    20840120.992 8  85336837.530 8       803.772          50.000
G25  23345167.227 6 122679673.400 6     -3213.656          41.000    23345172.523 6  95594567.020 6     -2504.151          40.000
G29  21388893.086 7 112399389.783 7     -2061.770          43.000    21388892.734 7  87583943.644 7     -1606.574          43.000
G31  21712137.867 8 114098095.715 8     -1898.621          51.000    21712138.789 8  88907568.667 8     -1479.445          51.000
R11  20524893.258 8 109678811.317 8     -3163.012          51.000    20524896.156 8  85305702.252 8     -2460.120          48.000
R12  19289319.086 8 103040067.850 8       698.504          48.000    19289323.555 7  80142277.260 7       543.281          44.000
R22  19341907.070 8 103248407.099 8       671.258          51.000    19341910.875 8  80304345.746 8       522.092          50.000
R23  23292676.875 6 124600118.348 6      3728.727          38.000
C05  39627659.242 5 206351620.129 5        18.160          35.000    39627656.156 5 159564149.415 5        13.553          35.000
C11  21847736.297 8 113766925.574 8       531.105          50.000    21847736.883 8  87971829.097 8       410.790          51.000
C12  22975334.234 7 119638656.623 7     -2164.246          42.000    22975333.273 7  92512219.321 7     -1673.526          43.000
C24  25818378.820 5 134443072.468 5     -3438.941          32.000
C25  22446519.453 8 116884914.134 8     -1609.203          51.000
E13  23222900.242 8 122037173.978 8       666.688          51.000    23222902.688 8  93509025.975 8       510.856          51.000
E15  24568859.930 7 129110237.481 7     -1999.367          42.000    24568862.984 7  98928634.080 7     -1531.917          44.000
E21  23591394.000 8 123973614.473 8       603.148          50.000    23591396.422 8  94992756.762 8       462.174          50.000
E26  25420620.258 6 133586278.028 6      2746.035          37.000    25420616.805 6 102358286.519 6      2104.081          37.000
E27  24527322.156 8 128891924.225 8     -2053.309          51.000    24527323.734 8  98761351.346 8     -1573.272          51.000
> 2020 05 12 12 48 30.0000000  0 19        .000000000000
G18  20605643.141 8 108283456.230 8      1380.938          51.000    20605643.102 8  84376702.581 8      1076.055          50.000
G21  20834284.539 8 109484964.507 8      1014.781          51.000    20834283.711 8  85312935.511 8       790.742          50.000
G25  23363535.234 7 122776196.174 7     -3219.969          42.000    23363540.805 7  95669779.524 7     -2509.067          42.000
G29  21400688.250 6 112461374.140 6     -2069.258          41.000    21400687.758 6  87632243.155 6     -1612.409          41.000
G31  21723026.719 8 114155314.016 8     -1914.648          51.000    21723026.922 8  88952154.313 8     -1491.937          51.000
R11  20542703.969 8 109773986.458 8     -3180.762          51.000    20542707.039 8  85379727.387 8     -2473.926          49.000
R12  19285469.133 8 103019502.837 8       673.812          48.000    19285473.359 7  80126282.242 7       524.076          45.000
R22  19338194.938 8 103228591.476 8       651.023          51.000    19338198.586 8  80288933.601 8       506.352          49.000
R23  23271787.789 6 124488391.775 6      3721.184          41.000    23271790.367 4  96824294.981 4      2894.260          26.000
C05  39627560.398 6 206351104.900 6        17.770          36.000    39627557.766 5 159563752.262 5        13.650          35.000
C11  21844711.930 8 113751175.494 8       520.031          50.000    21844712.141 8  87959650.158 8       402.248          51.000
C12  22987823.188 6 119703690.837 6     -2170.000          41.000    22987822.320 7  92562507.909 7     -1678.066          42.000
C24  25838204.188 5 134546308.978 5     -3442.340          31.000
C25  22455836.734 8 116933429.651 8     -1623.949          51.000
E13  23219132.375 8 122017373.977 8       654.633          51.000    23219134.672 8  93493854.556 8       501.629          51.000
E15  24580298.055 7 129170345.105 7     -2006.723          42.000    24580301.133 7  98974690.572 7     -1537.571          44.000
E21  23587986.227 8 123955706.413 8       592.074          50.000    23587988.703 8  94979035.003 8       453.637          50.000
E26  25404960.633 6 133504005.688 6      2740.348          39.000    25404958.992 6 102295246.816 6      2099.690          36.000
E27  24539073.758 8 128953678.430 8     -2062.305          51.000    24539075.312 8  98808669.490 8     -1580.246          51.000
> 2020 05 12 12 49  0.0000000  0 19        .000000000000
G18  20597814.602 8 108242315.669 8      1362.051          51.000    20597814.602 8  84344645.011 8      1061.338          50.000
G21  20828542.109 8 109454786.999 8       997.398          51.000    20828540.891 8  85289420.589 8       777.194          49.000
G25  23381939.109 7 122872906.925 7     -3227.156          43.000    23381944.609 7  95745138.502 7     -2514.667          43.000
G29  21412525.523 7 112523578.939 7     -2077.375          42.000    21412524.766 7  87680714.405 7     -1618.734          42.000
G31  21734005.617 8 114213005.122 8     -1931.051          51.000    21734004.336 8  88997108.374 8     -1504.715          51.000
R11  20560613.461 8 109869686.612 8     -3198.945          51.000    20560616.648 8  85454160.822 8     -2488.072          49.000
R12  19281757.164 8 102999673.071 8       648.453          49.000    19281761.375 7  80110859.081 7       504.352          46.000
R22  19334594.156 8 103209371.320 8       630.609          51.000    19334597.625 8  80273984.601 8       490.474          48.000
R23  23250940.805 7 124376884.851 7      3712.980          42.000    23250945.688 4  96737573.525 4      2887.877          25.000
C05  39627461.773 6 206350591.972 6        16.684          36.000    39627459.430 6 159563356.819 6        13.230          36.000
C11  21841750.289 8 113735751.509 8       508.543          50.000    21841749.875 8  87947723.374 8       393.174          51.000
C12  23000343.992 6 119768891.667 6     -2176.375          40.000    23000343.008 6  92612925.312 6     -1682.821          40.000
C24  25858042.750 5 134649620.009 5     -3445.004          31.000
C25  22465237.773 8 116982383.364 8     -1639.297          51.000
E13  23215431.984 8 121997928.606 8       642.004          51.000    23215434.086 8  93478954.866 8       491.925          51.000
E15  24591776.695 6 129230666.054 6     -2014.590          40.000    24591779.547 7  99020910.496 7     -1543.512          43.000
E21  23584640.914 8 123938127.332 8       580.266          50.000    23584643.492 8  94965565.317 8       444.568          50.000
E26  25389333.023 6 133421898.048 6      2733.895          40.000    25389333.438 5 102232333.252 5      2094.952          35.000
E27  24550875.570 8 129015698.908 8     -2072.055          51.000    24550878.008 8  98856191.625 8     -1587.672          51.000
> 2020 05 12 12 49 30.0000000  0 19        .000000000000
G18  20590088.453 8 108201714.197 8      1345.031          51.000    20590088.375 8  84313007.484 8      1048.073          49.000
G21  20822892.805 8 109425097.880 8       982.148          51.000    20822891.281 8  85266286.215 8       765.310          49.000
G25  23400377.258 7 122969795.710 7     -3231.984          45.000    23400381.727 7  95820636.203 7     -2518.432          45.000
G29  21424403.008 7 112585993.919 7     -2083.367          42.000    21424402.016 7  87729349.426 7     -1623.403          42.000
G31  21745072.250 8 114271158.333 8     -1945.418          51.000    21745069.281 8  89042422.517 8     -1515.910          51.000
R11  20578618.836 8 109965900.128 8     -3214.906          51.000    20578622.133 8  85528993.507 8     -2500.486          48.000
R12  19278181.359 8 102980571.498 8       625.254          49.000    19278185.523 7  80096002.296 7       486.309          46.000
R22  19331103.477 8 103190736.688 8       612.043          51.000    19331106.711 8  80259491.008 8       476.033          48.000
R23  23230134.070 7 124265590.594 7      3707.234          43.000    23230139.875 4  96651011.362 4      2883.408          28.000
C05  39627361.469 6 206350068.693 6        18.387          36.000    39627359.391 6 159562954.449 6        14.411          36.000
C11  21838849.406 8 113720644.320 8       498.965          50.000    21838848.391 8  87936041.535 8       385.904          51.000
C12  23012895.078 6 119834248.920 6     -2180.516          40.000    23012893.523 6  92663463.675 6     -1685.914          39.000
C24  25877894.922 5 134752997.128 5     -3446.699          32.000
C25  22474720.828 8 117031765.405 8     -1652.539          51.000
E13  23211797.375 8 121978828.715 8       631.645          51.000    23211799.227 8  93464319.886 8       483.978          51.000
E15  24603293.797 6 129291189.891 6     -2020.434          39.000    24603296.508 7  99067285.911 7     -1547.777          43.000
E21  23581356.742 8 123920869.403 8       570.656          50.000    23581359.320 8  94952341.702 8       437.274          51.000
E26  25373736.539 6 133339947.104 6      2729.652          41.000    25373738.664 5 102169539.744 5      2091.624          34.000
E27  24562726.172 8 129077976.251 8     -2079.508          51.000    24562729.539 8  98903910.585 8     -1593.365          51.000
> 2020 05 12 12 50  0.0000000  0 19        .000000000000
G18  20582467.977 8 108161670.616 8      1325.770          50.000    20582468.430 8  84281804.710 8      1033.070          49.000
G21  20817339.648 8 109395915.116 8       964.543          51.000    20817338.211 8  85243546.411 8       751.592          50.000
G25  23418852.305 7 123066879.282 7     -3238.793          45.000    23418855.938 7  95896285.678 7     -2523.738          45.000
G29  21436323.625 6 112648635.913 6     -2091.645          40.000    21436322.469 6  87778161.381 6     -1629.853          40.000
G31  21756229.227 8 114329789.207 8     -1962.070          51.000    21756226.172 8  89088108.873 8     -1528.889          51.000
R11  20596722.391 8 110062642.444 8     -3233.250          51.000    20596725.625 7  85604237.471 7     -2514.753          46.000
R12  19274745.578 8 102962218.038 8       599.641          49.000    19274749.719 7  80081727.376 7       466.387          47.000
R22  19327725.867 8 103172705.091 8       591.359          51.000    19327728.680 7  80245466.451 7       459.946          47.000
R23  23209372.477 7 124154528.505 7      3698.461          42.000    23209377.617 4  96564629.822 4      2876.587          29.000
C05  39627262.977 6 206349555.727 6        17.445          36.000    39627261.031 6 159562557.310 6        13.290          36.000
C11  21836012.500 8 113705871.187 8       487.184          50.000    21836011.258 8  87924618.019 8       376.721          51.000
C12  23025479.812 6 119899779.132 6     -2186.789          40.000    23025477.703 6  92714135.768 6     -1691.003          38.000
C24  25897763.656 4 134856450.649 4     -3449.906          29.000
C25  22484289.258 8 117081592.397 8     -1668.035          51.000
E13  23208231.797 8 121960091.963 8       618.809          51.000    23208233.461 8  93449963.162 8       474.146          51.000
E15  24614852.375 6 129351933.100 6     -2028.023          40.000    24614855.641 7  99113829.419 7     -1554.084          43.000
E21  23578137.391 8 123903951.555 8       558.555          51.000    23578140.008 8  94939378.673 8       427.954          51.000
E26  25358174.586 7 133258171.667 7      2723.199          42.000    25358178.039 5 102106880.728 5      2086.443          32.000
E27  24574629.023 8 129140527.793 8     -2089.355          51.000    24574633.484 8  98951839.647 8     -1600.857          51.000
> 2020 05 12 12 50 30.0000000  0 18        .000000000000
G18  20574952.781 8 108122179.428 8      1307.223          51.000    20574953.594 8  84251032.383 8      1018.615          49.000
G21  20811881.445 8 109367232.419 8       947.941          51.000    20811880.234 8  85221196.274 8       738.656          50.000
G25  23437362.930 7 123164150.066 7     -3245.219          45.000    23437365.773 7  95972081.034 7     -2528.745          44.000
G29  21448286.023 5 112711497.381 5     -2098.305          34.000    21448284.930 5  87827144.351 5     -1635.043          35.000
G31  21767475.281 8 114388889.345 8     -1977.586          51.000    21767473.281 8  89134160.893 8     -1540.976          51.000
R11  20614922.516 8 110159904.251 8     -3250.559          48.000    20614926.094 7  85679885.467 7     -2528.215          44.000
R12  19271448.789 8 102944607.864 8       574.691          49.000    19271452.992 7  80068030.562 7       446.982          47.000
R22  19324459.711 8 103155268.790 8       571.430          51.000    19324462.125 7  80231904.889 7       444.445          47.000
R23  23188654.000 7 124043693.831 7      3690.730          44.000    23188657.414 5  96478425.150 5      2870.574          30.000
C05                                                                  39627163.250 6 159562163.955 6        13.103          36.000
C11  21833238.430 8 113691425.153 8       476.230          50.000    21833237.086 8  87913447.429 8       368.224          51.000
C12  23038096.148 6 119965474.539 6     -2192.180          36.000    23038093.969 6  92764935.596 6     -1695.256          38.000
C25  22493941.695 8 117131856.807 8     -1682.570          51.000
E13  23204734.023 8 121941711.568 8       606.926          51.000    23204735.641 8  93435879.499 8       465.020          51.000
E15  24626451.461 6 129412887.819 6     -2035.340          39.000    24626455.469 7  99160534.926 7     -1559.417          42.000
E21  23574981.688 8 123887368.285 8       547.367          51.000    23574984.398 8  94926672.006 8       419.381          51.000
E26  25342645.750 6 133176566.109 6      2717.762          41.000
E27  24586582.883 8 129203346.533 8     -2098.254          51.000    24586588.078 8  98999973.446 8     -1607.720          51.000
> 2020 05 12 12 51  0.0000000  0 18        .000000000000
G18  20567542.039 8 108083235.612 8      1289.535          51.000    20567542.555 8  84220686.569 8      1004.833          48.000
G21  20806517.453 8 109339044.101 8       931.887          51.000    20806516.273 8  85199231.342 8       726.145          50.000
G25  23455907.469 7 123261600.976 7     -3250.930          44.000    23455909.711 7  96048016.740 7     -2533.195          44.000
G29  21460288.453 6 112774571.265 6     -2106.301          36.000    21460288.023 5  87876292.768 5     -1641.273          35.000
G31  21778809.281 8 114448450.805 8     -1992.441          51.000    21778808.211 8  89180572.400 8     -1552.552          51.000
R11  20633217.961 7 110257676.771 7     -3266.957          47.000    20633221.477 7  85755930.731 7     -2540.967          43.000
R12  19268290.398 8 102927736.644 8       550.711          50.000    19268294.414 7  80054908.500 7       428.331          47.000
R22  19321303.656 8 103138421.276 8       552.332          51.000    19321306.367 8  80218801.284 8       429.595          48.000
R23  23167977.172 7 123933082.143 7      3683.844          45.000    23167979.656 5  96392393.919 5      2865.215          30.000
C05  39627066.477 5 206348532.922 5        17.746          35.000    39627064.742 6 159561767.373 6        13.647          36.000
C11  21830525.797 8 113677299.854 8       466.078          50.000    21830524.367 8  87902524.842 8       360.386          51.000
C12  23050742.328 6 120031328.031 6     -2197.141          36.000    23050740.750 6  92815857.699 6     -1698.833          39.000
C25  22503676.812 8 117182551.683 8     -1696.367          51.000
E13  23201302.836 8 121923681.364 8       595.680          51.000    23201304.477 8  93422064.144 8       456.487          51.000
E15  24638089.641 5 129474046.540 5     -2042.102          34.000    24638094.016 6  99207396.764 6     -1564.060          41.000
E21  23571888.648 8 123871114.737 8       536.836          51.000    23571891.578 8  94914217.987 8       411.363          51.000
E26  25327149.227 7 133095125.514 7      2712.328          42.000
E27  24598586.375 8 129266425.985 8     -2106.434          51.000    24598592.047 8  99048307.017 8     -1613.985          51.000
> 2020 05 12 12 51 30.0000000  0 18        .000000000000
G18  20560236.422 8 108044844.868 8      1270.285          51.000    20560236.688 8  84190771.758 8       989.833          49.000
G21  20801248.383 8 109311355.106 8       914.422          50.000    20801247.234 8  85177655.504 8       712.540          50.000
G25  23474486.586 7 123359235.693 7     -3257.707          43.000    23474488.336 7  96124095.689 7     -2538.473          43.000
G29  21472331.906 5 112837864.636 5     -2113.285          30.000    21472331.953 5  87925609.999 5     -1646.716          31.000
G31  21790231.820 8 114508476.561 8     -2008.695          51.000    21790231.359 8  89227345.686 8     -1565.217          51.000
R11  20651610.141 8 110355962.491 8     -3284.922          49.000    20651614.000 7  85832375.184 7     -2554.939          45.000
R12  19265271.641 8 102911611.003 8       524.887          50.000    19265275.602 8  80042366.335 8       408.245          48.000
R22  19318258.461 8 103122166.390 8       531.836          51.000    19318261.242 7  80206158.595 7       413.650          47.000
R23  23147342.609 7 123822700.244 7      3675.402          45.000    23147345.797 5  96306541.420 5      2858.649          33.000
C05  39626968.375 6 206348022.015 6        16.770          36.000    39626966.547 6 159561372.261 6        13.348          36.000
C11  21827875.375 8 113663499.558 8       454.324          49.000    21827874.078 8  87891853.580 8       351.481          51.000
C12  23063419.891 5 120097343.009 5     -2203.156          35.000    23063418.484 6  92866904.646 6     -1704.001          40.000
C25  22513495.461 8 117233680.621 8     -1711.727          51.000
E13  23197939.086 8 121906005.894 8       583.188          51.000    23197940.898 8  93408520.601 8       446.885          51.000
E15  24649766.734 5 129535399.438 5     -2048.836          33.000    24649771.359 6  99254417.510 6     -1570.121          40.000
E21  23568859.453 8 123855196.729 8       524.906          51.000    23568862.453 8  94902021.066 8       402.168          51.000
E26  25311685.867 6 133013855.585 6      2706.094          41.000
E27  24610640.320 8 129329770.455 8     -2115.996          51.000    24610645.922 8  99096843.668 8     -1621.354          51.000
> 2020 05 12 12 52  0.0000000  0 17        .000000000000
G18  20553036.953 8 108007011.225 8      1251.766          51.000    20553037.336 8  84161291.035 8       975.405          50.000
G21  20796074.688 8 109284168.714 8       897.652          51.000    20796073.758 8  85156471.336 8       699.469          50.000
G25  23493100.953 7 123457056.152 7     -3263.578          43.000    23493102.750 7  96200319.360 7     -2543.048          43.000
G31  21801742.875 8 114568967.389 8     -2024.141          51.000    21801742.734 8  89274481.391 8     -1577.252          51.000
R11  20670099.734 8 110454761.603 8     -3301.969          51.000    20670103.547 7  85909218.916 7     -2568.198          46.000
R12  19262393.320 8 102896235.806 8       499.852          51.000    19262397.375 8  80030407.832 8       388.773          48.000
R22  19315324.734 8 103106506.475 8       511.988          50.000    19315327.891 7  80193978.649 7       398.216          47.000
R23  23126751.188 7 123712552.811 7      3667.559          46.000    23126756.023 5  96220871.268 5      2852.549          34.000
C05  39626871.141 6 206347516.135 6        16.805          36.000    39626869.461 6 159560981.104 6        12.828          36.000
C11  21825287.945 8 113650026.901 8       443.578          50.000    21825286.914 8  87881435.671 8       342.982          51.000
C12  23076128.547 6 120163521.466 6     -2208.941          36.000    23076127.656 6  92918077.959 6     -1707.767          40.000
C25  22523398.094 8 117285245.567 8     -1726.141          51.000
E13  23194643.430 8 121888687.937 8       571.164          51.000    23194645.422 8  93395250.996 8       437.717          51.000
E15  24661483.516 6 129596971.516 6     -2055.988          37.000    24661487.883 6  99301598.400 6     -1575.484          40.000
E21  23565894.922 8 123839618.364 8       513.492          51.000    23565897.680 8  94890084.389 8       393.461          51.000
E26  25296256.414 6 132932760.355 6      2700.141          41.000
E27  24622745.188 8 129393382.500 8     -2124.855          51.000    24622750.367 8  99145585.322 8     -1628.205          51.000
> 2020 05 12 12 52 30.0000000  0 19        .000000000000
G18  20545942.594 8 107969729.322 8      1234.828          50.000    20545942.969 8  84132240.207 8       962.204          50.000
G21  20790995.734 8 109257478.904 8       882.652          51.000    20790994.578 8  85135674.106 8       687.784          50.000
G25  23511749.250 7 123555055.045 7     -3268.176          42.000    23511751.336 7  96276682.052 7     -2546.634          42.000
G29  21496569.922 6 112965220.098 6     -2126.691          37.000
G31  21813340.703 8 114629914.942 8     -2037.863          51.000    21813340.828 8  89321972.994 8     -1587.945          51.000
R11  20688684.109 8 110554065.295 8     -3317.215          51.000    20688687.719 8  85986455.072 8     -2580.059          48.000
R12  19259654.898 8 102881606.414 8       476.477          51.000    19259658.859 8  80019029.428 8       370.593          48.000
R21  20962379.648 5 112173844.265 5     -3077.648          35.000
R22  19312500.867 8 103091434.211 8       493.887          50.000    19312504.375 7  80182255.793 7       384.134          46.000
R23  23106203.000 7 123602634.914 7      3661.484          46.000    23106209.172 5  96135379.643 5      2847.821          35.000
C05  39626773.750 6 206347009.233 6        18.539          36.000    39626772.031 6 159560589.104 6        14.103          36.000
C11  21822762.125 8 113636875.090 8       434.348          49.000    21822761.461 8  87871265.846 8       335.910          51.000
C12  23088867.000 6 120229855.706 6     -2212.328          37.000    23088866.797 7  92969371.836 7     -1710.703          42.000
C25  22533383.156 8 117337239.200 8     -1739.020          51.000
E13  23191414.719 8 121871720.954 8       561.066          51.000    23191416.570 8  93382250.329 8       429.899          51.000
E15  24673239.109 6 129658747.914 6     -2061.246          39.000    24673242.789 6  99348933.486 6     -1579.328          40.000
E21  23562994.258 8 123824374.384 8       503.848          51.000    23562996.648 8  94878403.940 8       386.107          51.000
E26  25280858.398 6 132851834.466 6      2696.195          39.000    25280864.016 5 101795562.783 5      2065.644          33.000
E27  24634899.594 8 129457255.303 8     -2132.074          50.000    24634904.547 8  99194526.781 8     -1633.715          51.000
> 2020 05 12 12 53  0.0000000  0 19        .000000000000
G18  20538951.414 8 107932990.820 8      1214.426          49.000    20538952.070 8  84103612.799 8       946.306          49.000
G21  20786009.570 8 109231276.618 8       864.086          51.000    20786007.961 8  85115256.762 8       673.314          48.000
G25  23530429.688 7 123653222.007 7     -3276.016          42.000    23530432.125 6  96353175.717 6     -2552.739          41.000
G29  21508706.992 5 113029038.775 5     -2134.902          34.000    21508705.117 6  88074547.601 6     -1663.566          37.000
G31  21825023.516 8 114691308.136 8     -2055.055          51.000    21825023.328 8  89369811.850 8     -1601.341          51.000
R11  20707360.234 8 110653861.066 8     -3335.863          51.000    20707363.711 8  86064073.960 8     -2594.560          49.000
R12  19257054.555 8 102867715.172 8       449.500          51.000    19257058.477 8  80008225.108 8       349.611          48.000
R21  20979662.539 5 112266333.785 5     -3088.270          31.000    20979671.016 4  87318356.014 4     -2401.987          24.000
R22  19309785.531 8 103076939.412 8       472.449          50.000    19309788.586 7  80170982.058 7       367.461          46.000
R23  23085696.930 7 123492938.950 7      3651.652          45.000    23085703.695 5  96050060.634 5      2840.177          35.000
C05  39626674.531 6 206346492.211 6        16.098          36.000    39626672.828 6 159560189.264 6        12.602          36.000
C11  21820295.883 8 113624034.558 8       421.664          49.000    21820295.805 8  87861336.744 8       326.073          51.000
C12  23101633.359 5 120296335.493 5     -2220.043          34.000    23101633.992 6  93020778.193 6     -1716.261          41.000
C25  22543448.523 8 117389651.278 8     -1755.145          51.000
E13  23188251.188 8 121855095.523 8       547.367          51.000    23188252.844 8  93369511.364 8       419.393          51.000
E15  24685031.391 6 129720714.990 6     -2069.770          38.000    24685034.945 6  99396414.692 6     -1585.933          40.000
E21  23560155.727 8 123809456.662 8       490.652          51.000    23560157.898 8  94866973.476 8       375.981          51.000
E26  25265489.430 6 132771069.767 6      2688.375          38.000    25265496.016 5 101733678.124 5      2060.106          34.000
E27  24647101.648 8 129521379.142 8     -2142.809          49.000    24647106.469 8  99243660.585 8     -1641.850          51.000
> 2020 05 12 12 53 30.0000000  0 19        .000000000000
G18  20532069.617 8 107896828.173 8      1196.289          49.000    20532070.875 8  84075434.131 8       932.176          49.000
G21  20781122.250 8 109205593.422 8       847.906          51.000    20781120.516 8  85095243.910 8       660.709          49.000
G25  23549147.812 7 123751587.636 7     -3281.727          42.000    23549150.883 7  96429824.175 7     -2557.193          42.000
G29  21520914.055 6 113093187.912 6     -2141.715          38.000    21520911.883 6  88124533.939 6     -1668.866          38.000
G31  21836796.922 8 114753176.330 8     -2069.664          51.000    21836796.250 8  89418020.827 8     -1612.725          51.000
R11  20726133.461 8 110754178.594 8     -3352.184          51.000    20726137.320 8  86142098.672 8     -2607.254          48.000
R12  19254598.703 8 102854595.509 8       424.914          51.000    19254602.406 8  79998020.925 8       330.489          49.000
R21  20996996.219 5 112359096.461 5     -3096.168          31.000    20996991.812 4  87390504.053 4     -2408.134          25.000
R22  19307183.984 8 103063053.062 8       453.301          49.000    19307187.500 7  80160181.588 7       352.570          46.000
R23  23065239.078 7 123383499.186 7      3644.137          46.000    23065245.922 6  95964940.888 6      2834.332          36.000
C05  39626579.258 6 206345995.409 6        16.336          36.000    39626577.617 6 159559805.864 6        12.795          36.000
C11  21817895.695 8 113611536.238 8       411.258          50.000    21817895.742 8  87851672.251 8       318.083          51.000
C12  23114433.617 5 120362990.850 5     -2224.555          34.000    23114434.844 6  93072320.359 6     -1719.998          40.000
C25  22553600.078 8 117442512.009 8     -1768.949          51.000
E13  23185158.438 8 121838842.968 8       535.980          51.000    23185160.297 8  93357058.116 8       410.680          51.000
E15  24696866.359 5 129782902.990 5     -2076.262          34.000    24696870.141 6  99444065.206 6     -1590.740          39.000
E21  23557385.523 8 123794897.845 8       479.699          51.000    23557387.539 8  94855818.011 8       367.598          51.000
E26  25250155.961 6 132690498.763 6      2682.941          36.000    25250164.047 5 101671941.939 5      2055.551          35.000
E27  24659357.484 8 129585785.126 8     -2151.125          50.000    24659362.031 8  99293010.591 8     -1648.286          51.000
> 2020 05 12 12 54  0.0000000  0 18        .000000000000
G18  20525296.812 8 107861236.485 8      1176.652          51.000    20525298.078 8  84047700.302 8       916.869          50.000
G21  20776332.789 8 109180423.888 8       830.246          51.000    20776331.008 8  85075631.303 8       646.945          48.000
G25  23567902.586 7 123850144.944 7     -3288.508          42.000    23567906.273 7  96506622.005 7     -2562.477          43.000
G29  21533162.727 5 113157560.798 5     -2149.121          32.000    21533161.250 5  88174694.650 5     -1674.640          30.000
G31  21848659.188 8 114815511.623 8     -2085.754          51.000    21848657.867 8  89466593.774 8     -1625.263          51.000
R11  20745002.258 8 110855009.083 8     -3369.648          49.000    20745006.781 8  86220522.371 8     -2620.838          49.000
R12  19252286.594 8 102842243.436 8       398.719          51.000    19252290.023 8  79988413.755 8       310.115          49.000
R22  19304695.133 8 103049768.435 8       432.621          49.000    19304699.031 7  80149849.103 7       336.483          46.000
R23  23044827.984 7 123274310.815 7      3635.113          46.000    23044834.797 6  95880016.665 6      2827.310          36.000
C05  39626487.055 6 206345516.239 6        15.703          36.000    39626485.289 6 159559434.565 6        11.880          36.000
C11  21815560.055 8 113599373.871 8       399.602          50.000    21815559.953 8  87842267.531 8       308.961          51.000
C12  23127266.602 5 120429814.899 5     -2230.004          34.000    23127267.438 6  93123992.997 6     -1724.655          39.000
C25  22563836.766 8 117495814.417 8     -1784.301          51.000
E13  23182135.273 8 121822957.184 8       523.156          51.000    23182137.320 8  93344885.903 8       400.866          51.000
E15                                                                  24708746.500 6  99491879.428 6     -1596.535          39.000
E21  23554682.625 8 123780693.120 8       467.410          51.000    23554684.547 8  94844933.877 8       358.101          51.000
E26  25234858.789 5 132610116.475 5      2676.172          35.000    25234864.062 5 101610350.472 5      2050.073          35.000
E27  24671666.078 8 129650466.828 8     -2160.867          50.000    24671669.938 8  99342571.905 8     -1655.762          51.000
> 2020 05 12 12 54 30.0000000  0 19        .000000000000
G18  20518629.602 8 107826199.352 8      1159.453          51.000    20518630.609 8  84020398.642 8       903.473          50.000
G21  20771637.719 8 109155750.981 8       815.035          51.000    20771635.875 8  85056405.681 8       635.092          49.000
G25  23586690.195 6 123948875.655 6     -3293.285          41.000    23586694.438 6  96583554.977 6     -2566.196          41.000
G29  21545451.180 5 113222110.544 5     -2155.148          35.000    21545451.008 5  88225016.702 5     -1679.333          35.000
G31  21860606.391 8 114878294.984 8     -2099.398          49.000    21860604.875 8  89515515.878 8     -1635.895          49.000
R11  20763963.406 8 110956332.502 8     -3384.734          49.000    20763968.414 8  86299329.461 8     -2632.571          49.000
R12  19250115.094 8 102830642.828 8       375.000          51.000    19250118.391 8  79979391.057 8       291.667          49.000
R21  21031811.680 5 112545414.202 5     -3111.801          33.000
R22  19302315.719 8 103037067.196 8       414.559          49.000    19302319.461 7  80139970.359 7       322.434          46.000
R23  23024460.023 7 123165358.174 7      3628.590          46.000    23024467.164 6  95795275.782 6      2822.237          37.000
C05  39626394.594 6 206345033.812 6        16.992          36.000    39626392.844 6 159559062.280 6        12.979          36.000
C11  21813285.180 8 113587529.889 8       390.293          49.000    21813285.531 8  87833109.019 8       301.875          51.000
C12  23140128.594 5 120496789.452 5     -2234.484          35.000    23140128.625 6  93175781.947 6     -1727.703          38.000
C25  22574154.617 8 117549540.426 8     -1797.090          51.000
E13  23179178.844 8 121807420.751 8       512.949          51.000    23179180.750 8  93332981.361 8       393.039          51.000
E15  24720652.188 6 129907905.270 6     -2088.836          36.000    24720659.578 6  99539843.186 6     -1600.629          39.000
E21  23552044.000 8 123766826.408 8       457.496          51.000    23552045.836 8  94834308.730 8       350.513          51.000
E26  25219595.531 5 132529866.805 5      2671.379          32.000    25219594.336 6 101548891.221 6      2047.017          37.000
E27  24684023.734 8 129715406.642 8     -2168.133          50.000    24684027.852 8  99392330.975 8     -1661.267          51.000
> 2020 05 12 12 55  0.0000000  0 19        .000000000000
G18  20512065.898 8 107791706.115 8      1139.789          51.000    20512066.555 8  83993520.813 8       888.150          50.000
G21  20767035.016 8 109131563.359 8       797.254          51.000    20767033.008 8  85037558.195 8       621.237          49.000
G25  23605508.578 7 124047767.214 7     -3299.977          43.000    23605512.438 7  96660613.299 7     -2571.413          43.000
G29  21557776.758 5 113286880.978 5     -2163.098          30.000    21557778.109 5  88275487.994 5     -1685.531          31.000
G31  21872635.875 8 114941512.606 8     -2115.508          48.000    21872634.680 8  89564776.339 8     -1648.448          48.000
R11  20783014.547 8 111058134.224 8     -3402.297          51.000    20783018.906 8  86378508.549 8     -2646.234          48.000
R12  19248082.219 8 102819783.697 8       348.559          51.000    19248085.586 8  79970945.056 8       271.101          49.000
R21  21049284.844 5 112638914.210 5     -3121.453          30.000
R22  19300043.352 8 103024936.778 8       393.891          49.000    19300047.047 7  80130535.616 7       306.359          46.000
R23  23004134.055 7 123056631.196 7      3619.414          47.000    23004141.180 6  95710710.424 6      2815.100          37.000
C05  39626299.617 5 206344539.829 5        15.617          35.000    39626298.016 5 159558680.252 5        12.309          35.000
C11  21811069.523 8 113575992.528 8       378.547          50.000    21811070.227 8  87824187.609 8       292.656          51.000
C12  23153017.180 5 120563901.705 5     -2239.816          33.000    23153016.094 6  93227677.410 6     -1732.364          37.000
C25  22584551.078 8 117603677.417 8     -1812.379          51.000
E13  23176286.703 8 121792221.864 8       500.012          51.000    23176288.719 8  93321335.469 8       383.111          51.000
E15  24732597.750 6 129970684.256 6     -2096.668          38.000    24732605.984 6  99587946.531 6     -1606.586          38.000
E21  23549467.594 8 123753287.230 8       444.809          51.000    23549469.516 8  94823934.549 8       340.827          51.000
E26  25204376.305 5 132449895.098 5      2664.918          31.000    25204358.844 6 101487556.075 6      2041.603          38.000
E27  24696428.336 8 129780592.511 8     -2177.906          50.000    24696432.695 8  99442278.594 8     -1668.821          51.000
> 2020 05 12 12 55 30.0000000  0 18        .000000000000
G18  20505611.820 8 107757789.005 8      1120.629          51.000    20505611.836 8  83967091.914 8       873.217          50.000
G21  20762530.414 8 109107892.311 8       780.176          49.000    20762528.500 8  85019113.232 8       607.929          49.000
G25  23624363.531 7 124146849.948 7     -3306.219          44.000    23624365.984 7  96737820.586 7     -2576.277          44.000
G31  21884753.969 8 115005193.973 8     -2130.758          50.000    21884752.695 8  89614398.173 8     -1660.331          50.000
R11  20802160.797 8 111160443.573 8     -3419.102          51.000    20802163.797 7  86458082.461 7     -2659.301          46.000
R12  19246194.305 8 102809699.477 8       322.898          51.000    19246197.734 8  79963101.778 8       251.143          49.000
R21  21066810.672 5 112732672.558 5     -3129.637          35.000
R22  19297883.875 8 103013407.902 8       373.883          49.000    19297886.742 7  80121568.724 7       290.801          46.000
R23  22983856.938 8 122948163.713 8      3610.934          48.000    22983863.570 6  95626346.925 6      2808.507          37.000
C05  39626208.328 6 206344064.478 6        14.906          36.000    39626206.680 6 159558312.661 6        11.590          36.000
C11  21808918.734 8 113564792.416 8       367.469          50.000    21808919.359 8  87815526.972 8       284.050          51.000
C12  23165937.820 5 120631181.880 5     -2245.676          32.000    23165935.852 5  93279702.711 5     -1736.457          34.000
C25  22595031.914 8 117658255.347 8     -1826.879          51.000
E13  23173464.656 8 121777391.659 8       487.855          51.000    23173466.945 8  93309972.087 8       373.769          51.000
E15  24744584.094 6 130033675.466 6     -2103.668          36.000    24744591.367 6  99636212.482 6     -1611.560          38.000
E21  23546959.648 8 123740108.027 8       432.930          51.000    23546961.594 8  94813836.193 8       331.761          51.000
E26  25189156.719 5 132369911.211 5      2657.922          33.000    25189162.773 6 101426369.879 6      2036.772          40.000
E27  24708886.031 8 129846055.325 8     -2187.102          51.000    24708890.305 8  99492438.406 8     -1675.813          51.000
> 2020 05 12 12 56  0.0000000  0 19        .000000000000
G18  20499262.047 8 107724421.115 8      1103.180          49.000    20499261.773 8  83941090.991 8       859.624          49.000
G21  20758118.773 8 109084710.476 8       764.598          49.000    20758117.164 8  85001049.471 8       595.790          49.000
G25  23643249.367 7 124246095.078 7     -3310.805          45.000    23643250.609 7  96815154.385 7     -2579.851          46.000
G29  21582550.781 5 113417069.401 5     -2176.523          34.000    21582552.094 5  88376941.444 5     -1695.995          34.000
G31  21896954.852 8 115069308.808 8     -2144.359          51.000    21896953.562 8  89664357.749 8     -1670.929          51.000
R11  20821396.000 8 111263229.344 8     -3434.102          51.000    20821398.047 7  86538026.911 7     -2670.971          46.000
R12  19244446.484 8 102800363.540 8       298.715          51.000    19244450.047 8  79955840.480 8       232.331          49.000
R21  21084377.352 5 112826658.540 5     -3136.531          32.000
R22  19295831.562 8 103002451.577 8       355.633          49.000    19295834.195 7  80113047.157 7       276.603          46.000
R23  22963623.555 7 122839929.077 7      3603.930          47.000    22963629.969 6  95542164.530 6      2803.059          38.000
C05  39626115.297 6 206343580.429 6        16.535          36.000    39626113.672 5 159557938.358 5        12.686          35.000
C11  21806827.281 8 113553901.637 8       357.883          50.000    21806827.695 8  87807105.521 8       276.692          51.000
C12  23178884.148 4 120698531.684 4     -2248.930          28.000    23178882.289 5  93331835.509 5     -1739.199          33.000
C25  22605591.883 8 117713245.642 8     -1839.848          51.000
E13  23170707.523 8 121762902.210 8       477.277          51.000    23170709.781 8  93298869.783 8       365.691          51.000
E15  24756605.484 5 130096849.878 5     -2108.582          34.000    24756611.289 6  99684618.826 6     -1616.101          38.000
E21  23544515.180 8 123727262.116 8       422.582          51.000    23544516.945 8  94803993.228 8       323.785          51.000
E26  25173996.398 6 132290225.711 6      2653.211          39.000    25174000.266 6 101365312.148 6      2033.088          41.000
E27  24721391.328 8 129911766.898 8     -2194.645          51.000    24721394.883 8  99542788.796 8     -1681.560          51.000
> 2020 05 12 12 56 30.0000000  0 19        .000000000000
G18  20493015.477 8 107691596.645 8      1085.062          48.000    20493015.383 8  83915513.520 8       845.503          48.000
G21  20753799.148 8 109062011.563 8       748.598          50.000    20753797.867 8  84983362.003 8       583.323          49.000
G25  23662164.773 7 124345494.933 7     -3315.922          45.000    23662166.086 7  96892608.746 7     -2583.835          45.000
G29  21594991.703 6 113482445.940 6     -2182.562          39.000    21594992.047 6  88427884.224 6     -1700.698          38.000
G31  21909236.602 8 115133848.842 8     -2158.410          51.000    21909235.070 8  89714648.660 8     -1681.878          51.000
R11  20840718.594 8 111366482.440 8     -3449.566          51.000    20840719.930 7  86618334.840 7     -2682.996          46.000
R12  19242837.789 8 102791770.596 8       274.039          51.000    19242841.484 8  79949157.062 8       213.141          49.000
R21  21101949.219 5 112920787.678 5     -3143.574          34.000
R22  19293885.055 8 102992060.246 8       337.000          48.000    19293887.758 7  80104965.000 7       262.111          47.000
R23  22943432.523 7 122731922.234 7      3596.316          46.000    22943439.781 6  95458159.277 6      2797.138          39.000
C05  39626019.461 6 206343081.338 6        17.340          36.000    39626017.828 5 159557552.456 5        12.904          35.000
C11  21804794.055 8 113543313.249 8       347.918          51.000    21804794.398 8  87798917.910 8       269.041          51.000
C12  23191856.734 5 120766068.161 5     -2253.555          35.000    23191855.422 5  93384070.068 5     -1742.881          31.000
C25  22616229.688 8 117768640.576 8     -1853.191          51.000
E13  23168013.773 8 121748746.645 8       466.273          51.000    23168016.016 8  93288023.308 8       357.304          51.000
E15                                                                  24768664.844 6  99733159.432 6     -1620.210          37.000
E21  23542132.969 8 123714744.023 8       411.781          51.000    23542134.836 8  94794401.441 8       315.539          51.000
E26  25158866.328 7 132210702.224 7      2647.789          42.000    25158869.273 7 101304378.596 7      2029.062          42.000
E27  24733942.719 8 129977720.120 8     -2202.465          51.000    24733944.961 8  99593324.343 8     -1687.603          51.000
> 2020 05 12 12 57  0.0000000  0 19        .000000000000
G18  20486875.852 8 107659333.562 8      1065.781          49.000    20486875.891 8  83890373.440 8       830.479          49.000
G21  20749574.539 8 109039812.300 8       731.422          50.000    20749573.492 8  84966063.871 8       569.939          48.000
G25  23681112.820 7 124445065.626 7     -3322.102          45.000    23681114.539 7  96970196.249 7     -2588.654          46.000
G29  21607471.367 6 113548025.814 6     -2189.480          38.000    21607469.867 6  88478985.428 6     -1706.092          38.000
G31  21921601.844 8 115198829.085 8     -2173.602          51.000    21921600.547 8  89765282.584 8     -1693.716          51.000
R11  20860131.477 8 111470217.257 8     -3466.055          51.000    20860132.680 7  86699017.398 7     -2695.823          47.000
R12  19241371.789 8 102783939.471 8       248.059          51.000    19241375.383 8  79943066.175 8       192.934          49.000
R21  21119621.758 5 113015208.699 5     -3152.402          35.000
R22  19292047.023 7 102982250.152 7       317.137          47.000    19292050.062 7  80097334.927 7       246.662          46.000
R23  22923287.602 7 122624162.329 7      3587.496          45.000    22923295.992 6  95374346.091 6      2790.278          39.000
C05  39625924.078 5 206342584.354 5        16.305          35.000    39625922.422 5 159557168.627 5        12.345          35.000
C11  21802822.188 8 113533043.739 8       336.797          51.000    21802822.430 8  87790976.887 8       260.357          51.000
C12  23204858.516 6 120833766.463 6     -2259.715          36.000    23204858.820 4  93436346.693 4     -1746.844          29.000
C25  22626948.406 8 117824455.974 8     -1867.727          51.000
E13  23165386.805 8 121734941.842 8       454.023          51.000    23165389.125 8  93277445.603 8       347.867          51.000
E15                                                                  24780755.062 6  99781846.459 6     -1625.490          36.000
E21  23539816.578 8 123702571.912 8       399.637          51.000    23539818.805 8  94785074.755 8       306.233          51.000
E26  25143769.281 7 132131358.852 7      2641.320          43.000    25143772.336 7 101243583.072 7      2023.887          42.000
E27  24746542.977 8 130043931.553 8     -2211.629          51.000    24746543.906 8  99644057.733 8     -1694.676          51.000
> 2020 05 12 12 57 30.0000000  0 19        .000000000000
G18  20480845.789 8 107627647.041 8      1046.391          48.000    20480846.195 8  83865682.627 8       815.369          48.000
G21  20745447.734 8 109018127.368 8       714.156          49.000    20745446.891 8  84949166.517 8       556.485          48.000
G25  23700095.773 7 124544820.610 7     -3328.180          45.000    23700098.211 7  97047927.339 7     -2593.387          44.000
G29  21619991.859 6 113613822.491 6     -2196.539          38.000    21619989.742 6  88530255.519 6     -1711.592          37.000
G31  21934052.945 8 115264261.807 8     -2188.613          50.000    21934051.992 8  89816269.109 8     -1705.413          50.000
R11  20879636.773 8 111574445.943 8     -3482.516          51.000    20879638.438 8  86780084.071 8     -2708.626          49.000
R12  19240051.383 8 102776886.513 8       222.059          51.000    19240055.156 8  79937580.537 8       172.712          49.000
R21  21137317.297 4 113109890.902 4     -3161.934          28.000    21137322.297 4  87974478.900 4     -2459.294          28.000
R22  19290320.602 8 102973035.098 8       297.305          48.000    19290323.656 7  80090167.647 7       231.237          46.000
R23  22903192.031 7 122516665.574 7      3578.715          44.000    22903200.992 6  95290737.595 6      2783.448          39.000
C05  39625831.836 6 206342104.030 6        16.059          36.000    39625830.305 5 159556796.707 5        12.134          35.000
C11  21800914.047 8 113523107.115 8       325.516          50.000    21800914.141 8  87783293.252 8       251.866          51.000
C12  23217890.094 5 120901625.485 5     -2264.391          35.000    23217891.773 5  93488824.613 5     -1751.263          33.000
C25  22637750.586 8 117880705.069 8     -1882.230          51.000
E13  23162829.227 8 121721502.027 8       441.910          51.000    23162831.758 8  93267147.563 8       338.624          51.000
E15  24792884.883 6 130287494.146 6     -2127.965          37.000    24792884.789 6  99830690.002 6     -1630.767          36.000
E21  23537569.047 8 123690761.366 8       387.609          51.000    23537571.523 8  94776025.107 8       297.023          51.000
E26  25128707.891 7 132052211.160 7      2635.027          43.000    25128711.555 6 101182937.500 6      2019.047          41.000
E27  24759194.734 8 130110415.326 8     -2220.641          51.000    24759194.875 8  99694999.798 8     -1701.530          51.000
> 2020 05 12 12 58  0.0000000  0 20        .000000000000
G18  20474923.992 8 107596528.093 8      1027.969          49.000    20474924.672 8  83841434.097 8       801.015          49.000
G21  20741417.273 8 108996947.183 8       697.684          50.000    20741416.703 8  84932662.510 8       543.650          48.000
G25  23719111.359 7 124644748.873 7     -3333.742          43.000    23719114.523 7  97125793.488 7     -2597.721          43.000
G29  21632551.734 6 113679824.744 6     -2203.352          38.000    21632549.422 6  88581685.811 6     -1716.906          38.000
G31  21946587.969 8 115330135.006 8     -2203.008          50.000    21946587.594 8  89867598.870 8     -1716.629          50.000
R11  20899231.719 8 111679155.429 8     -3498.230          51.000    20899234.281 8  86861524.715 8     -2720.849          50.000
R12  19238875.016 8 102770602.776 8       196.766          51.000    19238878.930 8  79932693.166 8       153.040          49.000
R21  21155056.586 5 113204804.987 5     -3167.695          31.000    21155054.734 4  88048301.008 4     -2463.757          25.000
R22  19288703.773 8 102964403.990 8       278.109          48.000    19288706.789 7  80083454.563 7       216.304          46.000
R23  22883144.336 7 122409424.014 7      3570.621          43.000    22883153.203 6  95207327.600 6      2777.156          39.000
C05  39625741.008 5 206341630.749 5        15.879          35.000
C11  21799067.773 8 113513493.100 8       315.293          51.000    21799067.727 8  87775859.083 8       243.817          51.000
C12  23230949.406 5 120969634.392 5     -2268.930          32.000    23230953.359 5  93541413.372 5     -1754.728          34.000
C24  26217290.156 5 136520304.176 5     -3481.234          31.000
C25  22648633.977 8 117937376.848 8     -1895.965          51.000
E13  23160339.164 8 121708417.035 8       430.355          51.000    23160341.773 8  93257121.418 8       329.747          51.000
E15  24805050.836 5 130351432.204 5     -2134.219          35.000    24805052.195 6  99879681.426 6     -1635.298          36.000
E21  23535388.633 8 123679303.528 8       376.195          51.000    23535391.156 8  94767245.730 8       288.227          51.000
E26  25113681.211 7 131973250.228 7      2629.070          43.000    25113684.641 6 101122435.023 6      2014.479          39.000
E27  24771896.086 8 130177160.930 8     -2229.145          51.000    24771896.242 8  99746142.496 8     -1708.010          51.000
> 2020 05 12 12 58 30.0000000  0 19        .000000000000
G18  20469110.500 8 107565976.313 8      1009.242          51.000    20469111.156 8  83817627.523 8       786.422          51.000
G21  20737482.930 8 108976270.913 8       681.191          49.000    20737482.398 8  84916551.160 8       530.798          49.000
G25  23738159.258 7 124744848.303 7     -3339.020          44.000    23738163.188 7  97203792.990 7     -2601.833          44.000
G29  21645150.328 6 113746030.647 6     -2209.910          39.000    21645148.469 6  88633274.885 6     -1722.005          39.000
G31  21959206.328 8 115396445.579 8     -2217.246          50.000    21959206.422 8  89919269.450 8     -1727.724          51.000
R11  20918915.281 8 111784342.025 8     -3513.844          48.000    20918919.102 8  86943336.459 8     -2732.993          49.000
R12  19237842.648 8 102765088.745 8       171.258          51.000    19237846.641 8  79928404.475 8       133.204          49.000
R22  19287195.961 8 102956354.877 8       258.914          48.000    19287199.117 7  80077194.143 7       201.378          46.000
R23  22863144.023 7 122302437.975 7      3562.238          42.000    22863152.875 6  95124116.351 6      2770.636          38.000
C05  39625651.242 5 206341163.534 5        15.879          35.000    39625649.734 5 159556070.392 5        12.478          35.000
C11  21797283.344 8 113504200.176 8       304.727          51.000    21797283.180 8  87768673.209 8       235.637          51.000
C12  23244037.758 5 121037790.818 5     -2274.246          33.000    23244043.000 6  93594116.241 6     -1757.993          37.000
C24  26237347.125 5 136624743.244 5     -3482.539          32.000
C25  22659598.219 8 117994469.090 8     -1909.746          51.000
E13  23157916.570 8 121695685.569 8       418.809          51.000    23157918.953 8  93247366.142 8       320.890          51.000
E15  24817254.125 5 130415549.931 5     -2140.125          32.000    24817256.820 6  99928818.969 6     -1640.120          36.000
E21  23533275.414 8 123668198.429 8       364.555          51.000    23533277.789 8  94758736.617 8       279.349          51.000
E26  25098689.992 7 131894475.979 7      2623.008          44.000    25098692.359 6 101062075.588 6      2009.894          39.000
E27  24784646.750 8 130244166.802 8     -2237.574          51.000    24784647.156 8  99797484.662 8     -1714.463          51.000
> 2020 05 12 12 59  0.0000000  0 19        .000000000000
G18  20463402.672 8 107535979.852 8       990.133          51.000    20463403.102 8  83794253.669 8       771.532          51.000
G21  20733641.727 8 108956085.647 8       664.102          48.000    20733641.234 8  84900822.423 8       517.485          48.000
G25  23757237.508 7 124845105.404 7     -3345.023          45.000    23757241.375 7  97281915.334 7     -2606.515          45.000
G29  21657784.945 6 113812427.160 6     -2217.043          39.000    21657784.039 6  88685012.410 6     -1727.566          38.000
G31  21971905.141 8 115463178.771 8     -2231.941          50.000    21971905.336 8  89971269.332 8     -1739.175          50.000
R11  20938684.477 7 111889990.117 7     -3529.719          45.000    20938689.609 8  87025507.202 8     -2745.334          48.000
R12  19236951.977 8 102760333.038 8       145.383          50.000    19236956.320 8  79924705.590 8       113.076          49.000
R22  19285794.867 8 102948873.726 8       239.418          49.000    19285797.914 7  80071375.450 7       186.211          46.000
R23  22843189.156 6 122195696.550 6      3553.262          41.000    22843198.328 6  95041095.306 6      2763.648          38.000
C05  39625560.352 5 206340690.233 5        15.215          35.000    39625558.805 6 159555704.381 6        11.937          36.000
C11  21795558.000 8 113495215.561 8       293.820          51.000    21795557.703 8  87761725.750 8       227.204          51.000
C12  23257152.344 5 121106081.469 5     -2278.969          35.000    23257158.742 6  93646922.862 6     -1762.098          36.000
C24  26257409.086 5 136729214.622 5     -3484.246          33.000
C25  22670640.664 8 118051968.228 8     -1923.984          51.000
E13  23155558.727 8 121683294.855 8       406.844          51.000    23155560.945 8  93237871.968 8       311.725          51.000
E15                                                                  24829495.406 6  99978091.989 6     -1644.969          37.000
E21  23531227.164 8 123657434.580 8       352.520          51.000    23531229.242 8  94750488.992 8       270.139          51.000
E26  25083732.227 7 131815876.827 7      2616.629          45.000    25083733.953 6 101001850.342 6      2004.916          40.000
E27  24797444.000 8 130311419.915 8     -2246.363          50.000    24797445.406 8  99849016.275 8     -1721.296          51.000
> 2020 05 12 12 59 30.0000000  0 19        .000000000000
G18  20457801.695 8 107506544.771 8       971.777          51.000    20457801.859 8  83771317.245 8       757.229          51.000
G21  20729895.094 8 108936396.758 8       647.914          49.000    20729894.711 8  84885480.464 8       504.871          49.000
G25  23776346.859 7 124945524.344 7     -3350.062          46.000    23776349.984 7  97360163.789 7     -2610.441          46.000
G29  21670456.633 6 113879018.259 6     -2223.043          38.000    21670457.094 6  88736901.543 6     -1732.241          38.000
G31  21984685.000 8 115530337.660 8     -2245.680          49.000    21984685.281 8  90023600.926 8     -1749.880          49.000
R11  20958539.531 7 111996102.222 7     -3544.809          46.000    20958546.211 7  87108038.883 7     -2757.073          47.000
R12  19236204.602 8 102756342.252 8       120.309          50.000    19236209.203 8  79921601.645 8        93.576          49.000
R22  19284500.586 8 102941964.858 8       220.785          49.000    19284503.523 7  80066001.901 7       171.722          45.000
R23  22823281.883 6 122089206.502 6      3545.348          41.000    22823290.969 6  94958269.745 6      2757.493          38.000
C05                                                                  39625467.766 6 159555337.824 6        12.257          36.000
C11  21793892.750 8 113486544.035 8       283.742          51.000    21793892.094 8  87755020.368 8       219.510          51.000
C12  23270294.125 5 121174510.412 5     -2283.605          33.000    23270299.984 5  93699836.493 5     -1765.635          35.000
C24  26277478.117 5 136833721.836 5     -3484.488          34.000
C25  22681761.938 8 118109878.221 8     -1937.188          51.000
E13  23153266.727 8 121671249.855 8       395.676          51.000    23153268.727 8  93228642.690 8       303.201          51.000
E15                                                                  24841767.680 6 100027503.593 6     -1649.309          36.000
E21  23529244.906 8 123647018.273 8       341.344          51.000    23529246.875 8  94742507.672 8       261.561          51.000
E26  25068808.961 7 131737459.050 7      2610.785          45.000    25068811.344 7 100941764.057 7      2000.475          42.000
E27  24810289.328 8 130378925.056 8     -2254.410          51.000    24810291.734 8  99900740.996 8     -1727.405          51.000
