     3.02           OBSERVATION DATA    M (MIXED)           RINEX VERSION / TYPE
SAVERINEX           SC600               20200511 005930 LCL PGM / RUN BY / DATE
       G = GPS       R = GLONASS       C = COMPASS          COMMENT
       S = SBAS      J = QZSS          E = GALILEO          COMMENT
BEAN                                                        MARKER NAME
1                                                           MARKER NUMBER
GEODETIC                                                    MARKER TYPE
Unige DICCA         GTER                                    OBSERVER / AGENCY
SC60291900056       SC600               2.12(191226)        REC # / TYPE / VERS
                    HEMA45          NONE                    ANT # / TYPE
  4509407.8091   693652.4678  4442337.6214                  APPROX POSITION XYZ
        0.0000        0.0000        0.0000                  ANTENNA: DELTA H/E/N
G    8 C1C L1C D1C S1C C2Y L2Y D2Y S2Y                      SYS / # / OBS TYPES
R    8 C1C L1C D1C S1C C2P L2P D2P S2P                      SYS / # / OBS TYPES
C    8 C1I L1I D1I S1I C7I L7I D7I S7I                      SYS / # / OBS TYPES
E    8 C1C L1C D1C S1C C7Q L7Q D7Q S7Q                      SYS / # / OBS TYPES
DBHZ                                                        COMMENT
     30.000                                                 INTERVAL
  2020    05    10    22    00    0.0000000     GPS         TIME OF FIRST OBS
  2020    05    10    22    59   30.0000000     GPS         TIME OF LAST OBS
     0                                                      RCV CLOCK OFFS APPL
G L1C  0.00000                                              SYS / PHASE SHIFT
G L2Y  0.00000                                              SYS / PHASE SHIFT
R L1C  0.00000                                              SYS / PHASE SHIFT
R L2P  0.25000                                              SYS / PHASE SHIFT
C L1I  0.00000                                              SYS / PHASE SHIFT
C L7I  0.00000                                              SYS / PHASE SHIFT
E L1C  0.50000                                              SYS / PHASE SHIFT
E L7Q -0.25000                                              SYS / PHASE SHIFT
 12 R01  1 R02 -4 R07  5 R08  6 R09 -2 R10 -5 R11  0 R12 -1 GLONASS SLOT / FRQ #
    R17  4 R21  4 R22 -3 R23  3                             GLONASS SLOT / FRQ #
 C1C   71.950 C2C   71.950 C2P   71.950                     GLONASS COD/PHS/BIS
    18                                                      LEAP SECONDS
*** Above antenna height is from mark to ANTENNA BOTTOM.    COMMENT
    17     4        0.0000        ANT MEASURE TYPE/HEIGT    COMMENT
    0.0000    0.0000    0.0458    0.0405    0.0000          COMMENT
                    BASE STATION                            COMMENT
                                                            END OF HEADER
> 2020 05 10 22 00  0.0000000  0 18        .000000000000
G01  22504460.297 8 118261712.790 8     -3107.344          51.000    22504459.758 8  92152000.032 8     -2421.307          51.000
G03  20665444.578 8 108597648.409 8     -1113.031          51.000    20665446.195 8  84621586.929 8      -867.297          51.000
G04  20462412.141 8 107530707.368 8      1130.047          49.000    20462412.664 8  83790180.266 8       880.556          49.000
G09  22293441.086 7 117152910.457 7      3012.695          47.000    22293441.953 7  91287969.722 7      2347.555          47.000
G22  22270179.953 5 117030583.177 5     -2120.500          34.000
G31  23525595.117 5 123627807.952 5     -1288.500          34.000    23525592.031 5  96333392.996 5     -1004.017          32.000
R01  20076472.789 5 107320292.615 5     -2035.199          34.000    20076479.977 4  83471333.477 4     -1582.930          28.000
R02  20378730.805 5 108744790.127 5      1925.078          32.000    20378745.336 4  84579310.540 4      1497.286          28.000
R23  22666545.828 6 121250728.175 6     -4498.148          37.000
R24  20022710.836 8 107070437.787 8     -2629.438          50.000    20022713.086 8  83277008.551 8     -2045.118          48.000
C05                                                                  39728560.422 5 159970449.821 5       -24.267          34.000
C19  21760379.664 8 113312011.852 8      -914.242          51.000
C22  23052323.812 4 120039576.779 4      1696.250          26.000
E03  25157191.055 5 132201930.469 5     -2075.656          34.000    25157192.672 5 101297578.704 5     -1590.680          35.000
E07  26071253.422 8 137005397.091 8      2363.191          48.000    26071259.102 8 104978172.199 8      1810.715          50.000
E08  21415330.820 8 112538344.152 8       288.797          51.000    21415331.703 8  86230684.572 8       221.325          51.000
E13  23373588.625 8 122829048.411 8      -121.246          51.000    23373589.562 8  94115759.706 8       -92.873          51.000
E15  24998741.164 7 131369287.942 7     -2633.727          45.000    24998748.328 8 100659604.701 8     -2018.044          51.000
> 2020 05 10 22 00 30.0000000  0 17        .000000000000
G01  22522222.211 8 118355050.752 8     -3126.074          50.000    22522219.719 8  92224730.883 8     -2435.902          50.000
G03  20671822.312 8 108631163.488 8     -1131.953          51.000    20671823.930 8  84647702.571 8      -882.041          51.000
G04  20456005.578 8 107497041.661 8      1103.531          49.000    20456006.023 8  83763947.249 8       859.894          48.000
G09  22276266.805 8 117062659.405 8      2993.180          49.000    22276268.320 8  91217644.237 8      2332.348          48.000
G17  22213244.078 5 116731406.435 5     -1069.688          35.000    22213243.914 5  90959526.873 5      -833.523          35.000
G22  22282300.672 5 117094276.608 5     -2137.406          35.000
R01  20087918.812 6 107381476.276 6     -2054.621          38.000    20087927.234 5  83518920.756 5     -1598.036          30.000
R02  20367941.797 5 108687209.269 5      1902.758          32.000
R23  22691788.797 6 121385749.896 6     -4514.293          36.000
R24  20037519.133 8 107149627.497 8     -2660.910          49.000    20037521.984 7  83338600.572 7     -2069.597          47.000
C05                                                                  39728736.367 5 159971157.390 5       -31.148          34.000
C19  21765664.414 8 113339532.023 8      -931.238          51.000
E03  25169051.625 5 132264258.617 5     -2090.285          33.000    25169056.047 5 101345338.162 5     -1601.444          35.000
E07  26057775.086 8 136934566.587 8      2348.016          49.000    26057781.141 8 104923899.507 8      1799.183          50.000
E08  21413705.789 8 112529803.660 8       269.797          51.000    21413706.367 8  86224140.568 8       206.695          51.000
E13  23374315.992 8 122832869.944 8      -144.324          51.000    23374316.586 8  94118687.902 8      -110.619          51.000
E15  25013795.141 8 131448394.980 8     -2650.918          50.000    25013802.102 8 100720219.197 8     -2031.214          51.000
> 2020 05 10 22 01  0.0000000  0 17        .000000000000
G01  22540062.539 7 118448803.420 7     -3126.844          47.000    22540060.719 7  92297784.898 7     -2436.502          47.000
G03  20678279.727 8 108665097.318 8     -1133.344          51.000    20678281.242 8  84674144.502 8      -883.125          51.000
G04  20449722.398 8 107464022.692 8      1094.664          50.000    20449722.938 8  83738218.189 8       852.985          50.000
G09  22259176.242 8 116972846.915 8      2991.309          49.000    22259178.242 8  91147660.509 8      2330.893          49.000
G17  22219366.914 5 116763591.539 5     -1078.891          35.000    22219366.344 5  90984606.175 5      -840.694          35.000
G22  22294482.273 6 117158282.035 6     -2133.980          39.000    22294476.719 5  91292153.883 5     -1662.821          33.000
R01  20099446.742 6 107443094.428 6     -2056.379          36.000    20099456.008 5  83566845.994 5     -1599.406          30.000
R02  20357251.609 6 108630150.159 6      1897.824          36.000
R23  22717094.461 5 121521102.006 5     -4512.402          33.000
R24  20052476.047 8 107229609.645 8     -2674.266          49.000    20052478.914 7  83400808.909 7     -2079.984          46.000
C05                                                                  39728937.430 5 159971967.213 5       -24.521          34.000
C19  21771018.688 8 113367413.819 8      -930.652          51.000
E03                                                                  25180970.281 5 101393303.597 5     -1598.373          35.000
E07  26044354.766 8 136864040.390 8      2350.723          48.000    26044360.602 8 104869860.007 8      1801.206          50.000
E08  21412160.859 8 112521684.948 8       268.457          51.000    21412161.359 8  86217919.747 8       205.752          51.000
E13  23375146.648 8 122837233.517 8      -149.590          51.000    23375147.305 8  94122031.415 8      -114.618          51.000
E15  25028919.797 8 131527868.714 8     -2650.285          51.000    25028925.984 8 100781114.643 8     -2030.774          51.000
> 2020 05 10 22 01 30.0000000  0 16        .000000000000
G01  22557932.203 7 118542716.510 7     -3134.516          45.000    22557933.000 7  92370963.947 7     -2442.477          45.000
G03  20684768.562 8 108699196.656 8     -1140.910          51.000    20684769.867 8  84700715.418 8      -889.021          51.000
G04  20443514.461 8 107431397.921 8      1079.469          51.000    20443515.258 8  83712796.319 8       841.144          50.000
G09  22242121.617 8 116883221.819 8      2982.887          50.000    22242123.203 8  91077822.779 8      2324.327          49.000
G17  22225569.000 6 116796184.778 6     -1094.457          36.000    22225569.656 5  91010003.350 5      -852.827          35.000
G22  22306674.258 5 117222348.486 5     -2138.039          34.000    22306668.977 5  91342075.734 5     -1665.998          31.000
R01  20111006.609 6 107504888.300 6     -2063.871          37.000    20111015.156 4  83614907.917 4     -1605.233          28.000
R02  20346611.391 6 108573355.631 6      1887.254          37.000    20346622.789 4  84446009.139 4      1467.864          28.000
R24  20067533.008 8 107310124.188 8     -2694.117          50.000    20067535.406 7  83463431.323 7     -2095.424          46.000
C19  21776394.273 8 113395405.989 8      -936.352          51.000
C20  25428726.703 5 132414054.876 5     -2633.547          33.000
E03                                                                  25192886.320 5 101441280.524 5     -1600.665          34.000
E07  26030943.734 7 136793566.164 7      2346.957          47.000    26030949.555 8 104815860.328 8      1798.225          50.000
E08  21410648.109 8 112513734.670 8       260.793          51.000    21410648.445 8  86211828.001 8       199.783          51.000
E13  23376032.211 8 122841886.784 8      -161.328          51.000    23376033.430 8  94125596.898 8      -123.603          51.000
E15  25044065.859 8 131607455.115 8     -2656.227          51.000    25044071.062 8 100842096.427 8     -2035.234          51.000
> 2020 05 10 22 02  0.0000000  0 18        .000000000000
G01  22575870.602 7 118636988.490 7     -3147.746          46.000    22575873.828 7  92444422.675 7     -2452.789          46.000
G03  20691326.961 8 108733661.223 8     -1154.344          51.000    20691327.969 8  84727570.930 8      -899.489          51.000
G04  20437419.766 8 107399367.864 8      1058.352          51.000    20437420.531 8  83687837.843 8       824.690          51.000
G09  22225140.898 8 116793985.828 8      2968.695          49.000    22225141.852 8  91008288.255 8      2313.272          49.000
G17  22231886.594 6 116829384.827 6     -1116.344          36.000    22231893.359 5  91035873.406 5      -869.878          35.000
G19  22154421.594 5 116422270.909 5       -18.098          32.000
G22  22318914.445 5 117286675.735 5     -2147.727          35.000    22318908.906 5  91392200.808 5     -1673.547          35.000
R01  20122636.266 6 107567059.252 6     -2078.098          36.000    20122643.281 4  83663263.143 4     -1616.295          28.000
R02  20336057.023 5 108517029.525 5      1870.555          33.000    20336064.008 4  84402199.784 4      1454.864          29.000
R24  20082727.336 8 107391371.914 8     -2719.770          51.000    20082729.180 7  83526624.001 7     -2115.376          46.000
C05                                                                  39729308.773 5 159973462.808 5       -26.620          34.000
C19  21781829.023 8 113423706.128 8      -947.895          51.000
C20  25443919.328 5 132493175.618 5     -2638.809          35.000
E03  25204834.133 5 132452302.107 5     -2097.180          34.000    25204841.359 5 101489421.241 5     -1606.846          34.000
E07  26017580.477 7 136723344.524 7      2337.219          46.000    26017586.406 8 104762054.160 8      1790.784          50.000
E08  21409205.578 8 112506152.526 8       247.266          51.000    21409205.773 8  86206018.312 8       189.466          51.000
E13  23377010.781 8 122847030.268 8      -178.980          51.000    23377012.594 8  94129537.995 8      -137.117          51.000
E15  25059270.742 8 131687353.077 8     -2667.809          51.000    25059275.328 8 100903316.951 8     -2044.159          51.000
> 2020 05 10 22 02 30.0000000  0 17        .000000000000
G01  22593871.523 8 118731584.148 8     -3157.094          48.000    22593876.086 8  92518133.585 8     -2460.073          48.000
G03  20697948.328 8 108768456.943 8     -1163.820          51.000    20697949.344 8  84754684.477 8      -906.873          51.000
G04  20431431.688 8 107367899.084 8      1041.090          51.000    20431432.398 8  83663316.715 8       811.239          51.000
G09  22208227.727 8 116705106.833 8      2958.051          49.000    22208228.531 8  90939031.905 8      2304.975          49.000
G17  22238314.625 5 116863132.036 5     -1133.910          35.000
G22  22331198.938 6 117351229.935 6     -2154.473          38.000    22331195.172 5  91442502.715 5     -1678.810          35.000
R01  20134330.578 6 107629571.290 6     -2087.980          38.000    20134336.805 5  83711883.612 5     -1623.988          31.000
R23  22793181.633 5 121928155.072 5     -4532.926          32.000    22793193.031 4  94833040.947 4     -3525.609          25.000
R24  20098051.531 8 107473315.575 8     -2741.441          51.000    20098053.102 7  83590357.972 7     -2132.232          47.000
C19  21787316.406 8 113452280.192 8      -955.500          51.000
C20  25459129.719 5 132572374.230 5     -2639.719          31.000
C22  23004018.039 5 119787947.476 5      1658.305          33.000
E03  25216825.406 6 132515308.930 6     -2101.746          38.000    25216830.133 5 101537699.234 5     -1610.537          34.000
E07  26004259.359 7 136653342.320 7      2331.219          47.000    26004265.164 8 104708416.113 8      1786.232          51.000
E08  21407826.609 8 112498904.249 8       237.555          51.000    21407826.781 8  86200464.440 8       181.987          51.000
E13  23378076.242 8 122852630.732 8      -192.844          51.000    23378078.484 8  94133829.276 8      -147.754          51.000
E15  25074527.750 8 131767527.819 8     -2675.629          50.000    25074532.062 8 100964749.561 8     -2050.232          51.000
> 2020 05 10 22 03  0.0000000  0 16        .000000000000
G01  22611914.703 8 118826399.570 8     -3159.836          49.000    22611919.562 8  92592015.730 8     -2462.210          49.000
G03  20704613.102 8 108803480.966 8     -1167.004          50.000    20704614.422 8  84781975.924 8      -909.357          50.000
G04  20425530.938 8 107336889.459 8      1030.336          51.000    20425531.578 8  83639153.382 8       802.859          51.000
G09  22191363.039 8 116616484.093 8      2954.066          49.000    22191364.336 8  90869975.226 8      2301.870          48.000
G17  22244832.477 5 116897379.030 5     -1144.562          35.000    22244836.555 5  91088885.314 5      -891.867          34.000
G22  22343507.469 5 117415908.057 5     -2154.414          35.000    22343504.195 5  91492901.219 5     -1678.764          33.000
R01  20146068.648 6 107692317.851 6     -2090.980          38.000    20146075.562 5  83760686.552 5     -1626.315          34.000
R23  22818615.461 5 122064201.043 5     -4532.715          35.000    22818621.312 4  94938854.494 4     -3525.442          25.000
R24  20113485.516 8 107555848.104 8     -2756.469          51.000    20113487.250 7  83654549.951 7     -2143.920          47.000
C05                                                                  39729702.008 5 159975046.143 5       -21.573          34.000
C19  21792836.586 8 113481025.982 8      -956.797          51.000
E03  25228830.297 6 132578391.362 6     -2099.992          39.000    25228833.703 5 101586059.072 5     -1608.588          34.000
E07  25990961.133 8 136583457.461 8      2331.812          48.000    25990966.578 8 104654867.988 8      1786.755          51.000
E08  21406491.406 8 112491886.857 8       234.395          51.000    21406491.570 8  86195087.485 8       179.562          51.000
E13  23379209.266 8 122858586.196 8      -200.078          51.000    23379211.930 8  94138392.559 8      -153.331          51.000
E15  25089817.086 8 131847875.654 8     -2676.750          48.000    25089821.570 8 101026314.809 8     -2051.007          50.000
> 2020 05 10 22 03 30.0000000  0 18        .000000000000
G01  22630006.742 8 118921471.282 8     -3167.027          49.000    22630011.359 8  92666097.582 8     -2467.814          49.000
G03  20711328.570 8 108838771.149 8     -1174.504          51.000    20711330.250 8  84809474.774 8      -915.198          51.000
G04  20419724.648 8 107306377.591 8      1015.125          51.000    20419725.008 8  83615377.911 8       791.010          51.000
G09  22174554.461 8 116528157.339 8      2945.512          48.000    22174556.164 8  90801149.176 8      2295.204          48.000
G17  22251443.312 5 116932123.208 5     -1160.098          35.000    22251450.000 5  91115958.721 5      -903.969          35.000
G22  22355846.852 5 117480747.782 5     -2157.699          35.000    22355843.164 5  91543425.708 5     -1681.315          35.000
G31  23579815.180 5 123912749.241 5     -1415.355          32.000
R01  20157857.375 6 107755336.079 6     -2098.656          38.000    20157865.492 5  83809700.770 5     -1632.288          34.000
R02  20304820.594 5 108350412.836 5      1839.852          34.000
R23  22844078.008 5 122200406.007 5     -4536.297          35.000    22844083.258 4  95044784.755 4     -3528.231          25.000
R24  20129036.195 8 107639005.465 8     -2775.910          51.000    20129038.391 7  83719227.880 7     -2159.041          47.000
C05                                                                  39729889.711 5 159975802.131 5       -20.020          34.000
C19  21798396.711 8 113509980.690 8      -962.438          51.000
E03  25240856.156 6 132641586.509 6     -2102.297          38.000    25240858.820 5 101634481.324 5     -1610.644          32.000
E07  25977692.812 8 136513728.682 8      2327.824          48.000    25977697.742 8 104601439.469 8      1783.741          51.000
E08  21405207.289 8 112485138.109 8       226.758          51.000    21405207.398 8  86189916.376 8       173.738          51.000
E13  23380417.273 8 122864935.254 8      -211.949          51.000    23380419.984 8  94143257.424 8      -162.412          51.000
E15  25105146.578 8 131928433.685 8     -2682.504          49.000    25105150.953 8 101088041.110 8     -2055.458          49.000
> 2020 05 10 22 04  0.0000000  0 17        .000000000000
G01  22648160.461 8 119016867.730 8     -3184.629          49.000    22648164.727 8  92740432.458 8     -2481.529          49.000
G03  20718108.000 8 108874397.065 8     -1192.504          51.000    20718109.938 8  84837235.232 8      -929.224          51.000
G04  20414026.188 8 107276433.658 8       989.316          51.000    20414026.641 8  83592044.979 8       770.896          51.000
G09  22157815.930 8 116440198.204 8      2926.453          48.000    22157817.523 8  90732609.582 8      2280.353          48.000
G17  22258164.625 5 116967440.143 5     -1186.012          32.000    22258169.164 5  91143478.477 5      -924.168          31.000
G31  23587998.000 5 123955748.133 5     -1442.742          34.000    23587999.438 5  96588906.959 5     -1124.221          30.000
R01  20169709.914 6 107818695.012 6     -2116.898          38.000    20169717.547 5  83858979.991 5     -1646.477          33.000
R02  20294563.039 5 108295659.907 5      1818.238          31.000    20294583.570 4  84230054.653 4      1414.185          26.000
R23  22869582.156 5 122336837.381 5     -4550.488          34.000    22869589.008 4  95150900.052 4     -3539.266          25.000
R24  20144716.641 8 107722855.772 8     -2805.793          51.000    20144719.070 8  83784444.759 8     -2182.283          48.000
C05                                                                  39730087.242 5 159976596.803 5       -26.288          33.000
C19  21804010.305 8 113539213.005 8      -978.375          51.000
E03  25252916.055 5 132704963.212 5     -2114.871          35.000    25252918.883 5 101683039.719 5     -1620.548          30.000
E07  25964467.484 7 136444226.402 7      2313.746          47.000    25964471.422 8 104548184.532 8      1772.811          51.000
E08  21403987.547 8 112478727.491 8       208.766          51.000    21403987.555 8  86185004.350 8       159.969          51.000
E13  23381713.641 8 122871748.405 8      -234.172          51.000    23381715.969 8  94148477.896 8      -179.386          51.000
E15  25120529.688 8 132009270.733 8     -2698.512          50.000    25120533.031 8 101149981.147 8     -2067.685          49.000
> 2020 05 10 22 04 30.0000000  0 18        .000000000000
G01  22666345.836 8 119112431.037 8     -3186.699          49.000    22666349.711 8  92814897.341 8     -2483.145          50.000
G03  20724921.516 8 108910202.064 8     -1194.949          51.000    20724923.352 8  84865135.233 8      -931.129          51.000
G04  20408406.055 8 107246901.605 8       979.105          50.000    20408406.867 8  83569032.993 8       762.939          50.000
G09  22141118.461 8 116352451.938 8      2922.711          49.000    22141119.367 8  90664235.889 8      2277.437          50.000
G17  22264963.625 5 117003172.234 5     -1196.168          34.000
G31  23596266.344 5 123999217.583 5     -1454.703          32.000    23596270.375 5  96622780.626 5     -1133.532          33.000
R01  20181596.023 5 107882233.934 5     -2119.445          35.000    20181601.250 5  83908399.112 5     -1648.461          32.000
R02  20284357.062 6 108241189.047 6      1812.492          37.000    20284375.234 4  84187688.557 4      1409.713          26.000
R23  22895098.484 5 122473332.721 5     -4549.199          32.000
R24  20160496.609 8 107807237.064 8     -2819.977          51.000    20160498.898 7  83850074.630 7     -2193.315          46.000
C05                                                                  39730264.750 5 159977311.499 5       -21.573          34.000
C19  21809647.664 8 113568567.366 8      -978.996          51.000
C20  25519968.711 4 132889170.897 4     -2637.176          29.000
E03  25264979.594 4 132768363.313 4     -2112.203          29.000
E07  25951255.172 7 136374794.949 7      2314.691          47.000    25951257.727 8 104494983.816 8      1773.544          50.000
E08  21402802.125 8 112472498.147 8       206.148          51.000    21402802.133 8  86180231.228 8       157.901          51.000
E13  23383068.711 8 122878869.732 8      -241.066          51.000    23383070.727 8  94153934.502 8      -184.710          51.000
E15  25135936.227 8 132090229.350 8     -2699.180          51.000    25135938.344 8 101212014.328 8     -2068.283          50.000
> 2020 05 10 22 05  0.0000000  0 15        .000000000000
G01  22684586.336 8 119208284.170 8     -3203.891          49.000    22684589.578 8  92889588.058 8     -2496.538          49.000
G03  20731792.719 8 108946310.272 8     -1212.496          51.000    20731794.492 8  84893271.499 8      -944.802          51.000
G04  20402888.203 8 107217906.285 8       953.867          51.000    20402889.156 8  83546439.241 8       743.273          51.000
G09  22124485.922 8 116265044.646 8      2904.074          51.000    22124486.070 8  90596126.341 8      2262.915          51.000
R01  20193539.047 6 107946077.411 6     -2137.148          36.000    20193543.492 5  83958055.135 5     -1662.227          33.000
R02  20274228.250 5 108187126.235 5      1791.016          34.000    20274241.164 4  84145639.756 4      1393.021          28.000
R23  22920649.711 5 122610014.982 5     -4563.168          31.000
R24  20176398.875 8 107892273.188 8     -2849.375          51.000    20176400.641 7  83916213.814 7     -2216.181          45.000
C05                                                                  39730446.227 5 159978042.479 5       -27.412          34.000
C19  21815332.141 8 113598166.513 8      -994.473          51.000
C20  25535189.828 5 132968417.340 5     -2645.551          31.000
E07  25938079.312 7 136305559.230 7      2300.723          46.000    25938081.469 8 104441933.061 8      1762.939          50.000
E08  21401674.719 8 112466574.106 8       188.559          51.000    21401674.820 8  86175692.036 8       144.474          51.000
E13  23384506.414 8 122886424.125 8      -262.836          51.000    23384508.312 8  94159722.923 8      -201.394          51.000
E15  25151389.469 8 132171432.819 8     -2714.648          51.000    25151391.016 8 101274235.128 8     -2080.040          51.000
> 2020 05 10 22 05 30.0000000  0 16        .000000000000
G01  22702910.633 7 119304579.677 7     -3213.645          47.000    22702913.531 7  92964623.500 7     -2504.139          47.000
G03  20738750.867 8 108982875.489 8     -1222.875          51.000    20738752.680 8  84921763.872 8      -952.890          51.000
G04  20397502.047 8 107189602.030 8       935.367          51.000    20397502.953 8  83524383.989 8       728.861          51.000
G09  22107947.516 8 116178132.022 8      2892.469          50.000    22107947.500 8  90528402.254 8      2253.872          50.000
G17  22278895.109 5 117076383.821 5     -1240.211          34.000
G22  22405558.312 5 117742040.154 5     -2192.660          34.000
R01  20205567.742 6 108010380.432 6     -2147.758          37.000    20205573.797 5  84008068.637 5     -1670.478          33.000
R23  22946264.234 5 122747037.521 5     -4569.430          30.000
R24  20192451.984 8 107978117.823 8     -2871.336          51.000    20192453.219 7  83982981.859 7     -2233.261          45.000
C05                                                                  39730660.930 5 159978907.055 5       -28.297          34.000
C19  21821092.719 8 113628162.529 8     -1002.922          51.000
E03  25289226.180 5 132895779.536 5     -2129.758          33.000
E07  25924970.297 7 136236673.857 7      2293.895          46.000    25924972.648 8 104389150.776 8      1757.686          50.000
E08  21400634.734 8 112461109.010 8       178.020          51.000    21400635.047 8  86171504.497 8       136.455          51.000
E13  23386056.125 8 122894566.174 8      -277.652          51.000    23386057.656 8  94165961.628 8      -212.750          51.000
E15  25166918.195 8 132253034.144 8     -2723.129          51.000    25166920.070 8 101336760.805 8     -2086.562          51.000
> 2020 05 10 22 06  0.0000000  0 14        .000000000000
G01  22721259.594 7 119401007.148 7     -3218.730          46.000    22721262.414 7  93039761.787 7     -2508.102          46.000
G03  20745737.141 8 109019588.552 8     -1228.680          51.000    20745738.938 8  84950371.444 8      -957.410          51.000
G04  20392188.688 8 107161680.200 8       922.051          51.000    20392189.914 8  83502626.747 8       718.484          50.000
G09  22091444.633 8 116091406.938 8      2885.430          50.000    22091444.648 8  90460824.312 8      2248.390          50.000
G22  22418070.797 6 117807781.058 6     -2194.258          37.000    22418066.977 5  91798236.812 5     -1709.805          31.000
G31  23621763.227 6 124133196.614 6     -1515.965          38.000    23621765.188 6  96727170.845 6     -1181.271          38.000
R01  20217624.039 6 108074826.617 6     -2152.586          39.000    20217630.039 5  84058193.417 5     -1674.234          32.000
R24  20208596.547 8 108064453.892 8     -2888.410          50.000    20208598.141 7  84050132.143 7     -2246.541          46.000
C05                                                                  39730850.070 5 159979668.730 5       -25.231          34.000
C19  21826870.422 8 113658248.751 8     -1006.746          51.000
E07  25911870.250 7 136167830.532 7      2291.719          47.000    25911872.109 8 104336400.713 8      1756.007          50.000
E08  21399623.383 8 112455793.513 8       172.305          51.000    21399623.812 8  86167431.592 8       132.014          51.000
E13  23387658.945 8 122902987.476 8      -287.703          51.000    23387659.828 8  94172414.328 8      -220.508          51.000
E15  25182463.031 8 132334723.290 8     -2726.816          51.000    25182465.703 8 101399353.778 8     -2089.412          51.000
> 2020 05 10 22 06 30.0000000  0 16        .000000000000
G01  22739654.914 7 119497679.871 7     -3220.398          45.000    22739657.484 7  93115091.154 7     -2509.401          45.000
G03  20752773.289 8 109056563.906 8     -1230.543          51.000    20752775.172 8  84979183.402 8      -958.865          51.000
G04  20386970.102 8 107134255.974 8       912.195          51.000    20386971.516 8  83481257.244 8       710.802          50.000
G09  22074999.336 8 116004985.704 8      2881.844          50.000    22074999.281 8  90393483.129 8      2245.593          50.000
G19  22160308.625 5 116453202.464 5      -205.641          34.000
G22  22430609.656 6 117873680.111 6     -2193.457          37.000
G31  23630464.773 6 124178916.618 6     -1526.500          38.000    23630465.578 6  96762796.821 6     -1189.484          38.000
R01  20229729.234 6 108139531.133 6     -2154.621          38.000    20229733.789 5  84108519.075 5     -1675.819          31.000
R24  20224854.539 8 108151395.035 8     -2901.762          50.000    20224857.180 7  84117753.036 7     -2256.926          47.000
C05                                                                  39731035.555 5 159980415.446 5       -19.649          34.000
C19  21832687.133 8 113688538.341 8     -1006.848          51.000
C22  22928871.180 5 119396631.748 5      1608.496          32.000
E07  25898800.391 8 136099144.532 8      2293.270          48.000    25898801.594 8 104283771.200 8      1757.154          50.000
E08  21398662.148 8 112450741.962 8       170.309          51.000    21398662.625 8  86163560.924 8       130.535          51.000
E13  23389336.641 8 122911803.245 8      -294.078          51.000    23389337.375 8  94179169.265 8      -225.342          51.000
E15  25198045.844 8 132416613.984 8     -2726.672          51.000    25198049.273 8 101462101.198 8     -2089.283          51.000
> 2020 05 10 22 07  0.0000000  0 17        .000000000000
G01  22758109.375 7 119594662.054 7     -3239.453          43.000    22758111.547 7  93190661.644 7     -2524.249          43.000
G03  20759871.797 8 109093867.024 8     -1250.578          51.000    20759873.719 8  85008250.748 8      -974.476          51.000
G04  20381858.547 8 107107395.204 8       884.332          49.000    20381859.734 8  83460326.772 8       689.090          50.000
G09  22058624.031 7 115918935.830 7      2860.391          47.000    22058625.055 7  90326431.297 7      2228.876          47.000
G17  22300508.625 5 117189952.101 5     -1291.113          32.000    22300501.445 5  91316832.345 5     -1006.062          32.000
G22  22443192.508 6 117939802.627 6     -2209.707          36.000
G31  23639279.039 6 124225235.019 6     -1555.223          38.000    23639279.047 6  96798889.097 6     -1211.859          38.000
R01  20241893.773 6 108204559.025 6     -2174.559          38.000    20241898.711 5  84159096.334 5     -1691.320          32.000
R02  20234473.812 5 107975028.226 5      1739.375          33.000
R24  20241238.219 8 108239005.343 8     -2933.180          50.000    20241241.094 8  84185894.369 8     -2281.362          48.000
C05                                                                  39731229.781 5 159981197.773 5       -28.315          34.000
C19  21838555.625 8 113719095.905 8     -1024.680          51.000
C22  22919676.102 5 119348732.239 5      1590.723          33.000
E07  25885772.602 7 136030682.158 7      2276.723          47.000    25885773.992 8 104231313.077 8      1744.451          51.000
E08  21397763.344 8 112446019.655 8       150.246          51.000    21397763.836 8  86159942.545 8       115.139          51.000
E13  23391102.078 8 122921079.637 8      -318.512          51.000    23391103.180 8  94186277.152 8      -244.036          51.000
E15  25213678.883 8 132498770.772 8     -2744.602          49.000    25213683.336 8 101525052.531 8     -2102.976          51.000
> 2020 05 10 22 07 30.0000000  0 16        .000000000000
G01  22776590.664 7 119691783.197 7     -3236.020          44.000    22776593.461 7  93266340.418 7     -2521.571          44.000
G03  20767000.398 8 109131328.553 8     -1247.777          51.000    20767002.094 8  85037441.534 8      -972.294          51.000
G04  20376822.094 8 107080929.152 8       879.164          49.000    20376823.508 8  83439703.892 8       685.066          49.000
G09  22042286.977 7 115833089.796 7      2861.703          46.000    22042289.867 7  90259538.260 7      2229.899          46.000
G17  22307891.664 6 117228751.042 6     -1295.398          37.000    22307879.773 5  91347056.310 5     -1009.395          32.000
G22  22455785.969 6 118005979.234 6     -2203.117          38.000
G31  23648174.750 6 124271981.931 6     -1561.453          38.000    23648174.648 6  96835315.349 6     -1216.711          38.000
R01  20254085.938 6 108269736.384 6     -2171.730          38.000    20254091.820 5  84209789.844 5     -1689.124          33.000
R24  20257714.336 8 108327109.379 8     -2941.324          50.000    20257717.344 7  84254419.738 7     -2287.697          47.000
C05                                                                  39731400.664 5 159981886.231 5       -18.486          34.000
C19  21844443.336 8 113749753.342 8     -1019.984          51.000
C20  25611413.180 5 133365336.970 5     -2639.055          34.000
E07  25872754.914 8 135962274.895 8      2282.969          48.000    25872757.000 8 104178897.160 8      1749.315          51.000
E08  21396894.945 8 112441456.996 8       153.121          51.000    21396895.312 8  86156446.486 8       117.345          51.000
E13  23392922.984 8 122930647.953 8      -320.133          51.000    23392924.555 8  94193608.727 8      -245.282          51.000
E15  25229329.984 8 132581023.472 8     -2739.723          50.000    25229335.320 8 101588077.341 8     -2099.175          51.000
> 2020 05 10 22 08  0.0000000  0 17        .000000000000
G01  22795127.930 7 119789197.301 7     -3253.934          44.000    22795132.078 7  93342247.506 7     -2535.533          44.000
G03  20774188.766 8 109169103.818 8     -1266.367          51.000    20774190.062 8  85066876.802 8      -986.780          51.000
G04  20371890.352 8 107055013.665 8       852.707          48.000    20371892.070 8  83419510.026 8       664.447          48.000
G09  22026019.688 8 115747604.815 8      2841.523          49.000    22026022.992 8  90192926.602 8      2214.174          49.000
G17  22315374.633 6 117268073.027 6     -1321.969          36.000    22315367.617 5  91377696.738 5     -1030.102          35.000
G22  22468418.953 6 118072365.507 6     -2218.301          37.000
G31  23657181.961 6 124319312.376 6     -1589.055          38.000    23657181.227 6  96872196.256 6     -1238.224          38.000
R01  20266336.117 6 108335219.947 6     -2189.645          39.000    20266341.484 5  84260721.463 5     -1703.060          34.000
R02  20215001.367 5 107871125.587 5      1716.672          31.000    20215015.859 5  83899796.559 5      1335.186          30.000
R24  20274311.531 8 108415862.545 8     -2971.148          51.000    20274314.922 7  84323450.003 7     -2310.893          46.000
C05                                                                  39731577.875 5 159982599.261 5       -26.016          33.000
C19  21850379.531 8 113780664.331 8     -1036.512          51.000
C20  25626661.477 5 133444728.550 5     -2649.293          33.000
E07  25859777.016 7 135894078.879 7      2267.809          47.000    25859780.117 8 104126643.096 8      1737.609          51.000
E08  21396086.531 8 112437209.265 8       134.461          51.000    21396086.852 8  86153191.743 8       103.052          51.000
E13  23394828.852 8 122940664.379 8      -343.277          51.000    23394830.875 8  94201283.663 8      -262.977          51.000
E15  25245029.188 8 132663526.667 8     -2756.160          50.000    25245034.453 8 101651294.088 8     -2111.830          51.000
> 2020 05 10 22 08 30.0000000  0 14        .000000000000
G01  22813724.070 7 119886920.918 7     -3267.988          44.000    22813729.227 7  93418395.792 7     -2546.481          44.000
G03  20781440.242 8 109207210.723 8     -1281.043          51.000    20781441.375 8  85096570.484 8      -998.215          51.000
G04  20367066.836 8 107029667.068 8       830.008          49.000    20367068.180 8  83399759.425 8       646.759          49.000
G09  22009825.367 8 115662500.622 8      2825.191          50.000    22009827.977 8  90126611.709 8      2201.451          50.000
G17  22322964.086 5 117307953.063 5     -1343.961          32.000    22322959.766 5  91408772.037 5     -1047.239          33.000
G22  22481095.570 6 118138979.197 6     -2229.418          40.000    22481099.422 5  92056346.632 5     -1737.200          30.000
G31  23666303.141 6 124367242.330 6     -1613.133          36.000    23666302.062 6  96909544.301 6     -1256.987          36.000
R01  20278646.828 6 108401026.069 6     -2203.922          36.000    20278651.805 5  84311904.004 5     -1714.161          34.000
R24  20291033.242 8 108505280.581 8     -2997.078          51.000    20291036.586 7  84392997.360 7     -2331.061          44.000
C19  21856367.641 8 113811846.239 8     -1049.211          51.000
E07  25846843.266 8 135826112.847 8      2256.430          49.000    25846847.070 8 104074565.234 8      1728.962          51.000
E08  21395341.375 8 112433294.089 8       119.594          51.000    21395341.797 8  86150191.828 8        91.730          51.000
E13  23396823.500 8 122951147.390 8      -362.434          51.000    23396825.938 8  94209316.123 8      -277.745          51.000
E15  25260779.727 8 132746297.324 8     -2768.832          50.000    25260783.969 8 101714715.745 8     -2121.453          49.000
> 2020 05 10 22 09  0.0000000  0 14        .000000000000
G01  22832406.523 7 119985096.784 7     -3266.117          46.000    22832411.633 7  93494896.522 7     -2545.023          46.000
G03  20788782.227 8 109245793.122 8     -1280.172          51.000    20788783.305 8  85126634.681 8      -997.537          51.000
G04  20362379.422 8 107005033.764 8       823.133          50.000    20362380.477 8  83380564.659 8       641.402          49.000
G09  21993731.109 8 115577923.122 8      2824.293          49.000    21993731.875 8  90060707.246 8      2200.751          49.000
G22  22493842.773 6 118205964.425 6     -2224.801          36.000    22493840.883 3  92108534.835 3     -1733.614          20.000
R01  20291044.031 5 108467299.673 5     -2202.410          33.000    20291049.406 5  84363450.148 5     -1712.983          32.000
R23  23126196.180 5 123709509.460 5     -4595.227          32.000
R24  20307906.492 8 108595506.833 8     -3006.941          51.000    20307908.617 7  84463173.265 7     -2338.735          43.000
C19  21862435.062 8 113843441.383 8     -1046.324          51.000
C22  22883291.969 4 119159333.573 4      1568.992          29.000
E07  25833981.164 8 135758521.456 8      2260.613          50.000    25833985.531 8 104022774.458 8      1732.230          51.000
E08  21394686.922 8 112429855.251 8       120.543          51.000    21394687.281 8  86147556.884 8        92.391          51.000
E13  23398934.516 8 122962241.594 8      -366.133          51.000    23398937.188 8  94217816.886 8      -280.573          51.000
E15  25276608.719 8 132829478.491 8     -2765.625          50.000    25276610.820 7 101778451.928 7     -2119.154          47.000
> 2020 05 10 22 09 30.0000000  0 17        .000000000000
G01  22851091.070 7 120083281.043 7     -3282.457          47.000    22851095.891 7  93571403.777 7     -2557.756          47.000
G03  20796130.523 8 109284408.449 8     -1297.199          51.000    20796131.445 8  85156724.524 8     -1010.805          51.000
G04  20357743.586 8 106980671.589 8       798.086          50.000    20357744.344 8  83361581.171 8       621.888          49.000
G09  21977652.445 7 115493431.579 7      2805.527          47.000    21977652.320 7  89994869.701 7      2186.125          47.000
G22  22506576.773 6 118272878.324 6     -2238.520          36.000    22506570.078 4  92160641.570 4     -1744.292          29.000
R01  20303444.367 5 108533589.070 5     -2219.891          33.000    20303449.570 5  84415008.617 5     -1726.585          31.000
R02  20186389.594 5 107718464.743 5      1674.305          32.000    20186396.578 4  83781032.537 4      1302.237          26.000
R23  23151994.203 5 123847502.486 5     -4607.137          35.000
R24  20324846.188 8 108686088.101 8     -3034.898          51.000    20324847.055 7  84533625.303 7     -2360.480          43.000
C05                                                                  39732166.602 5 159984970.299 5       -28.149          33.000
C19  21868497.562 8 113875010.889 8     -1061.230          51.000
C20  25672484.125 5 133683344.696 5     -2654.141          31.000
C22  22874291.695 5 119112443.342 5      1553.617          33.000
E07  25821106.500 8 135690862.870 8      2246.902          51.000    25821111.078 8 103970932.176 8      1721.751          51.000
E08  21394038.773 8 112426449.893 8       103.594          51.000    21394039.188 8  86144947.596 8        79.350          51.000
E13  23401077.695 8 122973504.964 8      -387.723          51.000    23401080.406 8  94226447.265 8      -297.062          51.000
E15  25292431.477 8 132912626.620 8     -2780.535          48.000    25292431.812 7 101842162.783 7     -2130.468          47.000
> 2020 05 10 22 10  0.0000000  0 15        .000000000000
G01  22869834.445 7 120181774.471 7     -3281.309          46.000    22869838.922 7  93648151.887 7     -2556.864          46.000
G03  20803542.570 8 109323358.580 8     -1296.906          51.000    20803543.398 8  85187075.265 8     -1010.576          51.000
G04  20353216.789 8 106956882.885 8       790.348          49.000    20353217.016 8  83343044.543 8       615.855          48.000
G09  21961647.703 8 115409329.699 8      2804.004          48.000    21961648.961 8  89929335.781 8      2184.938          48.000
G17  22346332.195 5 117430754.833 5     -1381.871          33.000
G22  22519354.766 5 118340007.112 5     -2235.898          33.000
R01  20315905.375 5 108600199.753 5     -2218.637          35.000    20315910.031 5  84466816.959 5     -1725.606          30.000
R23  23177823.484 5 123985682.514 5     -4601.613          32.000
R24  20341908.758 8 108777328.964 8     -3045.242          51.000    20341909.461 7  84604590.391 7     -2368.522          44.000
C19  21874612.695 8 113906853.670 8     -1058.984          51.000
C20  25687761.609 5 133762894.310 5     -2646.039          31.000
E07  25808276.516 8 135623439.882 8      2250.484          51.000    25808280.945 8 103919270.416 8      1724.406          51.000
E08  21393454.195 8 112423379.736 8       103.766          51.000    21393455.164 8  86142595.153 8        79.494          51.000
E13  23403310.961 8 122985240.208 8      -392.043          51.000    23403313.500 8  94235439.214 8      -300.412          51.000
E15  25308305.109 7 132996042.865 7     -2777.895          46.000    25308305.672 8 101906079.099 8     -2128.555          48.000
> 2020 05 10 22 10 30.0000000  0 15        .000000000000
G01  22888627.352 8 120280528.997 8     -3297.270          48.000    22888631.703 8  93725103.439 8     -2569.301          48.000
G03  20811009.500 8 109362596.995 8     -1313.750          51.000    20811010.312 8  85217650.648 8     -1023.701          51.000
G04  20348790.328 8 106933621.429 8       765.449          50.000    20348790.289 8  83324918.758 8       596.454          48.000
G09  21945709.156 8 115325572.747 8      2785.062          50.000    21945711.539 8  89864070.616 8      2170.179          50.000
G22  22532167.844 5 118407335.858 5     -2249.070          35.000
R01  20328416.992 6 108667082.924 6     -2234.930          37.000    20328421.898 5  84518837.187 5     -1738.282          31.000
R23  23203674.406 5 124124004.535 5     -4613.621          32.000
R24  20359085.141 8 108869178.967 8     -3072.941          51.000    20359085.672 7  84676029.290 7     -2390.066          45.000
C19  21880771.531 8 113938923.297 8     -1073.871          51.000
C20  25703042.047 4 133842484.540 4     -2654.367          29.000
E03                                                                  25411740.039 5 102322551.568 5     -1660.503          34.000
E07  25795482.547 8 135556206.545 8      2236.848          51.000    25795486.727 8 103867753.988 8      1713.966          51.000
E08  21392924.500 8 112420598.003 8        86.828          51.000    21392926.055 8  86140463.698 8        66.549          51.000
E13  23405625.289 8 122997401.306 8      -413.531          51.000    23405627.594 8  94244757.455 8      -316.895          51.000
E15  25324220.016 7 133079679.684 7     -2792.523          44.000    25324222.555 8 101970164.490 8     -2139.798          50.000
> 2020 05 10 22 11  0.0000000  0 16        .000000000000
G01  22907469.109 8 120379539.466 8     -3303.359          48.000    22907472.750 8  93802254.441 8     -2574.046          49.000
G03  20818530.469 8 109402119.689 8     -1320.629          51.000    20818531.305 8  85248447.546 8     -1029.061          51.000
G04  20344463.508 8 106910883.773 8       750.684          50.000    20344463.500 8  83307201.122 8       584.948          49.000
G09  21929836.266 8 115242158.623 8      2776.188          49.000    21929838.719 8  89799072.580 8      2163.263          49.000
G17  22362376.500 6 117515071.572 6     -1420.371          37.000    22362377.109 6  91570188.172 6     -1106.783          36.000
G22  22545012.961 4 118474842.582 4     -2251.027          29.000
R01  20340978.688 6 108734233.246 6     -2241.680          36.000    20340984.547 5  84571065.156 5     -1743.532          30.000
R23  23229555.922 5 124262449.804 5     -4615.113          33.000
R24  20376374.086 8 108961631.059 8     -3090.324          50.000    20376374.977 7  84747936.476 7     -2403.586          46.000
C19  21886973.023 8 113971215.642 8     -1078.691          51.000
C20  25718330.844 5 133922097.869 5     -2652.832          32.000
E03                                                                  25424117.742 5 102372384.865 5     -1661.922          34.000
E07  25782724.305 8 135489159.872 8      2233.277          51.000    25782727.758 8 103816380.603 8      1711.224          51.000
E08  21392449.117 8 112418100.609 8        80.004          51.000    21392450.820 8  86138550.124 8        61.242          51.000
E13  23408019.719 8 123009984.971 8      -425.051          51.000    23408021.852 8  94254399.470 8      -325.730          51.000
E15  25340175.398 7 133163532.281 7     -2797.258          44.000    25340180.555 8 102034415.250 8     -2143.365          50.000
> 2020 05 10 22 11 30.0000000  0 16        .000000000000
G01  22926352.930 8 120478771.502 8     -3311.594          49.000    22926355.281 8  93879578.083 8     -2580.463          49.000
G03  20826099.211 8 109441893.615 8     -1330.105          51.000    20826099.953 8  85279440.206 8     -1036.446          51.000
G04  20340230.125 8 106888637.155 8       733.301          50.000    20340230.242 8  83289866.105 8       571.406          50.000
G09  21914022.766 8 115159056.105 8      2764.793          50.000    21914024.688 8  89734317.396 8      2154.384          50.000
G17  22370536.141 6 117557948.636 6     -1436.746          39.000    22370535.781 6  91603598.857 6     -1119.542          39.000
G22  22557890.227 5 118542512.954 5     -2257.707          34.000
R01  20353584.219 6 108801615.380 6     -2250.000          37.000    20353589.891 5  84623473.466 5     -1750.000          30.000
R23  23255450.367 5 124400987.155 5     -4618.922          31.000
R24  20393768.266 8 109054648.855 8     -3110.086          49.000    20393770.344 7  84820283.653 7     -2418.956          47.000
C19  21893210.734 8 114003697.561 8     -1085.965          51.000
C20  25733621.500 5 134001708.310 5     -2653.941          30.000
E03                                                                  25436513.484 5 102422290.814 5     -1665.068          34.000
E07  25769995.352 8 135422267.435 8      2227.145          51.000    25769997.836 8 103765125.404 8      1706.495          51.000
E08  21392021.570 8 112415854.246 8        70.617          51.000    21392023.305 8  86136828.890 8        54.142          51.000
E13  23410488.375 8 123022958.707 8      -439.016          51.000    23410490.242 8  94264340.365 8      -336.401          51.000
E15  25356166.672 7 133247566.765 7     -2804.262          46.000    25356172.859 8 102098805.320 8     -2148.702          50.000
> 2020 05 10 22 12  0.0000000  0 15        .000000000000
G01  22945284.297 8 120578254.301 8     -3320.145          48.000    22945284.117 8  93957097.135 8     -2587.129          48.000
G03  20833721.523 8 109481949.289 8     -1339.703          51.000    20833722.234 8  85310652.426 8     -1043.921          51.000
G04  20336096.188 8 106866912.549 8       715.777          51.000    20336096.594 8  83272937.854 8       557.749          51.000
G09  21898274.609 8 115076297.582 8      2752.969          50.000    21898276.211 8  89669830.307 8      2145.170          50.000
G17  22378790.188 6 117601324.247 6     -1454.023          40.000    22378788.492 6  91637398.023 6     -1133.005          39.000
G19  22181118.445 5 116562565.186 5      -449.465          34.000
R01  20366238.555 6 108869259.027 6     -2258.992          36.000    20366244.031 5  84676085.179 5     -1756.997          31.000
R24  20411273.914 8 109148260.529 8     -3130.051          49.000    20411276.922 8  84893092.731 8     -2434.484          48.000
C19  21899490.562 8 114036399.088 8     -1093.520          51.000
C20  25748917.070 5 134081346.137 5     -2654.895          33.000
E03                                                                  25448931.953 5 102472286.336 5     -1667.795          34.000
E07  25757301.500 8 135355560.728 8      2220.676          51.000    25757303.414 8 103714012.503 8      1701.527          51.000
E08  21391647.656 8 112413889.227 8        61.035          51.000    21391649.523 8  86135323.254 8        46.743          51.000
E13  23413037.352 8 123036353.659 8      -453.297          51.000    23413039.086 8  94274604.025 8      -347.346          51.000
E15  25372198.922 8 133331812.773 8     -2811.465          48.000    25372205.133 8 102163357.455 8     -2154.290          50.000
> 2020 05 10 22 12 30.0000000  0 17        .000000000000
G01  22964266.664 7 120678007.604 7     -3328.145          47.000    22964264.734 7  94034826.978 7     -2593.359          47.000
G03  20841401.359 8 109522307.666 8     -1348.930          51.000    20841402.234 8  85342100.510 8     -1051.114          51.000
G04  20332065.773 8 106845731.130 8       698.504          51.000    20332066.227 8  83256432.862 8       544.289          51.000
G09  21882596.148 8 114993905.779 8      2741.531          50.000    21882597.742 8  89605628.958 8      2136.258          50.000
G17  22387142.602 6 117645218.070 6     -1470.215          40.000    22387137.602 6  91671600.956 6     -1145.625          39.000
G19  22183750.742 5 116576410.722 5      -470.551          33.000
R01  20378946.969 6 108937183.956 6     -2267.262          38.000    20378951.312 5  84728915.639 5     -1763.426          30.000
R23  23307322.219 5 124678431.844 5     -4627.738          33.000
R24  20428893.898 8 109242484.297 8     -3149.625          48.000    20428898.016 8  84966377.904 8     -2449.705          48.000
C19  21905816.570 8 114069340.748 8     -1100.664          51.000
C20  25764220.648 5 134161031.867 5     -2655.582          32.000
C22  22821199.078 5 118835978.659 5      1513.555          30.000
E03                                                                  25461375.508 5 102522387.037 5     -1670.632          32.000
E07  25744646.641 8 135289061.285 8      2214.609          51.000    25744648.930 8 103663058.391 8      1696.926          51.000
E08  21391331.297 8 112412226.357 8        51.801          51.000    21391333.461 8  86134049.134 8        39.709          51.000
E13  23415670.422 8 123050191.417 8      -467.207          51.000    23415672.523 8  94285206.975 8      -358.005          51.000
E15  25388275.289 8 133416290.335 8     -2818.348          48.000    25388281.273 8 102228087.003 8     -2159.489          50.000
> 2020 05 10 22 13  0.0000000  0 18        .000000000000
G01  22983287.258 7 120777965.805 7     -3335.980          45.000    22983285.891 7  94112716.472 7     -2599.465          45.000
G03  20849126.633 8 109562904.501 8     -1357.719          51.000    20849127.805 8  85373734.419 8     -1057.963          51.000
G04  20328126.383 8 106825029.123 8       681.457          51.000    20328126.781 8  83240301.430 8       531.005          51.000
G09  21866975.336 8 114911818.294 8      2730.609          48.000    21866977.141 8  89541664.700 8      2127.748          48.000
G17  22395581.148 6 117689564.009 6     -1486.309          38.000    22395573.703 6  91706156.184 6     -1158.159          38.000
G19  22186502.969 5 116590862.347 5      -492.016          32.000
R01  20391693.977 4 109005323.436 4     -2275.684          28.000    20391697.570 5  84781913.049 5     -1769.976          30.000
R02  20122128.867 5 107375551.841 5      1588.566          33.000
R23  23333283.859 5 124817296.207 5     -4630.516          33.000
R24  20446615.148 8 109337251.858 8     -3168.605          48.000    20446620.484 7  85040086.022 7     -2464.468          47.000
C19  21912176.500 8 114102458.561 8     -1107.484          51.000
C20  25779520.367 5 134240701.904 5     -2655.793          32.000
C22  22812498.820 5 118790664.762 5      1506.418          34.000
E03                                                                  25473830.523 5 102572559.222 5     -1673.478          31.000
E07  25732019.406 8 135222705.836 8      2208.758          51.000    25732022.234 8 103612214.618 8      1692.434          51.000
E08  21391060.039 8 112410801.098 8        42.910          51.000    21391062.500 8  86132957.068 8        32.843          51.000
E13  23418375.492 8 123064408.251 8      -480.914          51.000    23418378.109 8  94296100.389 8      -368.496          51.000
E15  25404382.938 8 133500934.210 8     -2824.789          49.000    25404388.672 8 102292943.974 8     -2164.560          50.000
> 2020 05 10 22 13 30.0000000  0 17        .000000000000
G01  23002349.594 7 120878144.231 7     -3347.918          44.000    23002350.070 7  94190777.592 7     -2608.767          44.000
G03  20856900.492 8 109603756.459 8     -1371.383          50.000    20856901.938 8  85405567.118 8     -1068.610          50.000
G04  20324281.430 8 106804823.417 8       659.758          51.000    20324282.047 8  83224556.746 8       514.097          51.000
G09  21851415.789 8 114830053.619 8      2714.723          49.000    21851417.547 8  89477951.967 8      2115.368          49.000
G17  22404108.031 5 117734377.448 5     -1507.508          34.000    22404100.953 5  91741075.721 5     -1174.678          35.000
G19  22189369.250 5 116605922.429 5      -518.129          31.000
R01  20404486.680 4 109073657.254 4     -2288.645          29.000    20404488.211 5  84835085.702 5     -1780.057          31.000
R02  20113234.727 5 107328069.795 5      1571.578          35.000
R17  19774497.680 6 105817337.701 6       908.535          36.000
R23  23359258.891 5 124956244.086 5     -4638.516          32.000
R24  20464441.438 8 109432577.170 8     -3192.258          50.000    20464446.219 7  85114227.915 7     -2482.867          46.000
C19  21918573.328 8 114135768.814 8     -1118.910          51.000
C22  22803836.930 5 118745550.433 5      1495.113          34.000
E07  25719423.250 8 135156511.590 8      2198.332          51.000    25719426.180 8 103561494.391 8      1684.439          51.000
E08  21390836.898 8 112409629.946 8        29.281          51.000    21390839.477 8  86132059.696 8        22.475          51.000
E13  23421156.047 8 123079021.386 8      -499.129          51.000    23421158.938 8  94307297.457 8      -382.464          51.000
E15  25420525.133 8 133585760.263 8     -2835.910          49.000    25420530.320 8 102357940.549 8     -2173.096          49.000
> 2020 05 10 22 14  0.0000000  0 16        .000000000000
G01  23021493.688 7 120978751.878 7     -3355.418          44.000    23021496.359 7  94269173.139 7     -2614.611          44.000
G03  20864762.922 8 109645073.680 8     -1379.691          50.000    20864764.555 8  85437762.369 8     -1075.084          50.000
G04  20320570.922 8 106785324.441 8       643.527          51.000    20320571.547 8  83209362.761 8       501.453          51.000
G09  21835958.227 8 114748823.683 8      2704.055          51.000    21835959.445 8  89414655.936 8      2107.059          50.000
G17  22412764.555 6 117779866.669 6     -1522.660          39.000    22412758.438 6  91776521.924 6     -1186.488          39.000
R01  20417356.016 5 109142468.329 5     -2296.062          33.000    20417364.438 5  84888605.342 5     -1785.826          30.000
R02  20104445.133 5 107281166.922 5      1559.344          32.000    20104450.016 4  83440908.279 4      1212.826          27.000
R17  19769485.969 5 105790532.872 5       881.887          34.000
R23  23385288.539 5 125095485.553 5     -4640.637          33.000
R24  20482411.766 8 109528670.972 8     -3210.527          49.000    20482415.672 7  85188967.512 7     -2497.077          47.000
C19  21925046.898 8 114169479.430 8     -1125.105          51.000
C22  22795252.547 5 118700844.173 5      1488.738          35.000
E07  25706898.133 8 135090689.533 8      2193.227          51.000    25706900.641 8 103511059.355 8      1680.485          51.000
E08  21390702.242 8 112408922.797 8        21.129          51.000    21390704.547 8  86131517.859 8        16.214          51.000
E13  23424052.383 8 123094241.547 8      -512.141          51.000    23424055.211 8  94318959.662 8      -392.425          51.000
E15  25436742.062 8 133670977.666 8     -2841.781          49.000    25436746.258 8 102423236.987 8     -2177.427          50.000
> 2020 05 10 22 14 30.0000000  0 18        .000000000000
G01  23040639.195 7 121079363.568 7     -3352.895          45.000    23040643.164 7  94347571.831 7     -2612.648          45.000
G03  20872633.250 8 109686432.498 8     -1378.512          49.000    20872634.836 8  85469990.031 8     -1074.165          49.000
G04  20316914.352 8 106766108.829 8       636.922          51.000    20316914.625 8  83194389.567 8       496.303          51.000
G09  21820522.195 8 114667706.501 8      2703.023          51.000    21820522.641 8  89351447.769 8      2106.255          51.000
G17  22421469.180 7 117825606.919 7     -1527.918          42.000    22421463.922 7  91812163.659 7     -1190.585          42.000
G19  22195505.062 5 116638183.577 5      -549.156          31.000
R01  20430231.695 5 109211289.774 5     -2292.812          34.000    20430237.578 5  84942133.159 5     -1783.299          30.000
R02  20095682.211 6 107234413.463 6      1556.809          36.000    20095693.836 4  83404544.491 4      1210.854          26.000
R17  19764581.805 5 105764308.588 5       864.766          31.000
R23  23411293.406 5 125234586.616 5     -4632.547          30.000
R24  20500444.609 8 109625099.093 8     -3218.855          50.000    20500448.148 7  85263967.154 7     -2503.554          47.000
C19  21931516.820 8 114203170.345 8     -1121.703          51.000
C20  25825453.836 5 134479899.400 5     -2650.633          31.000
C22  22786665.430 5 118656126.439 5      1491.477          34.000
E07  25694363.148 8 135024816.740 8      2197.699          50.000    25694365.312 8 103460585.442 8      1683.972          51.000
E08  21390575.523 8 112408255.713 8        22.590          51.000    21390577.422 8  86131006.724 8        17.318          51.000
E13  23426983.984 8 123109645.616 8      -515.535          51.000    23426986.422 8  94330762.776 8      -395.026          51.000
E15  25452952.633 8 133756161.829 8     -2837.887          50.000    25452956.219 8 102488507.961 8     -2174.464          50.000
> 2020 05 10 22 15  0.0000000  0 18        .000000000000
G01  23059839.312 7 121180260.259 7     -3366.566          46.000    23059843.898 7  94426192.599 7     -2623.302          46.000
G03  20880565.109 8 109728115.252 8     -1393.320          48.000    20880566.547 8  85502470.111 8     -1085.704          48.000
G04  20313365.375 8 106747459.103 8       613.688          51.000    20313365.844 8  83179857.329 8       478.198          51.000
G09  21805161.844 8 114586986.190 8      2685.598          51.000    21805161.852 8  89288548.847 8      2092.673          51.000
G17  22430275.227 7 117871878.761 7     -1549.742          42.000    22430270.250 7  91848219.615 7     -1207.591          42.000
G19  22198737.883 5 116655187.139 5      -577.242          32.000
R01  20443161.391 5 109280407.089 5     -2307.227          34.000    20443165.383 4  84995891.073 4     -1794.510          27.000
R02  20087001.320 5 107188096.229 5      1537.762          34.000
R17  19759843.562 5 105738954.355 5       832.297          34.000
R23  23437323.891 5 125373831.504 5     -4642.598          32.000
R24  20518593.500 8 109722145.861 8     -3243.668          50.000    20518596.516 7  85339447.963 7     -2522.853          47.000
C19  21938036.766 8 114237121.101 8     -1134.621          51.000
C20  25840768.516 5 134559637.223 5     -2657.941          35.000
C22  22778129.711 5 118611677.580 5      1478.719          35.000
E07  25681871.922 8 134959176.269 8      2185.492          49.000    25681874.242 8 103410289.524 8      1674.667          50.000
E08  21390510.094 8 112407910.857 8         7.543          51.000    21390511.820 8  86130742.515 8         5.753          51.000
E13  23430004.539 8 123125516.344 8      -535.383          51.000    23430006.383 8  94342923.454 8      -410.231          51.000
E15  25469210.367 8 133841594.227 8     -2850.449          50.000    25469213.734 8 102553969.137 8     -2184.146          51.000
> 2020 05 10 22 15 30.0000000  0 18        .000000000000
G01  23079087.938 7 121281410.296 7     -3377.445          47.000    23079092.055 7  94505010.815 7     -2631.776          47.000
G03  20888552.828 7 109770091.541 7     -1405.582          47.000    20888554.062 7  85535178.920 7     -1095.259          46.000
G04  20309918.391 8 106729345.158 8       593.293          51.000    20309918.766 8  83165742.584 8       462.306          51.000
G09  21789871.609 8 114506634.132 8      2670.746          50.000    21789871.891 8  89225936.874 8      2081.104          50.000
G17  22439176.289 7 117918650.691 7     -1568.797          42.000    22439171.469 6  91884665.247 6     -1222.442          41.000
G19  22202099.484 5 116672849.165 5      -601.637          32.000
R01  20456139.156 4 109349787.559 4     -2318.406          28.000    20456141.539 4  85049844.671 4     -1803.205          25.000
R02  20078398.547 5 107142184.264 5      1522.207          35.000
R17  19755276.281 5 105714473.045 5       801.879          31.000
R23  23463374.305 4 125513185.746 4     -4649.391          29.000
R24  20536851.805 8 109819777.224 8     -3265.645          51.000    20536854.328 7  85415383.471 7     -2539.946          47.000
C19  21944600.781 8 114271301.401 8     -1144.684          51.000
C20  25856089.656 5 134639413.770 5     -2661.164          34.000
C22  22769641.469 5 118567468.153 5      1468.664          30.000
E07  25669418.672 7 134893738.448 7      2176.234          47.000    25669422.117 8 103360148.874 8      1667.543          50.000
E08  21390500.125 8 112407857.590 8        -4.559          51.000    21390501.602 8  86130701.713 8        -3.526          51.000
E13  23433108.023 8 123141823.925 8      -552.395          51.000    23433109.445 8  94355418.863 8      -423.269          51.000
E15  25485509.305 8 133927243.476 8     -2860.109          50.000    25485512.578 8 102619596.480 8     -2191.524          51.000
> 2020 05 10 22 16  0.0000000  0 17        .000000000000
G01  23098386.000 8 121382820.369 8     -3384.496          48.000    23098389.688 8  94584031.635 8     -2637.270          48.000
G03  20896598.023 7 109812369.261 7     -1414.195          46.000    20896599.164 7  85568122.584 7     -1101.970          46.000
G04  20306574.945 8 106711775.106 8       576.789          51.000    20306574.672 8  83152051.643 8       449.446          50.000
G09  21774652.812 8 114426660.074 8      2659.734          48.000    21774653.383 8  89163619.442 8      2072.520          48.000
G17  22448172.789 6 117965928.785 6     -1583.996          36.000    22448168.883 6  91921505.348 6     -1234.283          37.000
R01  20469168.461 4 109419433.948 4     -2326.785          28.000
R02  20069872.172 5 107096687.040 5      1509.469          35.000    20069870.727 4  83297413.499 4      1174.031          25.000
R17  19750851.469 5 105690791.643 5       775.352          30.000
R23  23489446.016 5 125652654.551 5     -4649.719          31.000
R24  20555219.688 8 109917998.182 8     -3283.645          50.000    20555222.266 7  85491777.550 7     -2553.946          46.000
C19  21951210.219 8 114305718.728 8     -1150.965          51.000
C20  25871417.664 5 134719236.894 5     -2661.531          33.000
C22  22761199.227 5 118523506.618 5      1461.309          31.000
E07  25657005.914 8 134828512.073 8      2170.969          48.000    25657010.227 8 103310170.239 8      1663.398          50.000
E08  21390546.883 8 112408103.563 8       -12.992          51.000    21390548.117 8  86130890.193 8        -9.937          51.000
E13  23436296.195 8 123158576.834 8      -565.684          51.000    23436297.281 8  94368255.496 8      -433.473          51.000
E15  25501850.570 8 134013116.562 8     -2865.977          51.000    25501853.828 8 102685395.332 8     -2195.978          51.000
> 2020 05 10 22 16 30.0000000  0 17        .000000000000
G01  23117722.383 8 121484431.986 8     -3388.133          48.000    23117725.797 8  94663209.517 8     -2640.103          48.000
G03  20904689.883 7 109854891.546 7     -1419.281          47.000    20904691.039 7  85601256.835 7     -1105.933          47.000
G04  20303324.305 8 106694692.227 8       563.684          51.000    20303323.641 8  83138740.331 8       439.234          51.000
G09  21759494.594 7 114347008.776 7      2652.035          45.000    21759496.648 7  89101553.483 7      2066.518          45.000
G17  22457253.953 5 118013654.103 5     -1596.152          31.000    22457251.672 5  91958693.880 5     -1243.758          31.000
G22  22688457.555 5 119228663.805 5     -2311.637          34.000
R02  20061433.531 5 107051615.911 5      1500.590          34.000    20061414.648 5  83262342.070 5      1167.125          32.000
R17  19746567.500 5 105667926.270 5       750.680          35.000
R23  23515528.500 5 125792176.395 5     -4649.133          31.000
R24  20573685.812 8 110016747.703 8     -3298.031          50.000    20573688.828 7  85568582.732 7     -2565.138          46.000
C19  21957854.273 8 114340316.364 8     -1153.934          51.000
C20  25886743.719 5 134799050.009 5     -2657.672          33.000
C22  22752794.094 5 118479736.376 5      1457.809          34.000
E07  25644623.164 8 134763440.770 8      2168.680          49.000    25644627.539 8 103260310.415 8      1661.796          51.000
E08  21390639.570 8 112408591.597 8       -17.934          51.000    21390640.797 8  86131264.147 8       -13.747          51.000
E13  23439558.398 8 123175718.467 8      -575.547          51.000    23439559.070 8  94381390.004 8      -440.997          51.000
E15  25518223.359 8 134099155.562 8     -2868.406          51.000    25518226.500 8 102751321.329 8     -2197.858          51.000
> 2020 05 10 22 17  0.0000000  0 17        .000000000000
G01  23137100.773 7 121586265.783 7     -3398.566          46.000    23137104.336 7  94742560.529 7     -2648.237          46.000
G03  20912832.406 7 109897680.102 7     -1431.195          45.000    20912833.414 7  85634598.576 7     -1115.217          46.000
G04  20300170.414 8 106678118.513 8       543.539          51.000    20300169.805 8  83125825.770 8       423.537          51.000
G09  21744403.203 7 114267703.711 7      2637.160          47.000    21744405.867 7  89039757.333 7      2054.933          47.000
G17  22466424.977 5 118061846.879 5     -1614.680          32.000    22466422.688 5  91996246.671 5     -1258.189          33.000
G31  23837054.242 5 125264541.669 5     -1908.367          33.000    23837052.773 5  97608745.703 5     -1487.039          33.000
R02  20053035.422 6 107006836.300 6      1485.340          36.000    20053023.359 5  83227511.917 5      1155.264          32.000
R17  19742448.047 5 105645880.538 5       720.789          34.000    19742446.156 4  82168964.198 4       560.614          24.000
R23  23541620.555 4 125931783.035 4     -4654.746          28.000
R24  20592254.312 8 110116044.679 8     -3319.395          50.000    20592257.820 7  85645813.716 7     -2581.751          47.000
C19  21964537.078 8 114375115.779 8     -1163.820          51.000
C20  25902073.500 5 134878874.937 5     -2661.250          34.000
C22  22744429.352 5 118436179.897 5      1447.914          32.000
E07  25632274.508 8 134698547.171 8      2159.695          50.000    25632278.383 8 103210586.793 8      1654.775          51.000
E08  21390782.594 8 112409343.287 8       -29.883          51.000    21390783.789 8  86131840.125 8       -22.927          51.000
E13  23442898.773 8 123193271.240 8      -592.477          51.000    23442899.352 8  94394839.535 8      -453.925          51.000
E15  25534631.648 8 134185381.405 8     -2877.715          51.000    25534634.812 8 102817390.493 8     -2205.086          51.000
> 2020 05 10 22 17 30.0000000  0 15        .000000000000
G01  23156525.828 7 121688347.338 7     -3404.746          45.000    23156530.000 7  94822104.577 7     -2653.049          45.000
G03  20921030.742 7 109940762.043 7     -1438.691          45.000    20921031.383 7  85668168.923 7     -1121.058          45.000
G04  20297118.422 8 106662081.122 8       527.910          51.000    20297117.977 8  83113329.104 8       411.359          51.000
G09  21729383.711 8 114188773.538 8      2626.957          51.000    21729386.086 8  88978253.368 8      2046.980          51.000
G17  22475688.531 5 118110589.047 5     -1629.102          32.000    22475687.570 5  92034199.967 5     -1269.430          31.000
R02  20044718.156 5 106962479.145 5      1474.621          34.000    20044710.672 4  83193011.729 4      1146.924          28.000
R17  19738487.359 5 105624634.249 5       694.625          33.000    19738490.398 4  82152515.611 4       540.267          28.000
R24  20610930.039 8 110215913.539 8     -3336.109          51.000    20610933.977 7  85723489.490 7     -2594.752          47.000
C19  21971263.719 8 114410143.467 8     -1169.145          51.000
C20  25917410.586 5 134958738.230 5     -2659.984          33.000
E03  25586895.102 5 134460036.979 5     -2213.930          32.000
E07  25619965.047 8 134633858.959 8      2155.164          51.000    25619968.266 8 103161020.547 8      1651.395          51.000
E08  21390980.922 8 112410385.298 8       -37.242          51.000    21390981.977 8  86132638.565 8       -28.476          51.000
E13  23446322.695 8 123211262.503 8      -604.648          51.000    23446323.320 8  94408625.049 8      -463.296          51.000
E15  25551080.258 8 134271820.116 8     -2882.465          51.000    25551083.562 8 102883622.752 8     -2208.636          51.000
> 2020 05 10 22 18  0.0000000  0 12        .000000000000
G01  23176004.945 7 121790713.169 7     -3415.531          44.000    23176008.961 7  94901870.151 7     -2661.453          44.000
G03  20929291.852 7 109984175.135 7     -1451.406          44.000    20929292.547 7  85701997.317 7     -1130.966          44.000
G04  20294175.789 8 106646618.019 8       507.105          51.000    20294175.133 8  83101279.922 8       395.147          51.000
G09  21714443.414 8 114110258.012 8      2611.492          51.000    21714445.055 8  88917072.493 8      2034.929          51.000
G17  22485051.258 5 118159803.447 5     -1647.711          33.000    22485050.984 5  92072548.758 5     -1283.934          34.000
R24  20629719.516 8 110316389.779 8     -3358.062          50.000    20629723.641 7  85801637.652 7     -2611.826          47.000
C19  21978041.430 8 114445436.581 8     -1179.637          51.000
C22  22727846.945 5 118349859.776 5      1431.562          32.000
E07  25607701.992 8 134569414.658 8      2145.258          51.000    25607704.953 8 103111641.181 8      1643.787          51.000
E08  21391241.812 8 112411755.313 8       -49.898          51.000    21391242.625 8  86133688.318 8       -38.237          51.000
E13  23449837.477 8 123229730.625 8      -622.363          51.000    23449837.867 8  94422775.961 8      -476.867          51.000
E15  25567576.273 8 134358508.621 8     -2892.559          50.000    25567579.680 8 102950046.418 8     -2216.361          51.000
> 2020 05 10 22 18 30.0000000  0 14        .000000000000
G01  23195512.602 7 121893226.425 7     -3421.398          45.000    23195515.938 7  94981750.628 7     -2666.025          45.000
G03  20937590.156 7 110027784.011 7     -1458.734          44.000    20937591.070 7  85735978.273 7     -1136.676          43.000
G04  20291316.703 8 106631593.965 8       491.602          51.000    20291316.227 8  83089572.885 8       383.066          50.000
G09  21699556.438 8 114032023.169 8      2601.211          51.000    21699557.531 8  88856110.305 8      2026.918          51.000
G17  22494491.258 6 118209410.838 6     -1662.598          36.000    22494491.438 5  92111203.862 5     -1295.528          35.000
R01  20534976.508 5 109771254.479 5     -2364.352          34.000
R24  20648596.023 8 110417332.111 8     -3374.309          50.000    20648599.797 7  85880148.339 7     -2624.462          45.000
C19  21984844.320 8 114480860.865 8     -1184.809          51.000
C20  25948101.625 4 135118573.576 4     -2663.086          28.000
C22  22719611.688 5 118306973.330 5      1424.473          30.000
E07  25595459.602 8 134505079.743 8      2140.867          50.000    25595463.125 8 103062345.608 8      1640.420          51.000
E08  21391539.367 8 112413317.670 8       -57.066          51.000    21391539.992 8  86134885.443 8       -43.726          51.000
E13  23453417.062 8 123248540.642 8      -634.527          51.000    23453417.477 8  94437188.837 8      -486.202          51.000
E15  25584093.664 8 134445310.450 8     -2897.086          49.000    25584096.859 8 103016556.928 8     -2219.848          49.000
> 2020 05 10 22 19  0.0000000  0 15        .000000000000
G01  23215060.586 7 121995951.014 7     -3422.480          46.000    23215062.617 7  95061795.766 7     -2666.868          46.000
G03  20945938.180 7 110071653.943 7     -1461.664          43.000    20945939.203 7  85770162.645 7     -1138.962          43.000
G04  20288553.742 8 106617074.353 8       480.555          51.000    20288553.195 8  83078258.910 8       374.458          50.000
G09  21684735.156 8 113954136.304 8      2595.473          51.000    21684736.336 8  88795419.242 8      2022.446          51.000
G17  22504018.031 6 118259473.863 6     -1671.871          36.000    22504018.469 6  92150214.007 6     -1302.757          36.000
R02  20020213.742 6 106831708.859 6      1439.859          36.000
R17  19727539.203 5 105566058.469 5       615.270          32.000    19727540.148 5  82106941.010 5       478.546          30.000
R24  20667571.492 8 110518804.071 8     -3386.164          50.000    20667574.891 7  85959070.960 7     -2633.683          46.000
C19  21991684.680 8 114516480.622 8     -1185.625          51.000
C20  25963444.539 4 135198466.226 4     -2658.477          29.000
E03  25624931.055 5 134659921.772 5     -2219.656          34.000
E07  25583250.352 8 134440919.929 8      2140.730          50.000    25583254.961 8 103013184.220 8      1640.303          51.000
E08  21391885.695 8 112415137.339 8       -59.961          51.000    21391886.031 8  86136279.735 8       -45.902          51.000
E13  23457073.906 8 123267758.137 8      -642.332          51.000    23457074.781 8  94451913.925 8      -492.162          51.000
E15  25600644.102 7 134532289.978 7     -2897.258          47.000    25600646.875 7 103083203.598 7     -2219.977          46.000
> 2020 05 10 22 19 30.0000000  0 13        .000000000000
G01  23234643.852 7 122098860.633 7     -3432.906          46.000    23234644.320 7  95141985.026 7     -2674.992          45.000
G03  20954331.227 7 110115759.930 7     -1473.609          43.000    20954332.016 7  85804530.979 7     -1148.267          43.000
G04  20285882.070 8 106603034.199 8       460.672          51.000    20285881.391 8  83067318.542 8       358.965          50.000
G09  21669974.969 8 113876573.893 8      2580.613          49.000    21669976.586 8  88734981.001 8      2010.867          49.000
R02  20012176.617 6 106788828.683 6      1424.008          36.000    20012174.070 4  83057962.856 4      1107.568          25.000
R17  19724186.172 5 105548125.499 5       584.977          31.000    19724192.648 5  82092993.246 5       454.988          33.000
R24  20686641.164 8 110620776.683 8     -3406.711          51.000    20686644.039 7  86038382.990 7     -2649.661          46.000
C19  21998557.805 8 114552270.974 8     -1195.215          51.000
C20  25978786.125 4 135278346.508 4     -2661.395          29.000
E07  25571069.992 8 134376911.183 8      2131.754          49.000    25571074.812 8 102964138.559 8      1633.473          50.000
E08  21392276.078 8 112417189.122 8       -71.578          51.000    21392275.844 8  86137851.889 8       -54.849          51.000
E13  23460803.633 8 123287358.619 8      -659.035          51.000    23460804.789 8  94466932.490 8      -504.978          51.000
E15  25617223.438 7 134619421.275 7     -2906.203          47.000    25617224.406 7 103149966.545 7     -2226.831          44.000
> 2020 05 10 22 20  0.0000000  0 12        .000000000000
G01  23254306.867 7 122202190.380 7     -3452.695          45.000    23254306.734 7  95222501.652 7     -2690.412          45.000
G03  20962814.547 7 110160338.550 7     -1495.371          45.000    20962815.219 7  85839267.588 7     -1165.224          45.000
G04  20283346.664 8 106589710.213 8       430.785          51.000    20283346.164 8  83056936.242 8       335.680          51.000
G09  21655321.750 8 113799574.162 8      2555.855          48.000    21655323.641 8  88674981.223 8      1991.576          49.000
G17  22523361.547 5 118361052.469 5     -1717.703          34.000    22523360.156 5  92229387.118 5     -1338.467          35.000
R24  20705849.211 8 110723487.525 8     -3437.434          51.000    20705851.266 7  86118269.214 7     -2673.556          44.000
C19  22005508.719 8 114588465.978 8     -1214.582          51.000
C20  25994169.523 5 135358431.893 5     -2673.918          30.000
E07  25558962.898 8 134313290.567 8      2112.793          48.000    25558967.703 8 102915390.330 8      1618.836          49.000
E08  21392755.781 8 112419709.214 8       -93.199          51.000    21392755.055 8  86139782.870 8       -71.451          51.000
E13  23464651.109 8 123307579.018 8      -685.750          51.000    23464652.430 8  94482426.046 8      -525.460          51.000
E15  25633877.719 8 134706939.824 8     -2925.129          49.000    25633875.062 7 103217026.157 7     -2241.359          42.000
> 2020 05 10 22 20 30.0000000  0 15        .000000000000
G01  23273949.578 7 122305414.877 7     -3446.066          43.000    23273951.203 7  95302936.293 7     -2685.247          43.000
G03  20971288.234 7 110204865.756 7     -1490.441          46.000    20971288.711 7  85873964.124 7     -1161.383          47.000
G04  20280847.641 8 106576578.421 8       427.457          50.000    20280847.438 8  83046703.684 8       333.086          50.000
G09  21640676.781 8 113722614.683 8      2557.539          51.000    21640677.648 8  88615012.842 8      1992.888          51.000
G17  22533122.531 6 118412345.405 6     -1719.273          37.000    22533122.094 6  92269366.350 6     -1339.688          37.000
R17  19717968.391 5 105514867.577 5       530.512          32.000    19717973.695 5  82067115.731 5       412.623          32.000
R24  20725094.836 8 110826400.243 8     -3440.926          51.000    20725096.281 7  86198312.438 7     -2676.276          44.000
C19  22012437.711 8 114624546.192 8     -1207.754          51.000
C20  26009492.422 4 135438248.127 4     -2661.793          28.000
C22  22687070.648 5 118137515.746 5      1400.445          34.000
E03  25663104.875 6 134860523.352 6     -2230.656          36.000
E07  25546829.656 7 134249534.817 7      2120.363          46.000    25546833.711 8 102866538.508 8      1624.715          48.000
E08  21393224.906 8 112422173.336 8       -88.273          51.000    21393224.156 8  86141670.975 8       -67.665          51.000
E13  23468516.727 8 123327895.655 8      -685.945          51.000    23468518.367 8  94497993.343 8      -525.606          51.000
E15  25650506.422 8 134794320.682 8     -2917.480          51.000    25650502.492 7 103283980.260 7     -2235.463          43.000
> 2020 05 10 22 21  0.0000000  0 13        .000000000000
G01  23293705.398 7 122409233.545 7     -3457.391          42.000    23293709.219 7  95383833.970 7     -2694.068          42.000
G03  20979885.469 7 110250042.539 7     -1503.863          46.000    20979885.539 7  85909166.786 7     -1171.845          46.000
G04  20278518.562 8 106564339.828 8       405.969          50.000    20278518.773 8  83037167.125 8       316.342          49.000
G09  21626173.508 8 113646398.056 8      2540.996          51.000    21626173.242 8  88555623.306 8      1979.997          51.000
G17  22543042.852 6 118464476.455 6     -1738.441          36.000    22543044.773 5  92309987.940 5     -1354.630          35.000
R17  19715136.078 5 105499708.868 5       498.258          35.000    19715140.617 4  82055325.628 4       387.534          29.000
R24  20744510.656 8 110930224.613 8     -3462.844          50.000    20744511.414 6  86279064.683 6     -2693.323          41.000
C19  22019477.969 8 114661205.945 8     -1218.879          51.000
E03  25675910.969 6 134927819.429 6     -2238.488          36.000
E07  25534804.750 7 134186345.566 7      2109.691          47.000    25534806.969 8 102818120.772 8      1616.568          48.000
E08  21393816.570 8 112425282.185 8      -101.457          51.000    21393815.977 8  86144053.084 8       -77.746          51.000
E13  23472534.367 8 123349009.854 8      -704.188          51.000    23472536.008 8  94514171.761 8      -539.545          51.000
E15  25667242.234 8 134882263.773 8     -2927.871          51.000    25667239.867 7 103351365.178 7     -2243.410          46.000
> 2020 05 10 22 21 30.0000000  0 15        .000000000000
G01  23313447.242 7 122512979.746 7     -3458.266          43.000    23313452.602 7  95464675.190 7     -2694.752          44.000
G03  20988479.500 7 110295203.375 7     -1506.324          45.000    20988479.523 7  85944357.056 7     -1173.759          45.000
G04  20276232.898 8 106552328.967 8       395.227          50.000    20276233.398 8  83027808.016 8       307.969          50.000
G09  21611684.984 8 113570260.541 8      2535.332          50.000    21611685.234 8  88496295.390 8      1975.583          50.000
G17  22552994.789 5 118516777.552 5     -1747.590          31.000    22552996.945 4  92350742.051 4     -1361.761          29.000
G19  22251864.852 6 116934324.439 6      -846.254          37.000    22251865.320 5  91117704.605 5      -659.419          32.000
R01  20615350.891 5 110200863.455 5     -2403.414          34.000
R02  19980811.922 5 106621408.959 5      1375.801          32.000
R17  19712405.930 5 105485098.598 5       476.738          31.000    19712404.914 4  82043942.061 4       370.790          25.000
R24  20763969.562 8 111034280.485 8     -3473.695          49.000    20763970.055 7  86359996.977 7     -2701.763          42.000
C19  22026502.797 8 114697785.667 8     -1219.277          51.000
E07  25522761.914 8 134123057.988 8      2110.016          49.000    25522762.781 8 102769627.738 8      1616.726          48.000
E08  21394404.406 8 112428370.049 8      -103.863          51.000    21394403.633 8  86146419.104 8       -79.521          51.000
E13  23476577.109 8 123370256.578 8      -711.652          51.000    23476578.641 8  94530451.717 8      -545.322          51.000
E15  25683958.023 8 134970102.699 8     -2927.449          51.000    25683957.977 8 103418670.300 8     -2243.084          48.000
> 2020 05 10 22 22  0.0000000  0 16        .000000000000
G01  23333231.297 7 122616944.983 7     -3471.902          46.000    23333236.953 7  95545687.107 7     -2705.375          46.000
G03  20997125.953 7 110340641.345 7     -1521.645          44.000    20997126.375 7  85979763.222 7     -1185.697          44.000
G04  20274046.453 8 106540838.807 8       371.793          51.000    20274047.156 8  83018854.658 8       289.709          51.000
G09  21597267.031 8 113494496.865 8      2516.645          48.000    21597268.898 8  88437258.756 8      1961.022          48.000
G17  22563035.602 6 118569540.192 6     -1769.402          37.000    22563036.211 6  92391855.838 6     -1378.752          37.000
G19  22256779.727 6 116960125.075 6      -873.133          36.000    22256775.688 5  91137774.053 5      -680.369          34.000
R01  20628882.273 5 110273179.947 5     -2416.738          35.000
R02  19973133.477 6 106580430.132 6      1356.750          37.000
R17  19709833.672 5 105471336.722 5       441.633          35.000
R24  20783526.773 8 111138862.375 8     -3497.344          48.000    20783527.977 7  86441338.459 7     -2720.156          44.000
C19  22033567.883 8 114734575.367 8     -1232.273          51.000
C22  22663132.164 5 118012868.252 5      1374.148          33.000
E07  25510756.602 8 134059965.855 8      2097.438          51.000    25510756.797 8 102721284.461 8      1607.154          49.000
E08  21395043.945 8 112431729.638 8      -118.969          51.000    21395043.016 8  86148993.333 8       -91.137          51.000
E13  23480700.789 8 123391929.045 8      -732.004          51.000    23480702.328 8  94547057.881 8      -560.820          51.000
E15  25700709.352 8 135058129.475 8     -2939.848          50.000    25700710.938 8 103486119.376 8     -2252.509          48.000
> 2020 05 10 22 22 30.0000000  0 18        .000000000000
G01  23353060.406 7 122721145.203 7     -3469.605          47.000    23353065.586 7  95626882.119 7     -2703.586          47.000
G03  21005828.062 7 110386373.804 7     -1521.781          44.000    21005828.984 7  86015398.893 7     -1185.804          44.000
G04  20271962.555 8 106529886.787 8       363.684          51.000    20271963.297 8  83010320.637 8       283.390          51.000
G09  21582924.117 8 113419125.824 8      2513.227          50.000    21582926.852 8  88378528.074 8      1958.358          50.000
G17  22573167.164 6 118622779.446 6     -1775.094          39.000    22573166.461 6  92433340.922 6     -1383.193          39.000
G19  22261813.469 5 116986573.630 5      -884.414          35.000
G22  22849354.977 5 120074175.519 5     -2373.438          31.000
G31  23962763.336 5 125925168.936 5     -2086.449          32.000    23962766.000 5  98123512.790 5     -1625.802          32.000
R01  20642456.523 5 110345741.714 5     -2415.062          31.000
R02  19965530.438 5 106539860.242 5      1353.367          34.000    19965532.984 4  82864377.744 4      1052.628          27.000
R17  19707424.531 5 105458442.238 5       422.766          35.000    19707427.703 4  82023211.324 4       328.818          26.000
R24  20803185.078 7 111243984.787 7     -3505.457          47.000    20803187.391 7  86523100.359 7     -2726.467          46.000
C19  22040676.477 8 114771592.130 8     -1230.246          51.000
C22  22655233.867 6 117971706.236 6      1374.773          36.000
E07  25498791.711 8 133997087.193 8      2099.883          50.000    25498791.961 8 102673104.752 8      1608.998          49.000
E08  21395738.336 8 112435378.008 8      -118.934          51.000    21395737.305 8  86151788.841 8       -91.110          51.000
E13  23484908.914 8 123414045.090 8      -737.086          51.000    23484910.609 8  94564003.941 8      -564.813          51.000
E15  25717499.219 8 135146360.401 8     -2936.926          49.000    25717501.859 8 103553724.909 8     -2250.390          49.000
> 2020 05 10 22 23  0.0000000  0 16        .000000000000
G01  23372927.523 7 122825545.199 7     -3485.383          47.000    23372931.961 7  95708232.780 7     -2715.883          47.000
G03  21014579.781 7 110432366.839 7     -1539.871          45.000    21014581.172 7  86051237.611 7     -1199.900          45.000
G04  20269974.586 8 106519439.024 8       337.668          51.000    20269975.219 8  83002179.537 8       263.118          51.000
G09  21568650.508 8 113344115.173 8      2492.055          51.000    21568652.867 8  88320078.252 8      1941.864          51.000
G17  22583382.500 6 118676459.842 6     -1798.820          37.000    22583380.727 6  92475169.813 6     -1401.678          37.000
G19  22266963.422 6 117013635.356 6      -914.277          36.000    22266961.070 4  91179470.428 4      -712.439          29.000
G31  23974757.039 5 125988188.876 5     -2111.227          35.000    23974756.320 5  98172619.251 5     -1645.115          35.000
R02  19957998.883 5 106499698.355 5      1331.590          35.000
R17  19705172.648 5 105446382.236 5       385.508          35.000    19705180.164 4  82013831.200 4       299.836          29.000
R24  20822936.602 7 111349609.894 7     -3531.543          46.000    20822940.672 7  86605253.259 7     -2746.756          47.000
C19  22047822.117 8 114808802.109 8     -1245.812          51.000
C22  22647369.352 5 117930757.573 5      1358.660          34.000
E07  25486860.750 8 133934388.772 8      2084.648          50.000    25486861.344 8 102625063.118 8      1597.379          49.000
E08  21396481.141 8 112439281.076 8      -136.613          51.000    21396479.758 8  86154779.511 8      -104.705          51.000
E13  23489195.086 8 123436571.102 8      -759.953          51.000    23489196.930 8  94581264.113 8      -582.302          51.000
E15  25734320.516 7 135234760.647 7     -2951.711          46.000    25734324.234 8 103621460.188 8     -2261.719          48.000
> 2020 05 10 22 23 30.0000000  0 15        .000000000000
G01  23392882.641 7 122930407.987 7     -3490.727          47.000    23392886.078 7  95789944.027 7     -2720.047          47.000
G03  21023431.820 7 110478884.898 7     -1547.172          46.000    21023433.227 7  86087485.432 7     -1205.588          46.000
G04  20268132.852 8 106509759.855 8       322.051          51.000    20268133.523 8  82994637.357 8       250.952          51.000
G09  21554496.375 8 113269730.926 8      2481.219          51.000    21554497.773 8  88262116.569 8      1933.417          51.000
G17  22593731.023 6 118730843.690 6     -1812.301          36.000    22593729.703 6  92517546.790 6     -1412.179          36.000
G31  23986892.617 5 126051959.617 5     -2126.125          35.000    23986892.211 5  98222310.746 5     -1656.724          34.000
R02  19950586.547 5 106460147.448 5      1319.969          34.000
R17  19703126.844 6 105435427.293 6       359.160          36.000    19703127.797 4  82005310.763 4       279.353          28.000
R24  20842831.703 7 111456003.445 7     -3546.863          46.000    20842837.117 7  86688003.847 7     -2758.668          47.000
C19  22055055.258 8 114846467.090 8     -1250.977          51.000
C22  22639596.305 6 117890284.736 6      1353.336          36.000
E07  25475014.445 8 133872135.749 8      2079.922          50.000    25475015.609 8 102577362.752 8      1593.703          50.000
E08  21397322.523 8 112443702.924 8      -143.836          51.000    21397320.812 8  86158167.692 8      -110.197          51.000
E13  23493610.297 8 123459771.748 8      -772.438          51.000    23493611.883 8  94599041.239 8      -591.871          51.000
E15  25751223.914 7 135323593.570 7     -2956.242          45.000    25751227.695 7 103689527.003 7     -2265.065          46.000
> 2020 05 10 22 24  0.0000000  0 16        .000000000000
G01  23412819.492 8 123035174.345 8     -3493.430          48.000    23412821.547 8  95871580.154 8     -2722.153          48.000
G03  21032277.695 7 110525370.359 7     -1551.938          46.000    21032279.008 7  86123707.849 7     -1209.302          46.000
G04  20266331.148 8 106500291.548 8       309.172          51.000    20266331.727 8  82987259.470 8       240.913          51.000
G09  21540355.375 8 113195417.032 8      2473.086          51.000    21540356.031 8  88204209.691 8      1927.083          51.000
G17  22604106.961 6 118785371.991 6     -1822.512          39.000    22604106.453 6  92560036.415 6     -1420.136          39.000
R01  20683452.250 5 110564907.901 5     -2439.906          30.000
R02  19943186.664 4 106420674.039 4      1312.406          29.000
R17  19701180.570 5 105425010.969 5       335.102          34.000    19701179.234 4  81997209.216 4       260.638          27.000
R24  20862765.023 8 111562594.587 8     -3559.352          49.000    20862770.039 7  86770908.040 7     -2768.388          46.000
C19  22062269.641 8 114884034.338 8     -1253.508          51.000
C22  22631809.000 5 117849735.532 5      1350.371          32.000
E03  25752848.953 5 135332126.249 5     -2250.742          35.000    25752850.898 5 103696044.299 5     -1724.466          34.000
E07  25463146.969 8 133809770.953 8      2077.719          50.000    25463148.648 8 102529576.765 8      1592.015          50.000
E08  21398156.539 8 112448085.546 8      -148.289          51.000    21398154.680 8  86161525.821 8      -113.696          51.000
E13  23498047.930 8 123483089.625 8      -782.188          51.000    23498049.406 8  94616908.198 8      -599.338          51.000
E15  25768104.250 7 135412300.496 7     -2957.742          46.000    25768105.828 7 103757497.231 7     -2266.373          44.000
> 2020 05 10 22 24 30.0000000  0 16        .000000000000
G01  23432794.109 8 123140139.593 8     -3495.266          48.000    23432795.438 8  95953371.247 8     -2723.584          48.000
G03  21041173.891 7 110572119.922 7     -1556.070          46.000    21041175.414 7  86160136.038 7     -1212.525          46.000
G04  20264625.773 8 106491330.738 8       297.117          51.000    20264626.336 8  82980277.024 8       231.520          51.000
G09  21526283.797 8 113121471.806 8      2465.617          49.000    21526284.820 8  88146590.058 8      1921.263          49.000
G17  22614567.141 6 118840338.934 6     -1832.711          39.000    22614566.781 6  92602867.773 6     -1428.089          39.000
G19  22283148.062 6 117098722.214 6      -965.441          36.000    22283147.422 4  91245762.182 4      -752.292          27.000
G22  22903994.852 5 120361305.630 5     -2394.086          34.000
R17  19699391.281 5 105415436.671 5       312.258          35.000    19699385.898 4  81989759.625 4       242.867          25.000
R24  20882792.094 8 111669682.095 8     -3570.781          51.000    20882795.969 7  86854198.275 7     -2777.277          46.000
C19  22069521.586 8 114921797.623 8     -1255.320          51.000
C22  22624063.508 5 117809404.412 5      1347.676          31.000
E03  25765720.570 6 135399748.094 6     -2248.656          37.000    25765718.734 5 103747858.414 5     -1722.781          34.000
E07  25451314.797 8 133747591.729 8      2076.453          51.000    25451316.828 8 102481932.972 8      1591.022          50.000
E08  21399039.641 8 112452725.450 8      -152.098          51.000    21399037.875 8  86165081.078 8      -116.527          51.000
E13  23502564.086 8 123506821.817 8      -791.094          51.000    23502565.680 8  94635092.591 8      -606.175          51.000
E15  25785017.656 7 135501177.120 7     -2958.555          47.000    25785017.250 7 103825597.458 7     -2266.816          45.000
> 2020 05 10 22 25  0.0000000  0 16        .000000000000
G01  23452821.141 8 123245380.159 8     -3521.980          48.000    23452821.883 8  96035376.860 8     -2744.403          48.000
G03  21050135.156 7 110619211.378 7     -1584.984          46.000    21050136.422 7  86196830.674 7     -1235.053          46.000
G04  20263031.820 8 106482955.222 8       259.953          51.000    20263032.773 8  82973750.652 8       202.561          51.000
G09  21512296.836 8 113047974.633 8      2432.965          49.000    21512298.781 8  88089319.536 8      1895.817          49.000
G17  22625125.633 7 118895820.584 7     -1867.094          43.000    22625124.266 7  92646100.200 7     -1454.881          43.000
G19  22288773.062 4 117128292.553 4     -1006.613          28.000
R02  19928621.789 5 106342937.684 5      1270.570          35.000
R17  19697775.562 6 105406785.141 6       263.445          37.000    19697777.375 4  81983030.534 4       204.893          28.000
R24  20902925.953 8 111777341.518 8     -3607.812          50.000    20902928.547 7  86937933.346 7     -2806.076          44.000
C19  22076826.070 8 114959833.866 8     -1281.766          51.000
C22  22616376.883 5 117769369.011 5      1319.297          30.000
E03  25778623.477 6 135467531.445 6     -2271.711          36.000    25778613.461 5 103799793.347 5     -1740.913          32.000
E07  25439532.586 8 133685676.826 8      2050.090          49.000    25439535.016 8 102434491.704 8      1570.851          50.000
E08  21399986.219 8 112457700.080 8      -180.910          51.000    21399984.836 8  86168892.815 8      -138.503          51.000
E13  23507174.250 8 123531046.386 8      -825.160          51.000    23507175.508 8  94653654.266 8      -632.257          51.000
E15  25801978.039 8 135590300.338 8     -2984.375          48.000    25801978.336 7 103893886.649 7     -2286.621          47.000
> 2020 05 10 22 25 30.0000000  0 15        .000000000000
G01  23472912.523 8 123350959.734 8     -3521.148          48.000    23472912.523 8  96117646.633 8     -2743.752          48.000
G03  21059173.812 7 110666709.875 7     -1586.598          46.000    21059174.727 7  86233842.477 7     -1236.307          46.000
G04  20261561.633 8 106475229.920 8       250.297          51.000    20261562.758 8  82967730.934 8       195.037          51.000
G09  21498408.398 8 112974992.085 8      2427.797          51.000    21498410.406 8  88032450.002 8      1891.790          51.000
G17  22635794.117 7 118951880.556 7     -1874.641          44.000    22635791.414 7  92689783.251 7     -1460.759          45.000
G22  22931515.391 5 120505926.739 5     -2417.141          35.000
R02  19921481.875 5 106304825.606 5      1265.707          31.000    19921486.500 4  82681548.921 4       984.439          27.000
R17  19696344.539 6 105399123.793 6       242.375          36.000    19696344.211 4  81977071.697 4       188.520          25.000
R24  20923177.562 8 111885635.572 8     -3616.672          48.000    20923179.492 7  87022162.044 7     -2812.967          43.000
C19  22084195.391 8 114998207.311 8     -1281.125          51.000
E03  25791566.102 5 135535594.005 5     -2267.121          34.000
E07  25427812.555 8 133624091.750 8      2050.930          49.000    25427815.852 8 102387303.147 8      1571.584          50.000
E08  21401008.773 8 112463074.288 8      -182.199          51.000    21401007.656 8  86173010.715 8      -139.562          51.000
E13  23511890.711 8 123555828.669 8      -831.711          51.000    23511891.391 8  94672643.293 8      -637.342          51.000
E15  25818997.273 8 135679734.152 8     -2982.660          48.000    25818999.359 8 103962413.843 8     -2285.418          49.000
> 2020 05 10 22 26  0.0000000  0 15        .000000000000
G01  23493004.398 7 123456544.563 7     -3529.387          46.000    23493004.484 7  96199920.502 7     -2750.171          46.000
G03  21068226.719 7 110714283.168 7     -1596.582          46.000    21068228.086 7  86270912.571 7     -1244.090          46.000
G04  20260151.945 8 106467822.532 8       231.809          51.000    20260152.992 8  82961958.935 8       180.630          51.000
G09  21484555.703 8 112902193.519 8      2413.637          51.000    21484556.992 8  87975723.849 8      1880.756          51.000
G17  22646508.891 7 119008184.789 7     -1890.527          43.000    22646505.961 7  92733656.670 7     -1473.138          43.000
G22  22945300.742 5 120578378.772 5     -2424.305          32.000
R17  19695034.305 5 105392115.487 5       212.906          31.000    19695030.375 4  81971617.872 4       165.591          28.000
R24  20943483.359 7 111994223.002 7     -3634.383          47.000    20943484.836 7  87106618.920 7     -2826.742          42.000
C19  22091566.086 8 115036588.609 8     -1289.215          50.000
C22  22601139.016 5 117690066.363 5      1310.715          32.000
E03  25804486.117 5 135603490.820 5     -2271.203          32.000
E07  25416092.500 8 133562505.059 8      2043.164          49.000    25416096.461 8 102340113.347 8      1565.550          49.000
E08  21402044.297 8 112468515.569 8      -192.266          51.000    21402043.141 8  86177180.006 8      -147.255          51.000
E13  23516649.852 8 123580836.698 8      -847.121          51.000    23516650.000 8  94691805.289 8      -649.117          51.000
E15  25836012.164 8 135769145.321 8     -2989.719          48.000    25836015.547 8 104030923.695 8     -2290.814          50.000
> 2020 05 10 22 26 30.0000000  0 15        .000000000000
G01  23513153.828 7 123562435.498 7     -3531.426          44.000    23513155.234 7  96282432.889 7     -2751.760          43.000
G03  21077351.336 7 110762233.526 7     -1600.848          46.000    21077353.336 7  86308276.461 7     -1247.414          46.000
G04  20258860.398 8 106461035.091 8       219.609          51.000    20258861.328 8  82956670.019 8       171.124          51.000
G09  21470796.062 8 112829882.645 8      2405.820          51.000    21470796.391 8  87919377.740 8      1874.665          51.000
G17  22657326.836 7 119065032.945 7     -1900.340          44.000    22657324.938 7  92777953.959 7     -1480.781          44.000
G22  22959135.852 5 120651104.861 5     -2424.730          35.000
R17  19693904.141 6 105386069.282 6       189.230          36.000    19693901.930 4  81966915.242 4       147.179          27.000
R24  20963900.859 8 112103407.961 8     -3645.758          48.000    20963903.133 7  87191540.530 7     -2835.592          44.000
C19  22098995.672 8 115075277.033 8     -1291.066          50.000
C22  22593593.281 6 117650754.896 6      1308.008          36.000
E03  25817443.195 5 135671579.766 5     -2269.582          34.000    25817447.750 5 103956166.397 5     -1739.102          32.000
E07  25404430.258 8 133501219.557 8      2041.434          51.000    25404434.312 8 102293154.342 8      1564.293          49.000
E08  21403149.992 8 112474325.796 8      -196.141          51.000    21403148.930 8  86181632.004 8      -150.248          51.000
E13  23521509.055 8 123606372.842 8      -856.285          51.000    23521509.148 8  94711371.949 8      -656.168          51.000
E15  25853080.000 8 135858834.990 8     -2990.598          48.000    25853083.867 8 104099646.955 8     -2291.485          51.000
> 2020 05 10 22 27  0.0000000  0 16        .000000000000
G01  23533330.133 7 123668467.316 7     -3537.707          45.000    23533333.117 7  96365055.085 7     -2756.652          45.000
G03  21086516.320 7 110810397.127 7     -1609.922          45.000    21086518.141 7  86345806.525 7     -1254.485          44.000
G04  20257655.539 8 106454703.643 8       202.504          51.000    20257656.305 8  82951736.433 8       157.795          51.000
G09  21457097.977 8 112757897.227 8      2393.293          50.000    21457097.617 8  87863285.246 8      1864.904          50.000
G17  22668216.578 7 119122259.886 7     -1914.738          46.000    22668215.664 7  92822546.417 7     -1492.004          46.000
G22  22972994.359 5 120723941.074 5     -2430.391          35.000
R02  19900391.367 5 106192300.682 5      1230.773          34.000
R17  19692924.320 5 105380819.285 5       160.973          35.000    19692919.414 4  81962834.980 4       125.201          28.000
R24  20984398.898 8 112213020.245 8     -3661.699          49.000    20984401.828 7  87276794.507 7     -2847.988          44.000
C19  22106453.180 8 115114110.029 8     -1297.711          50.000
C22  22586076.828 5 117611613.826 5      1301.215          34.000
E03  25830407.250 6 135739707.129 6     -2272.188          36.000    25830411.711 5 104008368.693 5     -1740.934          33.000
E07  25392794.695 8 133440072.031 8      2035.125          51.000    25392798.406 8 102246301.078 8      1559.307          49.000
E08  21404294.633 8 112480340.823 8      -204.707          51.000    21404293.641 8  86186240.935 8      -156.832          51.000
E13  23526437.695 8 123632273.588 8      -870.293          51.000    23526438.172 8  94731217.966 8      -666.812          51.000
E15  25870169.156 7 135948638.363 7     -2996.133          46.000    25870173.039 8 104168457.326 8     -2295.720          51.000
> 2020 05 10 22 27 30.0000000  0 17        .000000000000
G01  23553532.781 7 123774634.493 7     -3539.160          46.000    23553536.836 7  96447782.769 7     -2757.787          46.000
G03  21095721.227 7 110858769.952 7     -1614.012          44.000    21095721.977 7  86383499.623 7     -1257.675          44.000
G04  20256536.664 8 106448823.980 8       190.371          51.000    20256536.992 8  82947154.893 8       148.341          51.000
G09  21443460.609 8 112686234.842 8      2385.309          49.000    21443460.414 8  87807444.420 8      1858.682          49.000
G17  22679177.867 7 119179858.870 7     -1924.227          46.000    22679176.414 7  92867428.750 7     -1499.397          46.000
G19  22318664.219 5 117285362.192 5     -1092.680          35.000
G22  22986874.180 5 120796883.283 5     -2431.414          32.000
R02  19893509.266 5 106155521.234 5      1222.551          32.000
R17  19692091.383 5 105376362.743 5       137.477          34.000    19692090.156 4  81959368.762 4       106.920          29.000
R24  21004975.570 8 112323052.249 8     -3672.707          49.000    21004978.695 7  87362374.938 7     -2856.553          44.000
C19  22113937.758 8 115153083.460 8     -1299.469          50.000
C22  22578589.328 5 117572639.262 5      1298.473          30.000
E03  25843375.797 5 135807856.733 5     -2270.219          34.000
E07  25381184.625 8 133379059.145 8      2033.359          51.000    25381187.875 8 102199550.984 8      1558.047          49.000
E08  21405477.570 8 112486556.404 8      -208.637          51.000    21405476.258 8  86191003.532 8      -159.885          51.000
E13  23531435.109 8 123658535.066 8      -879.492          51.000    23531436.188 8  94751340.403 8      -673.903          51.000
E15  25887278.758 7 136038550.380 7     -2996.918          42.000    25887282.516 8 104237350.926 8     -2296.364          50.000
> 2020 05 10 22 28  0.0000000  0 16        .000000000000
G01  23573776.141 7 123881014.346 7     -3550.645          46.000    23573780.773 7  96530676.155 7     -2766.736          46.000
G03  21104980.883 7 110907430.677 7     -1628.047          43.000    21104982.312 7  86421417.052 7     -1268.608          43.000
G04  20255518.672 8 106443474.692 8       168.254          51.000    20255518.719 8  82942986.625 8       131.107          51.000
G09  21429900.328 8 112614975.609 8      2367.387          50.000    21429900.844 8  87751917.747 8      1844.717          50.000
G17  22690224.469 8 119237907.084 8     -1943.594          48.000    22690221.859 8  92912661.095 8     -1514.489          48.000
G19  22324980.461 5 117318553.455 5     -1117.824          35.000
G22  23000790.391 5 120870010.673 5     -2441.941          32.000
R02  19886688.719 4 106119145.856 4      1204.711          29.000
R24  21025645.625 8 112433580.644 8     -3693.762          50.000    21025648.070 7  87448341.451 7     -2872.926          44.000
C19  22121464.211 8 115192275.140 8     -1311.258          49.000
C22  22571149.727 4 117533899.360 4      1285.340          29.000
E03  25856363.758 5 135876111.820 5     -2278.324          35.000
E07  25369614.930 8 133318260.247 8      2021.895          50.000    25369617.180 8 102152964.863 8      1549.235          48.000
E08  21406713.492 8 112493050.858 8      -222.281          51.000    21406711.914 8  86195979.812 8      -170.280          51.000
E13  23536516.062 8 123685236.206 8      -898.508          51.000    23536517.828 8  94771799.708 8      -688.467          51.000
E15  25904425.070 6 136128648.777 6     -3007.695          37.000    25904427.086 8 104306387.291 8     -2304.463          48.000
> 2020 05 10 22 28 30.0000000  0 17        .000000000000
G01  23594061.977 7 123987618.129 7     -3555.254          46.000    23594066.969 7  96613744.036 7     -2770.328          46.000
G03  21114298.023 7 110956392.151 7     -1635.180          42.000    21114299.492 6  86459568.835 6     -1274.166          41.000
G04  20254603.891 8 106438668.359 8       153.000          51.000    20254604.141 8  82939241.443 8       119.221          51.000
G09  21416419.758 8 112544133.739 8      2356.203          51.000    21416421.031 8  87696716.302 8      1836.002          51.000
G17  22701358.305 7 119296415.533 7     -1956.473          47.000    22701354.984 7  92958252.054 7     -1524.527          47.000
G19  22331417.250 5 117352384.668 5     -1136.805          35.000
G22  23014744.734 6 120943335.217 6     -2445.895          36.000
R02  19879948.141 5 106083187.627 5      1193.938          31.000
R17  19690913.523 5 105370052.858 5        76.477          33.000    19690918.547 5  81954496.510 5        59.485          31.000
R24  21046410.148 8 112544615.044 8     -3707.648          50.000    21046412.258 7  87534701.540 7     -2883.727          44.000
C19  22129034.883 8 115231697.521 8     -1316.203          48.000
C22  22563762.945 5 117495427.483 5      1279.965          31.000
E03  25869374.344 5 135944479.485 5     -2279.195          33.000
E07  25358088.141 8 133257688.733 8      2017.195          50.000    25358089.438 8 102106552.972 8      1545.505          48.000
E08  21408004.734 8 112499836.789 8      -229.254          51.000    21408003.273 8  86201179.436 8      -175.626          51.000
E13  23541683.109 8 123712389.998 8      -910.855          51.000    23541685.555 8  94792605.859 8      -697.925          51.000
E15  25921613.375 6 136218945.248 6     -3011.188          36.000    25921608.812 7 104375575.353 7     -2307.408          45.000
> 2020 05 10 22 29  0.0000000  0 16        .000000000000
G01  23614384.625 7 124094415.925 7     -3557.297          44.000    23614389.930 7  96696963.104 7     -2771.917          45.000
G03  21123667.039 7 111005625.890 7     -1639.680          42.000    21123667.930 7  86497932.758 7     -1277.672          42.000
G04  20253787.078 8 106434376.284 8       140.398          51.000    20253787.305 8  82935896.972 8       109.401          51.000
G09  21403013.297 8 112473682.180 8      2347.766          51.000    21403015.195 8  87641819.001 8      1829.428          51.000
G17  22712573.484 7 119355353.322 7     -1965.727          46.000    22712570.914 7  93004177.614 7     -1531.735          46.000
G22  23028731.516 5 121016829.323 5     -2447.117          32.000
R02  19873281.906 5 106047617.272 5      1184.988          32.000
R17  19690571.648 5 105368219.499 5        52.750          34.000    19690574.672 5  81953070.601 5        41.028          30.000
R24  21067262.922 8 112656122.811 8     -3718.793          49.000    21067265.141 7  87621429.820 7     -2892.395          44.000
C19  22136644.312 8 115271322.187 8     -1318.402          48.000
C22  22556420.969 4 117457202.213 4      1276.391          29.000
E03  25882400.406 5 136012929.801 5     -2277.609          34.000
E07  25346599.344 8 133197316.632 8      2015.051          50.000    25346600.359 8 102060293.854 8      1543.997          49.000
E08  21409346.023 8 112506885.280 8      -233.305          51.000    21409344.742 8  86206580.237 8      -178.772          51.000
E13  23546930.719 8 123739968.027 8      -920.383          51.000    23546933.930 8  94813737.079 8      -705.210          51.000
E15  25938830.367 7 136309410.127 7     -3012.434          42.000    25938822.008 6 104444892.466 6     -2308.010          41.000
> 2020 05 10 22 29 30.0000000  0 15        .000000000000
G01  23634739.938 7 124201385.798 7     -3565.805          44.000    23634745.188 7  96780316.291 7     -2778.546          45.000
G03  21133083.820 6 111055111.471 6     -1650.652          39.000    21133084.945 6  86536492.929 6     -1286.223          39.000
G04  20253064.148 8 106430577.717 8       121.301          51.000    20253064.258 8  82932937.050 8        94.520          51.000
G09  21389677.188 8 112403602.079 8      2332.645          51.000    21389678.797 8  87587211.140 8      1817.645          51.000
G17  22723865.859 7 119414698.301 7     -1982.047          47.000    22723864.891 7  93050420.465 7     -1544.449          47.000
G22  23042754.117 5 121090465.444 5     -2454.020          33.000
R02  19866684.805 5 106012414.280 5      1170.379          34.000    19866693.234 4  82454155.653 4       910.295          26.000
R17  19690385.539 5 105367226.689 5        22.141          33.000    19690388.633 5  81952298.395 5        17.217          31.000
R24  21088199.164 7 112768079.929 7     -3736.305          47.000    21088202.016 7  87708507.590 7     -2906.015          44.000
C19  22144288.719 7 115311128.647 7     -1327.047          47.000
E03  25895445.461 5 136081459.713 5     -2282.586          35.000    25895449.508 5 104270254.994 5     -1749.378          33.000
E07  25335145.133 8 133137124.217 8      2006.410          51.000    25335146.562 8 102014172.424 8      1537.358          50.000
E08  21410733.406 8 112514175.649 8      -244.090          51.000    21410732.250 8  86212166.366 8      -186.994          51.000
E13  23552255.102 8 123767950.090 8      -936.438          51.000    23552259.055 8  94835177.879 8      -717.560          51.000
E15  25956072.992 7 136400021.906 7     -3019.914          45.000    25956061.680 6 104514322.186 6     -2314.092          37.000
> 2020 05 10 22 30  0.0000000  0 16        .000000000000
G01  23655123.867 7 124308504.017 7     -3579.367          45.000    23655128.578 7  96863785.046 7     -2789.117          45.000
G03  21142544.227 6 111104826.586 6     -1667.363          37.000    21142545.227 6  86575231.935 6     -1299.244          37.000
G04  20252430.977 8 106427250.155 8        96.699          51.000    20252431.227 8  82930344.161 8        75.350          51.000
G09  21376407.453 8 112333872.495 8      2312.203          50.000    21376408.133 8  87532876.424 8      1801.717          50.000
G17  22735231.312 7 119474425.862 7     -2003.590          47.000    22735231.359 7  93096961.399 7     -1561.242          47.000
G19  22351389.852 4 117457346.039 4     -1202.812          28.000
R02  19860153.234 5 105977556.031 5      1150.551          31.000    19860162.680 5  82427043.118 5       894.873          32.000
R17  19690354.070 5 105367052.406 5       -14.586          34.000    19690359.648 5  81952162.817 5       -11.348          34.000
R24  21109213.672 7 112880459.781 7     -3759.367          47.000    21109216.688 7  87795914.146 7     -2923.952          43.000
C19  22151963.805 7 115351094.701 7     -1341.035          47.000
C22  22541857.016 5 117381326.785 5      1251.594          31.000
E03  25908499.148 5 136150033.343 5     -2292.660          35.000    25908492.977 5 104322798.417 5     -1756.525          35.000
E07  25323720.930 8 133077089.673 8      1992.250          50.000    25323723.219 8 101968171.933 8      1526.532          50.000
E08  21412162.273 8 112521685.151 8      -260.246          51.000    21412161.531 8  86217920.408 8      -199.397          51.000
E13  23557652.273 8 123796313.898 8      -958.074          51.000    23557656.773 8  94856911.196 8      -734.127          51.000
E15  25973338.133 7 136490757.290 7     -3032.777          45.000    25973327.008 6 104583846.550 6     -2323.730          37.000
> 2020 05 10 22 30 30.0000000  0 16        .000000000000
G01  23675527.055 7 124415721.464 7     -3578.930          46.000    23675530.867 7  96947331.084 7     -2788.776          46.000
G03  21152039.469 6 111154723.494 6     -1669.613          37.000    21152040.375 6  86614112.681 6     -1300.994          36.000
G04  20251878.336 8 106424345.681 8        86.270          51.000    20251878.633 8  82928080.954 8        67.223          51.000
G09  21363195.961 8 112264447.305 8      2305.516          50.000    21363196.164 8  87478778.923 8      1796.509          50.000
G17  22746660.562 7 119534486.748 7     -2011.102          47.000    22746660.594 7  93143762.056 7     -1567.092          47.000
G22  23070851.250 5 121238124.391 5     -2466.023          32.000
R02  19853677.422 5 105942994.258 5      1143.484          34.000    19853687.016 5  82400161.826 5       889.374          31.000
R17  19690465.969 6 105367648.906 6       -36.117          39.000    19690469.852 5  81952626.759 5       -28.088          31.000
R24  21130298.914 8 112993210.679 8     -3768.020          50.000    21130300.953 7  87883609.246 7     -2930.685          44.000
C19  22159660.352 7 115391172.953 7     -1341.371          47.000
C22  22534611.828 5 117343625.750 5      1250.680          34.000
E03  25921553.195 5 136218680.662 5     -2288.867          32.000    25921538.727 6 104375338.647 6     -1753.724          36.000
E07  25312317.766 8 133017166.144 8      1992.051          49.000    25312321.398 8 101922256.522 8      1526.353          51.000
E08  21413623.711 8 112529365.963 8      -262.445          51.000    21413623.383 8  86223805.707 8      -201.077          51.000
E13  23563113.266 8 123825012.042 8      -965.773          51.000    23563117.820 8  94878900.677 8      -739.999          51.000
E15  25990617.117 7 136581567.577 7     -3031.973          46.000    25990610.273 6 104653428.366 6     -2322.960          40.000
> 2020 05 10 22 31  0.0000000  0 16        .000000000000
G01  23695981.352 7 124523206.667 7     -3585.188          46.000    23695983.875 7  97031085.743 7     -2793.656          46.000
G03  21161601.289 4 111204964.802 4     -1677.711          29.000    21161602.906 5  86653225.126 5     -1307.307          31.000
G04  20251438.547 8 106422033.963 8        69.230          51.000    20251438.664 8  82926279.621 8        53.946          51.000
G09  21350075.625 8 112195497.930 8      2292.492          51.000    21350076.094 8  87425052.181 8      1786.358          51.000
G17  22758185.070 8 119595048.453 8     -2024.816          49.000    22758184.688 8  93190952.940 8     -1577.779          49.000
G19  22365285.008 6 117530370.882 6     -1235.816          36.000
R02  19847289.141 5 105908901.567 5      1130.863          30.000    19847294.297 4  82373638.692 4       879.560          27.000
R17  19690754.914 6 105369190.110 6       -65.098          40.000    19690755.367 4  81953825.490 4       -50.632          28.000
R24  21151486.070 8 113106502.045 8     -3783.266          51.000    21151487.109 7  87971724.725 7     -2942.540          46.000
C19  22167410.805 7 115431531.657 7     -1347.859          47.000
C22  22527431.711 6 117306235.557 6      1243.566          38.000
E03                                                                  25934618.117 5 104428005.453 5     -1755.846          35.000
E07  25300968.031 8 132957524.109 8      1985.512          49.000    25300972.414 8 101876556.822 8      1521.321          51.000
E08  21415150.078 8 112537387.654 8      -270.977          51.000    21415149.789 8  86229952.194 8      -207.655          51.000
E13  23568670.344 8 123854214.564 8      -979.762          51.000    23568674.477 8  94901276.637 8      -750.718          51.000
E15  26007942.594 7 136672621.633 7     -3037.160          46.000    26007939.477 7 104723197.050 7     -2327.148          42.000
> 2020 05 10 22 31 30.0000000  0 16        .000000000000
G01  23716471.531 7 124630881.243 7     -3593.402          46.000    23716471.883 7  97114987.958 7     -2800.054          45.000
G03  21171214.641 5 111255486.005 5     -1689.426          34.000    21171216.375 5  86692592.887 5     -1316.436          35.000
G04  20251096.758 8 106420237.849 8        50.191          51.000    20251097.016 8  82924880.074 8        39.110          51.000
G09  21337031.758 8 112126948.897 8      2277.094          51.000    21337032.305 8  87371637.374 8      1774.359          51.000
G17  22769789.750 8 119656031.841 8     -2041.113          48.000    22769789.250 8  93238472.462 8     -1590.478          48.000
G19  22372401.227 5 117567771.349 5     -1258.082          32.000
R02  19840971.297 4 105875245.078 4      1115.965          29.000    19840976.500 4  82347417.522 4       867.973          28.000
R17  19691206.625 6 105371598.647 6       -95.848          39.000    19691202.047 4  81955695.831 4       -74.548          29.000
R24  21172758.891 8 113220252.028 8     -3800.434          51.000    21172759.594 7  88060196.921 7     -2955.893          47.000
C19  22175200.484 7 115472094.462 7     -1356.645          47.000
C22  22520297.828 6 117269080.488 6      1233.516          36.000
E03                                                                  25947716.000 5 104480739.656 5     -1759.901          35.000
E07  25289657.617 8 132898087.313 8      1976.691          50.000    25289661.797 8 101831014.373 8      1514.626          50.000
E08  21416726.367 8 112545673.069 8      -281.719          51.000    21416726.117 8  86236300.767 8      -215.892          51.000
E13  23574309.008 8 123883844.709 8      -995.910          51.000    23574312.492 8  94923980.255 8      -763.115          51.000
E15  26025299.656 7 136763841.582 7     -3044.457          45.000    26025299.320 7 104793092.835 7     -2332.793          44.000
> 2020 05 10 22 32  0.0000000  0 17        .000000000000
G01  23736999.062 7 124738751.810 7     -3602.703          47.000    23736996.773 7  97199042.882 7     -2807.304          47.000
G03  21180884.195 6 111306293.086 6     -1702.383          37.000    21180885.008 6  86732182.849 6     -1326.532          36.000
G04  20250854.586 8 106418965.220 8        29.969          51.000    20250855.031 8  82923888.423 8        23.352          51.000
G09  21324065.602 8 112058809.705 8      2260.773          51.000    21324066.328 8  87318541.920 8      1761.642          51.000
G17  22781475.906 8 119717443.486 8     -2057.949          49.000    22781475.953 8  93286325.706 8     -1603.597          49.000
G19  22379635.977 5 117605784.382 5     -1280.973          35.000
G22  23113240.477 5 121460897.892 5     -2489.059          31.000
R02  19834735.531 5 105841942.649 5      1099.246          32.000    19834738.320 4  82321515.118 4       854.972          28.000
R17  19691821.031 6 105374883.093 6      -127.676          39.000    19691818.250 5  81958250.326 5       -99.306          32.000
R24  21194118.109 8 113334465.575 8     -3818.613          51.000    21194118.492 8  88149029.666 8     -2970.033          48.000
C19  22183030.789 7 115512869.279 7     -1366.348          47.000
C22  22513209.203 5 117232168.997 5      1222.648          33.000
E03                                                                  25960835.000 6 104533546.845 6     -1764.376          38.000
E07  25278388.164 8 132838864.474 8      1966.953          50.000    25278391.672 8 101785635.881 8      1507.071          50.000
E08  21418354.234 8 112554229.981 8      -293.438          51.000    21418354.242 8  86242857.371 8      -224.815          51.000
E13  23580030.641 8 123913910.668 8     -1013.145          51.000    23580033.391 8  94947017.800 8      -776.291          51.000
E15  26042690.172 7 136855234.434 7     -3053.023          45.000    26042691.562 7 104863121.128 7     -2339.300          45.000
> 2020 05 10 22 32 30.0000000  0 16        .000000000000
G01  23757553.258 7 124846762.764 7     -3602.871          47.000    23757551.117 7  97283207.206 7     -2807.435          47.000
G03  21190596.859 6 111357329.182 6     -1705.492          38.000    21190597.266 6  86771951.207 6     -1328.955          39.000
G04  20250701.547 8 106418161.520 8        18.734          50.000    20250701.883 8  82923262.169 8        14.598          50.000
G09  21311166.688 8 111991027.628 8      2253.156          50.000    21311167.875 8  87265724.719 8      1755.706          50.000
G17  22793232.844 8 119779226.866 8     -2066.023          48.000    22793233.688 8  93334468.554 8     -1609.891          48.000
G19  22386975.688 5 117644354.046 5     -1295.301          30.000
R02  19828560.883 5 105808984.826 5      1092.422          35.000    19828560.953 4  82295881.278 4       849.655          28.000
R17  19692587.766 6 105378989.182 6      -150.727          38.000    19692586.742 4  81961443.889 4      -117.232          29.000
R24  21215552.695 8 113449083.592 8     -3827.621          49.000    21215552.836 8  88238176.990 8     -2977.039          48.000
C19  22190891.453 7 115553802.339 7     -1367.375          47.000
C22  22506155.789 5 117195447.848 5      1220.691          35.000
E03                                                                  25973961.711 6 104586385.377 6     -1762.026          38.000
E07  25267149.430 8 132779802.086 8      1965.777          50.000    25267152.422 8 101740380.295 8      1506.269          50.000
E08  21420023.898 8 112563003.942 8      -296.359          51.000    21420023.859 8  86249580.277 8      -227.081          51.000
E13  23585824.922 8 123944358.328 8     -1021.539          51.000    23585826.727 8  94970347.824 8      -782.768          51.000
E15  26060103.320 7 136946744.970 7     -3052.531          44.000    26060106.109 7 104933239.597 7     -2339.030          46.000
> 2020 05 10 22 33  0.0000000  0 16        .000000000000
G01  23778131.352 7 124954900.079 7     -3602.516          47.000    23778131.117 7  97367470.018 7     -2807.155          47.000
G03  21200349.812 6 111408581.715 6     -1708.125          40.000    21200350.531 6  86811888.222 6     -1331.006          40.000
G04  20250635.414 8 106417813.903 8         8.172          51.000    20250635.461 8  82922991.287 8         6.368          51.000
G09  21298333.523 8 111923591.472 8      2246.227          51.000    21298335.086 8  87213177.069 8      1750.306          50.000
G17  22805057.898 8 119841367.607 8     -2073.176          49.000    22805058.438 8  93382889.888 8     -1615.462          48.000
G31  24233914.773 5 127350060.823 5     -2418.371          31.000    24233914.016 4  99233826.293 4     -1884.445          28.000
R02  19822448.922 5 105776357.954 5      1086.238          31.000    19822446.453 4  82270504.775 4       844.852          29.000
R17  19693505.320 6 105383904.277 6      -172.812          37.000    19693504.875 5  81965266.796 5      -134.410          32.000
R24  21237058.859 7 113564090.134 7     -3835.711          46.000    21237059.852 8  88327626.531 8     -2983.331          48.000
C19  22198780.023 7 115594880.904 7     -1367.629          47.000
C22  22499135.906 5 117158904.767 5      1219.266          33.000
E03                                                                  25987090.852 6 104639245.186 6     -1759.330          36.000
E07  25255938.945 8 132720888.022 8      1965.398          50.000    25255941.555 8 101695238.352 8      1505.997          50.000
E08  21421732.539 8 112571982.058 8      -298.668          51.000    21421732.383 8  86256459.610 8      -228.832          51.000
E13  23591689.523 8 123975175.242 8     -1029.309          51.000    23591690.234 8  94993960.778 8      -788.718          51.000
E15  26077536.367 7 137038359.567 7     -3051.441          45.000    26077540.188 7 105003437.799 7     -2338.111          47.000
> 2020 05 10 22 33 30.0000000  0 17        .000000000000
G01  23798745.227 7 125063226.933 7     -3614.621          46.000    23798746.695 7  97451880.562 7     -2816.588          46.000
G03  21210156.438 6 111460115.356 6     -1723.004          41.000    21210157.188 6  86852044.350 6     -1342.597          41.000
G04  20250668.406 8 106417986.677 8       -15.164          51.000    20250668.352 8  82923125.924 8       -11.816          51.000
G09  21285579.234 8 111856567.292 8      2226.508          51.000    21285580.891 8  87160950.475 8      1734.941          51.000
G17  22816962.664 8 119903927.788 8     -2093.195          49.000    22816962.430 8  93431638.069 8     -1631.061          49.000
G22  23155898.688 5 121685058.174 5     -2499.703          33.000
G31  24247792.117 5 127423006.787 5     -2439.688          31.000    24247790.305 5  99290657.106 5     -1901.055          31.000
R01  20950897.961 5 111994614.404 5     -2569.027          32.000
R17  19694585.961 5 105389695.234 5      -208.258          35.000    19694588.492 5  81969770.814 5      -161.981          33.000
R24  21258647.852 7 113679547.290 7     -3856.695          45.000    21258650.867 7  88417426.586 7     -2999.652          47.000
C19  22206708.594 7 115636168.952 7     -1380.434          46.000
C22  22492163.742 5 117122604.534 5      1205.789          33.000
E03                                                                  26000234.984 5 104692175.525 5     -1766.196          35.000
E07  25244768.734 8 132662187.631 8      1952.371          49.000    25244771.422 8 101650260.136 8      1496.030          50.000
E08  21423491.984 8 112581228.631 8      -313.395          51.000    21423492.148 8  86263544.663 8      -240.116          51.000
E13  23597636.562 8 124006426.099 8     -1049.645          51.000    23597636.484 8  95017906.232 8      -804.261          51.000
E15  26095001.594 7 137130141.810 7     -3062.910          45.000    26095006.156 7 105073764.470 7     -2346.899          47.000
> 2020 05 10 22 34  0.0000000  0 18        .000000000000
G01  23819386.734 7 125171701.529 7     -3617.707          44.000    23819389.742 7  97536406.248 7     -2818.992          44.000
G03  21220008.680 6 111511889.929 6     -1729.219          41.000    21220009.531 6  86892388.173 6     -1347.443          41.000
G04  20250792.648 8 106418639.136 8       -29.215          51.000    20250792.602 8  82923634.343 8       -22.765          51.000
G09  21272896.102 8 111789916.163 8      2215.992          51.000    21272897.562 8  87109014.571 8      1726.747          51.000
G17  22828939.195 8 119966865.200 8     -2103.832          49.000    22828938.453 8  93480680.214 8     -1639.350          49.000
G19  22409642.867 5 117763477.738 5     -1351.559          35.000
G22  23170173.281 5 121760055.353 5     -2501.676          32.000    23170169.266 4  94877968.543 4     -1949.358          27.000
G31  24261753.109 5 127496367.934 5     -2451.762          33.000    24261752.906 5  99347821.568 5     -1910.470          33.000
R02  19810430.016 5 105712230.000 5      1056.988          34.000    19810431.734 4  82220634.696 4       822.105          28.000
R17  19695824.164 5 105396321.292 5      -234.137          34.000    19695827.367 5  81974924.333 5      -182.112          33.000
R24  21280313.516 8 113795410.382 8     -3868.320          48.000    21280317.797 7  88507542.336 7     -3008.694          47.000
C19  22214669.648 7 115677626.399 7     -1384.168          44.000
C22  22485231.961 6 117086507.766 6      1200.438          37.000
E03                                                                  26013389.062 5 104745145.105 5     -1765.846          33.000
E07  25233631.531 8 132603661.205 8      1948.363          50.000    25233634.102 8 101605415.219 8      1492.929          49.000
E08  21425294.930 8 112590703.085 8      -319.180          51.000    21425295.398 8  86270804.329 8      -244.593          51.000
E13  23603658.344 8 124038070.691 8     -1060.973          51.000    23603657.914 8  95042153.369 8      -812.959          51.000
E15  26112491.125 7 137222050.338 7     -3065.352          45.000    26112495.961 7 105144187.892 7     -2348.704          47.000
> 2020 05 10 22 34 30.0000000  0 17        .000000000000
G01  23840069.820 7 125280395.474 7     -3625.961          43.000    23840074.094 7  97621102.830 7     -2825.424          43.000
G03  21229920.906 7 111563978.500 7     -1740.723          42.000    21229921.500 7  86932976.668 7     -1356.407          42.000
G04  20251022.008 8 106419844.037 8       -48.371          51.000    20251021.797 8  82924573.220 8       -37.692          51.000
G09  21260298.156 8 111723712.549 8      2200.301          51.000    21260299.305 8  87057427.367 8      1714.520          51.000
G17  22841000.922 8 120030250.684 8     -2119.305          49.000    22841000.273 8  93530071.496 8     -1651.406          49.000
G19  22417428.758 4 117804395.553 4     -1372.840          28.000
G22  23184493.320 5 121835334.072 5     -2510.215          32.000
G31  24275808.883 5 127570228.912 5     -2469.348          34.000    24275807.930 5  99405375.544 5     -1924.170          30.000
R02  19804539.914 6 105680788.234 6      1041.469          37.000    19804540.266 4  82196180.046 4       810.037          29.000
R17  19697231.695 5 105403857.148 5      -265.688          35.000    19697233.727 5  81980785.626 5      -206.649          31.000
R24  21302069.672 8 113911750.481 8     -3885.000          50.000    21302073.891 7  88598029.049 7     -3021.667          45.000
C19  22222677.117 7 115719325.586 7     -1393.031          44.000
C22  22478353.320 6 117050687.137 6      1190.578          37.000
E07  25222541.414 8 132545382.385 8      1939.422          49.000    25222543.188 8 101560760.048 8      1486.071          48.000
E08  21427155.219 8 112600478.193 8      -329.957          51.000    21427155.711 8  86278294.337 8      -252.791          51.000
E13  23609768.797 8 124070182.065 8     -1077.223          51.000    23609768.492 8  95066758.168 8      -825.383          51.000
E15  26130018.594 7 137314157.136 7     -3072.512          45.000    26130023.266 7 105214763.248 7     -2354.325          46.000
> 2020 05 10 22 35  0.0000000  0 17        .000000000000
G01  23860773.984 7 125389197.653 7     -3628.832          44.000    23860778.703 7  97705883.755 7     -2827.658          44.000
G03  21239871.930 7 111616271.429 7     -1746.598          43.000    21239871.922 7  86973724.423 7     -1360.988          44.000
G04  20251335.516 8 106421491.339 8       -62.309          51.000    20251335.234 8  82925856.836 8       -48.552          51.000
G09  21247764.781 8 111657848.246 8      2189.656          51.000    21247765.695 8  87006104.548 8      1706.226          51.000
G17  22853126.703 8 120093972.361 8     -2129.785          49.000    22853126.352 8  93579724.727 8     -1659.576          49.000
G19  22425314.961 5 117845821.441 5     -1389.613          31.000
G31  24289938.805 5 127644477.983 5     -2481.707          33.000    24289937.055 5  99463231.917 5     -1933.801          31.000
R02  19798706.867 5 105649665.678 5      1032.785          32.000    19798711.383 4  82171984.725 4       803.280          28.000
R17  19698788.742 6 105412191.731 6      -291.070          39.000    19698790.289 5  81987268.104 5      -226.388          33.000
R24  21323894.133 8 114028452.125 8     -3896.160          50.000    21323896.922 7  88688796.942 7     -3030.347          44.000
C19  22230710.500 7 115761157.720 7     -1396.820          44.000
C22  22471506.727 6 117015034.511 6      1186.016          36.000
E03  26039743.219 5 136839775.008 5     -2309.254          33.000
E07  25211477.633 8 132487242.150 8      1935.508          49.000    25211478.562 8 101516211.090 8      1483.060          48.000
E08  21429051.547 8 112610443.955 8      -335.516          51.000    21429052.180 8  86285930.444 8      -257.059          51.000
E13  23615947.078 8 124102650.638 8     -1088.340          51.000    23615947.148 8  95091636.681 8      -833.947          51.000
E15  26147562.766 7 137406351.506 7     -3074.621          44.000    26147567.250 7 105285405.707 7     -2355.935          46.000
> 2020 05 10 22 35 30.0000000  0 17        .000000000000
G01  23881523.016 7 125498234.330 7     -3635.066          44.000    23881527.961 7  97790847.405 7     -2832.519          44.000
G03  21249886.125 7 111668896.502 7     -1756.527          43.000    21249886.367 7  87014730.991 7     -1368.723          43.000
G04  20251757.391 8 106423708.438 8       -80.086          51.000    20251757.227 8  82927584.455 8       -62.405          51.000
G09  21235320.492 8 111592452.204 8      2175.281          51.000    21235321.312 8  86955146.604 8      1695.024          51.000
G17  22865340.516 8 120158156.169 8     -2143.879          49.000    22865340.227 8  93629738.052 8     -1670.558          49.000
G22  23213198.773 5 121986176.861 5     -2518.605          33.000
R01  21008858.297 5 112304360.448 5     -2591.809          34.000
R02  19792956.953 5 105618992.472 5      1017.406          33.000    19792968.742 4  82148127.721 4       791.313          27.000
R17  19700519.570 6 105421455.357 6      -320.848          38.000    19700522.812 6  81994473.189 6      -249.548          36.000
R24  21345809.984 8 114145642.032 8     -3911.039          49.000    21345811.203 7  88779944.583 7     -3041.919          43.000
C19  22238794.070 7 115803249.217 7     -1404.012          44.000
C22  22464716.094 5 116979677.014 5      1176.492          33.000
E03  26052950.320 5 136909175.849 5     -2312.578          34.000
E07  25200464.445 8 132429368.763 8      1927.906          48.000    25200464.844 8 101471866.600 8      1477.188          48.000
E08  21431008.359 8 112620727.841 8      -344.844          51.000    21431009.398 8  86293810.324 8      -264.294          51.000
E13  23622217.461 8 124135604.164 8     -1103.309          51.000    23622218.203 8  95116886.798 8      -845.446          51.000
E15  26165147.703 7 137498760.107 7     -3080.605          43.000    26165152.406 7 105356212.289 7     -2360.512          46.000
> 2020 05 10 22 36  0.0000000  0 15        .000000000000
G01  23902299.445 7 125607414.905 7     -3639.930          43.000    23902304.508 7  97875923.148 7     -2836.309          43.000
G03  21259946.609 7 111721764.642 7     -1764.375          43.000    21259947.555 7  87055926.907 7     -1374.841          43.000
G04  20252270.625 8 106426405.755 8       -96.047          51.000    20252270.539 8  82929686.262 8       -74.842          51.000
G09  21222948.508 8 111527436.769 8      2162.547          51.000    21222949.391 8  86904485.235 8      1685.101          51.000
G17  22877624.812 8 120222710.774 8     -2156.242          49.000    22877624.289 8  93680040.320 8     -1680.189          50.000
G22  23227607.922 4 122061903.030 4     -2523.816          29.000
R02  19787274.953 6 105588677.578 6      1006.129          36.000    19787283.031 4  82124555.448 4       782.545          25.000
R17  19702407.922 6 105431557.919 6      -348.719          40.000    19702412.242 6  82002330.699 6      -271.226          36.000
R24  21367798.867 8 114263225.703 8     -3924.062          49.000    21367799.914 7  88871398.510 7     -3052.049          45.000
C19  22246910.562 7 115845511.654 7     -1409.820          45.000
E03  26066168.734 5 136978636.318 5     -2314.160          34.000
E07  25189485.188 8 132371673.752 8      1921.883          48.000    25189485.438 8 101427658.767 8      1472.641          48.000
E08  21433008.930 8 112631240.403 8      -352.391          51.000    21433010.125 8  86301865.409 8      -270.088          51.000
E13  23628563.391 8 124168953.497 8     -1116.500          51.000    23628564.891 8  95142440.198 8      -855.473          51.000
E15  26182756.719 7 137591292.711 7     -3084.750          42.000    26182761.461 7 105427113.877 7     -2363.490          45.000
> 2020 05 10 22 36 30.0000000  0 16        .000000000000
G01  23923101.602 7 125716729.055 7     -3644.598          43.000    23923106.406 7  97961102.973 7     -2839.946          43.000
G03  21270051.781 7 111774867.012 7     -1772.684          43.000    21270052.469 7  87097305.394 7     -1381.309          44.000
G04  20252873.492 8 106429574.043 8      -112.152          51.000    20252873.430 8  82932155.059 8       -87.391          51.000
G09  21210647.352 8 111462794.357 8      2149.945          51.000    21210648.625 8  86854114.530 8      1675.282          51.000
G17  22889977.477 7 120287625.009 7     -2168.473          47.000    22889976.734 8  93730622.856 8     -1689.719          48.000
G31  24332852.078 5 127870000.522 5     -2525.113          30.000
R01  21038001.266 4 112460172.328 4     -2602.504          29.000
R02  19781659.266 5 105558712.350 5       994.426          33.000    19781667.586 4  82101249.200 4       773.445          28.000
R17  19704451.961 7 105442490.355 7      -376.926          42.000    19704456.180 5  82010833.718 5      -293.164          35.000
R24  21389858.586 8 114381190.614 8     -3937.121          48.000    21389861.148 7  88963149.001 7     -3062.202          47.000
C19  22255057.945 7 115887936.187 7     -1415.609          45.000
C22  22451249.648 5 116909552.189 5      1162.930          34.000
E07  25178538.438 8 132314148.805 8      1915.949          48.000    25178538.797 8 101383581.229 8      1468.002          48.000
E08  21435051.188 8 112641972.448 8      -360.148          51.000    21435052.148 8  86310088.676 8      -275.970          51.000
E13  23634983.109 8 124202689.806 8     -1129.668          51.000    23634985.453 8  95168290.117 8      -865.611          51.000
E15  26200387.758 6 137683939.394 6     -3088.688          41.000    26200392.266 7 105498102.887 7     -2366.797          43.000
> 2020 05 10 22 37  0.0000000  0 15        .000000000000
G01  23943927.539 7 125826167.095 7     -3650.309          44.000    23943931.812 7  98046379.374 7     -2844.396          43.000
G03  21280199.820 7 111828195.571 7     -1781.656          42.000    21280200.398 7  87138860.150 7     -1388.304          42.000
G04  20253564.328 8 106433204.785 8      -128.824          51.000    20253564.242 8  82934984.210 8      -100.383          51.000
G09  21198415.742 8 111398518.212 8      2136.207          51.000    21198417.320 8  86804029.248 8      1664.580          51.000
G17  22902396.531 8 120352888.495 8     -2181.457          48.000    22902395.844 8  93781477.503 8     -1699.837          48.000
R02  19776106.992 5 105529088.848 5       981.762          32.000
R17  19706648.641 6 105454244.813 6      -405.711          41.000    19706652.859 5  82019976.051 5      -315.556          35.000
R24  21411987.141 7 114499525.011 7     -3950.613          47.000    21411991.500 7  89055186.887 7     -3072.696          47.000
C19  22263234.883 7 115930514.654 7     -1421.871          45.000
C22  22444575.852 5 116874791.958 5      1155.648          34.000
E03  26092627.680 5 137117683.597 5     -2318.617          32.000
E07  25167622.586 7 132256786.416 7      1909.168          47.000    25167623.070 8 101339628.237 8      1462.860          48.000
E08  21437133.445 8 112652915.557 8      -368.441          51.000    21437134.078 8  86318473.680 8      -282.321          51.000
E13  23641475.070 8 124236804.996 8     -1143.645          51.000    23641477.945 8  95194430.318 8      -876.266          51.000
E15  26218039.391 6 137776691.065 6     -3093.656          41.000    26218043.594 7 105569172.337 7     -2370.401          42.000
> 2020 05 10 22 37 30.0000000  0 16        .000000000000
G01  23964782.273 7 125935757.150 7     -3652.520          42.000    23964785.883 7  98131774.210 7     -2846.122          42.000
G03  21290396.359 6 111881779.969 6     -1787.309          41.000    21290396.930 6  87180614.197 6     -1392.708          40.000
G04  20254348.703 8 106437327.119 8      -142.477          51.000    20254348.578 8  82938196.435 8      -111.021          51.000
G09  21186259.781 8 111334639.196 8      2125.750          51.000    21186261.188 8  86754253.408 8      1656.429          51.000
G17  22914887.633 8 120418528.586 8     -2191.254          50.000    22914886.719 8  93832625.638 8     -1707.471          50.000
G19  22466415.188 5 118061811.767 5     -1483.809          33.000
G22  23270956.406 5 122289677.398 5     -2535.504          31.000
R02  19770626.180 5 105499836.687 5       972.133          31.000    19770633.328 4  82055437.846 4       756.109          28.000
R17  19709004.516 6 105466851.359 6      -431.223          41.000    19709008.211 6  82029781.152 6      -335.395          36.000
R24  21434189.781 8 114618255.177 8     -3961.234          48.000    21434195.469 7  89147532.653 7     -3080.960          47.000
C19  22271447.023 7 115973276.264 7     -1425.379          45.000
C22  22437945.391 6 116840252.870 6      1150.996          37.000
E07  25156743.352 7 132199616.747 7      1905.398          46.000    25156744.305 8 101295822.932 8      1459.984          48.000
E08  21439261.609 8 112664099.055 8      -373.730          51.000    21439262.008 8  86327042.850 8      -286.359          51.000
E13  23648045.102 8 124271328.580 8     -1154.578          51.000    23648047.758 8  95220883.444 8      -884.680          51.000
E15  26235716.578 6 137869576.116 6     -3095.223          41.000    26235720.273 6 105640344.021 6     -2371.781          41.000
> 2020 05 10 22 38  0.0000000  0 13        .000000000000
G01  23985690.492 6 126045630.748 6     -3653.402          38.000    23985693.883 6  98217389.986 6     -2846.807          38.000
G03  21300667.305 7 111935753.004 7     -1792.148          42.000    21300667.672 7  87222671.143 7     -1396.479          42.000
G04  20255251.797 8 106442073.402 8      -154.898          51.000    20255251.664 8  82941894.842 8      -120.700          51.000
G09  21174205.094 8 111271291.468 8      2116.336          51.000    21174205.906 8  86704891.556 8      1649.093          51.000
G17  22927475.359 8 120484675.914 8     -2199.645          51.000    22927474.227 8  93884168.990 8     -1714.009          51.000
R17  19711544.625 7 105480445.607 7      -455.590          42.000    19711548.078 6  82040354.377 6      -354.348          36.000
R24  21456492.000 8 114737512.769 8     -3970.066          51.000    21456497.297 7  89240288.582 7     -3087.829          47.000
C19  22279719.492 7 116016352.544 7     -1427.605          45.000
C22  22431381.477 5 116806067.172 5      1147.090          34.000
E07  25145926.055 7 132142773.174 7      1903.137          45.000    25145928.070 8 101252267.499 8      1458.161          49.000
E08  21441460.711 8 112675655.427 8      -377.672          51.000    21441461.234 8  86335897.739 8      -289.394          51.000
E13  23654718.289 8 124306393.348 8     -1164.062          51.000    23654720.383 8  95247751.261 8      -891.956          51.000
E15  26253443.523 6 137962726.308 6     -3095.691          40.000    26253447.352 6 105711718.841 6     -2371.990          41.000
> 2020 05 10 22 38 30.0000000  0 16        .000000000000
G01  24006585.641 5 126155441.054 5     -3667.125          35.000    24006590.266 5  98302956.555 5     -2857.494          35.000
G03  21310946.398 6 111989769.778 6     -1808.973          40.000    21310947.320 6  87264762.181 6     -1409.586          40.000
G04  20256207.953 8 106447098.247 8      -179.875          51.000    20256207.953 8  82945810.310 8      -140.162          51.000
G09  21162186.312 8 111208131.374 8      2094.508          51.000    21162186.633 8  86655675.938 8      1632.084          51.000
G17  22940093.562 8 120550983.731 8     -2220.480          51.000    22940092.148 8  93935837.399 8     -1730.245          50.000
G22  23300011.281 6 122442362.551 6     -2550.902          36.000
R02  19759878.945 5 105442463.260 5       942.945          31.000
R17  19714203.586 7 105494676.259 7      -492.793          42.000    19714206.094 6  82051422.686 6      -383.283          36.000
R24  21478827.078 8 114856943.210 8     -3991.746          51.000    21478831.344 7  89333178.910 7     -3104.694          45.000
C19  22287986.711 7 116059401.575 7     -1442.066          45.000
C22  22424816.484 5 116771893.389 5      1131.098          32.000
E03  26132408.664 5 137326739.702 5     -2326.777          35.000
E07  25135105.641 7 132085911.374 7      1887.836          47.000    25135108.625 8 101208698.086 8      1446.554          49.000
E08  21443665.016 8 112687239.424 8      -394.316          51.000    21443665.883 8  86344773.790 8      -302.171          51.000
E13  23661428.461 8 124341654.357 8     -1186.320          51.000    23661430.305 8  95274769.424 8      -909.041          51.000
E15  26271154.164 6 138055795.562 6     -3108.406          41.000    26271158.609 6 105783031.655 6     -2381.987          40.000
> 2020 05 10 22 39  0.0000000  0 16        .000000000000
G01  24027530.805 5 126265509.968 5     -3665.375          34.000    24027536.430 5  98388724.644 5     -2856.133          33.000
G03  21321294.648 5 112044153.609 5     -1811.859          33.000    21321295.062 5  87307139.293 5     -1411.835          34.000
G04  20257278.516 8 106452724.345 8      -190.078          51.000    20257278.758 8  82950194.303 8      -148.113          51.000
G09  21150264.977 8 111145483.430 8      2087.020          51.000    21150265.250 8  86606859.400 8      1626.249          51.000
G17  22952803.078 8 120617772.902 8     -2226.902          49.000    22952801.609 8  93987880.889 8     -1735.249          49.000
G22  23314582.789 5 122518951.144 5     -2549.871          34.000
R02  19754614.109 5 105414357.890 5       936.402          33.000
R17  19717042.539 6 105509872.429 6      -514.988          40.000    19717044.711 6  82063241.925 6      -400.546          36.000
R24  21501255.305 8 114976871.798 8     -3998.355          50.000    21501258.203 7  89426456.673 7     -3109.835          43.000
C19  22296310.008 7 116102743.598 7     -1442.398          45.000
C22  22418316.102 5 116738052.003 5      1129.777          33.000
E03  26145695.312 6 137396554.776 6     -2322.688          37.000    26145693.906 6 105277881.749 6     -1779.593          36.000
E07  25124343.789 8 132029355.094 8      1887.523          48.000    25124347.039 8 101165362.784 8      1446.290          49.000
E08  21445936.203 8 112699173.933 8      -396.242          51.000    21445937.086 8  86353918.410 8      -303.560          51.000
E13  23668237.250 8 124377434.749 8     -1193.887          51.000    23668239.070 8  95302185.549 8      -914.796          51.000
E15  26288910.297 7 138149106.081 7     -3107.086          43.000    26288915.219 6 105854529.339 6     -2380.664          40.000
> 2020 05 10 22 39 30.0000000  0 16        .000000000000
G01  24048495.805 6 126375673.966 6     -3676.332          36.000    24048500.828 6  98474566.698 6     -2864.674          37.000
G03  21331681.016 5 112098741.257 5     -1826.426          33.000    21331682.672 5  87349662.960 5     -1423.183          34.000
G04  20258432.484 8 106458788.854 8      -212.449          51.000    20258432.477 8  82954919.908 8      -165.545          50.000
G09  21138410.242 8 111083186.545 8      2067.750          51.000    21138410.789 8  86558316.369 8      1611.234          51.000
G17  22965572.602 7 120684878.578 7     -2245.184          47.000    22965571.281 7  94040171.040 7     -1749.494          47.000
G22  23329175.656 5 122595641.806 5     -2561.262          34.000
R02  19749410.453 6 105386571.895 6       917.770          37.000    19749423.656 4  81967420.826 4       713.821          29.000
R17  19720031.508 6 105525868.893 6      -549.555          40.000    19720033.727 6  82075683.665 6      -427.428          36.000
R24  21523744.344 7 115097129.446 7     -4017.133          47.000    21523745.953 7  89519990.371 7     -3124.437          42.000
C19  22304658.375 7 116146217.552 7     -1454.258          44.000
C22  22411850.742 5 116704382.928 5      1116.574          35.000
E03  26158984.477 5 137466382.999 5     -2331.086          34.000    26158982.469 6 105331386.574 6     -1785.986          37.000
E07  25113609.234 8 131972942.516 8      1875.117          49.000    25113612.156 8 101122137.608 8      1436.853          48.000
E08  21448243.094 8 112711296.273 8      -410.152          51.000    21448243.750 8  86363206.957 8      -314.237          51.000
E13  23675114.023 8 124413572.006 8     -1213.492          51.000    23675115.758 8  95329875.138 8      -929.741          51.000
E15  26306680.820 7 138242494.366 7     -3117.270          44.000    26306685.828 6 105926086.633 6     -2388.452          39.000
> 2020 05 10 22 40  0.0000000  0 15        .000000000000
G01  24069515.500 6 126486126.595 6     -3680.707          39.000    24069519.930 6  98560633.646 6     -2868.083          39.000
G03  21342144.414 6 112153729.728 6     -1833.609          39.000    21342146.414 6  87392511.281 6     -1428.780          40.000
G04  20259706.969 8 106465486.532 8      -227.660          51.000    20259706.680 8  82960138.884 8      -177.398          50.000
G09  21126659.461 8 111021437.266 8      2055.301          51.000    21126660.711 8  86510200.043 8      1601.536          51.000
G17  22978439.070 7 120752493.850 7     -2256.332          47.000    22978438.148 8  94092858.271 8     -1758.181          48.000
R02  19744298.883 5 105359361.284 5       906.898          30.000    19744314.328 5  81946211.796 5       705.356          30.000
R17  19723206.891 6 105542864.402 6      -576.781          41.000    19723209.344 6  82088902.429 6      -448.605          36.000
R24  21546330.703 7 115217911.675 7     -4028.543          44.000    21546331.961 6  89613932.052 6     -3133.311          41.000
C19  22313069.328 7 116190016.945 7     -1459.465          44.000
C22  22405455.961 6 116671080.043 6      1110.129          37.000
E03                                                                  26172310.633 6 105385048.529 6     -1786.543          36.000
E07  25102939.086 8 131916869.492 8      1869.574          49.000    25102940.984 7 101079172.605 7      1432.516          47.000
E08  21450622.609 8 112723801.405 8      -417.094          51.000    21450623.242 8  86372788.811 8      -319.609          51.000
E13  23682095.805 8 124450261.340 8     -1226.023          51.000    23682097.477 8  95357987.762 8      -939.456          51.000
E15  26324502.922 7 138336154.589 7     -3120.379          44.000    26324508.352 6 105997852.311 6     -2390.928          38.000
> 2020 05 10 22 40 30.0000000  0 15        .000000000000
G01  24090531.156 6 126596560.119 6     -3684.254          41.000    24090535.023 6  98646685.718 6     -2870.847          41.000
G03  21352627.797 6 112208812.142 6     -1841.043          41.000    21352629.336 6  87435432.765 6     -1434.576          41.000
G04  20261043.688 8 106472510.765 8      -242.820          51.000    20261043.469 8  82965612.326 8      -189.208          50.000
G09  21114954.906 8 110959930.599 8      2042.754          51.000    21114956.812 8  86462272.806 8      1591.756          51.000
G17  22991344.094 8 120820310.336 8     -2267.191          49.000    22991343.602 8  94145702.286 8     -1766.643          50.000
R02  19739226.109 5 105332300.080 5       894.773          35.000    19739237.008 4  81925164.192 4       695.932          26.000
R17  19726511.820 7 105560547.144 7      -604.352          42.000    19726514.656 5  82102655.660 5      -470.051          35.000
R24  21568954.969 6 115338902.945 6     -4040.117          41.000    21568958.000 6  89708036.393 6     -3142.310          41.000
C19  22321484.680 7 116233838.224 7     -1464.355          44.000
C22  22399073.414 6 116637840.330 6      1103.980          37.000
E03                                                                  26185618.938 5 105438632.769 5     -1787.441          35.000
E07  25092275.219 7 131860830.373 7      1864.082          47.000    25092275.633 7 101036233.561 7      1428.320          46.000
E08  21453016.719 8 112736382.853 8      -423.996          51.000    21453017.383 8  86382429.145 8      -324.892          51.000
E13  23689124.297 8 124487196.531 8     -1238.609          51.000    23689126.086 8  95386288.757 8      -949.058          51.000
E15  26342318.383 7 138429779.512 7     -3123.488          44.000    26342324.633 6 106069590.885 6     -2393.268          37.000
> 2020 05 10 22 41  0.0000000  0 15        .000000000000
G01  24111576.680 6 126707151.476 6     -3688.070          40.000    24111579.734 6  98732860.825 6     -2873.821          40.000
G03  21363162.758 6 112264167.018 6     -1848.477          41.000    21363164.242 6  87478566.480 6     -1440.371          41.000
G04  20262476.297 8 106480039.427 8      -258.512          51.000    20262475.805 8  82971478.854 8      -201.438          49.000
G09  21103330.852 8 110898846.261 8      2029.949          51.000    21103332.945 8  86414674.659 8      1581.779          51.000
G17  23004321.203 8 120888504.329 8     -2278.547          51.000    23004320.883 8  94198840.466 8     -1775.491          51.000
R02  19734228.891 5 105305626.725 5       883.375          33.000
R17  19729979.094 6 105579098.640 6      -631.875          41.000    19729980.453 5  82117084.561 5      -491.461          34.000
R24  21591651.500 6 115460281.213 6     -4051.316          41.000    21591656.977 6  89802441.770 6     -3151.021          40.000
C19  22329938.352 7 116277858.163 7     -1469.770          45.000
C22  22392737.406 6 116604841.219 6      1097.059          38.000
E03                                                                  26198941.688 5 105492280.668 5     -1788.509          30.000
E07  25081651.852 7 131805004.228 7      1858.242          47.000    25081650.781 7 100993457.684 7      1423.842          46.000
E08  21455459.266 8 112749218.767 8      -431.273          51.000    21455459.922 8  86392264.460 8      -330.417          51.000
E13  23696233.578 8 124524555.892 8     -1251.504          51.000    23696235.422 8  95414914.762 8      -958.966          51.000
E15  26360161.023 7 138523546.482 7     -3126.945          43.000    26360167.508 5 106141438.294 5     -2396.049          32.000
> 2020 05 10 22 41 30.0000000  0 14        .000000000000
G01  24132639.086 6 126817835.760 6     -3690.082          38.000    24132642.148 6  98819108.324 6     -2875.389          37.000
G03  21373736.719 6 112319730.979 6     -1854.738          40.000    21373737.531 6  87521863.071 6     -1445.251          40.000
G04  20263992.805 8 106488008.503 8      -272.055          51.000    20263991.711 8  82977688.522 8      -211.991          49.000
G09  21091775.320 8 110838122.079 8      2018.914          51.000    21091777.477 8  86367357.125 8      1573.180          51.000
G17  23017357.422 8 120957009.825 8     -2287.859          51.000    23017357.102 8  94252221.355 8     -1782.751          50.000
G22  23387869.812 5 122904072.957 5     -2576.008          34.000
R17  19733596.648 6 105598454.042 6      -657.707          41.000    19733597.242 5  82132138.768 5      -511.550          35.000
R24  21614409.609 7 115581978.660 7     -4061.098          42.000    21614414.352 6  89897095.297 6     -3158.635          38.000
C19  22338418.477 7 116322013.864 7     -1473.328          45.000
C22  22386434.547 6 116572020.361 6      1091.969          38.000
E07  25071057.133 7 131749328.117 7      1854.215          47.000    25071055.734 7 100950796.799 7      1420.639          45.000
E08  21457937.797 8 112762245.366 8      -436.656          50.000    21457938.578 8  86402245.892 8      -334.563          51.000
E13  23703411.492 8 124562275.908 8     -1262.633          51.000    23703413.336 8  95443817.108 8      -967.460          51.000
E15  26378018.359 7 138617390.988 7     -3128.664          43.000
> 2020 05 10 22 42  0.0000000  0 15        .000000000000
G01  24153752.484 6 126928789.845 6     -3698.086          38.000    24153755.617 6  98905566.036 6     -2881.625          38.000
G03  21384384.180 7 112375682.209 7     -1866.676          42.000    21384384.500 7  87565461.470 7     -1454.550          42.000
G04  20265626.852 8 106496595.719 8      -291.547          51.000    20265626.086 8  82984379.875 8      -227.179          51.000
G09  21080322.516 8 110777937.569 8      2002.105          51.000    21080324.367 8  86320460.094 8      1560.082          51.000
G17  23030486.375 8 121026002.937 8     -2302.910          49.000    23030485.922 8  94305982.229 8     -1794.475          49.000
R01  21200616.391 5 113329435.938 5     -2662.891          32.000
R02  19724447.336 5 105253451.708 5       858.418          32.000    19724458.195 4  81863793.426 4       667.655          29.000
R17  19737397.188 6 105618794.813 6      -689.520          39.000    19737399.383 6  82147959.418 6      -536.293          37.000
R24  21637261.273 6 115704172.683 6     -4076.324          40.000    21637263.461 6  89992135.022 6     -3170.477          37.000
C19  22346958.500 7 116366481.889 7     -1482.574          45.000
C22  22380200.289 6 116539554.760 6      1081.035          38.000
E07  25060524.984 7 131693980.921 7      1844.434          47.000    25060523.320 7 100908387.897 7      1413.267          45.000
E08  21460486.477 8 112775640.616 8      -447.715          50.000    21460487.273 8  86412509.792 8      -342.991          51.000
E13  23710691.797 8 124600534.639 8     -1279.297          51.000    23710693.773 8  95473132.246 8      -980.228          51.000
E15  26395924.234 6 138711490.193 6     -3135.738          41.000
> 2020 05 10 22 42 30.0000000  0 17        .000000000000
G01  24174873.141 6 127039781.865 6     -3700.602          38.000    24174876.039 6  98992053.355 6     -2883.586          38.000
G03  21395061.102 6 112431790.561 6     -1873.145          41.000    21395060.930 6  87609182.280 6     -1459.593          40.000
G04  20267334.680 8 106505570.254 8      -305.867          51.000    20267334.359 8  82991373.023 8      -238.338          51.000
G09  21068929.164 8 110718063.634 8      1990.281          51.000    21068930.516 8  86273805.080 8      1550.869          51.000
G17  23043663.703 8 121095251.336 8     -2312.828          48.000    23043663.477 8  94359942.043 8     -1802.204          48.000
G19  22556602.039 5 118535744.710 5     -1669.090          31.000
G22  23417387.156 5 123059154.960 5     -2588.293          34.000
R01  21215576.195 5 113409396.871 5     -2666.641          34.000
R17  19741338.820 6 105639886.079 6      -715.809          41.000    19741341.617 6  82164363.800 6      -556.737          37.000
R24  21660160.367 6 115826625.352 6     -4086.344          38.000    21660162.633 6  90087375.987 6     -3178.267          39.000
C19  22355514.250 7 116411034.021 7     -1486.785          45.000
C22  22373989.719 5 116507216.860 5      1075.430          35.000
E03  26238967.789 5 137886697.099 5     -2338.676          35.000
E07  25050011.586 7 131638732.899 7      1839.664          46.000    25050010.266 7 100866055.012 7      1409.667          45.000
E08  21463061.781 8 112789173.951 8      -453.703          51.000    21463062.375 8  86422879.485 8      -347.637          51.000
E13  23718030.539 8 124639101.719 8     -1291.035          51.000    23718032.711 8  95502683.649 8      -989.223          51.000
E15  26413834.508 6 138805612.756 6     -3138.375          39.000
> 2020 05 10 22 43  0.0000000  0 16        .000000000000
G01  24196006.367 6 127150842.216 6     -3715.543          38.000    24196010.336 6  99078593.888 6     -2895.228          39.000
G03  21405773.953 7 112488087.862 7     -1891.832          42.000    21405774.398 7  87653050.304 7     -1474.155          42.000
G04  20269122.250 8 106514963.346 8      -332.512          51.000    20269121.859 8  82998692.325 8      -259.100          51.000
G09  21057601.219 8 110658533.238 8      1966.211          51.000    21057602.312 8  86227417.800 8      1532.115          51.000
G17  23056895.359 8 121164784.303 8     -2334.867          49.000    23056895.305 8  94414123.581 8     -1819.374          49.000
G19  22566171.992 5 118586066.214 5     -1697.082          34.000
R01  21230550.820 5 113489449.691 5     -2682.418          34.000    21230549.797 4  88269575.653 4     -2086.325          25.000
R17  19745426.406 6 105661759.922 6      -754.727          40.000    19745430.219 6  82181376.809 6      -587.007          39.000
R24  21683113.445 6 115949365.523 6     -4108.605          40.000    21683117.484 7  90182840.578 7     -3195.582          42.000
C19  22364092.141 7 116455701.687 7     -1503.094          45.000
C22  22367808.617 5 116475038.594 5      1057.543          33.000
E03  26252330.461 5 137956861.068 5     -2351.098          35.000    26252333.602 5 105707258.031 5     -1801.224          35.000
E07  25039523.188 7 131583616.357 7      1822.766          46.000    25039522.273 7 100823822.887 7      1396.706          46.000
E08  21465669.469 8 112802876.875 8      -471.887          51.000    21465670.055 8  86433379.129 8      -361.579          51.000
E13  23725433.789 8 124678008.803 8     -1314.980          51.000    23725436.172 8  95532495.569 8     -1007.523          51.000
E15  26431755.305 6 138899789.279 6     -3152.176          37.000    26431765.695 5 106429762.966 5     -2415.372          35.000
> 2020 05 10 22 43 30.0000000  0 15        .000000000000
G01  24217197.195 6 127262205.378 6     -3710.879          38.000    24217202.992 6  99165370.395 6     -2891.594          37.000
G03  21416567.461 6 112544810.253 6     -1891.738          40.000    21416568.867 6  87697249.618 6     -1474.079          40.000
G04  20271034.203 8 106525010.504 8      -339.629          51.000    20271034.062 8  83006521.280 8      -264.646          51.000
G09  21046383.539 8 110599583.705 8      1961.566          51.000    21046384.781 8  86181483.141 8      1528.496          51.000
G17  23070225.836 8 121234835.701 8     -2337.473          50.000    23070225.258 8  94468709.092 8     -1821.410          50.000
G19  22575878.805 6 118637101.735 6     -1706.828          36.000
R17  19749705.078 6 105684656.446 6      -774.301          39.000    19749708.852 6  82199185.220 6      -602.234          37.000
R24  21706165.805 7 116072629.887 7     -4111.344          43.000    21706170.336 7  90278712.851 7     -3197.712          43.000
C19  22372737.203 7 116500718.799 7     -1500.270          46.000
C22  22361704.508 6 116443254.268 6      1059.184          36.000
E03                                                                  26265729.969 5 105761194.209 5     -1795.717          34.000
E07  25029104.859 7 131528867.956 7      1825.113          45.000    25029104.953 7 100781872.870 7      1398.293          46.000
E08  21468354.242 8 112816985.146 8      -470.871          51.000    21468354.992 8  86444189.373 8      -360.803          51.000
E13  23732946.594 8 124717491.771 8     -1319.500          51.000    23732949.227 8  95562748.750 8     -1011.048          51.000
E15  26449731.297 5 138994275.858 5     -3147.508          35.000    26449740.797 6 106502145.677 6     -2411.670          37.000
> 2020 05 10 22 44  0.0000000  0 15        .000000000000
G01  24238387.172 6 127373562.286 6     -3710.754          37.000    24238394.227 6  99252142.016 6     -2891.497          36.000
G03  21427382.773 6 112601650.212 6     -1895.699          36.000    21427384.547 5  87741540.477 5     -1477.171          35.000
G04  20273011.992 8 106535403.504 8      -351.133          51.000    20273011.977 8  83014619.739 8      -273.610          51.000
G09  21035217.789 8 110540908.601 8      1952.406          51.000    21035219.195 8  86135762.289 8      1521.356          51.000
G17  23083595.969 8 121305095.728 8     -2344.352          50.000    23083594.625 8  94523457.161 8     -1826.767          50.000
G19  22585677.242 6 118688514.169 6     -1720.707          36.000
R17  19754117.234 6 105708261.904 6      -797.684          41.000    19754120.695 6  82217544.962 6      -620.421          39.000
R24  21729257.094 7 116196101.640 7     -4118.207          43.000    21729261.461 7  90374746.411 7     -3203.053          43.000
C19  22381391.000 7 116545780.480 7     -1501.832          47.000
C22  22355619.000 6 116411559.800 6      1055.930          40.000
E03                                                                  26279110.430 5 105815087.625 5     -1793.765          32.000
E07  25018697.867 7 131474180.664 7      1822.914          43.000    25018699.805 7 100739969.631 7      1396.853          47.000
E08  21471057.547 8 112831190.834 8      -474.102          51.000    21471058.352 8  86455074.260 8      -363.249          51.000
E13  23740510.453 8 124757242.838 8     -1328.457          51.000    23740513.344 8  95593207.353 8     -1017.888          51.000
E15  26467704.086 6 139088721.719 6     -3147.266          37.000    26467711.102 6 106574513.340 6     -2411.185          38.000
> 2020 05 10 22 44 30.0000000  0 15        .000000000000
G01  24259602.016 6 127485046.565 6     -3724.520          40.000    24259609.516 6  99339012.885 6     -2902.223          40.000
G03  21438246.719 6 112658742.773 6     -1913.434          39.000    21438248.477 6  87786028.281 6     -1490.981          39.000
G04  20275081.234 8 106546276.865 8      -376.824          51.000    20275081.148 8  83023092.496 8      -293.629          51.000
G09  21024130.203 8 110482644.211 8      1928.941          51.000    21024131.633 8  86090361.470 8      1503.071          51.000
G17  23097031.016 8 121375697.035 8     -2365.371          49.000    23097029.375 8  94578471.156 8     -1843.149          49.000
R02  19701173.422 5 105129228.460 5       791.590          30.000
R17  19758687.398 6 105732713.213 6      -835.465          41.000    19758690.695 6  82236562.649 6      -649.806          38.000
R24  21752412.461 6 116319914.457 6     -4139.234          40.000    21752416.078 7  90471045.224 7     -3219.408          43.000
C19  22390078.906 7 116591020.583 7     -1517.324          45.000
C22  22349576.141 6 116380089.374 6      1038.727          39.000
E03  26292494.602 5 138167992.471 5     -2353.059          33.000    26292501.766 4 105869007.720 4     -1803.256          29.000
E07  25008328.023 7 131419690.088 7      1806.801          43.000    25008332.062 7 100698217.123 7      1384.465          47.000
E08  21473805.164 8 112845628.795 8      -491.363          51.000    21473805.773 8  86466137.114 8      -376.532          51.000
E13  23748151.359 8 124797396.987 8     -1351.500          51.000    23748154.188 8  95623974.816 8     -1035.538          51.000
E15  26485699.062 6 139183281.889 6     -3160.113          37.000    26485704.562 6 106646968.600 6     -2421.427          40.000
> 2020 05 10 22 45  0.0000000  0 13        .000000000000
G01  24280862.820 6 127596769.625 6     -3722.715          41.000    24280869.781 6  99426069.779 6     -2900.820          41.000
G03  21449180.867 5 112716201.110 5     -1916.984          32.000    21449182.859 5  87830801.037 5     -1493.757          31.000
G04  20277263.125 8 106557742.791 8      -386.664          51.000    20277263.125 8  83032027.000 8      -301.297          51.000
G09  21013142.297 8 110424904.494 8      1921.281          50.000    21013143.750 8  86045369.498 8      1497.102          50.000
G17  23110551.797 7 121446750.092 7     -2370.480          47.000    23110550.500 7  94633837.153 7     -1847.128          47.000
R17  19763436.727 6 105758125.128 6      -857.379          41.000    19763439.414 6  82256327.490 6      -666.847          38.000
R24  21775653.148 6 116444179.748 6     -4144.258          38.000    21775654.867 6  90567695.991 6     -3223.312          40.000
C19  22398822.117 7 116636550.887 7     -1517.191          46.000
C22  22343597.906 6 116348955.241 6      1037.812          38.000
E07  24998018.102 7 131365509.549 7      1806.246          46.000    24998023.055 7 100656702.197 7      1383.938          46.000
E08  21476618.188 8 112860411.517 8      -493.094          51.000    21476618.844 8  86477464.127 8      -377.792          51.000
E13  23755890.891 8 124838066.825 8     -1358.875          51.000    23755893.266 8  95655137.420 8     -1041.198          51.000
E15  26503737.031 6 139278068.183 6     -3157.859          37.000    26503741.273 6 106719597.065 6     -2419.620          41.000
> 2020 05 10 22 45 30.0000000  0 15        .000000000000
G01  24302117.000 6 127708457.699 6     -3727.047          39.000    24302122.875 6  99513099.253 6     -2904.198          39.000
G03  21460132.727 5 112773753.163 5     -1924.824          35.000    21460134.148 5  87875646.674 5     -1499.863          34.000
G04  20279506.008 8 106569528.691 8      -402.895          51.000    20279505.984 8  83041210.814 8      -313.944          51.000
G09  21002203.156 8 110367418.734 8      1907.168          51.000    21002204.531 8  86000575.394 8      1486.102          51.000
G17  23124106.266 7 121517980.477 7     -2381.824          46.000    23124105.438 7  94689341.379 7     -1855.967          46.000
G22  23506581.820 5 123527897.137 5     -2618.824          33.000
R02  19692344.148 4 105082108.659 4       772.895          29.000    19692355.930 4  81730571.978 4       601.140          29.000
R17  19768313.500 7 105784220.178 7      -885.859          44.000    19768316.414 6  82276623.616 6      -689.002          39.000
R24  21798925.594 5 116568616.942 5     -4155.332          34.000    21798925.500 6  90664480.478 6     -3231.925          36.000
C19  22407569.391 7 116682101.837 7     -1523.363          46.000
C22  22337632.555 6 116317888.678 6      1029.977          37.000
E07  24987715.953 8 131311367.665 8      1799.406          48.000    24987720.180 7 100615216.907 7      1378.736          46.000
E08  21479444.758 8 112875266.720 8      -501.004          51.000    21479445.789 8  86488846.699 8      -383.850          51.000
E13  23763676.945 8 124878980.163 8     -1372.426          51.000    23763678.703 8  95686486.583 8     -1051.596          51.000
E15  26521765.961 6 139372807.497 6     -3161.645          38.000    26521769.297 6 106792189.546 6     -2422.708          41.000
> 2020 05 10 22 46  0.0000000  0 15        .000000000000
G01  24323420.477 6 127820406.125 6     -3730.344          39.000    24323427.086 6  99600331.756 6     -2906.761          39.000
G03  21471158.578 5 112831695.392 5     -1931.902          32.000    21471159.930 5  87920796.491 5     -1505.385          31.000
G04  20281865.969 8 106581930.444 8      -418.309          51.000    20281866.203 8  83050874.525 8      -325.955          51.000
G09  20991369.516 8 110310484.472 8      1893.973          51.000    20991370.547 8  85956211.033 8      1475.823          51.000
G17  23137750.656 8 121589682.669 8     -2392.492          49.000    23137750.086 8  94745213.229 8     -1864.280          48.000
G19  22625869.773 4 118899743.027 4     -1794.926          29.000
R02  19688049.555 5 105059172.701 5       761.523          35.000
R17  19773374.086 7 105811299.526 7      -913.562          44.000    19773377.023 6  82297685.316 6      -710.549          39.000
R24  21822286.539 4 116693524.169 4     -4165.656          27.000    21822282.656 5  90761630.480 5     -3239.961          30.000
C19  22416377.289 7 116727967.267 7     -1528.711          45.000
C22  22331734.484 5 116287183.790 5      1023.281          33.000
E07  24977477.500 8 131257561.531 8      1793.281          48.000    24977480.680 7 100573988.872 7      1373.998          45.000
E08  21482341.695 8 112890490.676 8      -508.254          51.000    21482342.914 8  86500511.808 8      -389.474          51.000
E13  23771565.828 8 124920433.392 8     -1385.379          51.000    23771566.938 8  95718249.425 8     -1061.575          51.000
E15  26539841.492 6 139467795.219 6     -3164.809          38.000    26539845.148 6 106864972.371 6     -2425.250          41.000
> 2020 05 10 22 46 30.0000000  0 16        .000000000000
G01  24344722.250 6 127932343.494 6     -3733.461          38.000    24344728.711 6  99687555.677 6     -2909.190          38.000
G03  21482207.648 6 112889758.199 6     -1939.914          37.000    21482209.461 6  87966040.275 6     -1511.618          37.000
G04  20284291.719 8 106594677.648 8      -433.203          51.000    20284291.906 8  83060807.414 8      -337.561          51.000
G09  20980589.602 8 110253833.180 8      1881.180          51.000    20980590.250 8  85912067.192 8      1465.857          51.000
G17  23151433.477 8 121661584.559 8     -2402.688          51.000    23151432.516 8  94801240.683 8     -1872.224          51.000
G19  22636159.828 5 118953811.954 5     -1811.266          34.000
G22  23536540.578 5 123685356.387 5     -2627.156          32.000
R02  19683800.922 5 105036532.676 5       751.285          30.000    19683794.148 4  81695049.216 4       584.333          26.000
R17  19778566.680 7 105839087.915 7      -940.750          43.000    19778570.250 6  82319298.484 6      -731.694          40.000
R24  21845688.930 5 116818687.432 5     -4175.707          32.000    21845666.062 5  90858909.558 5     -3247.778          30.000
C19  22425194.039 7 116773879.820 7     -1533.762          45.000
C22  22325855.305 5 116256573.905 5      1015.859          34.000
E07  24967251.344 7 131203821.888 7      1787.707          47.000    24967253.633 7 100532811.751 7      1369.858          45.000
E08  21485257.602 8 112905813.277 8      -514.914          51.000    21485258.742 8  86512252.496 8      -394.476          51.000
E13  23779506.055 8 124962156.397 8     -1397.793          51.000    23779506.531 8  95750218.979 8     -1070.988          51.000
E15  26557912.586 6 139562760.545 6     -3167.578          36.000    26557916.672 6 106937737.999 6     -2427.222          41.000
> 2020 05 10 22 47  0.0000000  0 14        .000000000000
G01  24366057.281 6 128044454.634 6     -3732.305          37.000    24366062.586 6  99774915.010 6     -2908.289          38.000
G04  20286818.453 8 106607955.863 8      -443.520          51.000    20286818.672 8  83071154.073 8      -345.600          51.000
G09  20969898.633 8 110197652.150 8      1872.785          51.000    20969899.055 8  85868289.788 8      1459.313          51.000
G17  23165189.375 8 121733869.812 8     -2408.023          51.000    23165187.867 8  94857566.839 8     -1876.382          51.000
G19  22646560.344 6 119008456.527 6     -1823.371          38.000
R17  19783927.227 7 105867774.272 7      -963.086          45.000    19783931.562 7  82341610.072 7      -749.067          42.000
R24  21869149.453 5 116944164.421 5     -4180.574          31.000    21869135.508 5  90956502.660 5     -3251.561          35.000
C19  22434055.672 7 116820024.026 7     -1534.176          46.000
C22  22320031.047 6 116226243.969 6      1014.250          36.000
E03  26359616.336 5 138520708.404 5     -2348.531          33.000
E07  24957072.727 7 131150335.496 7      1786.551          46.000    24957075.008 7 100491828.691 7      1368.910          45.000
E08  21488227.539 8 112921420.437 8      -517.105          51.000    21488228.586 8  86524211.235 8      -396.173          51.000
E13  23787532.836 8 125004335.242 8     -1405.598          51.000    23787532.719 8  95782537.828 8     -1077.058          51.000
E15  26576014.391 5 139657888.396 5     -3165.508          32.000    26576019.461 6 107010628.188 6     -2425.767          41.000
> 2020 05 10 22 47 30.0000000  0 16        .000000000000
G01  24387398.727 6 128156599.569 6     -3741.699          38.000    24387402.750 6  99862300.626 6     -2915.613          37.000
G04  20289419.711 8 106621626.019 8      -465.266          51.000    20289420.281 8  83081806.151 8      -362.542          51.000
G09  20959270.945 8 110141804.176 8      1853.035          51.000    20959271.188 8  85824771.884 8      1443.923          51.000
G17  23178991.359 8 121806397.812 8     -2424.633          48.000    23178989.492 8  94914082.146 8     -1889.324          48.000
G19  22657043.688 6 119063541.364 6     -1846.812          41.000    22657039.492 4  92776791.087 4     -1439.075          27.000
G22  23566597.875 5 123843327.521 5     -2637.441          35.000
R02  19675503.250 6 104992280.481 6       725.344          36.000
R17  19789429.258 7 105897217.142 7      -997.172          44.000    19789433.422 6  82364510.091 6      -775.578          40.000
R24  21892651.180 5 117069874.684 5     -4197.586          35.000    21892646.602 6  91054277.236 6     -3264.792          36.000
C19  22442935.766 7 116866262.719 7     -1545.871          46.000
C22  22314234.656 5 116196057.395 5      1000.273          35.000
E03  26373053.328 5 138591330.289 5     -2356.246          35.000    26373054.141 5 106193349.645 5     -1805.390          34.000
E07  24946915.867 7 131096964.540 7      1773.934          45.000    24946919.109 7 100450934.052 7      1359.287          46.000
E08  21491225.219 8 112937173.517 8      -530.566          51.000    21491226.180 8  86536281.781 8      -406.559          51.000
E13  23795619.438 8 125046831.323 8     -1424.879          51.000    23795619.000 8  95815099.752 8     -1091.751          51.000
E15                                                                  26594126.695 6 107083536.219 6     -2433.023          40.000
> 2020 05 10 22 48  0.0000000  0 15        .000000000000
G01  24408774.602 6 128268928.141 6     -3745.980          39.000    24408777.328 6  99949829.402 6     -2918.943          39.000
G04  20292124.250 8 106635838.743 8      -481.574          51.000    20292124.773 8  83092881.000 8      -375.253          51.000
G09  20948735.578 8 110086441.569 8      1838.590          51.000    20948736.031 8  85781632.210 8      1432.667          51.000
G17  23192867.492 7 121879317.293 7     -2435.914          46.000    23192865.508 7  94970902.544 7     -1898.112          46.000
G19  22667638.609 7 119119215.593 7     -1864.379          42.000    22667638.422 4  92820173.569 4     -1452.766          29.000
R02  19671449.797 5 104970716.276 5       712.613          34.000
R17  19795100.992 7 105927569.732 7     -1025.465          42.000    19795105.094 6  82388117.660 6      -797.584          40.000
R24  21916226.211 5 117195968.290 5     -4208.113          35.000    21916227.555 5  91152350.021 5     -3272.977          35.000
C19  22451862.195 7 116912745.848 7     -1552.316          45.000
C22  22308493.133 5 116166164.609 5       992.895          31.000
E03  26386513.219 5 138662061.148 5     -2358.824          33.000    26386515.648 5 106247546.043 5     -1807.360          35.000
E07  24936810.008 7 131043860.836 7      1766.965          43.000    24936813.984 7 100410244.203 7      1353.881          47.000
E08  21494279.562 8 112953223.475 8      -538.711          51.000    21494280.375 8  86548579.801 8      -412.787          51.000
E13  23803794.688 8 125089795.587 8     -1438.688          51.000    23803794.656 8  95848020.430 8     -1102.419          51.000
E15                                                                  26612266.156 6 107156577.090 6     -2435.986          37.000
> 2020 05 10 22 48 30.0000000  0 17        .000000000000
G01  24430171.891 6 128381371.682 6     -3749.234          38.000    24430173.680 6 100037447.811 6     -2921.481          39.000
G03  21526904.711 5 113124644.993 5     -1973.848          34.000    21526902.328 5  88149065.409 5     -1538.066          34.000
G04  20294919.094 8 106650526.169 8      -496.793          51.000    20294919.586 8  83104325.760 8      -387.108          51.000
G09  20938279.750 8 110031498.236 8      1825.066          50.000    20938280.750 8  85738819.259 8      1422.130          50.000
G17  23206804.758 7 121952559.111 7     -2446.148          45.000    23206802.602 7  95027974.105 7     -1906.090          45.000
G19  22678331.422 6 119175409.912 6     -1880.922          41.000    22678330.172 5  92863961.376 5     -1465.653          31.000
R01  21397303.695 5 114380837.138 5     -2726.949          31.000
R02  19667483.906 5 104949472.801 5       700.754          30.000    19667491.336 5  81627369.613 5       545.022          30.000
R17  19800929.172 7 105958762.738 7     -1053.020          43.000    19800933.484 6  82412378.857 6      -819.015          38.000
R24  21939860.898 5 117322373.571 5     -4217.941          33.000    21939864.750 5  91250665.214 5     -3280.621          33.000
C19  22460822.789 7 116959406.807 7     -1557.641          46.000
C22  22302792.000 4 116136499.565 4       986.727          29.000
E03                                                                  26399984.273 5 106301781.788 5     -1808.096          35.000
E07  24926742.258 6 130990957.637 6      1760.691          41.000    24926746.859 7 100369708.043 7      1349.137          47.000
E08  21497377.484 8 112969502.872 8      -545.797          51.000    21497378.367 8  86561053.620 8      -418.262          51.000
E13  23812046.047 8 125133160.607 8     -1451.582          51.000    23812046.891 8  95881248.184 8     -1112.188          51.000
E15  26630420.875 6 139943789.473 6     -3182.379          36.000    26630423.906 6 107229698.523 6     -2438.234          36.000
> 2020 05 10 22 49  0.0000000  0 15        .000000000000
G01  24451589.180 6 128493922.177 6     -3752.859          37.000    24451591.242 6 100125149.507 6     -2924.309          37.000
G03  21538200.211 6 113184002.435 6     -1982.516          38.000    21538197.875 6  88195317.989 6     -1544.817          38.000
G04  20297802.859 8 106665681.170 8      -512.480          51.000    20297803.547 8  83116134.864 8      -399.335          51.000
G09  20927902.859 8 109976968.891 8      1811.070          51.000    20927904.414 8  85696328.885 8      1411.224          51.000
G17  23220801.688 7 122026114.178 7     -2456.695          46.000    23220799.695 7  95085289.712 7     -1914.308          46.000
G19  22689121.070 6 119232116.038 6     -1898.254          41.000    22689120.812 5  92908147.928 5     -1479.153          32.000
R17  19806912.680 6 105990789.028 6     -1080.926          41.000    19806916.398 6  82437288.141 6      -840.723          38.000
R24  21963554.008 6 117449080.058 6     -4228.082          36.000    21963559.711 5  91349214.658 5     -3288.514          33.000
C19  22469816.828 7 117006239.239 7     -1563.562          46.000
C22  22297136.734 5 116107056.404 5       978.961          32.000
E03                                                                  26413463.039 5 106356051.869 5     -1809.347          34.000
E07  24916711.523 7 130938249.164 7      1754.227          43.000    24916716.742 7 100329321.069 7      1344.094          46.000
E08  21500517.602 8 112986004.989 8      -553.301          51.000    21500518.727 8  86573698.104 8      -423.982          51.000
E13  23820372.750 8 125176919.723 8     -1464.758          51.000    23820374.148 8  95914777.911 8     -1122.338          51.000
E15  26648603.445 6 140039316.629 6     -3185.930          36.000    26648600.891 6 107302894.708 6     -2440.757          37.000
> 2020 05 10 22 49 30.0000000  0 16        .000000000000
G01  24473025.156 6 128606569.376 6     -3756.289          38.000    24473027.367 6 100212926.504 6     -2926.978          38.000
G03  21549540.898 6 113243597.480 6     -1990.133          39.000    21549540.039 6  88241755.685 6     -1550.750          38.000
G04  20300773.891 8 106681294.158 8      -528.000          51.000    20300774.453 8  83128300.824 8      -411.429          51.000
G09  20917603.680 8 109922845.687 8      1797.340          51.000    20917605.328 8  85654154.978 8      1400.525          51.000
G17  23234856.086 7 122099971.277 7     -2466.867          46.000    23234854.797 7  95142840.674 7     -1922.234          46.000
G19  22700005.898 6 119289322.785 6     -1915.109          40.000    22700006.688 4  92952724.538 4     -1492.296          26.000
R02  19659744.289 4 104908146.553 4       677.344          29.000    19659749.070 4  81595232.005 4       526.820          27.000
R17  19813051.789 7 106023638.294 7     -1108.391          42.000    19813054.852 6  82462837.523 6      -862.085          40.000
R24  21987303.055 6 117576075.436 6     -4238.328          36.000    21987311.414 6  91447988.767 6     -3296.480          36.000
C19  22478841.984 7 117053234.389 7     -1569.121          46.000
C22  22291524.875 5 116077826.875 5       970.172          31.000
E03  26426950.781 5 138874570.756 5     -2362.156          34.000    26426950.414 5 106410376.277 5     -1810.548          31.000
E07  24906716.516 7 130885727.032 7      1747.727          43.000    24906722.008 7 100289076.849 7      1339.095          46.000
E08  21503698.375 8 113002720.626 8      -560.781          51.000    21503699.562 8  86586506.191 8      -429.704          51.000
E13  23828773.125 8 125221063.789 8     -1477.875          51.000    23828774.539 8  95948602.594 8     -1132.413          51.000
E15  26666799.672 5 140134931.327 5     -3188.645          35.000    26666796.219 6 107376157.895 6     -2443.032          37.000
> 2020 05 10 22 50  0.0000000  0 17        .000000000000
G01  24494481.281 6 128719320.124 6     -3761.031          39.000    24494483.547 6 100300784.194 6     -2930.674          39.000
G03  21560927.500 6 113303438.679 6     -1999.641          38.000    21560931.156 6  88288385.092 6     -1558.165          38.000
G04  20303833.414 8 106697372.770 8      -544.508          50.000    20303834.039 8  83140829.623 8      -424.289          50.000
G09  20907383.695 8 109869138.129 8      1782.555          51.000    20907384.914 8  85612304.952 8      1389.004          51.000
G17  23248968.828 7 122174136.465 7     -2477.949          44.000    23248968.867 7  95200631.747 7     -1930.866          44.000
G19  22710986.391 5 119347036.458 5     -1932.875          34.000
G22  23642239.227 4 124240808.127 4     -2663.582          28.000
R02  19655968.422 5 104888020.927 5       664.258          31.000    19655980.281 4  81579578.645 4       516.645          25.000
R17  19819345.648 7 106057318.305 7     -1137.109          42.000    19819348.836 6  82489033.085 6      -884.418          40.000
R24  22011107.430 6 117703364.309 6     -4248.906          36.000    22011117.203 5  91546991.287 5     -3304.699          35.000
C19  22487899.906 7 117100400.599 7     -1575.918          47.000
C22  22285956.102 5 116048819.553 5       962.504          33.000
E03  26440443.984 5 138945477.204 5     -2364.953          35.000
E07  24896758.695 7 130833400.081 7      1740.293          44.000    24896765.047 7 100248982.156 7      1333.375          47.000
E08  21506921.500 8 113019657.880 8      -568.973          51.000    21506922.398 8  86599484.079 8      -435.981          51.000
E13  23837248.453 8 125265600.838 8     -1491.848          51.000    23837249.617 8  95982728.383 8     -1143.119          51.000
E15  26685012.562 6 140230686.892 6     -3192.898          36.000    26685009.953 5 107449493.770 5     -2446.237          35.000
> 2020 05 10 22 50 30.0000000  0 17        .000000000000
G01  24515964.953 6 128832215.868 6     -3764.516          39.000    24515967.312 6 100388754.879 6     -2933.389          39.000
G03  21572369.930 7 113363568.947 7     -2008.031          43.000    21572368.336 5  88335239.899 5     -1564.694          31.000
G04  20306989.633 8 106713959.330 8      -560.000          50.000    20306990.383 8  83153754.221 8      -436.364          50.000
G09  20897251.125 8 109815890.207 8      1768.527          51.000    20897251.867 8  85570813.055 8      1378.073          51.000
G17  23263147.773 7 122248649.969 7     -2488.430          43.000    23263149.109 7  95258694.280 7     -1939.033          43.000
G19  22722071.445 5 119405297.333 5     -1949.227          33.000
R02  19652280.352 5 104868325.286 5       652.387          33.000
R12  23542011.320 7 125757195.587 7      4006.211          42.000    23542012.820 6  97811162.699 6      3115.942          38.000
R17  19825803.281 7 106091871.865 7     -1164.906          45.000    19825806.383 7  82515908.121 7      -906.038          42.000
R24  22034974.016 5 117830986.586 5     -4257.945          34.000    22034984.586 5  91646253.166 5     -3311.732          34.000
C19  22496999.266 7 117147780.377 7     -1581.617          46.000
C22  22280438.352 5 116020077.918 5       955.199          32.000
E03  26453953.055 6 139016470.246 6     -2366.273          37.000
E07  24886847.078 7 130781311.784 7      1733.742          45.000    24886854.008 7 100209070.327 7      1328.383          47.000
E08  21510194.961 8 113036859.523 8      -576.516          51.000    21510195.602 8  86612664.557 8      -441.692          51.000
E13  23845806.711 8 125310573.568 8     -1505.035          51.000    23845807.812 8  96017188.001 8     -1153.200          51.000
E15  26703251.102 5 140326532.240 5     -3195.914          33.000    26703249.859 5 107522934.459 5     -2448.721          33.000
> 2020 05 10 22 51  0.0000000  0 17        .000000000000
G01  24537452.031 6 128945131.297 6     -3763.637          40.000    24537454.594 6 100476740.944 6     -2932.704          40.000
G03  21583843.922 6 113423864.616 6     -2011.863          41.000    21583840.820 5  88382223.599 5     -1567.683          35.000
G04  20310218.922 8 106730929.253 8      -571.242          51.000    20310219.555 8  83166977.534 8      -445.124          51.000
G09  20887182.680 8 109762979.202 8      1758.727          51.000    20887183.172 8  85529583.701 8      1370.436          51.000
G17  23277369.469 7 122323386.129 7     -2494.043          46.000    23277371.242 7  95316930.282 7     -1943.410          46.000
G19  22733238.312 6 119463979.798 6     -1962.293          37.000
R02  19648628.625 5 104848850.510 5       645.031          32.000
R12  23519507.953 6 125636991.167 6      4007.312          38.000    23519507.375 5  97717670.360 5      3116.799          35.000
R17  19832400.289 7 106127171.999 7     -1188.223          44.000    19832403.922 7  82543363.765 7      -924.173          43.000
R24  22058880.039 5 117958813.045 5     -4263.734          35.000    22058891.078 5  91745673.792 5     -3316.238          31.000
C19  22506115.617 7 117195251.205 7     -1583.133          43.000
C22  22274948.781 5 115991479.775 5       951.574          31.000
E03  26467454.750 6 139087425.762 6     -2363.750          38.000
E07  24876958.555 7 130729338.955 7      1731.234          47.000    24876964.961 7 100169246.979 7      1326.635          46.000
E08  21513494.977 8 113054201.332 8      -579.633          51.000    21513495.688 8  86625952.448 8      -444.125          51.000
E13  23854424.328 8 125355857.807 8     -1513.832          51.000    23854425.727 8  96051886.316 8     -1159.970          51.000
E15  26721491.461 5 140422386.398 5     -3194.340          33.000    26721493.203 5 107596384.208 5     -2447.997          32.000
> 2020 05 10 22 51 30.0000000  0 15        .000000000000
G01  24558983.289 6 129058278.403 6     -3768.691          41.000    24558986.242 6 100564907.553 6     -2936.640          41.000
G03  21595389.789 6 113484539.322 6     -2022.262          41.000    21595386.719 4  88429502.777 4     -1575.770          29.000
G04  20313561.633 8 106748495.254 8      -588.816          51.000    20313562.141 8  83180665.327 8      -458.818          50.000
G09  20877219.367 8 109710619.515 8      1742.750          51.000    20877219.852 8  85488783.960 8      1357.987          51.000
G17  23291674.008 8 122398555.639 8     -2506.320          48.000    23291675.305 8  95375503.949 8     -1952.974          48.000
G19  22744526.125 6 119523295.316 6     -1981.168          41.000    22744534.133 4  93135071.115 4     -1543.764          26.000
R12  23497045.438 5 125517021.701 5      4001.871          31.000    23497046.828 5  97624360.708 5      3112.560          34.000
R17  19839177.445 7 106163435.015 7     -1218.094          43.000    19839180.531 7  82571568.333 7      -947.406          43.000
R24  22082865.125 6 118087056.953 6     -4274.844          38.000    22082877.242 4  91845419.147 4     -3324.872          26.000
C19  22515289.391 7 117243024.461 7     -1590.809          45.000
E03  26480990.242 6 139158557.068 6     -2367.219          37.000    26480994.008 5 106627962.801 5     -1813.639          35.000
E07  24867133.188 7 130677695.553 7      1722.656          46.000    24867137.461 7 100129676.072 7      1319.981          45.000
E08  21516862.305 8 113071896.553 8      -589.023          51.000    21516863.125 8  86639511.142 8      -451.363          51.000
E13  23863141.820 8 125401666.716 8     -1529.047          51.000    23863143.484 8  96086986.655 8     -1171.586          51.000
E15  26739775.617 5 140518467.704 5     -3199.512          35.000    26739779.039 4 107670007.730 4     -2451.514          29.000
> 2020 05 10 22 52  0.0000000  0 16        .000000000000
G01  24580507.875 6 129171390.811 6     -3772.410          39.000    24580511.781 6 100653047.091 6     -2939.540          39.000
G03  21606957.641 7 113545328.113 7     -2031.039          43.000    21606956.750 6  88476870.625 6     -1582.631          38.000
G04  20316967.297 8 106766391.734 8      -604.902          51.000    20316967.727 8  83194610.644 8      -471.352          51.000
G09  20867310.570 8 109658547.389 8      1728.074          51.000    20867311.500 8  85448208.287 8      1346.551          51.000
G17  23306010.078 7 122473891.368 7     -2516.793          47.000    23306010.328 7  95434207.094 7     -1961.137          47.000
G19  22755883.578 7 119582976.425 7     -1998.285          42.000    22755896.891 4  93181575.919 4     -1557.108          26.000
R02  19641565.461 5 104811152.349 5       617.812          33.000
R12  23474574.648 5 125396965.928 5      3997.656          31.000    23474583.359 6  97531005.289 6      3109.288          36.000
R17  19846082.531 7 106200389.925 7     -1246.547          42.000    19846085.750 6  82600311.075 6      -969.536          41.000
R24  22106876.898 6 118215445.349 6     -4284.941          41.000
C19  22524471.273 7 117290837.900 7     -1597.344          45.000
C22  22264116.273 5 115935081.619 5       932.773          32.000
E03  26494508.773 6 139229575.070 6     -2369.426          36.000    26494513.508 5 106682424.594 5     -1815.342          34.000
E07  24857319.742 7 130626117.100 7      1715.410          44.000    24857321.578 7 100090154.983 7      1314.241          43.000
E08  21520246.484 8 113089680.086 8      -597.168          51.000    21520247.305 8  86653137.487 8      -457.528          51.000
E13  23871908.633 8 125447735.130 8     -1542.836          51.000    23871910.430 8  96122285.828 8     -1182.158          51.000
> 2020 05 10 22 52 30.0000000  0 15        .000000000000
G01  24602057.703 6 129284635.058 6     -3776.875          40.000    24602062.469 6 100741289.388 6     -2943.019          40.000
G03  21618579.133 7 113606399.251 7     -2040.383          42.000    21618584.164 5  88524458.415 5     -1589.915          35.000
G04  20320467.672 8 106784785.977 8      -621.410          51.000    20320467.977 8  83208943.830 8      -484.216          51.000
G09  20857488.234 8 109606931.871 8      1712.887          51.000    20857489.727 8  85407988.405 8      1334.717          51.000
G17  23320409.188 7 122549559.050 7     -2527.836          47.000    23320407.430 7  95493168.890 7     -1969.742          47.000
G19  22767341.914 7 119643188.919 7     -2015.977          43.000    22767362.211 3  93228494.920 3     -1570.885          21.000
R02  19638137.164 5 104792860.900 5       604.992          30.000
R12  23452137.688 5 125277113.518 5      3992.938          35.000    23452148.867 6  97437786.762 6      3105.621          39.000
R17  19853148.172 7 106238206.932 7     -1274.805          42.000    19853151.836 6  82629724.307 6      -991.518          41.000
R24  22130946.516 6 118344145.437 6     -4295.031          40.000
C19  22533692.820 7 117338857.947 7     -1604.203          44.000
C22  22258767.031 6 115907192.859 6       925.215          38.000
E07  24847549.539 7 130574772.302 7      1707.738          42.000    24847548.844 6 100050812.945 6      1308.386          41.000
E08  21523679.312 8 113107719.676 8      -605.469          51.000    21523680.172 8  86666960.040 8      -463.981          51.000
E13  23880756.461 8 125494230.727 8     -1556.863          51.000    23880758.602 8  96157912.336 8     -1192.969          51.000
> 2020 05 10 22 53  0.0000000  0 14        .000000000000
G01  24623622.719 6 129397958.858 6     -3778.684          38.000    24623628.531 6 100829593.677 6     -2944.429          38.000
G03  21630244.859 6 113667701.867 6     -2046.840          41.000    21630245.375 6  88572226.923 6     -1594.940          41.000
G04  20324052.906 8 106803626.329 8      -635.160          51.000    20324053.102 8  83223624.630 8      -494.930          51.000
G09  20847743.062 8 109555723.087 8      1700.418          51.000    20847745.102 8  85368085.477 8      1325.001          51.000
G17  23334861.383 7 122625505.428 7     -2535.805          46.000    23334857.844 7  95552347.896 7     -1975.952          46.000
G19  22778891.055 6 119703879.832 6     -2030.605          40.000    22778915.062 5  93275786.660 5     -1582.278          30.000
R12  23429721.000 6 125157360.445 6      3990.449          36.000    23429732.648 6  97344645.513 6      3103.683          40.000
R17  19860366.352 7 106276832.998 7     -1300.688          45.000    19860370.070 7  82659766.776 7     -1011.643          42.000
R24  22155063.227 6 118473101.931 6     -4302.910          39.000    22155057.117 4  92145683.781 4     -3346.708          29.000
C19  22542944.367 7 117387034.298 7     -1608.184          44.000
C22  22253453.953 5 115879514.861 5       919.188          34.000
E07  24837813.711 7 130523610.808 7      1702.793          44.000    24837811.539 6 100011611.328 6      1304.672          41.000
E08  21527151.086 8 113125964.179 8      -611.227          51.000    21527152.164 8  86680939.592 8      -468.360          51.000
E13  23889675.656 8 125541102.303 8     -1568.379          51.000    23889678.070 8  96193826.924 8     -1201.757          51.000
> 2020 05 10 22 53 30.0000000  0 14        .000000000000
G01  24645202.328 6 129511360.689 6     -3781.656          37.000    24645209.117 6 100917958.794 6     -2946.742          36.000
G03  21641954.258 6 113729236.187 6     -2055.199          39.000    21641956.227 6  88620175.702 6     -1601.454          39.000
G04  20327722.852 8 106822912.127 8      -650.645          51.000    20327723.062 8  83238652.546 8      -506.996          51.000
G09  20838075.461 8 109504922.159 8      1686.109          51.000    20838078.047 8  85328500.376 8      1313.851          51.000
G17  23349366.070 7 122701728.047 7     -2545.633          46.000    23349362.344 7  95611742.121 7     -1983.613          46.000
G19  22790530.438 6 119765046.979 6     -2047.191          38.000    22790530.172 5  93323401.618 5     -1595.214          34.000
R12  23407324.859 6 125037712.205 6      3986.008          38.000    23407335.266 6  97251585.747 6      3100.228          40.000
R17  19867735.602 7 106316266.956 7     -1328.484          43.000    19867739.641 7  82690437.590 7     -1033.266          43.000
R24  22179226.531 6 118602311.343 6     -4311.695          37.000    22179222.781 5  92246180.019 5     -3353.538          31.000
C19  22552226.078 7 117435367.099 7     -1614.082          42.000
C22  22248178.047 6 115852048.103 6       911.777          37.000
E07  24828112.281 7 130472633.305 7      1695.832          43.000    24828110.625 7  99972550.668 7      1299.431          42.000
E08  21530661.789 8 113144413.402 8      -618.777          51.000    21530663.148 8  86695076.016 8      -474.122          51.000
E13  23898666.438 8 125588349.559 8     -1581.570          51.000    23898668.500 8  96230029.361 8     -1211.847          51.000
> 2020 05 10 22 54  0.0000000  0 16        .000000000000
G01  24666796.555 5 129624842.243 5     -3781.023          35.000    24666803.094 5 101006386.007 5     -2946.252          35.000
G03  21653708.539 5 113791005.211 5     -2059.445          32.000    21653709.867 5  88668307.469 5     -1604.756          31.000
G04  20331477.969 8 106842645.593 8      -661.742          50.000    20331478.094 8  83254029.273 8      -515.640          51.000
G09  20828486.422 8 109454533.012 8      1676.180          51.000    20828489.453 8  85289236.112 8      1306.111          51.000
G17  23363923.453 7 122778227.564 7     -2551.188          47.000    23363920.695 7  95671352.078 7     -1987.941          47.000
G19  22802260.641 6 119826691.009 6     -2059.289          38.000    22802257.875 5  93371435.889 5     -1604.641          30.000
R12  23384950.000 7 124918176.493 7      3986.191          44.000    23384958.023 6  97158613.516 6      3100.371          38.000
R17  19875255.617 7 106356510.436 7     -1351.359          44.000    19875259.961 7  82721738.114 7     -1051.057          43.000
R24  22203435.438 5 118731772.777 5     -4315.668          35.000    22203434.883 5  92346872.270 5     -3356.628          31.000
C19  22561538.336 7 117483859.392 7     -1615.785          42.000
C22  22242946.562 5 115824796.253 5       908.457          35.000
E03  26548663.000 5 139514159.999 5     -2370.398          34.000
E07  24818445.523 6 130421843.167 6      1693.418          41.000    24818446.055 7  99933633.562 7      1297.482          42.000
E08  21534212.039 8 113163070.071 8      -621.914          51.000    21534213.414 8  86709371.394 8      -476.505          51.000
E13  23907729.430 8 125635975.122 8     -1590.340          51.000    23907730.539 8  96266521.640 8     -1218.608          51.000
E15  26831332.047 5 140999600.123 5     -3210.680          33.000
> 2020 05 10 22 54 30.0000000  0 16        .000000000000
G01  24688412.641 5 129738439.583 5     -3788.035          34.000    24688418.430 5 101094903.374 5     -2951.725          32.000
G04  20335325.180 8 106862863.677 8      -681.859          50.000    20335325.430 8  83269783.631 8      -531.319          51.000
G09  20818983.523 8 109404594.410 8      1657.199          51.000    20818986.555 8  85250322.918 8      1291.324          51.000
G17  23378540.398 8 122855039.360 8     -2565.500          48.000    23378538.945 8  95731205.386 8     -1999.091          48.000
G19  22814088.414 6 119888847.376 6     -2080.414          39.000    22814084.258 5  93419869.469 5     -1621.099          31.000
G22  23780147.492 5 124965489.519 5     -2704.312          32.000
R02  19625049.398 5 104723013.448 5       557.562          35.000    19625060.070 4  81451284.258 4       433.660          26.000
R12  23362604.070 7 124798796.771 7      3976.918          45.000    23362609.375 6  97065762.622 6      3093.161          36.000
R17  19882933.969 7 106397600.772 7     -1383.691          44.000    19882938.469 7  82753697.258 7     -1076.204          43.000
R24  22227698.367 5 118861521.305 5     -4330.523          32.000    22227698.898 5  92447787.822 5     -3368.185          30.000
C19  22570888.930 7 117532548.562 7     -1626.066          43.000
C22  22237762.461 5 115797797.460 5       895.832          31.000
E07  24808820.523 6 130371278.653 6      1681.957          38.000    24808824.172 7  99894889.349 7      1288.539          42.000
E08  21537809.008 8 113181971.669 8      -634.020          51.000    21537810.102 8  86723854.440 8      -485.867          51.000
E13  23916871.484 8 125684016.392 8     -1608.168          51.000    23916871.523 8  96303332.428 8     -1232.272          51.000
E15  26849696.539 5 141096101.241 5     -3218.953          33.000
> 2020 05 10 22 55  0.0000000  0 16        .000000000000
G01  24710036.188 5 129852075.324 5     -3787.262          30.000
G04  20339250.148 8 106883489.494 8      -692.719          51.000    20339250.523 8  83285855.700 8      -539.781          51.000
G09  20809552.273 8 109355031.253 8      1647.453          51.000    20809554.289 8  85211702.308 8      1283.733          51.000
G17  23393201.867 7 122932084.618 7     -2570.594          47.000    23393201.414 7  95791240.650 7     -2003.060          47.000
G19  22825998.922 5 119951437.748 5     -2091.699          35.000    22825997.430 5  93468641.144 5     -1629.899          33.000
R02  19621945.250 5 104706414.729 5       549.941          34.000
R12  23340273.070 7 124679500.609 7      3976.582          47.000    23340274.719 5  96972976.781 5      3092.897          33.000
R17  19890757.070 7 106439459.366 7     -1406.574          47.000    19890760.703 7  82786253.922 7     -1094.002          44.000
R24  22252000.344 5 118991475.582 5     -4333.602          34.000    22252001.695 4  92548863.478 4     -3370.573          29.000
C19  22580263.031 6 117581359.433 6     -1627.371          41.000
C22  22232612.039 5 115770976.542 5       893.320          30.000
E03  26575796.391 5 139656714.814 5     -2373.969          34.000
E07  24799225.375 6 130320864.299 6      1679.676          38.000    24799229.898 7  99856260.132 7      1286.857          42.000
E08  21541438.070 8 113201041.875 8      -636.926          51.000    21541438.969 8  86738466.677 8      -488.037          51.000
E13  23926077.992 8 125732396.892 8     -1616.801          51.000    23926077.172 8  96340403.175 8     -1238.889          51.000
E15  26868066.953 5 141192642.881 5     -3216.863          34.000    26868062.766 5 108186556.507 5     -2465.079          33.000
> 2020 05 10 22 55 30.0000000  0 16        .000000000000
G03  21689252.938 6 113977792.296 6     -2090.008          36.000    21689254.711 5  88813868.465 5     -1628.581          35.000
G04  20343266.914 8 106904597.530 8      -714.012          51.000    20343267.227 8  83302303.526 8      -556.370          51.000
G09  20800206.977 8 109305919.785 8      1627.289          51.000    20800207.195 8  85173433.652 8      1268.017          51.000
G17  23407921.328 7 123009436.205 7     -2585.734          46.000    23407921.742 7  95851514.631 7     -2014.858          46.000
G19  22838006.320 5 120014535.077 5     -2113.641          33.000    22838006.250 5  93517807.962 5     -1646.987          32.000
R02  19618899.602 5 104690222.725 5       532.168          31.000    19618905.078 4  81425738.159 4       413.908          26.000
R12  23317971.406 7 124560420.475 7      3965.910          45.000    23317970.109 5  96880318.292 5      3084.597          35.000
R17  19898738.211 7 106482161.145 7     -1439.875          47.000    19898740.719 7  82819466.450 7     -1119.900          44.000
R24  22276353.547 5 119121708.931 5     -4347.953          33.000    22276358.055 4  92650156.111 4     -3381.741          29.000
C19  22589674.539 6 117630366.577 6     -1639.066          41.000
C22  22227510.953 5 115744408.644 5       878.797          32.000
E03  26589373.398 5 139728095.893 5     -2381.020          35.000
E07  24789675.391 6 130270675.772 6      1667.195          40.000    24789678.617 7  99817804.000 7      1277.330          43.000
E08  21545113.398 8 113220355.695 8      -650.020          51.000    21545114.414 8  86753265.589 8      -498.061          51.000
E13  23935363.070 8 125781191.474 8     -1635.570          51.000    23935362.227 8  96377791.228 8     -1253.190          51.000
E15  26886456.852 5 141289283.309 5     -3225.020          34.000    26886453.516 5 108260603.322 5     -2471.484          33.000
> 2020 05 10 22 56  0.0000000  0 14        .000000000000
G03  21701193.547 6 114040539.608 6     -2095.461          39.000    21701196.125 6  88862762.539 6     -1632.830          39.000
G04  20347368.570 8 106926151.858 8      -725.465          51.000    20347368.883 8  83319099.120 8      -565.297          51.000
G09  20790940.906 8 109257225.854 8      1616.727          51.000    20790940.703 8  85135490.331 8      1259.787          51.000
G17  23422691.758 7 123087056.848 7     -2591.793          43.000    23422693.023 7  95911998.232 7     -2019.579          42.000
G19  22850102.539 5 120078101.759 5     -2126.465          33.000    22850102.586 5  93567340.481 5     -1656.980          30.000
R12  23295694.336 7 124441423.867 7      3964.844          43.000    23295695.844 6  96787765.430 6      3083.770          37.000
R17  19906869.602 8 106525669.187 8     -1463.207          48.000    19906871.469 7  82853306.062 7     -1138.050          44.000
R24  22300751.859 5 119252181.924 5     -4352.148          33.000    22300757.047 4  92751687.105 4     -3385.004          29.000
C19  22599117.094 7 117679535.323 7     -1641.215          42.000
C22  22222449.312 6 115718059.655 6       874.996          40.000
E07  24780163.008 6 130220678.574 6      1663.594          39.000    24780164.531 7  99779494.491 7      1274.789          44.000
E08  21548828.375 8 113239877.811 8      -653.855          51.000    21548829.516 8  86768224.111 8      -500.985          51.000
E13  23944719.992 8 125830364.596 8     -1644.926          51.000    23944720.133 8  96415469.344 8     -1260.475          51.000
E15  26904860.961 5 141385993.359 5     -3224.410          33.000    26904856.945 5 108334705.030 5     -2470.634          34.000
> 2020 05 10 22 56 30.0000000  0 14        .000000000000
G03  21713179.953 7 114103523.404 7     -2102.395          42.000    21713182.453 7  88911840.794 7     -1638.233          42.000
G04  20351554.891 8 106948151.025 8      -739.809          51.000    20351555.266 8  83336241.326 8      -576.474          50.000
G09  20781754.102 8 109208949.688 8      1603.160          51.000    20781754.898 8  85097872.547 8      1249.216          51.000
G17  23437512.734 6 123164943.345 6     -2599.555          41.000    23437514.797 6  95972688.991 6     -2025.624          41.000
G19  22862287.742 6 120142134.779 6     -2141.496          37.000    22862286.727 5  93617236.261 5     -1668.701          33.000
R12  23273443.922 6 124322565.890 6      3960.488          41.000    23273446.203 6  96695320.365 6      3080.383          39.000
R17  19915151.023 8 106569981.229 8     -1489.562          50.000    19915152.703 7  82887770.978 7     -1158.549          44.000
R24  22325196.133 6 119382890.235 6     -4359.605          37.000    22325199.961 5  92853349.161 5     -3390.804          30.000
C19  22608590.062 6 117728865.119 6     -1646.117          40.000
C22  22217430.609 6 115691929.576 6       868.270          38.000
E07  24770687.203 6 130170872.464 6      1657.859          36.000    24770687.461 7  99741331.413 7      1270.508          45.000
E08  21552582.797 8 113259607.246 8      -660.078          51.000    21552583.977 8  86783341.480 8      -505.783          51.000
E13  23954148.836 8 125879915.239 8     -1656.930          51.000    23954149.969 8  96453436.730 8     -1269.652          51.000
E15  26923279.070 5 141482782.149 5     -3225.672          34.000    26923273.938 5 108408860.209 5     -2471.885          34.000
> 2020 05 10 22 57  0.0000000  0 16        .000000000000
G03  21725206.656 7 114166723.129 7     -2108.801          44.000    21725206.773 7  88961087.343 7     -1643.218          44.000
G04  20355821.609 8 106970573.615 8      -753.121          50.000    20355822.125 8  83353713.480 8      -586.848          50.000
G09  20772643.055 8 109161071.725 8      1590.688          51.000    20772644.875 8  85060565.035 8      1239.497          51.000
G17  23452380.305 7 123243073.442 7     -2607.121          44.000    23452382.586 7  96033569.584 7     -2031.523          44.000
G19  22874558.031 6 120206611.565 6     -2155.320          40.000    22874555.812 5  93667477.853 5     -1679.470          34.000
R02  19610174.320 5 104643619.072 5       502.516          32.000
R12  23251216.539 7 124203830.844 7      3957.023          42.000    23251219.344 6  96602970.952 6      3077.685          39.000
R17  19923578.477 8 106615074.891 8     -1514.715          50.000    19923579.477 7  82922843.800 7     -1178.112          43.000
R24  22349680.359 6 119513809.382 6     -4366.191          39.000    22349682.734 5  92955175.146 5     -3395.927          31.000
C19  22618089.094 6 117778335.668 6     -1650.082          40.000
C22  22212447.844 5 115665998.500 5       862.395          31.000
E03  26630107.117 5 139942156.460 5     -2378.535          32.000
E07  24761239.797 5 130121192.480 5      1652.812          33.000    24761243.078 7  99703299.470 7      1266.557          45.000
E08  21556372.664 8 113279523.238 8      -665.578          51.000    21556373.914 8  86798601.789 8      -509.985          51.000
E13  23963645.773 8 125929822.411 8     -1668.109          51.000    23963647.414 8  96491677.288 8     -1278.183          51.000
E15  26941705.391 5 141579609.201 5     -3227.164          32.000    26941699.992 5 108483052.354 5     -2472.301          35.000
> 2020 05 10 22 57 30.0000000  0 16        .000000000000
G03  21737277.562 7 114230154.895 7     -2119.574          45.000    21737277.188 7  89010514.694 7     -1651.616          44.000
G04  20360171.836 8 106993434.823 8      -770.859          50.000    20360172.531 8  83371527.408 8      -600.670          50.000
G09  20763610.938 8 109113608.822 8      1573.617          51.000    20763613.141 8  85023580.971 8      1226.195          51.000
G17  23467296.773 7 123321459.432 7     -2618.562          46.000    23467298.305 7  96094649.574 7     -2040.438          46.000
G19  22886915.312 6 120271546.147 6     -2173.441          40.000    22886912.500 5  93718076.208 5     -1693.591          32.000
R11  21999222.477 6 117557167.595 6      1667.039          38.000
R12  23229016.336 7 124085240.078 7      3949.164          45.000    23229019.555 6  96510733.736 6      3071.572          38.000
R17  19932153.883 7 106660964.947 7     -1544.453          47.000    19932154.984 7  82958536.023 7     -1201.244          44.000
R24  22374207.070 6 119644951.782 6     -4376.480          40.000    22374206.773 5  93057174.778 5     -3403.932          30.000
C19  22627619.133 7 117827962.844 7     -1658.395          43.000
C22  22207505.320 5 115640282.936 5       852.082          33.000
E03  26643697.438 5 140013576.708 5     -2382.684          33.000
E07  24751828.461 5 130071734.196 5      1643.762          35.000    24751834.320 7  99665411.269 7      1259.362          45.000
E08  21560201.008 8 113299641.523 8      -675.480          51.000    21560202.234 8  86814017.102 8      -517.555          51.000
E13  23973213.773 8 125980101.672 8     -1683.637          51.000    23973215.719 8  96530202.949 8     -1290.044          51.000
E15                                                                  26960138.844 6 108557292.844 6     -2476.620          37.000
> 2020 05 10 22 58  0.0000000  0 15        .000000000000
G03  21749403.672 7 114293876.395 7     -2128.332          43.000    21749402.695 6  89060167.791 6     -1658.441          39.000
G04  20364616.383 8 107016791.439 8      -786.195          49.000    20364617.375 8  83389727.365 8      -612.620          49.000
G09  20754669.148 8 109066619.578 8      1559.020          51.000    20754671.250 8  84986966.003 8      1214.823          51.000
G17  23482272.688 7 123400157.083 7     -2627.781          45.000    23482272.570 7  96155972.445 7     -2047.622          46.000
G19  22899369.812 6 120336992.821 6     -2189.176          40.000    22899368.047 5  93769073.648 5     -1705.848          34.000
R02  19604682.414 5 104614329.381 5       474.840          30.000
R12  23206855.141 7 123966856.953 7      3943.113          45.000    23206858.367 6  96418657.990 6      3066.869          38.000
R17  19940888.852 8 106707708.590 8     -1571.699          49.000    19940890.148 7  82994892.165 7     -1222.433          44.000
R24  22398785.367 6 119776372.839 6     -4384.410          40.000    22398782.453 4  93159391.142 4     -3410.097          26.000
C19  22637191.125 7 117877803.937 7     -1664.359          43.000
C22  22202617.922 5 115614840.490 5       844.172          33.000
E07  24742466.258 6 130022532.653 6      1636.828          39.000    24742472.578 7  99627711.365 7      1253.966          45.000
E08  21564078.828 8 113320019.506 8      -683.031          51.000    21564079.766 8  86829631.405 8      -523.365          51.000
E13  23982863.594 8 126030810.182 8     -1696.754          51.000    23982866.031 8  96569057.533 8     -1300.164          51.000
E15                                                                  26978599.984 6 108631624.944 6     -2478.787          37.000
> 2020 05 10 22 58 30.0000000  0 16        .000000000000
G01  24861838.812 5 130649838.115 5     -3807.152          33.000    24861845.484 5 101805097.073 5     -2966.609          33.000
G03  21761569.273 6 114357810.239 6     -2134.852          37.000    21761564.414 6  89109986.303 6     -1663.518          36.000
G04  20369140.266 8 107040564.957 8      -799.754          50.000    20369141.406 8  83408252.191 8      -623.185          50.000
G09  20745803.109 8 109020027.291 8      1546.012          51.000    20745805.258 8  84950660.326 8      1204.684          51.000
G17  23497292.336 7 123479086.130 7     -2635.145          44.000    23497290.891 7  96217475.596 7     -2053.359          44.000
G19  22911906.773 6 120402871.883 6     -2203.441          41.000    22911905.070 5  93820407.982 5     -1716.967          30.000
R02  19602036.727 5 104600239.886 5       464.840          34.000
R12  23184718.883 7 123848607.759 7      3938.844          44.000    23184722.883 6  96326686.429 6      3063.545          38.000
R17  19949768.188 8 106755224.956 8     -1597.074          48.000    19949769.508 7  83031849.331 7     -1242.169          43.000
R24  22423399.406 6 119907989.831 6     -4390.754          39.000    22423395.992 4  93261759.897 4     -3415.034          27.000
C19  22646789.578 7 117927782.149 7     -1668.535          43.000
C22  22197769.922 6 115589594.881 6       837.891          37.000
E07  24733136.180 7 129973499.732 7      1631.184          42.000    24733143.117 7  99590140.631 7      1249.898          45.000
E08  21567991.297 8 113340579.311 8      -688.676          51.000    21567992.016 8  86845385.022 8      -527.660          51.000
E13  23992580.297 8 126081869.890 8     -1708.188          51.000    23992583.250 8  96608181.203 8     -1308.847          51.000
E15                                                                  26997067.672 6 108705988.387 6     -2479.637          37.000
> 2020 05 10 22 59  0.0000000  0 16        .000000000000
G01  24883579.734 5 130764081.891 5     -3809.090          35.000    24883586.438 5 101894118.189 5     -2968.125          35.000
G03  21773779.883 6 114421979.829 6     -2142.406          38.000    21773772.930 3  89159959.415 3     -1669.401          22.000
G04  20373747.836 8 107064777.934 8      -813.938          50.000    20373748.977 8  83427119.439 8      -634.237          50.000
G09  20737017.148 8 108973856.188 8      1532.539          51.000    20737019.758 8  84914682.848 8      1194.189          51.000
G17  23512359.812 7 123558267.855 7     -2643.168          43.000    23512358.102 7  96279175.593 7     -2059.614          43.000
G19  22924530.203 7 120469204.058 7     -2218.109          42.000    22924526.461 4  93872095.376 4     -1728.403          26.000
R02  19599457.133 5 104586446.482 5       453.758          32.000
R12  23162613.094 7 123730521.227 7      3934.000          42.000    23162617.000 6  96234841.377 6      3059.778          39.000
R17  19958796.023 8 106803536.420 8     -1623.121          49.000    19958797.633 7  83069424.928 7     -1262.428          43.000
R24  22448053.422 6 120039822.940 6     -4397.582          38.000    22448051.328 4  93364296.688 4     -3420.342          25.000
C19  22656418.938 7 117977920.715 7     -1673.320          42.000
C22  22192965.039 6 115564569.762 6       831.012          38.000
E07  24723842.633 7 129924659.296 7      1625.309          43.000    24723850.344 7  99552717.421 7      1245.423          46.000
E08  21571942.711 8 113361344.066 8      -695.031          51.000    21571943.609 8  86861295.678 8      -532.515          51.000
E13  24002368.289 8 126133303.696 8     -1720.199          51.000    24002371.250 8  96647591.528 8     -1318.012          51.000
E15  27015542.523 5 141967626.209 5     -3237.754          32.000    27015546.492 5 108780400.277 5     -2480.793          35.000
> 2020 05 10 22 59 30.0000000  0 16        .000000000000
G01  24905331.672 5 130878386.335 5     -3810.855          35.000    24905339.555 5 101983186.543 5     -2969.501          35.000
G03  21786034.758 5 114486382.503 5     -2151.027          34.000    21786030.633 4  89210143.231 4     -1676.125          28.000
G04  20378438.398 8 107089426.834 8      -829.203          49.000    20378439.562 8  83446326.370 8      -646.132          49.000
G09  20728311.039 8 108928104.497 8      1517.836          51.000    20728313.859 8  84879032.202 8      1182.729          51.000
G17  23527474.320 7 123637697.067 7     -2652.035          42.000    23527473.414 7  96341068.464 7     -2066.521          42.000
G19  22937238.414 6 120535984.692 6     -2233.969          41.000    22937230.883 5  93924132.207 5     -1740.746          31.000
R01  21739885.328 5 116212144.813 5     -2819.238          31.000
R12  23140537.789 6 123612599.762 6      3927.785          41.000    23140541.562 6  96143124.717 6      3054.944          39.000
R17  19967972.023 8 106852638.337 8     -1650.270          49.000    19967973.953 7  83107615.306 7     -1283.543          44.000
R24  22472744.898 5 120171865.831 5     -4405.340          33.000
C19  22666078.539 7 118028217.159 7     -1679.406          42.000
C22  22188202.633 6 115539763.256 6       822.855          36.000
E07  24714585.508 7 129876009.219 7      1618.359          42.000    24714593.523 7  99515440.091 7      1239.955          44.000
E08  21575932.508 8 113382310.875 8      -702.512          51.000    21575933.680 8  86877361.175 8      -538.306          51.000
E13  24012226.852 8 126185108.501 8     -1733.281          51.000    24012229.469 8  96687286.130 8     -1328.087          51.000
E15  27034033.961 5 142064804.603 5     -3240.828          34.000    27034035.008 5 108854856.830 5     -2482.783          31.000
