     3.02           OBSERVATION DATA    M (MIXED)           RINEX VERSION / TYPE
SAVERINEX           SC600               20200514 115930 LCL PGM / RUN BY / DATE
       G = GPS       R = GLONASS       C = COMPASS          COMMENT
       S = SBAS      J = QZSS          E = GALILEO          COMMENT
BEAN                                                        MARKER NAME
1                                                           MARKER NUMBER
GEODETIC                                                    MARKER TYPE
Unige DICCA         GTER                                    OBSERVER / AGENCY
SC60291900056       SC600               2.12(191226)        REC # / TYPE / VERS
                    HEMA45          NONE                    ANT # / TYPE
  4509407.8091   693652.4678  4442337.6214                  APPROX POSITION XYZ
        0.0000        0.0000        0.0000                  ANTENNA: DELTA H/E/N
G    8 C1C L1C D1C S1C C2Y L2Y D2Y S2Y                      SYS / # / OBS TYPES
R    8 C1C L1C D1C S1C C2P L2P D2P S2P                      SYS / # / OBS TYPES
C    4 C1I L1I D1I S1I                                      SYS / # / OBS TYPES
E    8 C1C L1C D1C S1C C7Q L7Q D7Q S7Q                      SYS / # / OBS TYPES
DBHZ                                                        COMMENT
     30.000                                                 INTERVAL
  2020    05    14    09    00    0.0000000     GPS         TIME OF FIRST OBS
  2020    05    14    09    59   30.0000000     GPS         TIME OF LAST OBS
     0                                                      RCV CLOCK OFFS APPL
G L1C  0.00000                                              SYS / PHASE SHIFT
G L2Y  0.00000                                              SYS / PHASE SHIFT
R L1C  0.00000                                              SYS / PHASE SHIFT
R L2P  0.25000                                              SYS / PHASE SHIFT
C L1I  0.00000                                              SYS / PHASE SHIFT
E L1C  0.50000                                              SYS / PHASE SHIFT
E L7Q -0.25000                                              SYS / PHASE SHIFT
 13 R01  1 R02 -4 R07  5 R08  6 R09 -2 R10 -5 R11  0 R12 -1 GLONASS SLOT / FRQ #
    R19  3 R20  2 R21  4 R22 -3 R23  3                      GLONASS SLOT / FRQ #
 C1C   71.950 C2C   71.950 C2P   71.950                     GLONASS COD/PHS/BIS
    18                                                      LEAP SECONDS
*** Above antenna height is from mark to ANTENNA BOTTOM.    COMMENT
    17     4        0.0000        ANT MEASURE TYPE/HEIGT    COMMENT
    0.0000    0.0000    0.0458    0.0405    0.0000          COMMENT
                    BASE STATION                            COMMENT
                                                            END OF HEADER
> 2020 05 14 09 00  0.0000000  0 16        .000000000000
G02  23331450.586 5 122607635.854 5      1486.453          35.000
G12  20140346.844 8 105838234.239 8      -598.465          51.000    20140345.867 8  82471343.816 8      -466.333          51.000
G24  21320064.625 8 112037687.883 8     -2341.324          50.000    21320065.828 8  87302093.897 8     -1824.408          50.000
G25  20595396.227 5 108229533.149 5      1333.613          34.000    20595394.898 5  84334709.871 5      1039.185          34.000
G29  23119422.492 5 121493524.332 5      3579.832          35.000    23119420.961 5  94670231.795 5      2789.486          34.000
R02  22573102.789 7 120454422.657 7     -3426.105          47.000    22573106.914 7  93686778.491 7     -2664.752          44.000
R12  19599253.539 6 104695741.712 6       684.051          39.000    19599257.500 5  81430001.639 5       532.036          32.000
R21  20782234.062 6 111209946.929 6     -1699.781          39.000    20782237.391 6  86496626.889 6     -1322.055          36.000
R22  20302533.852 8 108376290.989 8      2750.750          51.000    20302538.219 8  84292675.801 8      2139.472          50.000
C27  25533425.836 5 132959248.872 5     -2798.012          30.000
C29  23161617.555 8 120608607.632 8      2713.855          51.000
C30  22358964.047 7 116429016.372 7      -338.078          45.000
E01  24680557.852 7 129697211.479 7     -1374.496          45.000    24680561.031 6  99378428.357 6     -1053.179          41.000
E04  27379468.680 5 143880078.042 5     -2992.605          31.000
E31  23842331.016 5 125292293.031 5       806.082          31.000    23842330.016 5  96003182.243 5       618.084          31.000
E33  25907389.359 8 136144247.128 8      2710.895          51.000    25907394.188 8 104318319.934 8      2077.167          51.000
> 2020 05 14 09 00 30.0000000  0 17        .000000000000
G02  23323012.000 5 122563281.012 5      1475.684          31.000
G12  20143803.156 8 105856397.051 8      -607.293          51.000    20143802.062 8  82485496.638 8      -473.215          51.000
G24  21333471.367 8 112108141.556 8     -2350.484          51.000    21333473.266 8  87356992.873 8     -1831.546          51.000
G25  20587820.828 5 108189724.700 5      1325.223          33.000    20587819.234 5  84303690.328 5      1032.641          34.000
G29  23099032.664 5 121386238.233 5      3574.098          31.000
R02  22592403.594 7 120557412.270 7     -3434.531          47.000    22592407.383 7  93766881.457 7     -2671.302          44.000
R12  19595448.406 5 104675394.308 5       676.176          35.000    19595455.641 5  81414187.306 5       525.914          32.000
R21  20791842.133 5 111261350.774 5     -1722.484          31.000    20791843.125 5  86536607.586 5     -1339.707          35.000
R22  20287144.594 8 108294143.133 8      2731.059          51.000    20287148.984 8  84228783.026 8      2124.154          50.000
C27  25549576.250 5 133043349.010 5     -2803.117          32.000
C29  23146019.992 8 120527382.332 8      2706.340          51.000
C30  22360967.273 7 116439448.514 7      -352.320          46.000
E01  24688423.094 7 129738543.711 7     -1375.723          47.000    24688426.516 7  99410098.481 7     -1054.044          43.000
E04  27396566.234 5 143969927.951 5     -2991.055          31.000
E26  24324718.352 5 127827232.867 5       384.188          35.000
E31                                                                  23837748.352 5  95984729.044 5       616.597          33.000
E33  25891940.555 8 136063061.985 8      2706.711          49.000    25891945.734 8 104256113.144 8      2073.943          51.000
> 2020 05 14 09 01  0.0000000  0 14        .000000000000
G02  23314639.375 5 122519253.473 5      1456.418          32.000
G12  20147321.258 8 105874884.676 8      -623.988          51.000    20147319.953 8  82499902.569 8      -486.225          51.000
G24  21346941.555 8 112178927.939 8     -2367.316          50.000    21346944.117 8  87412151.093 8     -1844.662          50.000
G25  20580302.758 5 108150190.519 5      1309.156          31.000    20580308.461 5  84272885.257 5      1020.125          31.000
R02  22611762.883 7 120660715.559 7     -3450.809          46.000    22611766.461 7  93847228.419 7     -2683.965          44.000
R12  19591702.969 5 104655358.652 5       659.246          35.000    19591710.695 5  81398621.452 5       512.753          30.000
R21  20801584.125 6 111313492.946 6     -1752.934          37.000    20801585.812 5  86577162.704 5     -1363.396          35.000
R22  20271877.812 8 108212647.440 8      2703.266          51.000    20271881.906 8  84165397.509 8      2102.540          48.000
C27  25565769.352 5 133127673.236 5     -2817.113          31.000
C29  23130476.766 8 120446443.160 8      2690.789          51.000
C30  22363063.453 7 116450362.997 7      -374.113          45.000
E01  24696307.250 8 129779973.433 8     -1384.848          48.000    24696310.961 7  99441843.337 7     -1061.138          43.000
E31                                                                  23833186.617 5  95966369.612 5       608.898          31.000
E33  25876526.664 7 135982066.095 7      2694.395          46.000    25876532.258 8 104194051.333 8      2064.560          51.000
> 2020 05 14 09 01 30.0000000  0 13        .000000000000
G02  23306356.570 5 122475723.957 5      1447.152          30.000
G12  20150912.281 8 105893755.801 8      -633.246          51.000    20150910.984 8  82514607.342 8      -493.439          51.000
G24  21360486.133 8 112250105.249 8     -2376.891          50.000    21360489.289 8  87467613.918 8     -1852.123          50.000
G25  20572856.102 5 108111088.439 5      1300.559          34.000    20572861.438 5  84242425.489 5      1013.422          34.000
R02  22631191.180 7 120764388.575 7     -3459.699          44.000    22631194.930 7  93927862.954 7     -2690.880          44.000
R12  19588029.578 5 104635724.423 5       649.691          35.000    19588035.102 5  81383367.329 5       505.312          31.000
R21  20811477.391 5 111366431.614 5     -1775.934          35.000    20811479.977 6  86618337.183 6     -1381.282          37.000
R22  20256745.070 8 108131868.011 8      2682.852          51.000    20256748.766 7  84102569.105 7      2086.662          47.000
C27  25582017.086 5 133212278.222 5     -2822.668          32.000
C29  23114999.688 8 120365850.898 8      2682.832          51.000
C30  22365262.930 7 116461818.006 7      -388.676          44.000
E01  24704221.117 7 129821560.031 7     -1386.758          46.000    24704224.891 7  99473708.397 7     -1062.676          44.000
E33  25861159.430 7 135901320.810 7      2689.371          43.000    25861165.859 8 104132181.515 8      2060.753          51.000
> 2020 05 14 09 02  0.0000000  0 17        .000000000000
G02  23298144.641 5 122432578.986 5      1425.695          33.000    23298138.047 5  95401974.488 5      1110.931          33.000
G06  23481347.750 5 123395314.183 5       285.836          35.000    23481351.539 5  96152191.328 5       222.723          35.000
G12  20154560.742 8 105912928.546 8      -651.047          51.000    20154559.523 8  82529547.142 8      -507.309          51.000
G24  21374089.492 8 112321592.183 8     -2395.004          50.000    21374093.141 8  87523318.006 8     -1866.237          50.000
G25  20565463.711 5 108072238.393 5      1283.129          35.000    20565470.086 6  84212152.738 6       999.841          36.000
G29  23038036.188 6 121065746.729 6      3543.422          36.000    23038048.797 6  94336907.078 6      2761.108          36.000
G32  22187794.148 5 116597691.886 5       586.191          35.000
R02  22650671.969 7 120868344.276 7     -3476.945          44.000    22650675.953 7  94008717.352 7     -2704.294          43.000
R11  21061761.242 5 112547682.021 5     -2253.406          31.000    21061759.320 4  87537063.375 4     -1752.649          27.000
R12  19584410.484 5 104616412.503 5       632.602          35.000    19584414.477 5  81368329.394 5       492.023          33.000
R21  20821502.453 6 111420081.341 6     -1807.348          36.000    20821507.234 5  86660064.787 5     -1405.718          35.000
R22  20241731.656 8 108051726.078 8      2653.688          50.000    20241734.812 7  84040236.539 7      2063.982          46.000
C27  25598303.570 5 133297081.567 5     -2836.188          32.000
C29  23099573.859 8 120285527.192 8      2666.062          51.000
C30  22367551.062 7 116473732.715 7      -411.668          44.000
E01  24712149.094 7 129863222.553 7     -1397.004          45.000    24712153.141 7  99505631.586 7     -1070.291          44.000
E33  25845825.648 7 135820747.047 7      2676.047          44.000    25845832.117 8 104070443.152 8      2050.492          51.000
> 2020 05 14 09 02 30.0000000  0 17        .000000000000
G02  23290023.219 5 122389910.069 5      1417.152          34.000
G12  20158291.320 8 105932532.762 8      -657.152          51.000    20158290.117 8  82544823.141 8      -512.067          51.000
G24  21387776.297 8 112393517.823 8     -2401.277          49.000    21387780.383 8  87579363.951 8     -1871.125          49.000
G25  20558150.461 6 108033804.557 6      1278.168          36.000    20558154.117 6  84182204.308 6       995.975          36.000
G29  23017809.820 6 120959451.331 6      3541.090          39.000    23017819.109 6  94254079.517 6      2759.291          40.000
G32  22184485.516 6 116580302.874 6       572.031          37.000    22184500.219 5  90841815.605 5       445.726          32.000
R02  22670230.086 7 120972711.072 7     -3482.082          44.000    22670233.727 7  94089891.484 7     -2708.286          43.000
R11  21074429.289 5 112615332.443 5     -2257.910          34.000    21074418.664 4  87589680.343 4     -1756.146          29.000
R12  19580872.945 6 104597492.729 6       626.680          36.000    19580879.383 5  81353626.187 5       487.418          34.000
R21  20831687.086 5 111474572.432 5     -1826.473          30.000    20831689.094 5  86702446.650 5     -1420.593          34.000
R22  20226863.195 8 107972357.701 8      2636.273          51.000    20226866.227 8  83978505.610 8      2050.438          48.000
C27  25614652.609 5 133382210.557 5     -2839.723          30.000
C29  23084225.211 8 120205603.375 8      2660.922          51.000
C30  22369952.180 7 116486235.937 7      -423.125          42.000
E01  24720116.570 7 129905091.445 7     -1395.559          47.000    24720120.562 7  99537712.965 7     -1069.354          44.000
E31  23819693.281 6 125173341.642 6       781.922          36.000
E33  25830550.797 7 135740477.440 7      2674.102          46.000    25830556.492 8 104008937.867 8      2048.927          51.000
> 2020 05 14 09 03  0.0000000  0 17        .000000000000
G12  20162072.812 8 105952404.876 8      -666.973          51.000    20162071.531 8  82560307.904 8      -519.719          51.000
G24  21401515.352 8 112465718.438 8     -2411.227          48.000    21401519.836 8  87635624.155 8     -1878.878          48.000
G25  20550885.555 6 107995624.600 6      1268.559          38.000    20550883.039 6  84152453.796 6       988.493          36.000
G29  22997612.516 6 120853308.798 6      3535.676          40.000    22997618.742 6  94171371.060 6      2755.072          40.000
G32  22181274.344 6 116563424.387 6       554.000          36.000    22181297.219 4  90828663.134 4       431.670          29.000
R02  22689833.508 7 121077318.273 7     -3491.012          45.000    22689837.320 7  94171252.596 7     -2715.234          44.000
R11  21087128.398 6 112683174.220 6     -2265.461          37.000    21087118.000 4  87642476.563 4     -1762.025          28.000
R12  19577380.141 5 104578846.014 5       616.598          35.000    19577387.680 5  81339123.568 5       479.576          34.000
R21  20841995.211 4 111529736.487 4     -1850.250          29.000    20841998.430 5  86745352.117 5     -1439.080          34.000
R22  20212109.914 8 107893601.182 8      2614.879          51.000    20212112.602 8  83917250.535 8      2033.795          49.000
C27  25631032.922 4 133467512.703 4     -2845.270          28.000
C29  23068922.758 8 120125920.078 8      2651.992          51.000
C30  22372434.891 6 116499165.743 6      -438.195          41.000
E01  24728092.164 7 129947004.081 7     -1397.867          44.000    24728095.961 7  99569827.844 7     -1071.126          45.000
E26  24314924.289 5 127775798.992 5       307.785          33.000    24314913.422 5  97906125.416 5       235.380          32.000
E31  23815243.922 5 125149937.892 5       778.582          30.000
E33  25815303.266 7 135660351.220 7      2668.375          46.000    25815308.883 8 103947542.475 8      2044.614          51.000
> 2020 05 14 09 03 30.0000000  0 15        .000000000000
G12  20165945.062 8 105972754.493 8      -682.484          51.000    20165943.758 8  82576164.756 8      -531.806          51.000
G24  21415346.719 8 112538403.228 8     -2427.066          49.000    21415351.320 8  87692261.625 8     -1891.221          49.000
G25  20543708.445 6 107957908.985 6      1253.195          36.000    20543705.930 6  84123065.023 6       976.516          36.000
G29  22977484.336 6 120747531.818 6      3523.543          41.000    22977488.797 6  94088947.479 6      2745.621          41.000
G32  22178199.836 6 116547267.175 6       530.609          37.000    22178194.227 5  90815999.955 5       413.441          33.000
R02  22709521.406 7 121182376.093 7     -3505.590          47.000    22709525.812 7  94252964.171 7     -2726.573          44.000
R12  19573980.914 5 104560693.421 5       601.551          34.000    19573991.602 5  81325000.545 5       467.873          34.000
R21  20852469.805 6 111585784.993 6     -1879.070          36.000    20852471.836 5  86788945.426 5     -1461.502          32.000
R22  20197511.930 8 107815673.658 8      2587.582          51.000    20197514.594 8  83856640.261 8      2012.564          49.000
C29  23053706.812 8 120046687.614 8      2637.273          51.000
C30  22375040.234 7 116512729.949 7      -459.367          42.000
E01  24736116.102 7 129989170.745 7     -1406.141          43.000    24736120.031 7  99602137.338 7     -1077.352          45.000
E26  24313242.273 5 127766949.133 5       288.586          32.000    24313226.859 5  97899355.567 5       220.861          33.000
E31                                                                  23810834.656 5  95876396.090 5       590.111          34.000
E33  25800123.609 7 135580580.693 7      2656.793          47.000    25800129.406 8 103886419.647 8      2035.754          49.000
> 2020 05 14 09 04  0.0000000  0 15        .000000000000
G12  20169863.789 8 105993347.830 8      -692.215          51.000    20169862.578 8  82592211.506 8      -539.388          51.000
G24  21429225.914 8 112611337.703 8     -2437.086          50.000    21429230.008 8  87749093.666 8     -1899.031          50.000
G25  20536574.266 5 107920425.024 5      1243.508          32.000    20536575.383 5  84093856.622 5       968.961          30.000
G29  22957381.977 7 120641889.786 7      3517.551          43.000    22957384.484 7  94006629.055 7      2740.949          43.000
G32  22175218.438 6 116531598.730 6       512.445          38.000    22175207.023 3  90803790.997 3       399.323          23.000
R02  22729248.266 7 121287642.280 7     -3514.109          46.000    22729253.188 7  94334837.832 7     -2733.196          44.000
R12  19570624.328 5 104542787.284 5       591.391          33.000    19570636.633 5  81311060.624 5       459.967          34.000
R21  20863065.320 4 111642478.062 4     -1902.340          28.000    20863067.289 5  86833040.002 5     -1479.595          33.000
R22  20183025.336 8 107738341.673 8      2565.934          51.000    20183027.906 8  83796493.184 8      1995.726          48.000
C29  23038533.383 8 119967677.084 8      2628.242          51.000
C30  22377722.875 7 116526697.002 7      -473.938          43.000
E01  24744143.961 7 130031358.393 7     -1408.223          42.000    24744147.797 7  99634462.966 7     -1079.216          45.000
E26  24311629.180 5 127758472.717 5       275.477          34.000    24311609.664 5  97892851.196 5       211.220          33.000
E31                                                                  23806439.961 5  95858705.960 5       587.749          33.000
E33  25784967.844 7 135500934.913 7      2650.840          47.000    25784973.602 8 103825392.402 8      2031.358          48.000
> 2020 05 14 09 04 30.0000000  0 14        .000000000000
G12  20173860.875 8 106014352.381 8      -709.488          51.000    20173859.828 8  82608578.687 8      -552.848          51.000
G24  21443184.625 8 112684689.490 8     -2454.391          51.000    21443187.914 8  87806250.857 8     -1912.515          51.000
G25  20529517.047 6 107883341.240 6      1227.199          37.000    20529520.250 6  84064960.146 6       956.259          37.000
G29  22937337.938 7 120536553.432 7      3503.609          44.000    22937338.391 7  93924548.809 7      2730.085          44.000
R02  22749045.062 7 121393283.853 7     -3530.062          45.000    22749050.008 7  94417003.434 7     -2745.604          42.000
R11  21125593.727 5 112888705.015 5     -2302.359          33.000
R12  19567352.484 5 104525211.390 5       573.605          34.000    19567356.961 5  81297419.266 5       446.138          31.000
R21  20873800.703 5 111699937.873 5     -1932.973          30.000    20873804.812 5  86877728.754 5     -1503.423          30.000
R22  20168682.867 8 107661780.038 8      2536.680          51.000    20168685.117 7  83736945.253 7      1972.976          47.000
C29  23023435.047 8 119889057.361 8      2611.664          51.000
C30  22380514.438 7 116541233.151 7      -496.227          43.000
E01  24752207.266 6 130073735.671 6     -1418.133          38.000    24752211.812 7  99666933.852 7     -1086.669          45.000
E31                                                                  23802082.703 5  95841131.182 5       579.683          32.000
E33  25769868.188 8 135421584.311 8      2637.645          48.000    25769872.906 7 103764591.382 7      2021.049          46.000
> 2020 05 14 09 05  0.0000000  0 14        .000000000000
G02  23250584.492 4 122182645.155 4      1349.059          29.000
G12  20177913.422 8 106035648.528 8      -713.215          51.000    20177912.469 8  82625173.087 8      -555.752          51.000
G24  21457200.125 8 112758338.953 8     -2458.520          51.000    21457202.328 8  87863640.015 8     -1915.733          51.000
G25  20522513.906 6 107846539.100 6      1223.406          36.000    20522517.320 5  84036283.120 5       953.307          35.000
G29  22917329.852 7 120431405.981 7      3503.227          43.000    22917328.875 7  93842615.758 7      2729.787          44.000
R02  22768888.883 7 121499175.610 7     -3532.281          45.000    22768892.945 6  94499363.619 6     -2747.330          41.000
R12  19564132.312 6 104508037.267 6       569.898          36.000    19564137.781 5  81284058.824 5       443.251          32.000
R21  20884692.805 5 111758133.287 5     -1949.988          34.000    20884691.703 5  86922991.797 5     -1516.664          33.000
R22  20154462.047 8 107585871.169 8      2520.828          51.000    20154464.398 7  83677905.095 7      1960.650          46.000
C29  23008389.609 8 119810712.465 8      2608.383          51.000
C30  22383392.836 7 116556219.894 7      -505.609          44.000
E01  24760283.883 6 130116183.590 6     -1414.652          38.000    24760288.758 7  99699458.858 7     -1084.002          45.000
E31                                                                  23797742.789 5  95823647.718 5       581.987          31.000
E33  25754802.836 8 135342411.950 8      2637.652          49.000    25754806.609 8 103703926.898 8      2021.004          48.000
> 2020 05 14 09 05 30.0000000  0 13        .000000000000
G12  20182032.539 8 106057294.650 8      -729.129          51.000    20182031.539 8  82642040.185 8      -568.155          51.000
G24  21471283.203 8 112832343.716 8     -2474.430          51.000    21471284.547 8  87921306.022 8     -1928.130          51.000
G25  20515575.609 6 107810077.937 6      1207.855          37.000    20515578.195 6  84007871.871 6       941.189          36.000
G29  22897369.555 6 120326508.846 6      3490.492          41.000    22897367.680 6  93760877.780 6      2719.867          41.000
G32  22166955.422 4 116488145.019 4       450.070          29.000
R02  22788790.148 7 121605372.681 7     -3546.730          45.000    22788794.102 6  94581961.273 6     -2758.571          41.000
R12  19560978.836 5 104491242.923 5       553.723          35.000    19560976.227 4  81270954.489 4       430.673          28.000
R22  20140375.500 8 107510678.685 8      2492.609          51.000    20140377.648 7  83619422.115 7      1938.696          46.000
C29  22993408.656 8 119732702.947 8      2592.984          50.000
C30  22386368.367 7 116571715.184 7      -526.742          44.000
E01  24768386.422 6 130158761.306 6     -1423.074          38.000    24768390.500 7  99732083.360 7     -1090.593          46.000
E31  23793442.211 5 125035406.165 5       750.863          35.000    23793435.211 5  95806304.299 5       574.867          33.000
E33  25739783.312 8 135263479.031 8      2625.305          51.000    25739787.055 8 103643445.870 8      2011.579          51.000
> 2020 05 14 09 06  0.0000000  0 14        .000000000000
G12  20186216.359 8 106079280.566 8      -737.891          51.000    20186215.203 8  82659172.064 8      -574.980          51.000
G24  21485431.773 8 112906693.151 8     -2483.484          51.000    21485432.812 8  87979240.587 8     -1935.186          51.000
G25  20508700.797 6 107773948.290 6      1199.387          39.000    20508702.469 6  83979718.945 6       934.590          39.000
G29  22877456.188 6 120221854.709 6      3485.332          37.000    22877452.953 6  93679329.161 6      2715.846          37.000
R02  22808746.359 7 121711860.954 7     -3554.043          44.000    22808750.992 6  94664785.434 6     -2764.256          41.000
R12  19557892.523 6 104474748.286 6       544.309          39.000    19557890.359 4  81258132.892 4       423.345          29.000
R21  20906854.523 5 111876765.519 5     -2000.625          35.000    20906854.148 5  87015260.674 5     -1556.048          30.000
R22  20126421.953 8 107436195.881 8      2471.512          51.000    20126424.258 7  83561491.098 7      1922.287          47.000
C29  22978490.484 8 119655021.116 8      2584.414          49.000
C30  22389439.781 7 116587708.744 7      -540.863          45.000
E01  24776512.195 6 130201459.234 6     -1424.602          38.000    24776516.008 7  99764799.972 7     -1091.748          46.000
E09  23968830.094 7 125957052.760 7     -1689.035          42.000
E31  23789159.430 5 125012877.664 5       747.457          31.000    23789157.055 5  95789070.584 5       572.999          32.000
E33  25724808.062 8 135184777.841 8      2620.105          51.000    25724811.680 8 103583142.375 8      2007.553          51.000
> 2020 05 14 09 06 30.0000000  0 12        .000000000000
G12  20190471.312 8 106101640.370 8      -753.027          51.000    20190469.914 8  82676595.278 8      -586.775          51.000
G24  21499652.383 8 112981421.095 8     -2498.586          51.000    21499652.945 8  88037470.099 8     -1946.950          51.000
G25  20501895.180 5 107738185.601 5      1184.125          35.000    20501895.188 5  83951851.922 5       922.695          34.000
R02  22828762.961 7 121818671.771 7     -3567.148          42.000    22828767.875 6  94747860.444 6     -2774.452          40.000
R12  19554878.688 6 104458650.814 6       528.883          38.000    19554877.516 4  81245616.312 4       411.356          28.000
R22  20112608.773 8 107362461.743 8      2443.703          51.000    20112611.773 8  83504142.365 8      1900.661          49.000
C29  22963642.055 8 119577703.640 8      2569.793          48.000
C30  22392613.625 7 116604234.612 7      -561.105          45.000
E01  24784666.703 6 130244312.475 6     -1432.254          36.000    24784671.352 7  99797635.631 7     -1097.567          47.000
E09  23978515.633 7 126007941.782 7     -1703.766          44.000    23978515.117 5  96551536.724 5     -1305.522          35.000
E31  23784910.711 5 124990549.385 5       739.895          31.000    23784913.219 5  95771985.694 5       566.612          33.000
E33  25709883.680 8 135106345.449 8      2608.574          51.000    25709886.781 8 103523044.836 8      1998.715          51.000
> 2020 05 14 09 07  0.0000000  0 16        .000000000000
G02  23220520.820 5 122024673.380 5      1289.422          32.000
G12  20194799.859 8 106124387.045 8      -761.238          51.000    20194798.453 8  82694319.952 8      -593.173          51.000
G24  21513947.266 8 113056540.500 8     -2506.980          51.000    21513947.250 8  88096004.671 8     -1953.491          51.000
G25  20495161.828 5 107702803.685 5      1176.656          35.000    20495160.734 5  83924281.639 5       916.878          33.000
G29  22837779.133 6 120013313.114 6      3467.840          36.000    22837786.383 5  93516887.902 5      2702.213          35.000
R02  22848841.164 7 121925814.030 7     -3573.414          42.000    22848845.539 6  94831193.278 6     -2779.322          39.000
R12  19551937.508 6 104442984.168 6       520.203          37.000    19551930.898 4  81233369.870 4       404.602          27.000
R21  20929591.562 5 111998520.835 5     -2050.129          31.000    20929586.750 4  87109910.973 4     -1594.551          29.000
R22  20098939.312 8 107289493.709 8      2422.934          51.000    20098943.125 8  83447389.466 8      1884.504          50.000
C29  22948866.914 8 119500766.005 8      2561.719          49.000
C30  22395891.906 7 116621305.676 7      -574.723          45.000
E01                                                                  24792858.250 7  99830600.894 7     -1098.348          47.000
E09  23988272.328 7 126059208.910 7     -1711.609          44.000    23988271.492 6  96590819.329 6     -1311.505          36.000
E26  24303764.188 5 127717105.008 5       185.141          32.000
E31  23780703.453 5 124968456.431 5       737.672          34.000    23780705.570 5  95755034.363 5       565.292          33.000
E33  25695013.180 8 135028197.591 8      2603.617          50.000    25695015.500 8 103463165.298 8      1994.973          51.000
> 2020 05 14 09 07 30.0000000  0 15        .000000000000
G12  20199157.516 8 106147286.701 8      -770.836          51.000    20199156.289 8  82712163.830 8      -600.651          51.000
G24  21528271.500 8 113131816.602 8     -2516.754          49.000    21528271.578 8  88154661.348 8     -1961.107          49.000
G25  20488457.219 5 107667569.968 5      1167.363          35.000    20488457.227 6  83896826.778 6       909.634          36.000
G29  22817988.586 6 119909301.562 6      3461.094          41.000    22817986.734 6  93435840.045 6      2696.965          41.000
R02  22868937.883 7 122033031.528 7     -3580.891          45.000    22868937.906 6  94914581.774 6     -2785.134          37.000
R11  21203926.180 5 113307309.297 5     -2352.352          31.000    21203915.062 5  88127904.274 5     -1829.598          31.000
R12  19549028.781 6 104427444.442 6       510.188          37.000    19549024.414 4  81221293.402 4       396.809          28.000
R22  20085370.305 8 107217068.066 8      2400.613          51.000    20085374.586 8  83391061.132 8      1867.147          50.000
C29  22934121.430 8 119423979.195 8      2552.094          50.000
C30  22399230.297 7 116638690.258 7      -589.547          44.000
E01                                                                  24801032.609 7  99863517.249 7     -1100.243          47.000
E09  23998055.828 7 126110619.645 7     -1721.094          44.000    23998056.828 6  96630211.935 6     -1318.808          38.000
E26                                                                  24302738.922 5  97857046.537 5       131.361          30.000
E31  23776486.680 5 124946273.840 5       734.441          34.000    23776489.484 5  95738069.152 5       562.981          31.000
E33  25680152.117 8 134950103.181 8      2597.312          50.000    25680153.984 8 103403326.750 8      1990.116          50.000
> 2020 05 14 09 08  0.0000000  0 14        .000000000000
G12  20203632.758 8 106170803.980 8      -784.176          51.000    20203631.719 8  82730488.974 8      -611.046          51.000
G24  21542713.531 8 113207713.655 8     -2530.207          48.000    21542714.555 7  88213801.887 7     -1971.587          47.000
G25  20481869.898 6 107632949.820 6      1153.660          37.000    20481869.555 5  83869849.954 5       898.950          35.000
G29  22798299.070 7 119805871.664 7      3450.363          44.000
R02  22889139.648 7 122140838.834 7     -3592.012          47.000    22889139.172 6  94998420.872 6     -2793.790          38.000
R12  19546238.594 6 104412545.108 6       496.617          36.000    19546233.422 4  81209699.040 4       386.264          27.000
R22  20071989.781 8 107145650.863 8      2374.352          51.000    20071993.656 8  83335507.636 8      1846.718          50.000
C29  22919494.016 8 119347806.196 8      2538.941          51.000
C30  22402717.281 6 116656848.804 6      -608.336          41.000
E01  24809288.984 6 130373689.850 6     -1441.859          38.000    24809283.812 8  99896741.320 8     -1104.825          48.000
E09  24007954.359 7 126162637.928 7     -1734.129          44.000    24007957.258 6  96670070.099 6     -1328.676          38.000
E26  24301865.297 5 127707135.149 5       154.695          34.000
E31  23772350.766 5 124924546.350 5       728.062          32.000    23772352.398 4  95721411.859 4       557.465          29.000
E33  25665389.922 8 134872529.669 8      2587.203          50.000    25665390.398 7 103343887.323 7      1982.441          47.000
> 2020 05 14 09 08 30.0000000  0 14        .000000000000
G12  20208132.508 8 106194450.016 8      -794.047          51.000    20208131.430 8  82748914.454 8      -618.738          51.000
G24  21557180.461 7 113283743.160 7     -2540.145          47.000    21557182.688 7  88273045.646 7     -1979.330          47.000
G25  20475306.156 5 107598455.421 5      1144.426          35.000    20475309.844 5  83842971.169 5       891.757          35.000
G29  22778616.570 7 119702437.076 7      3443.055          46.000    22778611.648 7  93274604.145 7      2682.903          47.000
R02  22909351.461 7 122248688.540 7     -3599.777          47.000    22909352.305 6  95082303.920 6     -2799.827          39.000
R11  21230470.352 5 113449240.165 5     -2371.176          30.000    21230465.328 4  88238282.588 4     -1844.248          26.000
R12  19543474.047 6 104397668.143 6       485.652          37.000    19543474.766 4  81198219.318 4       377.727          27.000
R21  20964688.008 5 112186244.134 5     -2121.379          32.000    20964682.570 4  87255976.027 4     -1649.974          25.000
R22  20058705.125 8 107074739.479 8      2351.254          51.000    20058709.656 8  83280353.846 8      1828.753          50.000
C29  22904891.703 8 119271765.209 8      2528.793          51.000
C30  22406259.836 6 116675296.746 6      -623.574          40.000
E01  24817526.445 6 130416963.517 6     -1444.871          37.000    24817518.969 8  99929899.105 8     -1106.989          48.000
E09  24017875.289 7 126214774.040 7     -1743.594          43.000    24017879.328 6  96710018.573 6     -1336.126          39.000
E33  25650634.164 8 134794990.807 8      2580.332          51.000    25650631.891 7 103284474.484 7      1977.126          44.000
> 2020 05 14 09 09  0.0000000  0 12        .000000000000
G12  20212714.508 8 106218527.898 8      -808.031          51.000    20212712.977 8  82767676.425 8      -629.635          51.000
G24  21571730.664 8 113360206.856 8     -2554.309          48.000    21571733.492 8  88332627.737 8     -1990.370          48.000
G25  20468823.383 5 107564390.873 5      1129.938          34.000    20468829.086 5  83816427.365 5       880.474          34.000
G29  22759001.547 7 119599359.255 7      3431.723          46.000    22758998.438 7  93194283.829 7      2674.073          47.000
R02  22929629.602 7 122356900.409 7     -3611.488          45.000    22929632.977 6  95166468.622 6     -2808.938          39.000
R12  19540797.891 6 104383431.479 6       470.492          36.000    19540795.250 4  81187113.667 4       365.938          27.000
R22  20045575.820 8 107004655.646 8      2324.051          51.000    20045579.711 8  83225844.199 8      1807.592          48.000
C29  22890372.281 8 119196158.985 8      2514.660          51.000
C30  22409915.812 6 116694334.343 6      -642.695          38.000
E01                                                                  24825795.109 8  99963223.338 8     -1112.266          49.000
E09  24027876.039 7 126267330.168 7     -1757.309          43.000    24027881.344 6  96750288.849 6     -1346.386          38.000
E33  25635943.594 8 134717792.306 8      2569.285          51.000    25635936.750 6 103225322.473 6      1968.604          41.000
> 2020 05 14 09 09 30.0000000  0 13        .000000000000
G12  20217356.641 8 106242921.832 8      -815.480          51.000    20217354.656 8  82786684.685 8      -635.436          51.000
G24  21586342.039 8 113436989.388 8     -2561.773          49.000    21586344.883 8  88392458.240 8     -1996.190          48.000
G25  20462400.844 5 107530634.431 5      1122.750          33.000    20462396.836 5  83790112.223 5       874.864          33.000
G29  22739431.742 7 119496522.324 7      3426.828          46.000    22739429.984 7  93114151.212 7      2670.259          46.000
R02  22949951.523 7 122465353.618 7     -3616.070          43.000    22949957.414 6  95250821.071 6     -2812.502          38.000
R11  21257239.477 5 113592209.802 5     -2390.055          31.000
R12  19538185.016 6 104369477.869 6       462.559          38.000    19538183.375 4  81176254.942 4       359.765          27.000
R21  20988766.094 5 112315122.407 5     -2168.254          35.000    20988786.938 5  87356206.817 5     -1686.420          30.000
R22  20032580.055 8 106935285.827 8      2303.402          51.000    20032583.859 7  83171889.901 7      1791.535          47.000
C29  22875914.539 8 119120875.772 8      2506.887          51.000
E01  24834093.430 5 130504025.178 5     -1451.789          33.000    24834090.305 8  99996626.225 8     -1112.497          49.000
E09  24037934.773 7 126320190.129 7     -1764.137          43.000    24037939.805 6  96790791.916 6     -1351.714          38.000
E33  25621296.664 8 134640821.448 8      2564.840          51.000    25621286.328 6 103166344.884 6      1965.246          41.000
> 2020 05 14 09 10  0.0000000  0 13        .000000000000
G12  20222055.375 8 106267613.735 8      -829.625          51.000    20222053.352 8  82805925.132 8      -646.461          51.000
G24  21601010.602 8 113514071.918 8     -2576.055          48.000    21601013.203 8  88452522.495 8     -2007.318          48.000
G25  20456038.297 6 107497182.895 6      1108.754          36.000    20456032.617 5  83764046.191 5       863.964          34.000
G29  22719904.531 7 119393911.044 7      3415.285          44.000    22719903.945 7  93034194.414 7      2661.264          44.000
R02  22970314.914 7 122574025.645 7     -3627.582          43.000    22970322.375 6  95335343.771 6     -2821.453          38.000
R11  21270691.234 5 113664109.206 5     -2401.980          33.000
R12  19535633.508 6 104355820.457 6       447.262          37.000    19535633.984 5  81165648.169 5       347.867          30.000
R21  21001006.078 6 112380579.225 6     -2194.895          36.000    21001026.719 5  87407117.732 5     -1707.137          31.000
R22  20019715.695 8 106866615.311 8      2275.715          51.000    20019719.320 8  83118479.502 8      1770.000          48.000
C29  22861515.656 8 119045900.054 8      2492.426          50.000
E01  24842409.859 5 130547722.930 5     -1459.055          35.000    24842401.984 8 100030094.371 8     -1117.899          49.000
E09  24048047.578 6 126373334.859 6     -1777.746          41.000    24048049.984 5  96831513.193 5     -1362.295          34.000
E33  25606690.391 8 134564062.700 8      2553.500          51.000    25606680.242 7 103107529.791 7      1956.689          43.000
> 2020 05 14 09 10 30.0000000  0 15        .000000000000
G12  20226828.867 8 106292698.623 8      -840.746          51.000    20226827.078 8  82825471.807 8      -655.124          51.000
G24  21615754.391 8 113591549.778 8     -2587.320          49.000    21615756.664 8  88512894.805 8     -2016.094          49.000
G25  20449747.703 5 107464125.617 5      1097.480          35.000    20449745.773 5  83738287.335 5       855.183          34.000
G29  22700438.617 7 119291623.608 7      3406.004          42.000    22700439.203 7  92954489.929 7      2654.029          42.000
R02  22990738.070 7 122683009.781 7     -3636.156          45.000    22990747.016 6  95420109.174 6     -2828.122          40.000
R12  19533159.266 6 104342607.404 6       435.219          41.000    19533159.977 5  81155370.822 5       338.503          31.000
R22  20007001.992 8 106798735.632 8      2250.945          51.000    20007004.602 8  83065684.238 8      1750.735          48.000
C29  22847194.531 8 118971328.845 8      2480.840          50.000
C30  22421437.266 6 116754299.008 6      -691.230          37.000
E01                                                                  24850748.461 8 100063701.454 8     -1121.054          49.000
E04  27738873.062 5 145768760.929 5     -2996.355          32.000
E09  24058231.773 6 126426858.881 6     -1788.324          38.000    24058229.688 5  96872525.064 5     -1370.427          33.000
E26  24298504.422 5 127689489.602 5        78.719          34.000    24298507.086 6  97840016.663 6        60.595          37.000
E31                                                                  23751945.297 5  95639231.935 5       538.552          33.000
E33  25592142.961 8 134487614.088 8      2545.043          51.000    25592135.125 7 103048952.341 7      1950.080          46.000
> 2020 05 14 09 11  0.0000000  0 15        .000000000000
G12  20231662.203 8 106318097.819 8      -851.137          51.000    20231660.633 8  82845263.382 8      -663.223          51.000
G24  21630557.906 8 113669342.582 8     -2597.680          49.000    21630559.680 8  88573512.533 8     -2024.166          49.000
G25  20443516.992 5 107431384.524 5      1087.531          30.000    20443518.602 5  83712774.795 5       847.424          31.000
G29  22681019.891 7 119189583.864 7      3398.020          43.000    22681021.969 7  92874978.400 7      2647.804          42.000
R02  23011204.578 7 122792221.767 7     -3643.473          47.000    23011214.836 6  95505051.746 6     -2833.815          41.000
R11  21297782.203 5 113808897.234 5     -2420.336          32.000
R12  19530751.359 6 104329738.076 6       423.848          39.000    19530752.477 5  81145361.338 5       329.659          33.000
R22  19994423.398 8 106731595.267 8      2226.867          51.000    19994425.469 7  83013463.520 7      1732.008          47.000
C29  22832936.961 8 118897086.280 8      2469.953          49.000
C30  22425469.773 6 116775292.760 6      -706.984          38.000
E01                                                                  24859114.656 8 100097387.423 8     -1123.634          49.000
E04  27755978.742 5 145858651.955 5     -2994.801          32.000
E09  24068470.719 5 126480682.281 5     -1798.762          35.000    24068467.453 5  96913744.242 5     -1378.083          30.000
E31                                                                  23747943.023 5  95623130.616 5       535.199          31.000
E33  25577639.578 8 134411399.111 8      2537.246          51.000    25577634.898 8 102990553.883 8      1944.124          49.000
> 2020 05 14 09 11 30.0000000  0 15        .000000000000
G12  20236548.367 8 106343774.674 8      -863.133          51.000    20236546.938 8  82865271.305 8      -672.571          51.000
G24  21645414.281 8 113747413.699 8     -2609.738          49.000    21645416.289 8  88634347.149 8     -2033.562          49.000
G29  22661643.078 7 119087758.638 7      3388.059          45.000    22661645.516 7  92795634.064 7      2640.046          45.000
R02  23031706.594 7 122901620.805 7     -3652.418          47.000    23031717.000 6  95590139.814 6     -2840.773          41.000
R11  21311374.953 5 113881615.490 5     -2430.348          34.000    21311377.055 4  88574528.667 4     -1890.273          24.000
R12  19528399.133 6 104317177.628 6       410.742          40.000    19528401.383 5  81135592.047 5       319.466          33.000
R21  21038518.117 4 112581333.584 4     -2265.590          28.000    21038536.773 4  87563289.060 4     -1762.116          25.000
R22  19981973.844 8 106665142.089 8      2201.062          51.000    19981976.609 7  82961775.634 7      1711.937          47.000
C29  22818736.031 8 118823138.803 8      2457.441          48.000
C30  22429586.023 7 116796723.037 7      -724.168          43.000
E01                                                                  24867493.320 8 100131125.035 8     -1127.357          49.000
E04  27773071.438 5 145948466.428 5     -2994.676          34.000
E09  24078760.141 5 126534767.655 5     -1809.973          35.000    24078755.961 5  96955171.318 5     -1386.308          30.000
E31                                                                  23743959.070 5  95607090.265 5       530.518          30.000
E33  25563173.461 8 134335384.050 8      2527.953          49.000    25563172.914 8 102932308.630 8      1936.985          51.000
> 2020 05 14 09 12  0.0000000  0 16        .000000000000
G02  23151127.445 5 121660026.654 5      1137.242          33.000
G12  20241513.891 8 106369868.973 8      -878.852          51.000    20241512.484 8  82885604.513 8      -684.819          51.000
G24  21660350.320 8 113825902.821 8     -2625.375          49.000    21660352.945 8  88695507.502 8     -2045.747          49.000
G29  22642334.773 7 118986290.416 7      3374.359          46.000    22642337.109 7  92716567.938 7      2629.371          46.000
R02  23052269.711 8 123011345.023 8     -3664.895          48.000    23052278.984 6  95675480.786 6     -2850.480          41.000
R11  21325049.555 5 113954702.561 5     -2444.562          35.000
R12  19526131.867 6 104305069.891 6       393.738          37.000    19526134.953 5  81126174.886 5       306.241          34.000
R22  19969680.672 8 106599520.616 8      2171.305          51.000    19969683.477 7  82910736.781 7      1688.796          47.000
C29  22804618.523 8 118749627.427 8      2441.035          49.000
C30  22433811.898 7 116818728.232 7      -745.133          43.000
E01  24875919.922 5 130723862.307 5     -1480.289          33.000    24875911.016 8 100165021.983 8     -1134.203          48.000
E04  27790175.719 5 146038343.153 5     -2998.855          34.000
E09  24089127.570 6 126589254.121 6     -1825.246          39.000    24089125.852 5  96996920.629 5     -1398.329          33.000
E26  24297530.016 5 127684378.700 5        28.977          33.000    24297534.930 6  97836095.343 6        22.358          37.000
E31                                                                  23740023.703 5  95591236.861 5       523.568          32.000
E33  25548772.469 8 134259711.406 8      2514.500          48.000    25548775.336 8 102874325.726 8      1926.713          51.000
> 2020 05 14 09 12 30.0000000  0 18        .000000000000
G02  23144661.336 6 121626010.558 6      1128.078          37.000    23144667.297 5  94773540.237 5       879.022          34.000
G12  20246543.852 8 106396302.184 8      -884.000          51.000    20246542.391 8  82906201.810 8      -688.831          51.000
G24  21675351.109 8 113904730.383 8     -2630.480          50.000    21675354.125 8  88756931.566 8     -2049.728          50.000
G25  20425212.820 6 107335237.325 6      1053.633          36.000
G29  22623080.172 8 118885103.733 8      3371.039          48.000    22623082.477 8  92637721.184 8      2626.784          48.000
G32  22141941.805 5 116356678.083 5       175.793          30.000
R02  23072877.797 7 123121310.824 7     -3666.664          46.000    23072885.875 6  95761009.669 6     -2851.853          41.000
R11  21338780.195 5 114028078.976 5     -2447.609          35.000
R12  19523934.961 6 104293337.028 6       387.379          39.000    19523939.570 5  81117049.334 5       301.292          34.000
R22  19957529.977 8 106534659.022 8      2152.172          51.000    19957532.531 7  82860288.931 7      1673.914          46.000
C29  22790570.609 8 118676476.985 8      2435.090          50.000
C30  22438133.477 7 116841230.381 7      -755.660          45.000
E01                                                                  24884353.508 8 100199018.823 8     -1132.679          48.000
E04  27807275.086 5 146128216.607 5     -2991.789          31.000
E09  24099557.430 6 126644062.376 6     -1829.492          39.000    24099558.133 6  97038916.545 6     -1401.929          36.000
E26  24297387.891 5 127683636.029 5        20.348          32.000    24297388.086 6  97835522.455 6        15.489          37.000
E31                                                                  23736120.430 5  95575514.098 5       524.257          34.000
E33  25534422.188 8 134184305.424 8      2511.871          48.000    25534427.273 8 102816547.128 8      1924.704          51.000
> 2020 05 14 09 13  0.0000000  0 17        .000000000000
G02  23138281.492 5 121592474.756 5      1109.777          35.000    23138277.852 4  94747397.337 4       864.762          29.000
G12  20251635.148 8 106423057.607 8      -898.168          51.000    20251633.688 8  82927050.190 8      -699.871          51.000
G24  21690413.359 8 113983880.185 8     -2644.512          51.000    21690416.617 8  88818606.713 8     -2060.658          51.000
G25  20419245.945 5 107303870.493 5      1038.270          35.000    20419251.078 5  83613380.012 5       809.038          35.000
G29  22603876.625 8 118784185.241 8      3358.402          49.000    22603878.750 8  92559083.425 8      2616.937          49.000
R02  23093526.883 7 123231497.957 7     -3677.500          46.000    23093534.742 7  95846710.727 7     -2860.281          42.000
R11  21352562.102 5 114101728.297 5     -2460.254          34.000
R12  19521806.570 6 104281964.626 6       372.199          41.000    19521811.336 5  81108204.104 5       289.491          34.000
R21  21077214.641 5 112788445.973 5     -2336.289          30.000
R22  19945518.875 8 106470544.241 8      2123.723          51.000    19945521.859 8  82810421.918 8      1651.784          48.000
C29  22776589.664 8 118603673.789 8      2419.992          51.000
C30  22442547.203 7 116864213.155 7      -774.910          45.000
E01  24892817.242 5 130812638.832 5     -1485.809          33.000    24892818.688 7 100233103.633 7     -1138.408          47.000
E09  24110045.680 6 126699175.274 6     -1843.102          41.000    24110048.484 6  97081145.833 6     -1412.271          39.000
E26  24297328.320 5 127683326.975 5         1.586          34.000    24297329.453 6  97835288.695 6         1.506          38.000
E31                                                                  23732244.836 6  95559898.246 6       518.073          36.000
E33  25520120.508 8 134109152.425 8      2499.914          48.000    25520127.000 8 102758962.392 8      1915.495          51.000
> 2020 05 14 09 13 30.0000000  0 16        .000000000000
G12  20256790.250 8 106450147.833 8      -906.984          51.000    20256788.859 8  82948159.463 8      -706.741          51.000
G24  21705539.016 8 114063363.356 8     -2653.301          51.000    21705542.445 8  88880541.625 8     -2067.507          51.000
G25  20413341.055 5 107272845.325 5      1030.250          34.000    20413345.250 5  83589204.421 5       802.783          35.000
G29  22584726.961 8 118683550.188 8      3351.195          51.000    22584728.297 8  92480666.546 8      2611.324          51.000
R02  23114219.484 7 123341915.828 7     -3682.809          45.000    23114227.391 7  95932591.267 7     -2864.410          42.000
R11  21366397.438 5 114175663.989 5     -2468.617          31.000    21366420.461 4  88803300.852 4     -1920.036          26.000
R12  19519748.328 7 104270967.086 7       361.875          42.000    19519752.656 5  81099650.453 5       281.455          35.000
R21  21090400.219 5 112858915.202 5     -2357.875          34.000
R22  19933650.227 8 106407192.489 8      2100.645          50.000    19933654.336 8  82761148.372 8      1633.835          50.000
C29  22762678.227 8 118531232.568 8      2410.145          51.000
C30  22447055.641 7 116887688.623 7      -789.074          47.000
E01  24901310.086 6 130857250.354 6     -1487.547          36.000    24901307.984 7 100267286.460 7     -1139.806          46.000
E09  24120594.609 7 126754604.253 7     -1851.375          42.000    24120599.734 6  97123617.324 6     -1418.595          40.000
E26  24297356.828 5 127683477.518 5       -10.840          33.000    24297360.523 6  97835404.064 6        -8.491          38.000
E31                                                                  23728397.344 5  95544399.569 5       515.735          35.000
E33  25505869.891 8 134034267.369 8      2493.250          48.000    25505876.539 8 102701582.956 8      1910.388          51.000
> 2020 05 14 09 14  0.0000000  0 14        .000000000000
G12  20262000.273 8 106477526.406 8      -920.098          51.000    20261999.047 8  82969493.412 8      -716.959          51.000
G24  21720719.242 8 114143133.537 8     -2666.457          51.000    21720722.812 8  88942700.158 8     -2077.759          51.000
G29  22565623.086 8 118583155.270 8      3339.887          51.000    22565622.711 8  92402436.801 8      2602.512          51.000
R02  23134945.727 7 123452512.544 7     -3692.066          46.000    23134953.492 7  96018610.887 7     -2871.610          42.000
R11  21380279.555 5 114249838.876 5     -2479.379          30.000
R12  19517751.547 7 104260299.209 7       347.496          43.000    19517755.234 5  81091353.192 5       270.272          35.000
R22  19921916.078 8 106344560.071 8      2073.164          49.000    19921921.734 8  82712434.240 8      1612.461          51.000
C29  22748827.703 8 118459109.813 8      2396.156          49.000
C30  22451649.203 7 116911610.527 7      -807.449          45.000
E01  24909815.359 6 130901944.200 6     -1493.586          37.000    24909812.602 7 100301532.431 7     -1144.595          45.000
E09  24131194.977 7 126810301.948 7     -1863.613          43.000    24131201.359 6  97166294.795 6     -1428.044          41.000
E26  24297464.523 5 127684033.061 5       -28.613          34.000    24297468.375 6  97835833.645 6       -21.487          37.000
E31                                                                  23724569.180 5  95528983.252 5       510.527          34.000
E33  25491662.391 8 133959606.553 8      2482.191          48.000    25491668.164 8 102644375.307 8      1902.035          51.000
> 2020 05 14 09 14 30.0000000  0 15        .000000000000
G02  23119646.070 5 121494568.744 5      1065.762          33.000
G12  20267280.141 8 106505272.144 8      -929.297          51.000    20267279.078 8  82991113.469 8      -724.127          51.000
G24  21735968.977 8 114223269.066 8     -2675.523          51.000    21735972.242 8  89005143.381 8     -2084.823          51.000
G29  22546580.297 8 118483081.883 8      3332.121          51.000    22546578.336 8  92324457.597 8      2596.461          51.000
R02  23155719.492 7 123563364.955 7     -3697.508          45.000    23155726.789 6  96104829.372 6     -2875.839          40.000
R11  21394220.859 5 114324225.051 5     -2486.289          34.000    21394248.414 4  88918960.860 4     -1933.786          26.000
R12  19515831.359 7 104250043.083 7       336.547          42.000    19515834.523 5  81083376.189 5       261.759          35.000
R22  19910332.477 8 106282730.640 8      2049.246          51.000    19910339.086 8  82664344.661 8      1593.858          51.000
C29  22735053.781 8 118387386.155 8      2385.836          48.000
C30  22456343.820 7 116936056.651 7      -821.895          47.000
E01  24918349.453 5 130946810.112 5     -1495.871          33.000    24918348.516 7 100335902.536 7     -1146.405          44.000
E09  24141861.484 7 126866346.422 7     -1872.219          44.000    24141868.594 7  97209237.943 7     -1434.518          42.000
E26  24297665.531 5 127685093.277 5       -41.117          30.000    24297667.031 6  97836638.335 6       -31.706          36.000
E31  23720773.945 6 124653522.427 6       663.020          36.000    23720776.008 5  95513710.552 5       507.771          32.000
E33  25477513.312 8 133885251.427 8      2475.094          49.000    25477517.984 8 102587401.909 8      1896.500          51.000
> 2020 05 14 09 15  0.0000000  0 15        .000000000000
G02  23113602.406 6 121462812.634 6      1049.395          37.000
G12  20272614.211 8 106533303.237 8      -940.957          51.000    20272613.344 8  83012955.890 8      -733.213          51.000
G24  21751272.516 8 114303687.687 8     -2687.152          51.000    21751274.922 8  89067807.208 8     -2093.888          51.000
G29  22527583.281 8 118383251.769 8      3321.629          50.000    22527580.844 8  92246667.956 8      2588.285          50.000
R02  23176524.516 7 123674386.433 7     -3705.262          43.000    23176530.852 6  96191179.358 6     -2881.873          38.000
R12  19513973.383 7 104240117.796 7       323.617          45.000    19513976.062 6  81075656.496 6       251.702          36.000
R21  21130627.219 5 113074146.203 5     -2426.539          33.000
R22  19898885.805 8 106221624.789 8      2022.941          51.000    19898891.891 8  82616817.885 8      1573.399          51.000
C29  22721341.156 8 118315983.341 8      2372.965          48.000
C30  22461124.047 7 116960946.209 7      -838.859          46.000
E01  24926898.625 6 130991747.419 6     -1500.977          37.000    24926900.242 7 100370334.961 7     -1150.141          43.000
E09  24152578.312 7 126922655.305 7     -1883.285          44.000    24152584.656 6  97252383.699 6     -1442.962          41.000
E26                                                                  24297946.578 6  97837756.347 6       -43.798          36.000
E31  23717002.047 6 124633697.223 6       657.133          38.000    23717002.797 5  95498541.828 5       503.745          31.000
E33  25463407.797 8 133811123.199 8      2465.270          51.000    25463410.734 8 102530602.347 8      1888.997          51.000
> 2020 05 14 09 15 30.0000000  0 15        .000000000000
G02  23107664.000 5 121431593.102 5      1034.773          34.000
G12  20278005.625 8 106561635.640 8      -951.328          51.000    20278004.781 8  83035033.089 8      -741.295          51.000
G24  21766632.453 8 114384404.827 8     -2697.496          50.000    21766634.094 8  89130703.644 8     -2101.945          50.000
G29  22508635.148 8 118283683.295 8      3312.719          49.000    22508633.555 8  92169082.135 8      2581.339          49.000
R02  23197363.742 7 123785589.240 7     -3711.656          42.000    23197368.547 6  96277670.361 6     -2886.847          37.000
R12  19512180.727 7 104230541.359 7       311.438          44.000    19512181.633 6  81068208.193 6       242.232          36.000
R21  21144277.969 4 113147253.439 4     -2448.688          29.000
R22  19887578.617 8 106161262.099 8      1997.738          51.000    19887583.656 8  82569869.151 8      1553.796          51.000
C29  22707693.914 8 118244919.381 8      2361.270          49.000
C30  22465991.672 7 116986294.326 7      -854.586          46.000
E01  24935467.820 6 131036782.421 6     -1504.621          38.000    24935470.273 7 100404842.385 7     -1152.832          42.000
E09  24163348.062 7 126979243.446 7     -1892.762          43.000    24163352.797 6  97295743.400 6     -1450.235          41.000
E26  24298304.453 5 127688446.613 5       -71.359          35.000    24298305.820 5  97839200.212 5       -54.813          33.000
E31  23713253.734 6 124613995.721 6       653.164          38.000    23713253.438 5  95483443.945 5       500.333          32.000
E33  25449349.156 8 133737240.176 8      2456.840          51.000    25449350.758 8 102473990.699 8      1882.469          51.000
> 2020 05 14 09 16  0.0000000  0 16        .000000000000
G02  23101800.266 5 121400807.101 5      1020.352          34.000    23101792.852 4  94597971.438 4       795.079          28.000
G12  20283487.766 8 106590444.869 8      -961.512          51.000    20283486.719 8  83057481.832 8      -749.230          51.000
G24  21782081.836 7 114465595.620 7     -2707.410          47.000    21782083.484 7  89193969.156 7     -2109.673          47.000
G25  20384773.078 5 107122706.016 5       974.578          33.000
G29  22489770.766 8 118184555.095 8      3303.695          49.000    22489770.445 8  92091839.381 8      2574.308          49.000
G32  22137790.305 5 116334885.250 5        35.887          30.000
R02  23218269.703 6 123897147.878 6     -3717.555          41.000    23218273.484 6  96364438.093 6     -2891.431          38.000
R12  19510486.617 7 104221494.055 7       299.699          45.000    19510487.031 6  81061171.409 6       233.099          38.000
R22  19876444.711 8 106101823.904 8      1972.746          51.000    19876448.633 8  82523639.474 8      1534.361          49.000
C29  22694146.016 8 118174370.538 8      2349.801          51.000
C30  22470980.898 7 117012274.667 7      -869.859          45.000
E01  24944089.391 5 131082091.612 5     -1508.152          34.000    24944092.383 6 100439559.868 6     -1155.591          41.000
E09  24174203.297 6 127036285.378 6     -1902.430          41.000    24174206.508 7  97339450.815 7     -1457.538          42.000
E26                                                                  24298775.945 5  97841102.933 5       -66.243          33.000
E31  23709562.055 6 124594594.594 6       648.383          37.000    23709562.289 5  95468578.113 5       497.253          35.000
E33  25435371.094 8 133663780.490 8      2448.383          51.000    25435371.609 8 102417703.422 8      1875.992          51.000
> 2020 05 14 09 16 30.0000000  0 13        .000000000000
G12  20289021.258 8 106619523.661 8      -973.543          51.000    20289019.883 8  83080140.622 8      -758.605          51.000
G24  21797580.750 7 114547051.228 7     -2719.449          44.000    21797583.109 7  89257441.078 7     -2119.051          44.000
G29  22470951.914 8 118085662.548 8      3292.691          51.000    22470952.797 8  92014780.286 8      2565.737          51.000
R02  23239202.297 6 124008847.555 6     -3725.520          40.000    23239206.219 6  96451315.549 6     -2897.629          38.000
R12  19508852.555 7 104212767.312 7       285.895          45.000    19508853.438 6  81054383.971 6       222.365          38.000
R22  19865445.055 8 106043103.489 8      1945.559          51.000    19865448.234 8  82477968.105 8      1513.212          49.000
C29  22680658.125 8 118104133.988 8      2336.188          51.000
C30  22476051.883 7 117038681.600 7      -887.105          44.000
E01  24952723.008 5 131127444.715 5     -1513.652          30.000    24952726.922 6 100474329.313 6     -1159.662          40.000
E09  24185103.883 6 127093572.975 6     -1913.570          40.000    24185107.391 7  97383346.522 7     -1466.221          43.000
E26  24299323.172 5 127693803.321 5      -102.156          30.000    24299327.508 5  97843310.385 5       -78.901          33.000
E31  23705887.508 6 124575287.604 6       641.805          36.000    23705889.711 6  95453784.465 6       492.299          36.000
E33  25421434.219 8 133590539.559 8      2437.961          51.000    25421434.055 8 102361583.783 8      1868.051          50.000
> 2020 05 14 09 17  0.0000000  0 13        .000000000000
G12  20294611.906 8 106648902.912 8      -985.344          51.000    20294610.453 8  83103033.524 8      -767.800          51.000
G24  21813136.273 7 114628803.779 7     -2730.973          44.000    21813139.891 7  89321144.354 7     -2128.031          43.000
G29  22452184.648 8 117987040.112 8      3281.910          51.000    22452186.656 8  91937931.658 8      2557.333          51.000
R02  23260166.586 6 124120717.128 6     -3732.828          40.000    23260171.789 6  96538325.164 6     -2903.314          38.000
R12  19507284.914 7 104204394.775 7       272.285          45.000    19507286.367 6  81047871.980 6       211.777          39.000
R22  19854586.055 8 105985135.697 8      1918.672          51.000    19854588.945 8  82432882.108 8      1492.300          49.000
C29  22667236.727 8 118034243.101 8      2322.867          51.000
C30  22481211.617 7 117065545.885 7      -903.980          44.000
E01  24961376.594 6 131172919.658 6     -1518.438          36.000    24961380.523 6 100509175.290 6     -1163.541          39.000
E09  24196056.328 6 127151136.511 6     -1924.367          41.000    24196061.242 7  97427453.696 7     -1474.479          43.000
E26                                                                  24299956.828 4  97845855.911 4       -91.230          28.000
E31  23702236.914 6 124556106.963 6       636.324          36.000    23702241.039 6  95439087.626 6       487.423          37.000
E33  25407545.266 8 133517551.248 8      2427.688          51.000    25407544.969 8 102305657.712 8      1860.245          50.000
> 2020 05 14 09 17 30.0000000  0 15        .000000000000
G12  20300256.125 8 106678563.643 8      -992.844          51.000    20300254.820 8  83126145.771 8      -773.644          51.000
G24  21828745.609 7 114710832.643 7     -2738.336          43.000    21828749.414 7  89385062.929 7     -2133.771          43.000
G29  22433465.672 8 117888671.209 8      3275.180          51.000    22433468.203 8  91861280.571 8      2552.088          51.000
R02  23281158.211 6 124232733.058 6     -3735.965          38.000    23281164.992 6  96625448.631 6     -2905.750          38.000
R11  21478967.328 5 114777080.743 5     -2541.176          34.000
R12  19505780.719 7 104196358.940 7       262.617          45.000    19505782.805 6  81041621.904 6       204.258          39.000
R21  21200226.867 5 113446576.732 5     -2535.914          35.000
R22  19843864.703 8 105927904.322 8      1895.953          51.000    19843867.961 8  82388368.850 8      1474.630          50.000
C29  22653878.602 8 117964681.143 8      2313.777          51.000
C30  22486454.578 6 117092847.895 6      -916.793          40.000
E01  24970047.305 6 131218477.857 6     -1519.273          37.000    24970051.023 6 100544083.550 6     -1164.095          40.000
E09  24207058.391 7 127208955.926 7     -1931.051          43.000    24207063.953 7  97471756.882 7     -1479.657          44.000
E26  24300676.789 5 127700893.814 5      -129.992          32.000
E31  23698606.953 5 124537034.579 5       634.453          35.000    23698612.828 6  95424473.698 6       486.109          38.000
E33  25393700.727 8 133444798.853 8      2421.574          51.000    25393700.766 8 102249912.428 8      1855.510          50.000
> 2020 05 14 09 18  0.0000000  0 14        .000000000000
G12  20305973.391 8 106708608.239 8     -1007.812          51.000    20305972.281 8  83149557.140 8      -785.308          51.000
G24  21844427.539 7 114793239.802 7     -2753.219          45.000    21844431.156 7  89449276.238 7     -2145.368          45.000
G25  20363081.047 5 107008733.511 5       925.930          34.000    20363086.242 5  83383405.135 5       721.504          33.000
G29  22414815.305 8 117790661.405 8      3261.051          51.000    22414817.281 8  91784909.317 8      2541.079          51.000
R02  23302195.836 5 124344995.706 5     -3745.711          35.000    23302204.305 6  96712763.985 6     -2913.331          37.000
R12  19504359.094 7 104188765.628 7       245.867          45.000    19504361.594 6  81035715.999 6       191.230          40.000
R21  21214519.273 5 113523072.403 5     -2562.414          30.000
R22  19833301.195 8 105871516.806 8      1865.543          51.000    19833304.656 8  82344511.914 8      1450.978          51.000
C29  22640603.695 8 117895552.134 8      2297.156          51.000
C30  22491801.352 6 117120688.887 6      -936.855          39.000
E01  24978752.562 5 131264220.803 5     -1527.754          34.000    24978756.211 6 100579133.358 6     -1170.733          40.000
E09  24218128.695 6 127267132.728 6     -1945.086          41.000    24218135.500 7  97516333.896 7     -1490.438          45.000
E31  23695017.555 6 124518173.928 6       625.215          36.000    23695024.422 6  95410021.983 6       479.079          37.000
E33  25379921.195 8 133372387.508 8      2408.047          51.000    25379922.008 8 102194428.451 8      1845.139          51.000
> 2020 05 14 09 18 30.0000000  0 17        .000000000000
G12  20311751.977 8 106738974.708 8     -1013.922          51.000    20311751.039 8  83173219.317 8      -790.069          51.000
G24  21860169.945 8 114875963.177 8     -2759.219          49.000    21860173.461 8  89513735.969 8     -2150.044          49.000
G25  20357826.219 5 106981107.818 5       919.617          35.000    20357827.914 5  83361878.585 5       716.588          34.000
G29  22396222.227 8 117692951.710 8      3255.461          51.000    22396222.656 8  91708771.973 8      2536.729          51.000
G32  22138215.492 5 116337125.363 5       -61.645          34.000
R02  23323267.953 6 124457438.294 6     -3747.449          36.000    23323277.055 5  96800219.386 5     -2914.683          35.000
R11  21507649.648 5 114930319.547 5     -2559.199          31.000
R12  19503008.781 7 104181554.288 7       237.715          45.000    19503012.023 6  81030107.158 6       184.889          40.000
R21  21228926.328 5 113600225.254 5     -2579.359          30.000
R22  19822884.773 8 105815913.518 8      1843.953          51.000    19822888.258 8  82301264.930 8      1434.186          51.000
C29  22627400.445 8 117826797.373 8      2289.043          51.000
C30  22497239.141 5 117149007.447 5      -948.133          35.000
E01  24987481.172 5 131310087.599 5     -1527.668          35.000    24987485.828 6 100614278.024 6     -1170.449          39.000
E09  24229254.469 6 127325604.330 6     -1950.660          38.000    24229263.062 7  97561136.769 7     -1494.515          45.000
E26  24302382.180 6 127709866.854 6      -160.078          37.000
E31  23691457.242 5 124499448.384 5       625.004          35.000    23691464.750 6  95395686.066 6       478.447          37.000
E33  25366195.406 8 133300258.164 8      2403.121          51.000    25366197.227 8 102139160.549 8      1841.382          51.000
> 2020 05 14 09 19  0.0000000  0 14        .000000000000
G12  20317573.609 8 106769566.827 8     -1030.770          51.000    20317572.672 8  83197057.338 8      -803.197          51.000
G24  21875954.156 8 114958905.160 8     -2775.641          51.000    21875956.977 8  89578366.073 8     -2162.837          51.000
G25  20352609.570 5 106953698.154 5       901.254          34.000    20352611.766 5  83340537.448 5       702.288          35.000
G29  22377668.336 8 117595448.353 8      3239.352          51.000    22377667.500 8  91632795.423 8      2524.173          51.000
R02  23344355.562 6 124569959.443 6     -3759.570          39.000    23344363.898 5  96887735.803 5     -2924.113          32.000
R12  19501711.531 7 104174628.738 7       218.746          44.000    19501715.148 6  81024720.605 6       170.136          40.000
R21  21243460.102 5 113677917.647 5     -2606.590          34.000
R22  19812597.234 8 105760999.630 8      1811.500          51.000    19812601.008 8  82258554.153 8      1408.944          50.000
C29  22614250.477 8 117758323.507 8      2270.531          50.000
C30  22502750.703 6 117177707.505 6      -970.543          37.000
E01  24996217.500 5 131356008.496 5     -1537.215          31.000    24996220.344 6 100649444.247 6     -1178.231          36.000
E09  24240417.883 6 127384273.106 6     -1965.941          37.000    24240427.906 7  97606090.784 7     -1506.607          44.000
E31  23687907.312 5 124480794.443 5       613.492          34.000    23687915.711 6  95381392.765 6       470.312          36.000
E33  25352505.508 8 133228316.838 8      2387.602          51.000    25352507.891 8 102084036.687 8      1829.458          51.000
> 2020 05 14 09 19 30.0000000  0 16        .000000000000
G12  20323481.602 8 106800612.769 8     -1038.746          51.000    20323480.492 8  83221248.981 8      -809.413          51.000
G24  21891823.453 8 115042294.146 8     -2783.398          51.000    21891825.586 8  89643344.468 8     -2168.882          51.000
G25  20347490.820 5 106926788.192 5       892.699          35.000    20347487.516 5  83319568.694 5       695.619          34.000
G29  22359197.594 8 117498383.029 8      3231.906          51.000    22359196.742 8  91557160.163 8      2518.369          51.000
G32  22139176.172 5 116342144.761 5      -104.750          34.000    22139185.703 5  90656195.417 5       -81.611          33.000
R02  23365501.219 6 124682787.602 6     -3762.156          38.000    23365507.008 4  96975490.973 4     -2926.125          28.000
R11  21536511.500 5 115084621.247 5     -2580.934          32.000    21536516.086 4  89510225.244 4     -2007.393          29.000
R12  19500512.148 7 104168223.170 7       208.516          46.000    19500515.969 6  81019738.511 6       162.179          41.000
R21  21258130.023 5 113756406.011 5     -2625.211          33.000    21258129.344 4  88477317.251 4     -2041.834          26.000
R22  19802482.648 8 105707010.752 8      1787.977          51.000    19802486.875 8  82216562.840 8      1390.651          50.000
C29  22601197.492 7 117690359.541 7      2260.562          47.000
C30  22508378.555 5 117207015.288 5      -982.824          30.000
E01  25004999.180 5 131402157.981 5     -1538.781          34.000    25005001.867 6 100684807.885 6     -1179.111          36.000
E09  24251662.828 6 127443366.962 6     -1973.078          38.000    24251672.086 7  97651370.416 7     -1511.899          43.000
E31  23684411.539 5 124462425.905 5       611.527          34.000    23684421.234 6  95367318.167 6       468.214          36.000
E33  25338895.320 8 133156794.772 8      2380.793          51.000    25338898.383 8 102029234.099 8      1824.235          51.000
> 2020 05 14 09 20  0.0000000  0 19        .000000000000
G02  23058111.367 4 121171200.699 4       894.969          29.000
G06  23493092.953 6 123457032.414 6      -406.691          38.000    23493082.891 5  96200283.348 5      -316.902          31.000
G12  20329441.852 8 106831933.699 8     -1048.598          51.000    20329440.609 8  83245654.888 8      -817.089          51.000
G24  21907743.219 8 115125950.608 8     -2792.957          51.000    21907744.680 8  89708531.266 8     -2176.330          51.000
G25  20342426.234 5 106900172.851 5       881.637          33.000    20342423.016 5  83298829.512 5       686.990          33.000
G29  22340776.266 8 117401579.461 8      3222.367          51.000    22340775.914 8  91481728.846 8      2510.935          51.000
G32  22139829.719 6 116345588.970 6      -123.391          36.000    22139842.422 5  90658871.366 5       -96.142          31.000
R02  23386669.711 6 124795737.636 6     -3767.094          38.000    23386671.227 4  97063369.882 4     -2929.965          25.000
R11  21551029.477 5 115162201.319 5     -2589.875          35.000    21551033.375 4  89570565.816 4     -2014.347          29.000
R12  19499376.938 7 104162157.989 7       196.434          47.000    19499381.234 7  81015021.144 7       152.782          42.000
R21  21272912.148 5 113835493.372 5     -2645.961          34.000    21272904.523 4  88538829.509 4     -2057.973          28.000
R22  19792508.039 8 105653767.724 8      1762.312          51.000    19792512.438 8  82175151.620 8      1370.688          50.000
C29  22588208.539 7 117622730.487 7      2248.648          47.000
C30  22514088.977 6 117236767.823 6      -998.281          39.000
E01  25013796.344 5 131448389.879 5     -1542.590          35.000    25013800.508 5 100720232.354 5     -1181.960          35.000
E09  24262955.305 6 127502705.863 6     -1981.910          40.000    24262961.461 7  97696837.816 7     -1518.672          42.000
E26  24305531.656 5 127726389.170 5      -207.367          33.000
E31  23680936.367 5 124444160.944 5       607.137          34.000    23680947.266 5  95353325.967 5       464.769          35.000
E33  25325331.227 8 133085515.555 8      2371.945          51.000    25325334.328 8 101974617.579 8      1817.453          50.000
> 2020 05 14 09 20 30.0000000  0 17        .000000000000
G06  23495492.609 6 123469639.465 6      -428.945          38.000    23495490.531 6  96210107.216 6      -334.237          36.000
G12  20335480.141 8 106863664.842 8     -1061.797          51.000    20335478.953 8  83270380.449 8      -827.374          51.000
G24  21923739.094 8 115210008.978 8     -2805.930          49.000    21923740.203 8  89774031.256 8     -2186.439          49.000
G25  20337442.633 5 106873987.941 5       868.203          30.000    20337444.961 5  83278425.804 5       676.522          30.000
G29  22322430.750 8 117305176.159 8      3209.477          49.000    22322430.883 8  91406609.417 8      2500.891          50.000
R02  23407885.406 6 124908942.245 6     -3775.250          36.000    23407881.852 4  97151403.859 4     -2936.306          26.000
R11  21565617.852 5 115240151.865 5     -2601.266          31.000    21565623.594 5  89631193.957 5     -2023.216          32.000
R12  19498331.656 7 104156572.190 7       181.008          46.000    19498335.945 7  81010676.641 7       140.784          42.000
R21  21287791.039 5 113915293.247 5     -2671.473          30.000
R22  19782699.203 8 105601411.089 8      1733.191          50.000    19782704.109 8  82134429.813 8      1348.038          50.000
C29  22575311.109 8 117555572.495 8      2233.465          48.000
C30  22519909.148 6 117267069.036 6     -1016.801          41.000
E01  25022634.273 5 131494837.134 5     -1548.648          34.000    25022638.820 5 100755821.850 5     -1187.001          33.000
E09  24274320.109 6 127562423.950 6     -1994.230          40.000    24274323.258 7  97742595.778 7     -1528.232          42.000
E26  24306771.500 5 127732951.516 5      -225.113          35.000
E31  23677508.031 6 124426142.610 6       599.023          37.000    23677517.570 5  95339520.470 5       459.432          35.000
E33  25311839.508 8 133014616.852 8      2359.629          51.000    25311842.383 8 101920292.625 8      1808.045          50.000
> 2020 05 14 09 21  0.0000000  0 16        .000000000000
G06  23497975.625 6 123482691.906 6      -445.949          36.000    23497978.352 6  96220277.989 6      -347.490          36.000
G12  20341552.602 8 106895576.337 8     -1070.629          51.000    20341551.727 8  83295246.535 8      -834.259          51.000
G24  21939767.172 7 115294239.457 7     -2814.543          46.000    21939768.664 7  89839665.386 7     -2193.150          46.000
G25  20332497.500 5 106848004.985 5       858.398          31.000    20332502.320 5  83258179.197 5       668.879          31.000
G29  22304118.141 8 117208945.334 8      3200.867          49.000    22304118.273 8  91331624.371 8      2494.182          49.000
R02  23429103.875 6 125022164.691 6     -3778.465          37.000    23429105.117 4  97239482.658 4     -2938.809          26.000
R12  19497332.773 7 104151233.997 7       169.781          47.000    19497336.453 7  81006524.708 7       132.052          43.000
R21  21302828.359 5 113995608.618 5     -2689.551          30.000    21302842.141 4  88663402.411 4     -2091.873          24.000
R22  19773013.484 8 105549710.616 8      1708.312          49.000    19773018.789 8  82094218.322 8      1328.688          50.000
C29  22562462.336 8 117488660.183 8      2222.328          51.000
C30  22525791.406 6 117297705.293 6     -1030.891          36.000
E01  25031469.625 5 131541270.776 5     -1551.578          35.000    25031474.203 5 100791374.892 5     -1188.378          32.000
E09  24285712.641 6 127622290.369 6     -2001.875          38.000    24285714.453 7  97788467.394 7     -1533.802          42.000
E26  24308080.273 5 127739823.358 5      -237.949          30.000
E31  23674083.117 6 124408140.111 6       596.117          38.000    23674090.195 6  95325726.420 6       456.508          37.000
E33  25298377.273 8 132943871.375 8      2351.715          51.000    25298379.789 8 101866085.116 8      1801.960          51.000
> 2020 05 14 09 21 30.0000000  0 17        .000000000000
G06  23500590.422 6 123496435.193 6      -465.113          37.000    23500591.758 6  96230987.101 6      -362.423          36.000
G12  20347705.859 8 106927912.616 8     -1080.391          51.000    20347705.180 8  83320443.621 8      -841.863          51.000
G24  21955874.086 7 115378884.962 7     -2824.000          47.000    21955875.578 7  89905622.908 7     -2200.523          47.000
G25  20327638.672 6 106822469.197 6       848.645          36.000    20327643.281 6  83238281.096 6       661.278          37.000
G29  22285885.805 8 117113134.801 8      3191.316          49.000    22285885.398 8  91256966.829 8      2486.743          49.000
G32  22142483.336 5 116359558.717 5      -182.629          33.000
R02  23450371.555 5 125135650.304 5     -3782.660          35.000    23450375.203 4  97327745.185 4     -2942.075          29.000
R11  21594921.195 5 115396599.555 5     -2617.793          35.000
R12  19496427.148 8 104146394.222 8       157.566          48.000    19496429.727 7  81002760.438 7       122.552          43.000
R22  19763498.164 8 105498917.810 8      1682.535          51.000    19763503.234 8  82054712.806 8      1308.638          49.000
C29  22549708.086 8 117422238.410 8      2210.324          51.000
C30  22531785.828 7 117328918.842 7     -1045.578          42.000
E01  25040350.617 6 131587936.245 6     -1554.832          37.000    25040356.141 6 100827129.628 6     -1191.227          36.000
E09  24297178.906 6 127682548.865 6     -2010.531          38.000    24297181.508 7  97834639.506 7     -1540.525          43.000
E26  24309494.719 6 127747256.277 6      -252.566          37.000
E31  23670707.656 6 124390398.349 6       591.477          39.000    23670713.164 6  95312132.110 6       453.140          39.000
E33  25284991.211 8 132873526.434 8      2342.664          51.000    25284992.414 8 101812184.478 8      1795.016          50.000
> 2020 05 14 09 22  0.0000000  0 16        .000000000000
G02  23038437.844 5 121067813.198 5       826.402          30.000
G06  23503307.172 5 123510712.447 5      -488.711          34.000    23503306.836 5  96242112.236 5      -380.823          33.000
G12  20353910.016 8 106960516.249 8     -1095.086          50.000    20353909.398 8  83345849.036 8      -853.314          50.000
G24  21972030.625 8 115463788.412 8     -2838.215          49.000    21972031.352 8  89971781.350 8     -2211.599          49.000
G25  20322835.094 5 106797224.151 5       832.742          35.000    20322838.648 5  83218609.557 5       648.884          35.000
G29  22267704.289 8 117017590.148 8      3176.480          49.000    22267702.930 8  91182516.512 8      2475.180          49.000
R11  21609644.672 5 115475299.043 5     -2631.098          34.000    21609654.805 5  89814229.050 5     -2046.412          31.000
R12  19495585.078 8 104141894.868 8       140.383          48.000    19495587.734 7  80999260.954 7       109.187          44.000
R22  19754124.125 8 105448875.464 8      1651.637          51.000    19754128.172 8  82015791.004 8      1284.609          49.000
C29  22537018.125 8 117356153.419 8      2193.395          51.000
C30  22537861.250 6 117360553.276 6     -1065.215          41.000
E01                                                                  25049253.516 6 100862943.978 6     -1197.737          36.000
E09  24308689.516 6 127743041.015 6     -2023.973          38.000    24308693.711 7  97880990.680 7     -1550.797          43.000
E26  24310985.359 5 127755087.327 5      -271.305          33.000
E31  23667351.500 6 124372760.910 6       582.477          38.000    23667355.758 6  95298617.698 6       446.277          40.000
E33  25271651.812 8 132803427.145 8      2328.785          51.000    25271652.461 8 101758472.073 8      1784.355          51.000
> 2020 05 14 09 22 30.0000000  0 17        .000000000000
G02  23033737.812 5 121043103.562 5       824.430          35.000    23033736.133 3  94319308.898 3       642.413          21.000
G06  23506123.789 6 123525516.593 6      -494.406          36.000    23506125.922 5  96253647.892 5      -385.252          33.000
G12  20360163.570 8 106993379.478 8     -1092.172          50.000    20360162.984 8  83371456.745 8      -851.043          51.000
G24  21988235.031 8 115548940.527 8     -2834.887          51.000    21988235.883 8  90038133.558 8     -2209.006          51.000
G25  20318085.125 5 106772262.814 5       835.816          33.000    20318088.750 5  83199159.257 5       651.289          34.000
G29  22249572.438 8 116922306.052 8      3179.355          50.000    22249570.266 8  91108269.219 8      2477.420          50.000
G32  22144808.867 5 116371745.858 5      -213.141          34.000
R11  21624410.117 6 115554217.591 6     -2626.621          40.000    21624423.750 5  89875610.001 5     -2042.928          31.000
R12  19494805.250 7 104137729.870 7       140.914          47.000    19494808.508 7  80996021.510 7       109.597          44.000
R22  19744890.047 8 105399578.637 8      1638.445          51.000    19744893.359 8  81977449.061 8      1274.349          50.000
C29  22524391.211 8 117290399.888 8      2193.793          51.000
C30  22544014.633 6 117392600.244 6     -1067.707          40.000
E01  25058154.336 6 131681482.397 6     -1553.930          36.000    25058159.594 5 100898810.777 5     -1190.883          35.000
E09  24320243.773 6 127803758.193 6     -2020.047          41.000    24320249.352 7  97927514.223 7     -1547.726          44.000
E26  24312549.578 5 127763311.026 5      -273.285          34.000
E31  23664013.594 6 124355221.178 6       590.719          39.000    23664016.859 6  95285178.162 6       452.590          40.000
E33  25258357.961 8 132733568.325 8      2332.215          51.000    25258358.742 8 101704943.912 8      1787.037          51.000
> 2020 05 14 09 23  0.0000000  0 17        .000000000000
G02  23029140.133 5 121018936.967 5       794.543          35.000
G06  23509064.781 5 123540972.810 5      -527.754          32.000    23509070.344 5  96265691.579 5      -411.252          31.000
G12  20366490.375 8 107026627.028 8     -1116.738          51.000    20366489.805 8  83397363.924 8      -870.186          51.000
G24  22004510.820 8 115634466.437 8     -2859.098          51.000    22004512.258 8  90104777.072 8     -2227.868          51.000
G25  20313413.117 5 106747711.332 5       809.242          33.000    20313417.031 5  83180028.228 5       630.581          33.000
G29  22231514.539 8 116827410.376 8      3154.676          50.000    22231512.641 8  91034324.603 8      2458.192          49.000
G32  22146142.664 5 116378777.128 5      -246.277          32.000
R11  21639243.438 5 115633481.945 5     -2649.340          30.000    21639253.914 5  89937252.696 5     -2060.595          30.000
R12  19494111.750 7 104134027.960 7       113.559          47.000    19494115.461 7  80993142.230 7        88.323          45.000
R22  19735819.672 8 105351156.900 8      1597.375          51.000    19735822.578 8  81939787.772 8      1242.403          50.000
C29  22511851.375 8 117225103.761 8      2166.891          51.000
C30  22550272.203 6 117425183.132 6     -1097.051          41.000
E01  25067098.203 5 131728490.647 5     -1572.488          33.000    25067101.500 5 100934826.222 5     -1204.516          34.000
E09  24331864.539 6 127864824.130 6     -2043.734          40.000    24331871.383 7  97974304.975 7     -1565.682          44.000
E26  24314214.609 5 127772053.052 5      -302.172          35.000
E31  23660718.234 6 124337905.020 6       571.270          41.000    23660721.031 6  95271909.945 6       437.792          40.000
E33  25245133.875 8 132664077.276 8      2308.129          51.000    25245135.039 8 101651697.541 8      1768.590          51.000
> 2020 05 14 09 23 30.0000000  0 14        .000000000000
G12  20372875.648 8 107060181.525 8     -1124.039          51.000    20372875.055 8  83423510.286 8      -875.872          51.000
G24  22020842.508 8 115720287.686 8     -2866.066          51.000    22020844.312 8  90171650.745 8     -2233.302          51.000
G29  22213516.375 8 116732828.361 8      3146.988          50.000    22213515.695 8  90960624.380 8      2452.199          50.000
R11  21654137.438 5 115713112.379 5     -2655.812          33.000    21654140.625 5  89999023.809 5     -2065.620          30.000
R12  19493490.875 8 104130712.554 8       103.500          48.000    19493495.117 7  80990563.575 7        80.503          45.000
R21  21379669.500 5 114406940.245 5     -2794.551          30.000    21379677.070 4  88983174.929 4     -2173.539          28.000
R22  19726898.867 8 105303534.586 8      1573.566          51.000    19726901.477 8  81902748.239 8      1223.888          50.000
C29  22499384.820 8 117160190.620 8      2156.902          51.000
C30  22556617.023 6 117458224.608 6     -1109.578          41.000
E01  25076064.422 5 131775597.388 5     -1572.980          34.000    25076064.906 5 100970931.648 5     -1205.444          35.000
E09  24343536.758 6 127926160.419 6     -2049.449          41.000    24343544.648 7  98021302.893 7     -1570.435          44.000
E26  24315964.000 6 127781236.181 6      -313.637          37.000    24315967.523 5  97910307.683 5      -240.660          34.000
E31  23657451.305 7 124320736.154 7       569.348          42.000    23657453.703 6  95258754.567 6       436.478          39.000
E33  25231965.461 8 132594879.182 8      2301.270          50.000    25231967.758 8 101598675.642 8      1763.310          51.000
> 2020 05 14 09 24  0.0000000  0 15        .000000000000
G02  23020208.453 5 120972017.758 5       761.625          34.000
G06  23515275.125 5 123573561.750 5      -567.227          35.000    23515282.633 5  96291138.328 5      -441.964          30.000
G12  20379315.891 8 107094025.046 8     -1137.887          51.000    20379315.203 8  83449881.861 8      -886.665          51.000
G24  22037226.156 8 115806385.004 8     -2879.504          50.000    22037228.656 8  90238739.530 8     -2243.769          50.000
G25  20304256.344 5 106699584.925 5       786.281          34.000    20304260.758 5  83142546.094 5       612.681          35.000
G29  22195575.086 8 116638544.586 8      3132.852          49.000    22195575.523 8  90887156.529 8      2441.183          49.000
R12  19492939.508 8 104127766.923 8        86.859          48.000    19492943.992 7  80988272.523 7        67.560          45.000
R22  19718124.633 8 105256695.902 8      1543.102          51.000    19718127.297 8  81866318.186 8      1200.190          50.000
C29  22486989.266 8 117095644.698 8      2140.367          51.000
C30  22563047.336 7 117491706.149 7     -1128.469          42.000
E01  25085051.516 5 131822817.995 5     -1580.082          34.000    25085048.641 6 101007113.705 6     -1211.293          37.000
E09  24355257.055 7 127987747.790 7     -2061.883          43.000    24355265.344 7  98068493.187 7     -1579.938          44.000
E26  24317793.289 6 127790842.942 6      -332.523          38.000    24317795.109 5  97917668.677 5      -254.536          33.000
E31  23654209.344 7 124303697.420 7       560.590          42.000    23654211.695 6  95245698.913 6       429.725          39.000
E33  25218849.406 8 132525958.257 8      2287.707          48.000    25218853.023 8 101545866.115 8      1752.984          51.000
> 2020 05 14 09 24 30.0000000  0 16        .000000000000
G02  23015878.383 5 120949264.655 5       749.660          31.000
G12  20385815.578 8 107128180.760 8     -1144.234          51.000    20385814.734 8  83476496.695 8      -891.611          51.000
G24  22053666.359 8 115892782.216 8     -2885.320          48.000    22053669.805 8  90306061.997 8     -2248.302          48.000
G25  20299773.703 6 106676022.575 6       779.664          37.000    20299777.555 6  83124185.805 6       607.530          37.000
G29  22177695.438 8 116544585.642 8      3125.961          49.000    22177696.617 8  90813941.770 8      2435.814          49.000
G32  22150793.164 5 116403186.352 5      -301.660          32.000    22150796.742 5  90703794.474 5      -235.057          32.000
R11  21684041.742 5 115872847.278 5     -2673.953          34.000
R12  19492462.430 8 104125217.135 8        77.840          49.000    19492466.500 7  80986289.342 7        60.542          45.000
R22  19709502.070 8 105210667.687 8      1520.215          51.000    19709504.758 8  81830518.463 8      1182.389          50.000
C29  22474669.328 8 117031491.795 8      2131.328          51.000
C30  22569566.906 7 117525650.803 7     -1139.844          43.000
E01                                                                  25094058.352 6 101043391.305 6     -1211.440          38.000
E09  24367029.383 7 128049609.041 7     -2067.008          44.000    24367037.297 7  98115893.317 7     -1583.829          44.000
E26  24319706.500 5 127800897.329 5      -343.453          33.000    24319706.523 5  97925372.650 5      -262.860          33.000
E31  23650996.930 7 124286813.671 7       559.703          43.000    23650999.164 6  95232762.029 6       429.052          39.000
E33  25205791.375 8 132457340.883 8      2281.664          48.000    25205796.289 8 101493289.170 8      1748.297          51.000
> 2020 05 14 09 25  0.0000000  0 14        .000000000000
G02  23011654.602 5 120927061.091 5       732.922          32.000
G12  20392387.031 8 107162713.233 8     -1155.617          51.000    20392386.008 8  83503405.103 8      -900.481          51.000
G24  22070175.477 7 115979541.961 7     -2896.445          46.000    22070179.758 7  90373666.969 7     -2256.973          46.000
G25  20295365.742 5 106652866.002 5       766.840          33.000    20295370.227 5  83106141.804 5       597.544          32.000
G29  22159889.906 8 116451018.876 8      3113.934          48.000    22159891.367 8  90741032.594 8      2426.442          48.000
R12  19492072.117 8 104123130.755 8        63.496          50.000    19492075.266 7  80984666.615 7        49.386          44.000
R22  19701043.781 8 105165518.311 8      1491.988          51.000    19701047.008 8  81795402.282 8      1160.435          50.000
C29  22462437.406 8 116967798.046 8      2117.055          51.000
C30  22576186.734 6 117560121.924 6     -1156.254          41.000
E01                                                                  25103105.117 6 101079814.469 6     -1215.480          40.000
E09  24378865.695 7 128111807.646 7     -2077.332          42.000    24378873.102 7  98163551.925 7     -1591.644          45.000
E26  24321715.586 6 127811465.149 6      -359.094          36.000    24321717.711 5  97933469.473 5      -275.111          34.000
E31  23647826.203 7 124270150.549 7       553.457          42.000    23647828.109 6  95219994.233 6       423.829          40.000
E33  25192803.688 8 132389094.004 8      2270.402          49.000    25192809.484 8 101440996.105 8      1739.641          51.000
> 2020 05 14 09 25 30.0000000  0 16        .000000000000
G02  23007504.680 5 120905245.214 5       724.613          33.000
G12  20398996.211 8 107197443.944 8     -1157.660          51.000    20398995.031 8  83530467.979 8      -902.073          51.000
G24  22086719.734 7 116066486.084 7     -2897.805          46.000    22086724.750 7  90441415.619 7     -2258.030          46.000
G25  20291002.984 6 106629937.471 6       764.117          36.000    20291003.531 5  83088275.435 5       595.413          34.000
G29  22142125.406 8 116357668.421 8      3111.352          49.000    22142126.508 8  90668291.977 8      2424.430          49.000
G32  22154469.312 5 116422518.632 5      -333.391          35.000    22154465.906 5  90718838.010 5      -259.785          35.000
R11  21714164.102 5 116033892.416 5     -2684.227          33.000    21714169.469 4  90248620.015 4     -2087.732          26.000
R12  19491734.828 8 104121328.120 8        58.711          50.000    19491737.602 7  80983264.561 7        45.664          44.000
R22  19692716.492 8 105121068.934 8      1473.336          51.000    19692719.945 8  81760830.554 8      1145.928          49.000
C29  22450260.258 8 116904388.716 8      2112.188          51.000
C30  22582873.336 6 117594941.934 6     -1163.098          39.000
E01                                                                  25112153.234 6 101116246.991 6     -1212.020          40.000
E09  24390731.461 6 128174163.958 6     -2077.980          41.000    24390738.633 7  98211331.365 7     -1592.156          45.000
E26  24323792.047 6 127822366.671 6      -365.551          39.000    24323792.586 5  97941822.578 5      -280.349          34.000
E31  23644663.547 7 124253530.555 7       556.625          43.000    23644665.180 6  95207259.444 6       426.553          40.000
E33  25179853.969 8 132321041.562 8      2268.473          50.000    25179860.094 8 101388852.043 8      1738.186          51.000
> 2020 05 14 09 26  0.0000000  0 15        .000000000000
G02  23003456.727 5 120883961.930 5       698.668          34.000
G12  20405675.914 8 107232545.467 8     -1178.125          51.000    20405674.719 8  83557819.803 8      -918.019          51.000
G24  22103331.711 7 116153786.310 7     -2917.812          46.000    22103337.062 7  90509441.781 7     -2273.620          46.000
G25  20286716.875 5 106607410.830 5       742.293          35.000    20286715.703 5  83070722.072 5       578.407          34.000
G29  22124435.594 8 116264709.630 8      3090.176          49.000    22124436.117 8  90595856.566 8      2407.929          49.000
G32  22156468.945 5 116433038.821 5      -363.059          31.000    22156468.227 4  90727035.509 4      -282.909          29.000
R12  19491483.742 8 104119986.747 8        35.141          49.000    19491486.570 7  80982221.259 7        27.332          44.000
R22  19684553.812 8 105077497.429 8      1435.832          51.000    19684557.297 8  81726941.640 8      1116.761          50.000
C29  22438170.773 8 116841437.139 8      2088.945          50.000
C30  22589658.992 5 117630281.404 5     -1188.270          33.000
E01  25121239.641 6 132013060.047 6     -1596.004          36.000    25121236.305 7 101152821.879 7     -1222.915          42.000
E09  24402659.297 6 128236849.580 6     -2097.004          41.000    24402666.234 7  98259363.195 7     -1606.643          45.000
E26  24325963.672 6 127833775.800 6      -390.859          36.000    24325962.672 5  97950564.592 5      -299.720          32.000
E31  23641542.125 7 124237127.490 7       541.320          43.000    23641543.867 6  95194690.876 6       414.772          41.000
E33  25166975.031 8 132253358.683 8      2248.035          51.000    25166980.688 8 101336991.166 8      1722.526          51.000
> 2020 05 14 09 26 30.0000000  0 14        .000000000000
G02  22999524.438 5 120863312.099 5       685.199          33.000
G12  20412442.219 8 107268102.369 8     -1185.445          51.000    20412441.102 8  83585526.463 8      -923.727          51.000
G24  22120027.672 7 116241525.625 7     -2924.781          46.000    22120032.789 7  90577810.094 7     -2279.050          46.000
G25  20282522.727 5 106585370.973 5       733.270          33.000    20282522.320 5  83053548.275 5       571.379          34.000
G29  22106837.195 8 116172229.750 8      3082.125          49.000    22106836.852 8  90523794.320 8      2401.656          49.000
R12  19491335.172 8 104119194.319 8        24.797          49.000    19491338.148 7  80981604.921 7        19.283          45.000
R22  19676572.125 8 105034892.396 8      1411.457          51.000    19676576.258 8  81693804.443 8      1097.800          51.000
C29  22426185.359 8 116779029.256 8      2078.414          50.000
C30  22596560.703 6 117666223.544 6     -1200.836          36.000
E01  25130372.773 5 132061064.560 5     -1597.410          35.000    25130372.594 7 101189604.497 7     -1223.966          43.000
E09  24414665.492 7 128299948.038 7     -2102.535          42.000    24414672.234 7  98307711.362 7     -1611.135          46.000
E26  24328245.008 5 127845777.305 5      -402.125          34.000    24328246.125 5  97959760.588 5      -308.230          33.000
E31  23638478.172 7 124221027.032 7       538.926          43.000    23638480.680 7  95182354.153 7       413.099          42.000
E33  25154183.359 8 132186132.418 8      2240.590          51.000    25154187.625 8 101285480.153 8      1716.813          51.000
> 2020 05 14 09 27  0.0000000  0 15        .000000000000
G02  22995658.883 5 120842999.198 5       668.094          32.000
G12  20419238.281 8 107303815.620 8     -1196.453          51.000    20419237.125 8  83613354.959 8      -932.301          51.000
G24  22136751.266 7 116329405.778 7     -2935.168          47.000    22136755.625 8  90646288.113 8     -2287.144          48.000
G25  20278365.008 5 106563520.176 5       722.332          33.000    20278364.641 5  83036521.717 5       562.862          33.000
G29  22089273.922 8 116079932.648 8      3070.145          50.000    22089272.258 8  90451874.511 8      2392.323          50.000
R11  21759758.625 5 116277561.478 5     -2719.508          33.000    21759765.531 4  90438104.555 4     -2115.173          26.000
R12  19491232.891 8 104118649.025 8        10.656          50.000    19491236.508 7  80981180.792 7         8.288          45.000
R22  19668715.242 8 104992952.526 8      1383.484          51.000    19668719.328 8  81661184.552 8      1076.043          51.000
C29  22414248.086 8 116716871.026 8      2064.355          50.000
C30  22603521.578 5 117702471.555 5     -1217.098          31.000
E01  25139500.344 6 132109041.992 6     -1602.320          37.000    25139503.914 7 101226366.359 7     -1227.599          42.000
E09  24426693.539 7 128363159.354 7     -2112.398          42.000    24426699.859 7  98356145.975 7     -1618.636          46.000
E26  24330584.461 5 127858072.849 5      -417.848          32.000    24330587.297 5  97969181.801 5      -320.483          34.000
E31  23635415.227 7 124204931.258 7       532.969          42.000    23635418.445 7  95170021.008 7       408.280          43.000
E33  25141422.148 8 132119066.221 8      2229.316          51.000    25141425.180 8 101234091.796 8      1708.225          51.000
> 2020 05 14 09 27 30.0000000  0 13        .000000000000
G12  20426105.375 8 107339902.419 8     -1213.582          51.000    20426104.180 8  83641474.532 8      -945.648          51.000
G24  22153543.023 8 116417642.601 8     -2951.527          48.000    22153546.062 8  90715044.023 8     -2299.894          48.000
G25  20274283.969 5 106542076.634 5       703.980          31.000    20274283.672 5  83019812.397 5       548.562          31.000
G29  22071787.469 8 115988038.314 8      3051.852          51.000    22071784.805 8  90380268.586 8      2378.069          51.000
R12  19491218.695 8 104118573.340 8        -9.895          51.000    19491222.180 7  80981121.930 7        -7.696          45.000
R22  19661024.773 8 104951901.141 8      1348.988          51.000    19661029.039 8  81629255.701 8      1049.213          51.000
C29  22402400.922 8 116655179.975 8      2044.082          51.000
C30  22610582.398 5 117739239.928 5     -1238.227          30.000
E01  25148665.180 6 132157210.468 6     -1613.250          38.000    25148669.883 6 101263274.678 6     -1236.043          41.000
E09  24438784.602 7 128426699.709 7     -2127.957          42.000    24438790.375 7  98404832.714 7     -1630.548          47.000
E26                                                                  24333025.711 5  97978995.015 5      -336.876          34.000
E31  23632394.859 7 124189058.570 7       520.926          42.000    23632398.445 7  95157858.818 7       399.073          43.000
E33  25128732.680 8 132052379.854 8      2212.074          51.000    25128735.039 8 101182994.487 8      1694.960          51.000
> 2020 05 14 09 28  0.0000000  0 13        .000000000000
G12  20433020.391 8 107376241.127 8     -1219.594          51.000    20433019.172 8  83669790.397 8      -950.333          51.000
G24  22170378.992 8 116506113.435 8     -2957.207          49.000    22170380.969 8  90783982.241 8     -2304.323          49.000
G25  20270257.516 5 106520919.079 5       696.195          35.000    20270257.172 6  83003325.948 6       542.493          36.000
G29  22054354.742 8 115896427.440 8      3044.941          51.000    22054352.086 8  90308883.545 8      2372.682          51.000
R12  19491269.953 8 104118845.515 8       -19.184          51.000    19491273.234 7  80981333.629 7       -14.921          45.000
R22  19653478.102 8 104911616.776 8      1325.789          51.000    19653482.742 8  81597923.407 8      1031.169          51.000
C29  22390620.719 8 116593837.420 8      2034.684          50.000
C30  22617723.453 4 117776407.452 4     -1249.402          29.000
E01  25157844.031 6 132205448.992 6     -1613.387          40.000    25157849.078 7 101300236.650 7     -1236.145          42.000
E09  24450915.609 7 128490446.115 7     -2132.555          43.000    24450920.773 7  98453677.342 7     -1633.964          47.000
E26  24335556.781 6 127884155.789 6      -450.320          37.000
E31  23629393.820 7 124173288.173 7       519.895          42.000    23629397.742 7  95145775.000 7       398.313          43.000
E33  25116091.922 8 131985953.886 8      2205.621          51.000    25116094.500 8 101132096.721 8      1690.000          51.000
> 2020 05 14 09 28 30.0000000  0 15        .000000000000
G12  20440004.195 8 107412941.366 8     -1224.652          51.000    20440003.000 8  83698387.990 8      -954.275          51.000
G24  22187280.148 8 116594927.635 8     -2961.543          51.000    22187281.422 8  90853188.027 8     -2307.699          50.000
G25  20266306.562 5 106500158.517 5       690.012          33.000    20266308.039 5  82987148.963 5       537.668          33.000
G29  22036997.047 8 115805213.159 8      3038.504          49.000    22036995.352 8  90237807.516 8      2367.665          49.000
G32  22168187.906 5 116494623.228 5      -456.086          32.000
R11  21805806.656 4 116523636.512 4     -2744.098          28.000
R12  19491407.469 8 104119579.225 8       -27.359          51.000    19491411.062 7  80981904.286 7       -21.283          46.000
R22  19646096.500 8 104872213.614 8      1303.480          51.000    19646101.039 8  81567276.505 8      1013.818          51.000
C29  22378928.648 8 116532954.728 8      2026.449          49.000
C30  22624960.898 5 117814109.560 5     -1259.859          34.000
E01  25167057.844 6 132253868.594 6     -1612.418          40.000    25167063.969 6 101337337.356 6     -1235.486          41.000
E09  24463107.141 7 128554507.748 7     -2136.023          44.000    24463111.367 7  98502763.511 7     -1636.714          47.000
E26  24338168.914 5 127897891.718 5      -460.391          35.000
E31  23626433.469 7 124157731.395 7       519.605          42.000    23626437.336 7  95133854.898 7       398.109          43.000
E33  25103521.852 8 131919900.990 8      2200.094          50.000    25103524.539 8 101081484.793 8      1685.795          51.000
> 2020 05 14 09 29  0.0000000  0 14        .000000000000
G02  22981156.367 5 120766793.748 5       609.047          32.000
G12  20447020.719 8 107449813.938 8     -1230.281          51.000    20447019.609 8  83727119.862 8      -958.661          51.000
G24  22204210.539 8 116683895.067 8     -2966.430          51.000    22204211.234 8  90922513.239 8     -2311.507          51.000
G25  20262395.266 4 106479606.571 4       683.047          29.000    20262398.523 5  82971134.494 5       532.244          30.000
G29  22019678.703 8 115714208.549 8      3031.531          48.000    22019678.523 7  90166894.842 7      2362.232          47.000
G32  22170850.133 6 116508599.367 6      -471.090          36.000    22170849.852 6  90785915.476 6      -367.080          37.000
R12  19491595.516 8 104120583.860 8       -36.312          51.000    19491599.109 7  80982685.657 7       -28.243          46.000
R22  19638844.664 8 104833501.677 8      1280.453          51.000    19638848.875 8  81537167.225 8       995.908          50.000
C29  22367289.078 8 116472346.274 8      2017.383          48.000
C30  22632258.656 5 117852104.152 5     -1270.156          35.000
E01  25176271.070 6 132302280.593 6     -1612.008          40.000    25176277.391 6 101374432.215 6     -1235.211          40.000
E09  24475322.797 7 128618694.006 7     -2139.984          46.000    24475325.695 7  98551945.169 7     -1639.794          47.000
E31  23623477.539 7 124142199.878 7       518.875          42.000    23623481.297 7  95121954.106 7       397.654          43.000
E33  25090986.773 8 131854034.093 8      2194.059          48.000    25090989.984 8 101031015.378 8      1681.177          51.000
> 2020 05 14 09 29 30.0000000  0 14        .000000000000
G12  20454113.609 8 107487087.741 8     -1249.746          51.000    20454112.461 8  83756164.386 8      -973.828          51.000
G24  22221213.555 8 116773244.762 8     -2985.184          51.000    22221213.883 8  90992136.356 8     -2326.117          51.000
G25  20258567.703 6 106459493.031 6       662.805          36.000    20258571.422 6  82955461.603 6       516.465          36.000
G29  22002444.641 8 115623645.136 8      3010.633          48.000    22002445.555 8  90096325.935 8      2345.948          48.000
G32  22173635.367 5 116523232.188 5      -499.590          34.000    22173636.336 5  90797317.646 5      -389.288          34.000
R12  19491878.133 8 104122094.119 8       -59.449          51.000    19491881.594 7  80983860.291 7       -46.238          45.000
R22  19631766.219 8 104795716.012 8      1243.453          51.000    19631770.445 8  81507778.435 8       967.136          49.000
R23  22881077.320 6 122398337.136 6      4587.113          37.000
C29  22355746.367 8 116412241.229 8      1994.500          48.000
C30  22639654.375 5 117890644.060 5     -1294.309          31.000
E01  25185525.891 6 132350914.950 6     -1625.527          39.000    25185532.328 6 101411697.474 6     -1245.525          38.000
E09  24487605.641 7 128683232.974 7     -2157.773          47.000    24487606.664 7  98601397.057 7     -1653.296          47.000
E31  23620570.109 6 124126923.849 6       504.266          41.000    23620573.703 7  95110249.089 7       386.445          44.000
E33  25078530.531 7 131788584.815 7      2174.078          45.000    25078534.719 8 100980865.909 8      1665.882          51.000
> 2020 05 14 09 30  0.0000000  0 14        .000000000000
G12  20461270.609 8 107524698.263 8     -1257.402          51.000    20461269.250 8  83785471.282 8      -979.794          51.000
G24  22238276.523 8 116862910.190 8     -2992.312          51.000    22238277.570 8  91062005.491 8     -2331.672          51.000
G25  20254810.914 5 106439754.415 5       653.305          34.000    20254816.422 5  82940080.762 5       509.072          33.000
G29  21985283.578 8 115533461.209 8      3001.688          49.000    21985284.383 8  90026052.753 8      2338.977          49.000
G32  22176535.758 6 116538478.919 6      -516.816          38.000    22176538.781 6  90809198.164 6      -402.711          39.000
R12  19492243.562 8 104124046.254 8       -70.574          51.000    19492247.016 7  80985378.610 7       -54.894          46.000
R22  19624849.328 8 104758793.170 8      1218.258          51.000    19624853.008 7  81479060.718 7       947.534          47.000
R23  22855357.820 6 122260753.211 6      4585.203          36.000
C29  22344289.172 8 116352577.639 8      1983.285          51.000
C30  22647146.172 6 117929665.017 6     -1306.535          36.000
E01  25194811.484 6 132399707.849 6     -1626.938          40.000    25194816.367 6 101449084.231 6     -1246.692          36.000
E09  24499942.664 7 128748058.846 7     -2163.840          46.000    24499941.734 7  98651068.778 7     -1657.884          47.000
E31  23617699.078 6 124111839.732 6       501.445          41.000    23617703.047 7  95098691.127 7       384.272          44.000
E33  25066141.625 7 131723490.814 7      2165.805          45.000    25066147.344 8 100930988.670 8      1659.474          51.000
> 2020 05 14 09 30 30.0000000  0 15        .000000000000
G02  22971256.242 5 120714788.947 5       548.180          35.000
G06  23566450.133 5 123842480.996 5      -820.070          35.000
G12  20468479.836 8 107562582.997 8     -1272.672          51.000    20468478.219 8  83814991.852 8      -991.692          51.000
G24  22255387.773 8 116952829.043 8     -3006.777          51.000    22255389.500 8  91132072.118 8     -2342.943          51.000
G29  21968183.625 8 115443597.229 8      2984.930          51.000    21968183.891 8  89956028.890 8      2325.922          51.000
G32  22179541.047 6 116554277.123 6      -540.863          36.000    22179544.758 5  90821508.527 5      -421.443          34.000
R12  19492680.406 8 104126378.903 8       -89.465          51.000    19492683.898 7  80987192.881 7       -69.584          46.000
R22  19618082.531 8 104722672.179 8      1185.328          51.000    19618086.062 8  81450966.660 8       921.925          48.000
R23  22829659.938 5 122123295.415 5      4574.520          35.000    22829668.797 4  94984788.226 4      3557.960          25.000
C29  22332905.781 8 116293295.993 8      1964.426          51.000
C30  22654717.648 5 117969104.614 5     -1327.035          34.000
E01  25204115.703 6 132448597.941 6     -1636.523          39.000    25204123.273 6 101486545.492 6     -1254.121          36.000
E09  24512321.719 7 128813108.402 7     -2177.312          45.000    24512319.266 7  98700911.933 7     -1668.396          47.000
E31  23614853.305 6 124096886.569 6       490.945          40.000    23614857.695 7  95087233.503 7       376.242          44.000
E33  25053811.023 8 131658692.401 8      2149.703          48.000    25053816.438 8 100881337.944 8      1647.202          51.000
> 2020 05 14 09 31  0.0000000  0 15        .000000000000
G06  23571181.398 6 123867336.726 6      -832.270          37.000    23571195.047 5  96520106.550 5      -648.522          32.000
G12  20475768.180 8 107600883.407 8     -1275.824          51.000    20475766.422 8  83844836.327 8      -994.149          51.000
G24  22272573.742 8 117043141.521 8     -3009.258          51.000    22272576.141 8  91202445.445 8     -2344.879          51.000
G25  20247506.539 6 106401331.235 6       632.527          36.000    20247512.852 6  82910149.615 6       492.881          36.000
G29  21951171.672 8 115354196.928 8      2980.102          51.000    21951171.766 8  89886366.355 8      2322.160          51.000
R11  21883560.508 6 116939082.381 6     -2789.961          36.000
R12  19493215.648 8 104129237.523 8       -96.098          51.000    19493218.984 7  80989416.262 7       -74.743          46.000
R22  19611493.133 8 104687498.573 8      1164.539          51.000    19611496.922 8  81423609.460 8       905.753          48.000
R23  22804014.203 5 121986112.326 5      4576.375          34.000    22804026.508 4  94878128.795 4      3559.400          26.000
C29  22321622.906 8 116234538.316 8      1957.547          51.000
C30  22662398.070 6 118009101.945 6     -1334.520          37.000
E01  25213464.719 5 132497651.436 5     -1634.070          33.000    25213475.945 5 101524190.088 5     -1251.813          30.000
E09  24524769.172 7 128878521.767 7     -2178.578          45.000    24524766.578 7  98751033.813 7     -1669.423          47.000
E31  23612059.844 7 124082206.723 7       492.461          42.000    23612064.273 7  95075985.276 7       377.487          44.000
E33  25041564.992 8 131594333.171 8      2145.699          51.000    25041569.406 8 100832023.781 8      1644.113          51.000
> 2020 05 14 09 31 30.0000000  0 16        .000000000000
G02  22965143.375 6 120682654.243 6       503.836          36.000
G06  23575977.688 5 123892540.651 5      -869.375          35.000    23575992.641 5  96539745.900 5      -677.441          35.000
G12  20483070.664 8 107639258.131 8     -1303.586          51.000    20483068.914 8  83874738.704 8     -1015.781          51.000
G24  22289769.539 8 117133506.002 8     -3036.160          51.000    22289772.156 8  91272859.307 8     -2365.839          51.000
G25  20243920.195 6 106382476.209 6       603.402          36.000    20243922.039 6  82895457.245 6       470.178          36.000
G29  21934182.945 8 115264921.481 8      2950.562          51.000    21934183.375 8  89816801.113 8      2299.140          51.000
R11  21899235.164 5 117022861.708 5     -2817.129          35.000
R12  19493784.547 8 104132276.534 8      -127.891          51.000    19493787.688 7  80991779.947 7       -99.470          47.000
R22  19605016.539 8 104652927.509 8      1118.719          51.000    19605020.484 8  81396720.867 8       870.115          49.000
R23  22778356.102 5 121848860.769 5      4552.551          34.000    22778368.812 4  94771377.623 4      3540.876          26.000
C29  22310375.734 8 116175968.130 8      1926.301          51.000
C30  22670121.812 6 118049317.945 6     -1367.137          39.000
E01  25222794.727 5 132546679.327 5     -1655.723          34.000    25222804.633 5 101561741.139 5     -1268.485          33.000
E09  24537220.477 7 128943956.158 7     -2204.523          45.000    24537218.344 7  98801171.807 7     -1689.183          47.000
E31  23609253.633 7 124067459.615 7       469.570          43.000    23609257.969 7  95064685.540 7       359.720          44.000
E33  25029338.102 8 131530073.853 8      2117.129          51.000    25029341.156 8 100782786.193 8      1622.219          51.000
> 2020 05 14 09 32  0.0000000  0 14        .000000000000
G02  22962245.258 5 120667466.760 5       505.328          35.000
G12  20490479.789 8 107678193.574 8     -1295.582          51.000    20490478.125 8  83905078.002 8     -1009.544          51.000
G24  22307067.398 8 117224407.996 8     -3027.355          50.000    22307069.859 8  91343691.997 8     -2358.981          50.000
G25  20240445.398 5 106364223.513 5       609.148          32.000    20240447.375 5  82881234.453 5       474.667          30.000
G29  21917310.680 8 115176260.457 8      2956.770          50.000    21917311.766 8  89747714.631 8      2303.979          50.000
R12  19494479.930 8 104135993.019 8      -123.219          51.000    19494483.539 7  80994670.523 7       -95.837          47.000
R22  19598746.031 8 104619455.765 8      1109.285          51.000    19598750.242 8  81370687.304 8       862.780          50.000
R23  22752780.078 5 121712041.253 5      4564.992          31.000
C29  22299257.062 8 116118070.099 8      1930.258          51.000
C30  22677980.250 6 118090234.391 6     -1363.738          40.000
E01                                                                  25232209.742 5 101599603.930 5     -1257.901          35.000
E09  24549768.305 7 129009897.454 7     -2194.812          45.000    24549767.102 7  98851698.237 7     -1681.763          47.000
E31  23606527.375 7 124053133.380 7       482.301          43.000    23606531.711 7  95053708.295 7       369.459          44.000
E33  25017223.188 8 131466403.879 8      2124.148          51.000    25017225.508 8 100734000.184 8      1627.564          51.000
> 2020 05 14 09 32 30.0000000  0 15        .000000000000
G02  22959418.156 5 120652615.778 5       486.031          35.000
G12  20497914.906 8 107717265.569 8     -1307.922          51.000    20497913.328 8  83935523.706 8     -1019.160          51.000
G24  22324386.539 8 117315422.780 8     -3038.832          49.000    22324388.367 8  91414612.628 8     -2367.918          49.000
G25  20237005.328 6 106346150.155 6       596.426          37.000    20237007.688 6  82867151.317 6       464.747          36.000
G29  21900475.305 8 115087792.766 8      2942.547          50.000    21900476.773 8  89678778.766 8      2292.894          50.000
R11  21930810.508 4 117191573.524 4     -2819.312          29.000
R12  19495221.844 8 104139957.503 8      -139.633          51.000    19495225.523 7  80997754.004 7      -108.603          47.000
R22  19592601.484 8 104586654.747 8      1078.926          51.000    19592605.461 8  81345175.420 8       839.164          49.000
R23  22727204.461 5 121575226.366 5      4557.566          30.000
C29  22288186.500 8 116060425.987 8      1914.059          51.000
C30  22685892.195 6 118131430.292 6     -1381.090          40.000
E01                                                                  25241601.148 5 101637438.526 5     -1263.142          34.000
E09  24562331.703 7 129075920.506 7     -2205.285          47.000    24562331.945 8  98902287.254 8     -1689.815          48.000
E31  23603800.836 7 124038805.110 7       474.305          43.000    23603805.094 7  95042729.475 7       363.443          44.000
E33  25005139.641 8 131402901.515 8      2110.742          50.000    25005141.703 8 100685342.605 8      1617.310          51.000
> 2020 05 14 09 33  0.0000000  0 13        .000000000000
G12  20505410.031 8 107756652.929 8     -1318.406          51.000    20505408.539 8  83966215.128 8     -1027.330          51.000
G24  22341760.562 8 117406728.216 8     -3048.594          48.000    22341763.258 8  91485759.691 8     -2375.528          48.000
G25  20233634.477 6 106328435.597 6       584.547          36.000    20233635.180 6  82853347.751 6       455.488          36.000
G29  21883711.734 8 114999699.015 8      2929.949          51.000    21883712.992 8  89610134.294 8      2283.080          51.000
R12  19496044.789 8 104144353.592 8      -154.043          51.000    19496048.500 7  81001173.166 7      -119.811          47.000
R22  19586617.094 8 104554707.519 8      1050.426          51.000    19586620.508 8  81320327.596 8       817.001          49.000
R23  22701665.648 5 121438603.068 5      4550.516          32.000
C29  22277199.289 8 116003214.855 8      1899.500          51.000
C30  22693891.539 6 118173081.905 6     -1396.559          40.000
E01  25251023.211 5 132695045.120 5     -1653.352          32.000    25251019.000 6 101675382.277 6     -1266.626          39.000
E09  24574944.531 7 129142202.733 7     -2213.898          47.000    24574946.102 8  98953074.897 8     -1696.436          49.000
E31  23601108.133 7 124024654.467 7       468.641          45.000    23601112.406 7  95031886.786 7       358.981          45.000
E33  24993121.648 8 131339747.769 8      2099.117          49.000    24993124.578 8 100636952.139 8      1608.391          51.000
> 2020 05 14 09 33 30.0000000  0 16        .000000000000
G02  22954060.531 5 120624378.107 5       456.125          35.000
G06  23596365.773 5 123999683.342 5      -926.641          35.000    23596365.133 5  96623163.893 5      -722.055          34.000
G12  20512960.547 8 107796331.585 8     -1324.266          51.000    20512959.211 8  83997133.539 8     -1031.895          51.000
G24  22359185.641 8 117498299.369 8     -3053.770          48.000    22359189.234 8  91557113.834 8     -2379.561          48.000
G25  20230327.039 5 106311056.523 5       577.102          34.000    20230327.320 5  82839805.597 5       449.686          34.000
G29  21867015.641 8 114911957.945 8      2922.000          51.000    21867016.406 8  89541764.648 8      2276.883          51.000
G32  22199909.898 6 116661325.264 6      -648.055          37.000
R11  21962556.266 5 117361198.823 5     -2833.004          35.000    21962568.070 4  91281008.529 4     -2203.441          27.000
R12  19496944.477 8 104149158.494 8      -163.812          51.000    19496947.867 8  81004910.312 8      -127.410          48.000
R22  19580788.492 8 104523591.736 8      1026.508          51.000    19580791.445 8  81296126.474 8       798.398          49.000
C29  22266291.266 8 115946414.817 8      1889.609          50.000
C30  22701973.742 6 118215164.628 6     -1406.641          40.000
E01  25260468.422 6 132744664.032 6     -1653.531          36.000    25260464.602 6 101713417.336 6     -1266.985          41.000
E09  24587601.781 7 129208718.970 7     -2217.824          47.000    24587604.250 8  99004041.847 8     -1699.414          48.000
E31  23598444.992 7 124010658.565 7       467.141          45.000    23598448.914 7  95021162.678 7       357.960          45.000
E33  24981165.578 8 131276920.923 8      2091.836          49.000    24981168.953 8 100588812.106 8      1602.955          51.000
> 2020 05 14 09 34  0.0000000  0 15        .000000000000
G06  23601728.961 5 124027850.206 5      -951.824          31.000    23601724.203 4  96645111.961 4      -741.684          29.000
G12  20520565.586 8 107836296.810 8     -1340.637          51.000    20520564.375 8  84028275.259 8     -1044.652          51.000
G24  22376660.273 7 117590130.306 7     -3068.957          47.000    22376664.961 8  91628670.380 8     -2391.395          48.000
G25  20227081.312 5 106294008.639 5       559.332          34.000    20227084.594 5  82826521.576 5       435.840          35.000
G29  21850386.219 8 114824566.988 8      2903.480          51.000    21850386.234 8  89473667.838 8      2262.452          51.000
G32  22203679.570 5 116681108.638 5      -673.625          31.000    22203677.516 5  90920335.540 5      -524.915          31.000
R11  21978499.305 6 117446409.102 6     -2848.062          38.000    21978515.555 4  91347295.271 4     -2215.160          25.000
R12  19497920.070 8 104154368.952 8      -184.215          51.000    19497923.148 8  81008962.882 8      -143.278          48.000
R22  19575114.867 8 104493304.075 8       992.109          51.000    19575117.250 8  81272569.429 8       771.641          49.000
C29  22255461.805 8 115890022.906 8      1869.289          50.000
C30  22710137.023 6 118257672.635 6     -1427.504          39.000
E01  25269931.438 5 132794397.159 5     -1664.316          35.000    25269932.367 6 101751540.542 6     -1275.037          41.000
E09  24600302.602 8 129275462.991 8     -2232.242          48.000    24600305.289 8  99055183.345 8     -1710.434          49.000
E31  23595810.570 7 123996813.505 7       455.277          45.000    23595813.820 7  95010554.115 7       348.963          45.000
E33  24969271.555 8 131214418.254 8      2074.344          50.000    24969274.727 8 100540920.463 8      1589.414          51.000
> 2020 05 14 09 34 30.0000000  0 15        .000000000000
G12  20528247.164 8 107876663.835 8     -1348.129          51.000    20528245.977 8  84059730.061 8     -1050.490          51.000
G24  22394206.672 8 117682336.690 8     -3075.648          48.000    22394211.656 8  91700519.447 8     -2396.612          48.000
G25  20223922.227 6 106277409.028 6       549.766          37.000    20223926.984 6  82813586.779 6       428.389          37.000
G29  21833845.859 8 114737644.824 8      2893.688          51.000    21833844.891 8  89405936.322 8      2254.824          51.000
R11  21994514.523 4 117531991.780 4     -2854.852          28.000
R12  19498993.945 8 104160104.742 8      -195.738          51.000    19498996.820 8  81013424.048 8      -152.241          48.000
R22  19569618.711 8 104463964.263 8       966.383          51.000    19569620.898 8  81249749.602 8       751.634          50.000
R23  22625261.695 5 121029823.596 5      4532.020          30.000
C29  22244733.109 8 115834156.107 8      1857.527          50.000
C30  22718404.867 6 118300720.148 6     -1439.672          39.000
E01  25279443.016 6 132844383.067 6     -1666.109          40.000    25279444.641 6 101789841.428 6     -1276.204          40.000
E09  24613068.891 8 129342549.680 8     -2237.691          48.000    24613071.305 8  99106587.404 8     -1714.592          48.000
E26  24375937.859 5 128096453.918 5      -640.105          33.000
E31  23593227.195 7 123983236.415 7       452.336          46.000    23593229.625 7  95000150.886 7       346.541          45.000
E33  24957462.000 8 131152358.056 8      2065.480          50.000    24957464.484 8 100493367.865 8      1582.683          51.000
> 2020 05 14 09 35  0.0000000  0 15        .000000000000
G12  20535966.188 8 107917227.543 8     -1357.301          51.000    20535965.102 8  84091338.134 8     -1057.637          51.000
G24  22411785.469 8 117774711.769 8     -3083.945          49.000    22411789.500 8  91772499.970 8     -2403.077          50.000
G25  20220810.094 5 106261053.126 5       539.281          35.000    20220814.148 5  82800841.843 5       420.216          34.000
G29  21817355.703 8 114650988.986 8      2882.094          51.000    21817353.727 8  89338412.324 8      2245.787          51.000
R11  22010564.977 5 117617768.533 5     -2863.230          34.000    22010569.844 4  91480521.893 4     -2226.957          25.000
R12  19500127.391 8 104166159.117 8      -209.121          51.000    19500129.852 7  81018132.996 7      -162.650          47.000
R21  21768963.328 5 116490124.165 5     -3231.465          30.000
R22  19564261.156 8 104435365.463 8       938.914          51.000    19564263.336 8  81227506.116 8       730.266          49.000
R23  22599861.172 5 120893926.236 5      4526.164          35.000
C29  22234066.469 8 115778612.985 8      1844.094          50.000
C30  22726736.812 6 118344103.031 6     -1453.688          38.000
E01  25288960.086 6 132894396.417 6     -1669.668          40.000    25288962.438 6 101828163.417 6     -1279.422          38.000
E09  24625861.352 8 129409772.696 8     -2245.039          49.000    24625863.148 8  99158095.932 8     -1720.168          48.000
E31  23590656.109 7 123969723.212 7       447.457          46.000    23590657.836 7  94989796.600 7       342.839          46.000
E33  24945698.180 8 131090537.485 8      2054.633          50.000    24945700.102 8 100445998.901 8      1574.374          51.000
> 2020 05 14 09 35 30.0000000  0 16        .000000000000
G06  23618452.484 5 124115800.078 5      -995.961          32.000    23618449.320 5  96713598.816 5      -776.073          32.000
G12  20543716.836 8 107957957.391 8     -1356.918          51.000    20543715.898 8  84123075.684 8     -1057.336          51.000
G24  22429390.398 8 117867224.405 8     -3082.414          48.000    22429392.898 8  91844587.665 8     -2401.884          48.000
G25  20217738.656 5 106244911.068 5       538.109          35.000    20217741.047 5  82788263.633 5       419.309          35.000
G29  21800910.266 8 114564571.080 8      2880.148          49.000    21800908.109 8  89271073.740 8      2244.272          49.000
G32  22215649.578 5 116744016.745 5      -717.449          34.000    22215647.203 5  90969353.848 5      -559.060          30.000
R11  22026632.500 5 117703648.574 5     -2861.102          32.000    22026648.164 4  91547339.423 4     -2225.319          25.000
R12  19501314.812 8 104172502.534 8      -212.727          51.000    19501317.203 8  81023066.761 8      -165.454          48.000
R22  19559036.562 8 104407478.458 8       921.199          51.000    19559039.188 8  81205816.236 8       716.488          50.000
R23  22574468.977 5 120758092.028 5      4530.715          35.000
C29  22223456.172 8 115723365.085 8      1840.227          50.000
C30  22735126.727 6 118387789.992 6     -1458.004          38.000
E01  25298476.484 6 132944407.540 6     -1663.562          39.000    25298478.906 6 101866483.575 6     -1274.462          36.000
E09  24638673.938 8 129477100.190 8     -2242.488          50.000    24638675.211 8  99209684.517 8     -1718.285          49.000
E31  23588091.586 7 123956244.351 7       452.168          47.000    23588092.742 7  94979468.652 7       346.490          45.000
E33  24933974.695 8 131028928.176 8      2053.609          51.000    24933975.703 8 100398791.801 8      1573.542          51.000
> 2020 05 14 09 36  0.0000000  0 15        .000000000000
G02  22942329.508 5 120562766.013 5       366.598          32.000
G06  23624256.930 5 124146311.353 5     -1027.004          33.000    23624262.305 5  96737370.632 5      -800.266          32.000
G12  20551558.156 8 107999163.864 8     -1378.773          51.000    20551557.352 8  84155184.609 8     -1074.369          51.000
G24  22447079.938 7 117960184.325 7     -3103.324          45.000    22447081.289 7  91917023.942 7     -2418.178          45.000
G25  20214766.930 6 106229294.311 6       514.387          37.000    20214769.367 6  82776094.799 6       400.827          38.000
G29  21784569.766 8 114478704.106 8      2855.664          49.000    21784568.164 8  89204164.452 8      2225.196          49.000
R12  19502615.961 8 104179452.529 8      -239.020          51.000    19502618.523 8  81028472.309 8      -185.904          49.000
R22  19554004.281 8 104380620.636 8       880.828          50.000    19554008.086 8  81184926.827 8       685.089          50.000
R23  22549148.422 6 120622641.886 6      4511.020          37.000
C29  22212961.922 8 115668722.102 8      1814.047          51.000
C30  22743634.719 6 118432088.151 6     -1483.941          40.000
E01  25308052.211 6 132994727.674 6     -1679.836          40.000    25308054.758 5 101905040.552 5     -1287.066          34.000
E09  24651565.273 8 129544841.600 8     -2262.238          50.000    24651566.500 8  99261590.231 8     -1733.364          49.000
E31  23585592.742 7 123943111.615 7       434.578          47.000    23585593.453 7  94969405.898 7       333.039          45.000
E33  24922350.562 8 130967843.043 8      2030.070          51.000    24922351.039 8 100351986.341 8      1555.502          50.000
> 2020 05 14 09 36 30.0000000  0 15        .000000000000
G02  22940287.953 5 120552028.829 5       347.824          30.000
G12  20559463.562 8 108040707.044 8     -1391.289          51.000    20559462.852 8  84187555.908 8     -1084.121          51.000
G24  22464826.859 7 118053450.620 7     -3114.586          43.000    22464829.062 7  91989698.979 7     -2426.947          42.000
G25  20211869.273 7 106214063.674 7       500.352          42.000    20211872.062 7  82764226.776 7       389.887          42.000
G29  21768308.469 8 114393250.979 8      2840.496          51.000    21768307.891 8  89137577.631 8      2213.374          51.000
R12  19504004.297 8 104186868.729 8      -255.969          51.000    19504007.070 8  81034240.460 8      -199.090          49.000
R22  19549138.633 8 104354650.962 8       849.871          51.000    19549142.914 8  81164728.183 8       661.011          49.000
R23  22523873.203 5 120487437.666 5      4501.617          32.000
C29  22202558.211 8 115614547.236 8      1797.086          51.000
C30  22752231.273 5 118476857.757 5     -1501.246          33.000
E01  25317661.125 6 133045217.629 6     -1686.656          41.000    25317662.609 5 101943735.649 5     -1292.223          32.000
E09  24664508.016 8 129612855.697 8     -2272.664          50.000    24664510.023 8  99313704.886 8     -1741.398          49.000
E26  24391232.055 5 128176802.117 5      -702.629          35.000
E31  23583133.203 7 123930186.034 7       426.301          47.000    23583133.773 7  94959501.891 7       326.715          45.000
E33  24910799.539 8 130907144.266 8      2015.797          51.000    24910799.906 8 100305476.914 8      1544.575          50.000
> 2020 05 14 09 37  0.0000000  0 14        .000000000000
G06  23636192.688 4 124209028.972 4     -1059.715          29.000    23636182.312 4  96786218.197 4      -825.752          28.000
G12  20567409.609 8 108082463.563 8     -1393.051          51.000    20567408.914 8  84220093.448 8     -1085.494          51.000
G24  22482608.625 7 118146899.305 7     -3115.637          44.000    22482611.641 7  92062516.154 7     -2427.769          44.000
G25  20209021.844 6 106199096.902 6       496.746          40.000    20209024.094 6  82752564.296 6       387.072          40.000
G29  21752103.258 8 114308090.879 8      2836.215          51.000    21752103.500 8  89071219.143 8      2210.041          51.000
R12  19505456.617 8 104194627.577 8      -261.859          51.000    19505459.609 8  81040275.106 8      -203.668          49.000
R22  19544416.898 8 104329446.274 8       829.895          51.000    19544421.156 8  81145124.537 8       645.477          49.000
C29  22192221.570 8 115560720.421 8      1790.762          51.000
C30  22760895.719 5 118521975.897 5     -1507.590          34.000
E01  25327279.539 6 133095755.195 6     -1683.043          41.000    25327281.648 5 101982459.118 5     -1289.446          33.000
E09  24677478.680 8 129681018.201 8     -2272.105          48.000    24677481.875 8  99365933.274 8     -1740.889          49.000
E26  24395258.961 5 128197959.726 5      -708.867          35.000
E31  23580689.844 7 123917345.706 7       428.992          47.000    23580690.758 7  94949663.222 7       328.765          45.000
E33  24899298.891 8 130846711.039 8      2012.445          51.000    24899300.414 8 100259170.995 8      1542.004          51.000
> 2020 05 14 09 37 30.0000000  0 15        .000000000000
G06  23642318.727 5 124241216.845 5     -1087.223          34.000    23642315.508 5  96811340.042 5      -847.156          34.000
G12  20575414.727 8 108124530.499 8     -1412.359          51.000    20575414.008 8  84252872.877 8     -1100.540          51.000
G24  22500444.883 7 118240626.678 7     -3133.832          47.000    22500447.273 7  92135550.456 7     -2441.947          47.000
G25  20206242.789 6 106184491.683 6       475.969          38.000    20206243.891 6  82741183.588 6       370.885          38.000
G29  21735972.945 8 114223323.372 8      2814.051          51.000    21735973.688 8  89005166.569 8      2192.767          51.000
G32  22233157.711 6 116836039.426 6      -809.426          38.000    22233161.023 6  91041071.924 6      -630.721          38.000
R11  22091542.906 4 118050534.028 4     -2913.141          29.000
R12  19506991.906 8 104202829.593 8      -285.875          51.000    19506994.906 8  81046654.433 8      -222.347          49.000
R22  19539857.266 8 104305106.597 8       791.840          51.000    19539861.430 8  81126193.738 8       615.878          48.000
C29  22181970.172 8 115507339.629 8      1767.012          51.000
C30  22769646.062 6 118567538.085 6     -1531.062          36.000
E01  25336925.172 6 133146438.162 6     -1696.977          37.000    25336927.812 5 102021293.970 5     -1299.999          30.000
E09  24690495.383 7 129749424.993 7     -2289.227          47.000    24690500.242 8  99418348.843 8     -1754.065          49.000
E31  23578281.336 7 123904688.802 7       413.766          47.000    23578282.945 7  94939965.088 7       317.146          46.000
E33  24887867.984 8 130786642.692 8      1991.223          51.000    24887870.492 8 100213144.658 8      1525.691          51.000
> 2020 05 14 09 38  0.0000000  0 14        .000000000000
G06  23648563.641 5 124274038.200 5     -1108.844          31.000    23648566.406 5  96836906.459 5      -864.040          32.000
G12  20583485.570 8 108166942.574 8     -1424.062          51.000    20583484.805 8  84285921.247 8     -1109.656          51.000
G24  22518340.805 8 118334666.389 8     -3144.488          48.000    22518341.734 8  92208828.074 8     -2450.254          49.000
G25  20203538.844 6 106170283.711 6       462.387          40.000    20203540.148 6  82730112.440 6       360.298          39.000
G29  21719924.336 8 114138985.728 8      2799.578          51.000    21719925.367 8  88939448.930 8      2181.489          51.000
G32  22237808.594 5 116860462.139 5      -830.688          32.000    22237810.258 5  91060100.980 5      -647.289          32.000
R12  19508617.328 8 104211511.736 8      -302.027          51.000    19508620.148 8  81053407.209 8      -234.910          49.000
R22  19535467.133 8 104281668.846 8       761.648          51.000    19535470.273 7  81107964.404 7       592.396          47.000
C29  22171811.375 8 115454441.255 8      1750.672          51.000
C30  22778487.172 6 118613577.847 6     -1546.840          38.000
E01  25346605.336 6 133197302.232 6     -1702.898          39.000
E09  24703565.062 8 129818109.672 8     -2298.688          48.000    24703571.133 8  99470977.324 8     -1761.293          49.000
E31  23575914.422 7 123892251.208 7       406.406          47.000    23575916.875 7  94930435.011 7       311.333          47.000
E33  24876513.969 8 130726976.273 8      1977.656          51.000    24876517.148 8 100167426.272 8      1515.341          51.000
> 2020 05 14 09 38 30.0000000  0 14        .000000000000
G12  20591595.117 8 108209558.023 8     -1438.594          51.000    20591594.320 8  84319128.092 8     -1120.982          51.000
G24  22536268.961 8 118428875.999 8     -3157.762          49.000    22536269.258 8  92282238.057 8     -2460.597          49.000
G25  20200884.320 6 106156331.990 6       445.988          40.000    20200885.633 6  82719240.984 6       347.523          40.000
G29  21703930.641 8 114054938.518 8      2781.957          51.000    21703931.773 8  88873957.604 8      2167.759          51.000
G32  22242561.742 5 116885444.498 5      -853.953          34.000
R12  19510305.938 8 104220531.799 8      -321.293          51.000    19510308.828 8  81060422.814 8      -249.895          49.000
R22  19531219.070 8 104258990.163 8       728.336          51.000    19531221.562 7  81090325.496 7       566.484          47.000
R23  22423107.562 5 119948539.359 5      4464.633          34.000    22423124.727 5  93293305.362 5      3472.495          30.000
C29  22161719.180 8 115401886.700 8      1731.492          51.000
C30  22787393.422 5 118659953.810 5     -1565.672          34.000
E01  25356292.336 5 133248215.374 5     -1712.598          33.000
E09  24716660.789 8 129886929.234 8     -2310.953          49.000    24716667.070 8  99523709.174 8     -1770.754          48.000
E31  23573562.250 7 123879892.348 7       395.902          47.000    23573565.523 7  94920965.245 7       303.312          47.000
E33  24865209.969 8 130667572.228 8      1961.055          51.000    24865213.477 8 100121908.932 8      1502.584          51.000
> 2020 05 14 09 39  0.0000000  0 15        .000000000000
G02  22931488.891 5 120505795.571 5       264.117          34.000
G12  20599781.797 8 108252578.856 8     -1438.859          51.000    20599780.836 8  84352650.817 8     -1121.189          51.000
G24  22554267.703 8 118523456.595 8     -3157.020          50.000    22554268.086 8  92355937.159 8     -2460.015          50.000
G25  20198316.938 6 106142839.358 6       444.391          40.000    20198318.711 6  82708727.223 6       346.278          40.000
G29  21688030.898 8 113971386.107 8      2778.707          50.000    21688031.523 8  88808851.835 8      2165.226          50.000
G32  22247420.117 5 116910978.552 5      -862.965          34.000    22247427.102 5  91099498.075 5      -672.440          31.000
R12  19512096.461 8 104230096.775 8      -325.977          51.000    19512099.703 8  81067862.219 8      -253.537          49.000
R22  19527151.797 8 104237277.486 8       709.578          51.000    19527153.789 7  81073437.901 7       551.897          47.000
R23  22398038.188 6 119814427.065 6      4466.535          36.000    22398053.555 5  93188995.867 5      3473.969          30.000
C29  22151732.094 8 115349877.933 8      1726.359          51.000
C30  22796401.602 5 118706865.055 5     -1570.430          35.000
E01  25366026.500 6 133299362.334 6     -1707.258          40.000
E09  24729820.406 8 129956084.472 8     -2308.879          49.000    24729826.305 8  99576698.229 8     -1769.183          48.000
E31  23571263.695 7 123867815.296 7       399.754          47.000    23571267.578 7  94911711.402 7       306.296          47.000
E33  24853994.680 8 130608634.778 8      1958.641          51.000    24853998.398 8 100076749.115 8      1500.771          51.000
> 2020 05 14 09 39 30.0000000  0 16        .000000000000
G02  22930017.922 5 120498064.970 5       249.363          34.000
G12  20608008.320 8 108295809.138 8     -1445.980          51.000    20608007.172 8  84386336.731 8     -1126.738          51.000
G24  22572299.562 8 118618211.597 8     -3162.844          50.000    22572300.562 8  92429772.189 8     -2464.554          51.000
G25  20195798.805 6 106129610.912 6       434.941          38.000    20195801.531 6  82698419.379 6       338.915          38.000
G29  21672188.555 8 113888135.532 8      2768.500          50.000    21672187.688 8  88743981.263 8      2157.273          50.000
R11  22157257.227 5 118401675.252 5     -2943.379          32.000
R12  19513952.242 8 104240009.632 8      -337.641          51.000    19513955.344 8  81075572.218 8      -262.609          49.000
R21  21935969.812 5 117383733.191 5     -3384.809          32.000    21935972.906 4  91298480.398 4     -2632.629          28.000
R22  19523228.156 8 104216333.576 8       683.809          51.000    19523230.625 8  81057148.234 8       531.851          49.000
R23  22372997.094 6 119680459.866 6      4461.656          37.000    22373008.312 4  93084799.239 4      3470.180          28.000
C29  22141813.008 8 115298222.947 8      1714.527          51.000
C30  22805476.336 6 118754117.265 6     -1582.383          38.000
E01  25375769.977 5 133350557.213 5     -1708.652          35.000    25375780.281 5 102177733.968 5     -1309.395          33.000
E09  24743006.383 8 130025378.578 8     -2313.480          49.000    24743011.797 8  99629793.648 8     -1772.715          48.000
E31  23568981.891 7 123855825.596 7       396.820          47.000    23568986.062 7  94902524.493 7       304.081          47.000
E33  24842831.148 8 130549970.554 8      1949.543          51.000    24842834.562 8 100031798.619 8      1493.827          51.000
> 2020 05 14 09 40  0.0000000  0 14        .000000000000
G12  20616288.414 8 108339321.317 8     -1454.684          51.000    20616287.203 8  84420242.307 8     -1133.520          51.000
G24  22590378.086 8 118713212.808 8     -3170.363          49.000    22590379.891 8  92503799.081 8     -2470.413          49.000
G25  20193345.391 6 106116719.835 6       424.602          40.000    20193348.258 6  82688374.408 6       330.858          41.000
G29  21656417.977 8 113805261.894 8      2756.523          50.000    21656414.789 8  88679404.452 8      2147.943          50.000
R12  19515887.086 8 104250345.561 8      -351.227          51.000    19515890.219 8  81083611.271 8      -273.176          49.000
R21  21955002.188 5 117485514.775 5     -3400.895          34.000    21955002.578 4  91377643.937 4     -2645.137          27.000
R22  19519462.281 8 104196232.897 8       656.469          50.000    19519465.336 8  81041514.384 8       510.587          50.000
R23  22347997.281 5 119546715.994 5      4454.562          35.000    22348004.719 4  92980776.264 4      3464.660          27.000
C29  22131975.758 8 115246995.286 8      1700.801          51.000
C30  22814630.859 5 118801780.914 5     -1595.383          32.000
E01  25385530.578 6 133401846.747 6     -1712.613          36.000    25385546.445 5 102217076.133 5     -1312.103          32.000
E09  24756232.461 8 130094882.709 8     -2319.879          49.000    24756237.312 8  99683049.993 8     -1777.582          48.000
E31  23566730.914 7 123843996.837 7       391.844          47.000    23566734.992 8  94893460.887 8       300.313          48.000
E33  24831733.422 8 130491654.178 8      1938.305          50.000    24831736.609 8  99987114.643 8      1485.257          51.000
> 2020 05 14 09 40 30.0000000  0 14        .000000000000
G12  20624623.219 8 108383121.291 8     -1468.422          51.000    20624621.938 8  84454372.149 8     -1144.225          51.000
G24  22608503.922 8 118808464.270 8     -3182.910          48.000    22608506.148 8  92578020.989 8     -2480.190          48.000
G25  20190958.148 7 106104172.730 7       409.129          44.000    20190960.320 7  82678597.421 7       318.799          44.000
G29  21640721.016 8 113722773.204 8      2739.516          51.000    21640717.273 8  88615127.619 8      2134.691          51.000
R12  19517902.641 8 104261112.126 8      -369.730          51.000    19517905.711 8  81091985.263 8      -287.568          48.000
R21  21974113.930 5 117587780.964 5     -3420.359          35.000    21974113.094 5  91457184.325 5     -2660.280          30.000
R22  19515855.742 8 104176982.768 8       623.801          49.000    19515859.352 8  81026542.064 8       485.178          50.000
R23  22323040.117 6 119413206.021 6      4442.512          38.000
C29  22122221.492 8 115196202.435 8      1682.281          51.000
C30  22823861.445 4 118849845.650 4     -1613.375          29.000
E01  25395323.953 6 133453290.791 6     -1720.617          38.000    25395332.961 5 102256481.250 5     -1318.799          30.000
E09  24769499.477 8 130164601.380 8     -2331.141          49.000    24769503.828 8  99736470.767 8     -1786.220          48.000
E31  23564511.898 7 123832335.832 7       382.273          47.000    23564515.758 8  94884525.829 8       292.860          48.000
E33  24820703.258 8 130433693.541 8      1922.320          49.000    24820706.773 8  99942703.254 8      1473.013          51.000
> 2020 05 14 09 41  0.0000000  0 16        .000000000000
G02  22926183.578 5 120477923.499 5       199.043          34.000
G12  20633011.984 8 108427204.749 8     -1473.633          50.000    20633010.625 8  84488722.874 8     -1148.285          50.000
G24  22626675.820 7 118903961.697 7     -3186.820          45.000    22626678.977 7  92652434.555 7     -2483.237          45.000
G25  20188635.477 7 106091966.330 7       401.496          43.000    20188637.492 7  82669085.918 7       312.854          43.000
G29  21625097.180 8 113640667.473 8      2730.887          51.000    21625094.641 8  88551149.179 8      2127.964          51.000
R11  22207035.109 5 118667639.801 5     -2967.555          32.000
R12  19519998.305 8 104272307.061 8      -379.805          51.000    19520001.336 8  81100692.437 8      -295.404          48.000
R21  21993313.938 6 117690524.314 6     -3432.121          37.000    21993313.156 5  91537095.710 5     -2669.431          30.000
R22  19512407.969 8 104158580.014 8       599.656          48.000    19512412.188 8  81012228.786 8       466.399          51.000
R23  22298126.336 5 119279930.659 5      4439.227          35.000
C29  22112549.797 8 115145842.174 8      1671.902          51.000
C30  22833172.203 5 118898336.834 5     -1622.832          30.000
E01  25405137.648 6 133504859.434 6     -1720.398          37.000
E09  24782806.352 8 130234529.344 8     -2333.902          49.000    24782810.508 8  99790051.915 8     -1788.324          48.000
E31  23562324.312 7 123820839.715 7       380.910          47.000    23562327.844 8  94875717.106 8       291.902          48.000
E33  24809740.891 8 130376086.803 8      1914.836          49.000    24809744.109 8  99898563.030 8      1467.197          51.000
> 2020 05 14 09 41 30.0000000  0 15        .000000000000
G12  20641450.875 8 108471551.688 8     -1482.117          49.000    20641449.562 8  84523278.922 8     -1154.897          48.000
G24  22644890.227 7 118999684.087 7     -3193.715          45.000    22644894.641 7  92727023.400 7     -2488.609          45.000
G25  20186373.492 6 106080081.207 6       391.188          41.000    20186376.016 6  82659824.802 6       304.821          41.000
G29  21609542.734 8 113558926.974 8      2719.121          51.000    21609541.859 8  88487455.316 8      2118.796          51.000
R11  22223706.094 4 118756785.828 4     -2973.980          28.000    22223715.492 5  92366395.315 5     -2313.105          30.000
R12  19522170.766 8 104283911.368 8      -393.086          51.000    19522173.883 8  81109717.999 8      -305.734          48.000
R21  22012595.984 6 117793804.621 6     -3446.594          37.000    22012596.930 4  91617427.422 4     -2680.687          29.000
R22  19509115.320 8 104141005.613 8       572.516          50.000    19509120.094 8  80998559.790 8       445.287          51.000
R23  22273251.234 5 119146873.728 5      4432.250          35.000
C29  22102957.695 8 115095896.322 8      1658.457          51.000
C30  22842558.062 5 118947197.345 5     -1635.438          31.000
E01  25414967.938 5 133556561.444 5     -1723.773          34.000
E09  24796148.914 8 130304645.258 8     -2339.809          48.000    24796153.266 8  99843777.060 8     -1792.912          48.000
E31  23560164.719 7 123809489.501 7       376.348          47.000    23560167.680 7  94867020.195 7       288.325          47.000
E33  24798842.656 8 130318816.002 8      1903.918          50.000    24798845.469 8  99854680.238 8      1458.813          50.000
> 2020 05 14 09 42  0.0000000  0 17        .000000000000
G06  23702284.039 5 124556337.043 5     -1252.988          33.000    23702289.312 5  97056896.105 5      -976.358          34.000
G12  20649953.758 8 108516234.562 8     -1495.918          49.000    20649952.617 8  84558096.728 8     -1165.650          49.000
G24  22663161.281 7 119095702.686 7     -3206.508          46.000    22663165.164 7  92801843.042 7     -2498.581          46.000
G25  20184186.648 7 106068590.595 7       375.449          43.000    20184189.219 7  82650871.096 7       292.558          43.000
G29  21594071.727 8 113477626.703 8      2701.727          51.000    21594072.445 8  88424104.457 8      2105.241          51.000
G32  22278787.898 5 117075823.726 5      -973.816          30.000
R12  19524433.945 8 104296000.502 8      -412.020          51.000    19524436.930 8  81119120.657 8      -320.460          48.000
R21  22031978.977 6 117897528.310 6     -3466.938          38.000    22031982.031 4  91698097.226 4     -2696.507          28.000
R22  19505992.227 8 104124334.374 8       539.684          51.000    19505996.820 8  80985593.264 8       419.754          50.000
R23  22248431.992 6 119014114.040 6      4419.184          38.000
C29  22093459.273 8 115046438.377 8      1639.543          51.000
C30  22852034.711 5 118996540.228 5     -1653.305          35.000
E01  25424833.227 5 133608402.885 5     -1731.902          33.000
E09  24809540.852 8 130375020.282 8     -2350.984          48.000    24809544.883 8  99897700.739 8     -1801.416          48.000
E26  24440074.828 5 128433463.984 5      -859.516          32.000
E31  23558046.945 8 123798358.763 8       366.512          48.000    23558049.359 7  94858491.440 7       280.795          47.000
E33  24788022.734 8 130261955.708 8      1887.594          51.000    24788024.570 8  99811111.988 8      1446.368          49.000
> 2020 05 14 09 42 30.0000000  0 16        .000000000000
G06  23709474.047 6 124594113.756 6     -1260.281          36.000    23709478.883 6  97086332.420 6      -982.037          36.000
G12  20658502.086 8 108561156.455 8     -1494.035          49.000    20658501.133 8  84593100.808 8     -1164.183          48.000
G24  22681470.641 7 119191920.123 7     -3203.305          46.000    22681472.633 7  92876817.552 7     -2496.088          46.000
G25  20182056.977 7 106057398.824 7       375.410          44.000    20182059.281 7  82642150.238 7       292.527          44.000
G29  21578665.805 8 113396672.761 8      2700.031          49.000    21578668.109 8  88361023.432 8      2103.920          49.000
G32  22284394.250 6 117105224.543 6      -981.160          38.000    22284393.070 5  91250839.171 5      -764.537          32.000
R12  19526769.891 8 104308477.952 8      -414.934          51.000    19526772.430 8  81128825.346 8      -322.723          48.000
R21  22051436.117 6 118001667.851 6     -3470.871          36.000    22051443.875 4  91779087.191 4     -2699.566          26.000
R22  19503020.398 8 104108468.956 8       522.926          51.000    19503024.656 8  80973253.502 8       406.720          51.000
R23  22223650.992 6 118881557.603 6      4422.574          38.000
C29  22084036.734 8 114997374.439 8      1636.195          51.000
C30  22861581.078 5 119046247.847 5     -1656.230          35.000
E01  25434715.500 5 133660332.216 5     -1725.402          35.000    25434725.797 5 102415059.086 5     -1321.687          33.000
E09  24822963.555 8 130445556.696 8     -2346.477          48.000    24822966.609 7  99951748.068 7     -1797.875          47.000
E31  23555952.664 8 123787352.153 8       372.160          48.000    23555954.609 7  94850057.806 7       285.242          47.000
E33  24777263.172 8 130205411.585 8      1886.918          51.000    24777263.867 8  99767786.009 8      1445.820          48.000
> 2020 05 14 09 43  0.0000000  0 17        .000000000000
G02  22922442.953 6 120458237.389 6       127.801          36.000
G06  23716760.422 6 124632399.091 6     -1289.602          38.000    23716765.000 6  97116165.101 6     -1004.881          38.000
G12  20667095.570 8 108606315.456 8     -1513.965          48.000    20667094.750 8  84628289.646 8     -1179.713          48.000
G24  22699817.703 7 119288333.645 7     -3221.855          47.000    22699819.805 7  92951944.914 7     -2510.540          47.000
G25  20179984.094 7 106046504.697 7       353.410          44.000    20179986.109 7  82633661.314 7       275.385          44.000
G29  21563326.031 8 113316065.277 8      2676.289          49.000    21563328.305 8  88298212.379 8      2085.420          49.000
R11  22274050.969 5 119025836.795 5     -3004.543          33.000
R12  19529178.570 8 104321343.771 8      -440.164          51.000    19529180.727 8  81138832.092 8      -342.353          48.000
R21  22070977.297 5 118106225.930 5     -3497.211          33.000    22070981.852 4  91860410.220 4     -2720.050          26.000
R22  19500199.547 8 104093408.707 8       483.727          51.000    19500203.492 8  80961540.006 8       376.232          50.000
R23  22198908.492 5 118749207.261 5      4403.465          34.000
C29  22074690.523 8 114948704.410 8      1611.027          51.000
C30  22871196.297 5 119096317.089 5     -1679.957          32.000
E01                                                                  25444622.383 5 102454916.180 5     -1333.235          35.000
E09  24836416.320 7 130516251.372 7     -2363.840          47.000    24836418.391 7 100005916.669 7     -1811.263          47.000
E31  23553881.758 8 123776468.903 8       355.953          48.000    23553883.305 7  94841718.696 7       272.785          47.000
E33  24766563.773 8 130149183.860 8      1864.219          51.000    24766563.625 8  99724702.475 8      1428.469          49.000
> 2020 05 14 09 43 30.0000000  0 15        .000000000000
G06  23724192.602 5 124671453.678 5     -1312.934          35.000    23724196.430 5  97146597.279 5     -1023.062          35.000
G12  20675783.930 7 108651972.998 7     -1527.781          47.000    20675783.203 7  84663866.960 7     -1190.479          47.000
G24  22718251.625 7 119385203.653 7     -3234.102          46.000    22718254.898 7  93027427.999 7     -2520.079          46.000
G25  20178017.609 7 106036170.254 7       337.551          43.000    20178019.531 7  82625608.511 7       263.027          43.000
G29  21548103.461 8 113236068.069 8      2658.922          51.000    21548103.273 8  88235876.973 8      2071.890          51.000
R12  19531709.750 8 104334864.850 8      -459.109          51.000    19531712.312 8  81149348.481 8      -357.085          48.000
R21  22090642.781 5 118211463.134 5     -3516.828          31.000    22090648.625 4  91942261.393 4     -2735.308          27.000
R22  19497579.336 8 104079419.844 8       450.922          51.000    19497582.711 8  80950659.798 8       350.717          50.000
R23  22174255.141 5 118617333.707 5      4390.430          30.000
C29  22065470.203 8 114900688.775 8      1592.105          51.000
C30  22880932.609 6 119147006.028 6     -1697.203          37.000
E01                                                                  25454583.648 6 102495036.726 6     -1339.781          36.000
E09  24849948.500 7 130587364.265 7     -2374.895          47.000    24849950.273 7 100060405.705 7     -1819.694          47.000
E31  23551884.172 8 123765971.395 8       346.020          48.000    23551885.648 8  94833675.156 8       265.096          48.000
E33  24755974.727 8 130093535.891 8      1847.785          51.000    24755974.789 8  99682063.189 8      1415.841          50.000
> 2020 05 14 09 44  0.0000000  0 15        .000000000000
G02  22921173.422 5 120451599.481 5        98.949          34.000
G06  23731710.250 5 124710980.140 5     -1320.871          32.000    23731713.383 5  97177383.899 5     -1029.244          32.000
G12  20684507.461 8 108697814.946 8     -1527.148          48.000    20684506.570 8  84699587.968 8     -1189.986          48.000
G24  22736712.297 7 119482214.417 7     -3232.156          46.000    22736716.648 7  93103020.776 7     -2518.563          46.000
G25  20176097.836 7 106026082.213 7       335.895          43.000    20176099.836 7  82617747.705 7       261.736          43.000
G29  21532938.055 8 113156369.093 8      2655.445          51.000    21532936.328 8  88173773.964 8      2069.181          51.000
G32  22301850.141 5 117196963.825 5     -1041.145          35.000
R12  19534304.258 8 104348723.895 8      -463.648          51.000    19534307.195 8  81160127.747 8      -360.615          48.000
R22  19495100.234 8 104066184.327 8       432.512          51.000    19495103.438 8  80940365.539 8       336.398          50.000
C29  22056315.984 8 114853018.065 8      1587.129          51.000
C30  22890726.719 5 119198002.605 5     -1701.434          35.000
E01  25464547.773 5 133817119.030 5     -1743.000          34.000    25464554.336 6 102535180.599 6     -1335.626          40.000
E09  24863500.156 7 130658580.074 7     -2371.652          47.000    24863502.352 7 100114973.636 7     -1817.390          47.000
E31  23549900.227 7 123755546.767 7       350.145          47.000    23549902.102 8  94825687.464 8       268.293          48.000
E33  24745436.477 8 130038155.797 8      1845.336          51.000    24745436.891 8  99639629.144 8      1414.028          51.000
> 2020 05 14 09 44 30.0000000  0 13        .000000000000
G12  20693251.750 8 108743765.953 8     -1539.520          48.000    20693250.547 8  84735393.934 8     -1199.626          48.000
G24  22755185.312 7 119579290.308 7     -3242.930          46.000    22755190.016 7  93178664.325 7     -2526.958          46.000
G25  20174210.766 7 106016166.012 7       321.527          44.000    20174212.891 7  82610020.794 7       250.541          45.000
G29  21517815.328 8 113076895.400 8      2639.266          51.000    21517814.102 8  88111846.455 8      2056.574          51.000
G32  22307843.117 6 117228457.804 6     -1061.941          37.000    22307849.047 6  91346886.424 6      -827.496          37.000
R12  19536947.883 8 104362845.491 8      -481.281          51.000    19536950.836 8  81171111.198 8      -374.330          48.000
R22  19492747.594 8 104053626.530 8       401.098          51.000    19492750.898 8  80930598.400 8       311.965          49.000
R23  22125023.930 5 118353932.883 5      4379.555          34.000
C29  22047213.969 8 114805619.327 8      1569.367          51.000
E01                                                                  25474516.641 6 102575290.672 6     -1341.274          38.000
E09  24877056.812 7 130729822.246 7     -2381.250          46.000    24877059.648 7 100169561.762 7     -1824.681          47.000
E31  23547915.938 7 123745120.856 7       341.445          47.000    23547918.281 8  94817698.773 8       261.663          48.000
E33  24734934.945 8 129982970.342 8      1830.160          51.000    24734936.078 8  99597344.230 8      1402.325          51.000
> 2020 05 14 09 45  0.0000000  0 15        .000000000000
G06  23747009.070 6 124791358.092 6     -1360.668          36.000    23747007.656 5  97240016.905 5     -1060.261          35.000
G12  20702062.617 8 108790067.103 8     -1549.051          48.000    20702061.273 8  84771472.728 8     -1207.053          48.000
G24  22773716.461 7 119676672.129 7     -3250.793          46.000    22773721.461 7  93254546.244 7     -2533.085          46.000
G25  20172402.586 7 106006663.684 7       309.977          44.000    20172404.562 7  82602616.356 7       241.540          44.000
G29  21502781.094 8 112997890.784 8      2625.902          50.000    21502781.266 8  88050284.423 8      2046.158          50.000
G32  22313952.977 6 117260566.784 6     -1080.449          38.000    22313952.000 6  91371906.479 6      -841.908          38.000
R12  19539686.922 8 104377476.953 8      -496.004          51.000    19539689.789 8  81182491.212 8      -385.784          48.000
R22  19490568.172 8 104041992.542 8       372.562          51.000    19490570.789 8  80921549.724 8       289.771          49.000
R23  22100484.758 6 118222650.709 6      4370.512          38.000
C29  22038210.172 8 114758733.266 8      1554.492          51.000
C30  22910501.203 5 119300959.863 5     -1730.879          35.000
E01                                                                  25484513.984 5 102615552.618 5     -1344.537          35.000
E09  24890664.469 7 130801330.765 7     -2387.895          47.000    24890667.672 7 100224353.958 7     -1829.620          47.000
E31  23545977.508 7 123734936.061 7       335.664          47.000    23545980.320 8  94809894.836 8       257.119          48.000
E33  24724516.523 8 129928222.859 8      1817.852          51.000    24724518.445 8  99555394.890 8      1392.830          51.000
> 2020 05 14 09 45 30.0000000  0 15        .000000000000
G06  23754835.641 6 124832479.388 6     -1379.770          38.000    23754835.492 6  97272059.410 6     -1075.148          37.000
G12  20710938.945 8 108836712.192 8     -1559.473          49.000    20710937.375 8  84807819.550 8     -1215.173          49.000
G24  22792304.383 7 119774351.836 7     -3259.891          46.000    22792309.312 7  93330660.297 7     -2540.175          46.000
G25  20170671.961 7 105997569.848 7       297.207          43.000    20170673.656 7  82595530.236 7       231.590          43.000
G29  21487834.727 8 112919351.238 8      2611.207          50.000    21487836.367 8  87989084.731 8      2034.704          50.000
G32  22320180.148 6 117293283.011 6     -1099.801          37.000    22320176.539 6  91397399.706 6      -856.991          37.000
R12  19542520.328 8 104392613.583 8      -511.891          51.000    19542523.352 8  81194264.134 8      -398.137          48.000
R22  19488560.375 8 104031276.660 8       343.039          51.000    19488563.320 8  80913215.147 8       266.808          49.000
R23  22076008.039 6 118091706.492 6      4359.988          41.000
C29  22029303.766 8 114712355.439 8      1538.449          51.000
C30  22920514.891 5 119353120.967 5     -1745.945          35.000
E01                                                                  25494549.102 6 102655962.159 6     -1348.628          37.000
E09  24904321.773 7 130873098.217 7     -2395.473          47.000    24904325.086 7 100279344.578 7     -1835.459          47.000
E31  23544084.164 8 123724987.389 8       328.688          48.000    23544087.430 8  94802271.815 8       251.845          49.000
E33  24714180.523 8 129873909.332 8      1804.305          51.000    24714183.359 8  99513778.047 8      1382.465          51.000
> 2020 05 14 09 46  0.0000000  0 15        .000000000000
G06  23762807.789 6 124874371.207 6     -1396.254          37.000    23762808.617 6  97304702.415 6     -1087.990          36.000
G12  20719910.719 8 108883859.379 8     -1566.906          48.000    20719908.633 8  84844557.614 8     -1220.966          48.000
G24  22810979.039 7 119872486.536 7     -3265.602          47.000    22810983.852 7  93407128.869 7     -2544.628          47.000
G25  20169049.180 7 105989043.337 7       287.688          44.000    20169050.734 7  82588886.220 7       224.172          43.000
G29  21473008.055 8 112841437.286 8      2599.809          51.000    21473009.672 8  87928372.562 8      2025.825          51.000
R12  19545478.859 8 104408417.662 8      -524.660          51.000    19545482.016 8  81206556.181 8      -408.072          49.000
R21  22190115.055 5 118743697.010 5     -3583.250          34.000    22190118.570 5  92356243.054 5     -2786.972          32.000
R22  19486754.828 8 104021640.371 8       316.473          51.000    19486758.266 8  80905720.274 8       246.145          49.000
R23  22051626.156 6 117961266.325 6      4353.086          39.000
C29  22020525.250 8 114666644.221 8      1525.559          51.000
C30  22930643.070 5 119405900.269 5     -1757.008          31.000
E01                                                                  25504653.750 6 102696641.098 6     -1350.418          38.000
E09  24918058.164 8 130945281.518 8     -2399.895          48.000    24918061.859 7 100334653.823 7     -1838.793          47.000
E31  23542266.109 8 123715434.142 8       324.996          48.000    23542269.719 8  94794951.793 8       249.014          49.000
E33  24703957.562 8 129820190.007 8      1793.887          51.000    24703961.039 8  99472616.486 8      1374.519          51.000
> 2020 05 14 09 46 30.0000000  0 18        .000000000000
G02  22919641.023 4 120443535.545 4         8.953          29.000
G06  23770784.422 5 124916292.667 5     -1416.633          34.000    23770784.469 5  97337368.492 5     -1103.870          35.000
G12  20728837.109 7 108930768.166 7     -1578.699          47.000    20728834.867 7  84881109.914 7     -1230.155          47.000
G24  22829599.336 7 119970335.438 7     -3275.703          47.000    22829603.836 7  93483374.762 7     -2552.496          47.000
G25  20167393.703 7 105980344.606 7       273.684          44.000    20167395.414 7  82582107.962 7       213.260          44.000
G29  21458160.484 8 112763410.475 8      2583.777          51.000    21458161.023 8  87867572.490 8      2013.336          51.000
G32  22332928.133 5 117360314.842 5     -1136.168          32.000    22332931.211 5  91449597.108 5      -885.320          30.000
R11  22393192.406 5 119662438.218 5     -3062.258          30.000
R12  19548421.672 8 104424138.160 8      -541.867          51.000    19548425.078 8  81218783.205 8      -421.455          48.000
R21  22210200.109 6 118851167.027 6     -3600.141          36.000    22210203.688 4  92439830.805 4     -2800.115          29.000
R22  19485010.945 8 104012332.297 8       285.555          51.000    19485014.297 8  80898480.686 8       222.098          49.000
R23  22027197.953 6 117830581.178 6      4340.863          38.000
C29  22011733.570 8 114620867.454 8      1508.117          50.000
C30  22940755.852 5 119458563.269 5     -1772.371          35.000
E01                                                                  25514685.086 5 102737022.683 5     -1355.632          33.000
E09  24931732.422 8 131017138.963 8     -2408.695          48.000    24931736.992 8 100389713.392 8     -1845.621          48.000
E31  23540382.766 8 123705537.050 8       316.773          49.000    23540386.250 8  94787368.315 8       242.690          49.000
E33  24693707.453 8 129766326.404 8      1778.934          51.000    24693710.961 8  99431344.416 8      1363.082          51.000
> 2020 05 14 09 47  0.0000000  0 17        .000000000000
G02  22919653.523 5 120443620.213 5        -4.086          35.000
G06  23778937.773 5 124959165.310 5     -1429.582          35.000    23778941.016 5  97370780.095 5     -1113.963          35.000
G12  20737891.539 7 108978350.008 7     -1582.836          46.000    20737889.805 7  84918186.666 7     -1233.379          47.000
G24  22848338.195 7 120068807.972 7     -3278.363          47.000    22848342.203 7  93560106.563 7     -2554.572          47.000
G25  20165879.086 7 105972385.388 7       267.527          43.000    20165881.188 7  82575905.972 7       208.463          43.000
G29  21443465.297 8 112686184.486 8      2575.359          51.000    21443464.383 8  87807396.478 8      2006.777          51.000
G32  22339483.328 5 117394752.496 5     -1149.309          35.000    22339484.562 5  91476431.610 5      -895.571          33.000
R11  22410422.977 5 119754516.481 5     -3065.449          32.000
R12  19551522.516 8 104440702.832 8      -551.559          51.000    19551525.617 7  81231666.814 7      -428.990          47.000
R21  22230441.289 5 118959470.247 5     -3609.285          35.000    22230444.969 4  92524066.599 4     -2807.225          27.000
R22  19483502.398 8 104004278.385 8       262.289          51.000    19483505.555 8  80892216.534 8       204.003          48.000
R23  22002899.016 6 117700582.807 6      4336.566          37.000    22002892.531 4  91544932.988 4      3372.885          26.000
C29  22003102.516 8 114575929.532 8      1498.266          49.000
C30  22951019.312 5 119512011.869 5     -1780.332          35.000
E09  24945517.719 8 131089580.355 8     -2409.871          48.000    24945523.680 8 100445220.398 8     -1846.492          48.000
E31  23538607.656 8 123696208.374 8       316.102          49.000    23538610.758 8  94780220.368 8       242.214          49.000
E33  24683604.070 8 129713231.732 8      1771.539          51.000    24683606.492 8  99390661.500 8      1357.458          51.000
> 2020 05 14 09 47 30.0000000  0 15        .000000000000
G02  22919744.180 5 120444093.692 5       -26.184          35.000
G06  23787174.344 5 125002442.482 5     -1454.254          35.000    23787177.172 5  97404502.491 5     -1133.185          35.000
G12  20746974.367 7 109026080.597 7     -1597.730          46.000    20746972.852 7  84955379.305 7     -1244.985          46.000
G24  22867095.984 7 120167379.995 7     -3291.719          47.000    22867098.828 7  93636915.884 7     -2564.976          47.000
G25  20164405.953 7 105964642.611 7       250.180          45.000    20164408.141 7  82569872.653 7       194.948          45.000
G29  21428822.898 8 112609237.601 8      2555.977          51.000    21428821.125 8  87747437.952 8      1991.670          51.000
R12  19554682.125 8 104457580.964 8      -572.188          51.000    19554685.273 8  81244794.238 8      -445.035          48.000
R21  22250735.594 5 119068069.442 5     -3629.020          31.000
R22  19482129.102 8 103996947.151 8       228.027          51.000    19482132.062 8  80886514.512 8       177.358          48.000
R23  21978629.688 6 117570742.673 6      4321.203          38.000    21978621.234 4  91443952.231 4      3360.936          28.000
C29  21994533.641 8 114531312.991 8      1477.633          50.000
C30  22961333.570 5 119565725.701 5     -1799.309          33.000
E09  24959314.031 8 131162081.542 8     -2421.906          48.000    24959321.805 8 100500830.477 8     -1855.809          48.000
E31  23536841.258 8 123686925.441 8       304.379          50.000    23536844.078 8  94773107.472 8       233.192          49.000
E33  24673547.945 8 129660384.145 8      1753.148          51.000    24673549.711 8  99350167.954 8      1343.274          50.000
> 2020 05 14 09 48  0.0000000  0 16        .000000000000
G02  22919944.320 5 120445157.301 5       -50.664          34.000
G06  23795526.289 5 125046335.202 5     -1479.816          33.000    23795533.266 5  97438704.560 5     -1153.101          33.000
G12  20756123.703 7 109074160.410 7     -1614.293          46.000    20756122.227 7  84992844.094 7     -1257.891          46.000
G24  22885910.547 7 120266251.001 7     -3306.441          46.000    22885911.547 7  93713958.134 7     -2576.454          46.000
G25  20163012.273 7 105957317.659 7       231.379          46.000    20163014.336 7  82564164.904 7       180.295          46.000
G29  21414271.281 8 112532772.978 8      2534.992          48.000    21414270.609 8  87687855.151 8      1975.319          48.000
R11  22445002.711 5 119939289.931 5     -3095.582          31.000
R12  19557938.609 8 104474977.768 8      -594.500          51.000    19557942.195 8  81258325.059 8      -462.389          49.000
R21  22271122.117 5 119177165.848 5     -3650.844          31.000
R22  19480929.672 8 103990543.000 8       192.082          51.000    19480932.234 8  80881533.540 8       149.400          48.000
R23  21954428.297 5 117441269.493 5      4303.754          35.000    21954419.922 5  91343250.964 5      3347.367          30.000
C29  21986065.617 8 114487218.223 8      1455.262          51.000
C30  22971738.109 6 119619902.583 6     -1819.109          38.000
E09  24973159.914 8 131234843.892 8     -2435.434          48.000    24973167.102 8 100556581.358 8     -1866.120          49.000
E31  23535121.953 8 123677890.041 8       291.148          50.000    23535124.773 8  94766184.251 8       223.043          50.000
E33  24663577.336 8 129607986.314 8      1733.230          51.000    24663578.555 8  99310019.021 8      1328.036          50.000
> 2020 05 14 09 48 30.0000000  0 16        .000000000000
G02  22920259.211 6 120446823.647 6       -58.285          38.000
G06  23803997.180 5 125090849.547 5     -1486.855          33.000    23804005.656 5  97473395.076 5     -1158.586          33.000
G12  20765341.719 7 109122601.083 7     -1613.418          47.000    20765340.258 7  85030590.061 7     -1257.209          47.000
G24  22904783.820 7 120365430.504 7     -3303.754          47.000    22904783.492 7  93791240.768 7     -2574.357          47.000
G25  20161700.484 7 105950422.663 7       229.918          47.000    20161702.102 7  82558792.178 7       179.157          47.000
G29  21399814.016 8 112456803.907 8      2531.391          50.000    21399814.789 8  87628658.439 8      1972.512          50.000
R11  22462371.953 4 120032093.697 4     -3093.594          28.000    22462389.141 4  93358374.967 4     -2406.128          26.000
R12  19561294.648 8 104492906.485 8      -598.977          51.000    19561298.633 8  81272269.591 8      -465.871          49.000
R21  22291605.055 5 119286767.301 5     -3654.570          32.000
R22  19479906.117 8 103985078.098 8       173.938          51.000    19479908.562 8  80877283.095 8       135.285          48.000
R23  21930295.867 5 117312248.673 5      4304.359          30.000    21930290.898 4  91242884.904 4      3347.835          29.000
C29  21977699.852 8 114443657.973 8      1450.340          49.000
C30  22982233.086 6 119674552.794 6     -1821.996          37.000
E09  24987056.312 7 131307871.465 7     -2431.293          47.000    24987063.383 8 100612529.747 8     -1862.984          49.000
E31  23533452.164 8 123669114.684 8       295.461          51.000    23533455.062 8  94759460.268 8       226.488          50.000
E33  24653694.547 8 129556051.628 8      1730.789          51.000    24653696.023 8  99270224.985 8      1326.165          51.000
> 2020 05 14 09 49  0.0000000  0 13        .000000000000
G02  22920636.758 5 120448812.445 5       -58.172          34.000    22920634.031 5  93856174.070 5       -45.338          32.000
G06  23812534.328 5 125135712.745 5     -1487.348          34.000    23812543.281 5  97508353.312 5     -1158.972          32.000
G12  20774574.867 7 109171121.665 7     -1605.090          47.000    20774573.406 7  85068398.288 7     -1250.719          47.000
G24  22923662.375 7 120464638.179 7     -3293.781          47.000    22923661.906 7  93868545.367 7     -2566.586          47.000
G25  20160417.141 7 105943677.565 7       235.891          47.000    20160418.445 7  82553536.262 7       183.811          47.000
G29  21385399.086 8 112381051.662 8      2535.008          51.000    21385400.125 8  87569630.704 8      1975.331          51.000
R12  19564697.586 8 104511083.334 8      -596.184          51.000    19564701.445 8  81286407.144 8      -463.695          49.000
R21  22312128.156 5 119396584.580 5     -3650.582          31.000
R22  19479005.117 8 103980267.469 8       163.293          51.000    19479007.273 8  80873541.517 8       127.006          48.000
C29  21969383.820 8 114400355.642 8      1452.590          50.000
E09  25000950.203 7 131380884.271 7     -2419.938          47.000    25000956.469 8 100668474.599 8     -1854.283          49.000
E31  23531778.586 8 123660319.807 8       307.078          51.000    23531781.641 8  94752721.346 8       235.324          51.000
E33  24643846.492 8 129504301.349 8      1735.500          51.000    24643848.742 8  99230572.225 8      1329.826          51.000
> 2020 05 14 09 49 30.0000000  0 14        .000000000000
G02  22921134.195 5 120451430.841 5      -105.977          35.000    22921132.383 5  93858214.410 5       -82.567          33.000
G06  23821195.547 5 125181226.515 5     -1536.395          33.000    23821203.867 5  97543818.583 5     -1197.194          32.000
G12  20783881.398 7 109220027.886 7     -1645.074          47.000    20783879.758 7  85106507.064 7     -1281.873          46.000
G24  22942604.242 7 120564178.160 7     -3332.094          47.000    22942604.375 7  93946108.921 7     -2596.440          47.000
G25  20159220.500 7 105937389.179 7       193.477          47.000    20159222.031 7  82548636.225 7       150.761          47.000
G29  21371084.312 8 112305824.446 8      2490.352          51.000    21371085.133 8  87511012.114 8      1940.534          51.000
R12  19568205.289 8 104529820.883 8      -642.574          51.000    19568208.992 8  81300980.807 8      -499.780          50.000
R22  19478284.945 8 103976422.684 8       103.410          51.000    19478286.820 8  80870551.133 8        80.430          48.000
R23  21882133.844 6 117054647.626 6      4269.758          37.000
C29  21961176.570 8 114357615.981 8      1406.828          51.000
C30  23003397.156 5 119784703.926 5     -1861.422          33.000
E09  25014899.016 7 131454187.990 7     -2456.707          46.000    25014905.039 8 100724642.377 8     -1882.493          48.000
E31  23530159.672 8 123651812.580 8       270.301          50.000    23530163.102 8  94746202.821 8       207.120          51.000
E33  24634091.969 8 129453043.495 8      1691.902          50.000    24634095.227 8  99191296.748 8      1296.366          51.000
> 2020 05 14 09 50  0.0000000  0 15        .000000000000
G02  22921723.766 4 120454531.894 4      -107.699          29.000    22921725.930 5  93860623.821 5       -83.915          30.000
G12  20793233.281 7 109269172.646 7     -1638.289          47.000    20793231.570 7  85144801.695 7     -1276.589          47.000
G24  22961581.031 7 120663902.047 7     -3323.461          47.000    22961582.055 7  94023815.812 7     -2589.710          47.000
G25  20158082.820 8 105931410.593 8       197.902          48.000    20158084.703 7  82543977.572 7       154.207          47.000
G29  21356841.641 8 112230976.909 8      2492.371          51.000    21356842.359 8  87452689.398 8      1942.107          51.000
G32  22380843.430 5 117612114.347 5     -1256.375          33.000    22380845.852 5  91645818.974 5      -978.994          32.000
R12  19571790.102 8 104548970.696 8      -641.281          51.000    19571793.922 8  81315875.105 8      -498.774          50.000
R21  22353432.609 5 119617700.610 5     -3692.410          31.000
R22  19477717.477 8 103973393.847 8        91.203          51.000    19477719.641 8  80868195.378 8        70.936          49.000
R23  21858148.781 6 116926362.053 6      4275.680          39.000
C29  21953049.539 8 114315294.144 8      1407.484          51.000
C30  23014089.859 5 119840392.874 5     -1857.684          33.000
E09  25028874.672 7 131527625.748 7     -2446.727          46.000    25028881.445 7 100780913.982 7     -1874.833          47.000
E31  23528567.648 8 123643446.586 8       280.285          51.000    23528571.539 8  94739792.505 8       214.725          51.000
E33  24624403.242 8 129402132.385 8      1695.047          50.000    24624407.562 8  99152286.957 8      1298.742          51.000
> 2020 05 14 09 50 30.0000000  0 17        .000000000000
G02  22922388.758 6 120457966.745 6      -133.289          36.000
G06  23838786.188 5 125273671.007 5     -1564.793          31.000    23838792.133 5  97615848.570 5     -1219.313          31.000
G12  20802613.656 7 109318466.629 7     -1655.980          47.000    20802611.867 7  85183212.596 7     -1290.371          47.000
G24  22980575.594 7 120763719.457 7     -3339.336          47.000    22980577.164 7  94101595.572 7     -2602.080          47.000
G25  20156987.375 8 105925653.592 8       177.625          48.000    20156989.336 8  82539491.615 8       138.409          48.000
G29  21342654.445 8 112156422.410 8      2469.809          51.000    21342655.125 8  87394595.035 8      1924.529          51.000
G32  22388064.242 4 117650062.510 4     -1282.805          29.000    22388066.898 4  91675388.782 4      -999.588          29.000
R11  22532220.836 5 120405320.104 5     -3132.301          32.000    22532225.570 5  93648585.934 5     -2436.237          31.000
R12  19575435.719 8 104568443.839 8      -665.172          51.000    19575439.305 8  81331020.886 8      -517.353          50.000
R21  22374176.406 5 119728688.555 5     -3715.273          34.000
R22  19477285.969 8 103971091.054 8        54.035          51.000    19477288.414 8  80866404.330 8        42.027          49.000
R23  21834200.867 6 116798252.261 6      4256.625          37.000
C29  21944986.375 8 114273303.524 8      1383.824          51.000
C30  23024831.398 5 119896341.225 5     -1879.738          34.000
E09  25042860.969 7 131601122.294 7     -2461.234          47.000    25042867.305 7 100837237.239 7     -1885.914          47.000
E31  23526985.922 8 123635134.031 8       265.660          51.000    23526989.914 8  94733423.143 8       203.447          51.000
E33  24614764.422 8 129351481.051 8      1673.547          51.000    24614769.062 8  99113476.210 8      1282.238          51.000
> 2020 05 14 09 51  0.0000000  0 17        .000000000000
G02  22923172.523 5 120462085.120 5      -139.652          32.000
G06  23847743.453 5 125320732.231 5     -1572.465          32.000    23847747.430 5  97652522.649 5     -1225.294          31.000
G12  20812065.633 7 109368136.857 7     -1654.641          47.000    20812063.734 7  85221916.652 7     -1289.330          47.000
G24  22999631.539 8 120863856.865 8     -3335.898          48.000    22999632.867 8  94179624.707 8     -2599.401          49.000
G25  20155977.383 8 105920345.939 8       176.703          48.000    20155979.086 8  82535355.802 8       137.691          48.000
G29  21328566.023 8 112082389.981 8      2466.434          50.000    21328566.859 8  87336907.446 8      1921.896          50.000
G32  22395417.906 5 117688698.491 5     -1289.039          32.000    22395406.484 5  91705469.286 5     -1004.440          32.000
R12  19579185.234 8 104588472.512 8      -669.383          51.000    19579188.664 8  81346598.723 8      -520.634          50.000
R21  22395012.406 5 119840180.433 5     -3716.852          32.000    22395017.266 4  93209099.172 4     -2890.888          27.000
R22  19477033.711 8 103969745.277 8        36.469          51.000    19477036.109 8  80865357.622 8        28.365          49.000
R23  21810327.203 5 116670565.074 5      4256.945          31.000    21810331.094 4  90743758.149 4      3310.957          26.000
C29  21937030.391 8 114231870.510 8      1379.027          51.000
C30  23035669.438 6 119952772.943 6     -1881.676          36.000
E01  25606570.328 5 134563431.574 5     -1801.426          35.000
E09  25056899.953 7 131674894.301 7     -2456.293          46.000    25056905.367 8 100893756.087 8     -1882.035          48.000
E31  23525457.742 8 123627103.072 8       270.414          51.000    23525461.586 8  94727269.543 8       207.230          51.000
E33  24605218.953 8 129301318.404 8      1671.344          51.000    24605223.477 8  99075039.916 8      1280.694          51.000
> 2020 05 14 09 51 30.0000000  0 16        .000000000000
G02  22924073.000 5 120466816.579 5      -167.199          34.000
G06  23856807.500 5 125368367.991 5     -1600.715          31.000    23856810.812 5  97689634.402 5     -1247.313          30.000
G12  20821574.734 7 109418106.861 7     -1674.043          46.000    20821573.086 7  85260854.306 7     -1304.449          46.000
G24  23018733.992 8 120964237.157 8     -3353.312          49.000    23018735.039 8  94257843.058 8     -2612.974          49.000
G25  20155038.398 8 105915411.933 8       154.902          48.000    20155039.781 8  82531511.150 8       120.706          48.000
G29  21314562.742 8 112008805.380 8      2441.988          50.000    21314563.773 8  87279568.809 8      1902.848          50.000
R12  19583024.547 8 104608980.679 8      -694.973          51.000    19583027.852 8  81362549.515 8      -540.534          51.000
R21  22415926.266 5 119952095.237 5     -3740.395          32.000    22415927.711 5  93296143.976 5     -2909.196          30.000
R22  19476946.094 8 103969279.017 8        -2.484          51.000    19476949.039 8  80864994.994 8        -1.929          50.000
R23  21786518.930 6 116543227.377 6      4235.180          38.000    21786527.617 4  90644732.664 4      3294.029          27.000
C29  21929166.930 8 114190920.880 8      1353.648          51.000
C30  23046585.359 5 120009611.214 5     -1904.848          33.000
E01  25616905.180 5 134617745.312 5     -1816.434          32.000
E09  25070977.008 7 131748870.077 7     -2472.520          46.000    25070982.336 7 100950446.024 7     -1894.522          47.000
E31  23523968.680 8 123619278.522 8       254.035          51.000    23523972.398 8  94721274.114 8       194.638          51.000
E33  24595752.508 8 129251570.061 8      1647.992          51.000    24595756.375 8  99036921.087 8      1262.771          51.000
> 2020 05 14 09 52  0.0000000  0 18        .000000000000
G02  22925052.070 5 120471971.725 5      -178.922          35.000    22925073.547 5  93874343.029 5      -139.420          30.000
G06  23865967.586 5 125416502.617 5     -1612.000          34.000    23865972.359 5  97727141.896 5     -1256.104          32.000
G12  20831130.828 7 109468324.422 7     -1676.723          45.000    20831129.992 7  85299984.838 7     -1306.540          46.000
G24  23037872.555 8 121064806.422 8     -3354.223          50.000    23037873.641 8  94336208.663 8     -2613.683          50.000
G25  20154160.758 8 105910800.180 8       149.797          48.000    20154161.883 8  82527917.566 8       116.725          49.000
G29  21300635.969 8 111935618.773 8      2434.090          51.000    21300636.586 8  87222540.290 8      1896.693          51.000
G32  22410392.094 5 117767385.583 5     -1327.961          35.000    22410387.539 5  91766779.137 5     -1034.775          34.000
R11  22585113.398 5 120688004.212 5     -3150.812          32.000    22585106.531 4  93868441.577 4     -2450.632          28.000
R12  19586943.961 8 104629916.674 8      -703.770          51.000    19586947.352 8  81378833.051 8      -547.376          50.000
R21  22436907.688 5 120064376.219 5     -3747.000          31.000    22436911.070 5  93383473.580 5     -2914.333          33.000
R22  19477013.727 8 103969639.366 8       -24.484          51.000    19477016.781 8  80865275.273 8       -19.043          49.000
R23  21762769.977 6 116416190.271 6      4230.703          39.000    21762778.602 4  90545926.033 4      3290.547          28.000
C29  21921386.367 8 114150404.323 8      1344.539          51.000
C30  23057567.367 5 120066803.104 5     -1912.090          30.000
E01                                                                  25627269.422 5 103190369.873 5     -1390.244          33.000
E09  25085081.945 7 131822991.129 7     -2471.871          46.000    25085087.258 7 101007240.033 7     -1893.971          47.000
E31  23522509.133 8 123611609.331 8       254.328          51.000    23522512.789 8  94715397.717 8       194.854          51.000
E33  24586355.133 8 129202185.732 8      1641.270          51.000    24586358.562 8  98999081.164 8      1257.662          51.000
> 2020 05 14 09 52 30.0000000  0 17        .000000000000
G02  22926151.031 5 120477649.580 5      -198.910          33.000
G06  23875228.367 5 125465164.975 5     -1632.285          35.000    23875233.422 5  97765060.581 5     -1271.911          35.000
G12  20840737.852 7 109518810.366 7     -1688.801          44.000    20840737.359 7  85339324.511 7     -1315.952          45.000
G24  23057050.578 8 121165584.282 8     -3363.992          49.000    23057051.477 8  94414736.828 8     -2621.296          49.000
G25  20153348.492 8 105906531.913 8       135.227          48.000    20153349.500 8  82524591.638 8       105.371          48.000
G29  21286789.273 8 111862852.586 8      2417.211          51.000    21286789.586 8  87165839.400 8      1883.544          51.000
G32  22418026.930 5 117807530.679 5     -1346.984          30.000    22418027.820 5  91798060.926 5     -1049.604          30.000
R12  19590947.625 8 104651302.982 8      -721.637          51.000    19590950.891 8  81395466.837 8      -561.273          50.000
R21  22457959.453 4 120177041.076 4     -3763.566          29.000    22457965.633 5  93471101.774 5     -2927.218          31.000
R22  19477239.867 8 103970847.424 8       -55.676          51.000    19477243.086 8  80866214.896 8       -43.303          49.000
R23  21739082.633 6 116289479.234 6      4217.016          39.000    21739089.820 5  90447365.956 5      3279.901          30.000
C29  21913692.797 8 114110342.634 8      1326.535          51.000
C30  23068622.547 5 120124367.719 5     -1926.293          35.000
E01  25637641.508 5 134726715.120 5     -1822.672          30.000    25637645.602 5 103232174.624 5     -1395.231          30.000
E09  25099218.477 7 131897277.698 7     -2480.020          47.000    25099223.852 7 101064160.870 7     -1900.347          46.000
E31  23521083.266 8 123604117.226 8       245.551          51.000    23521086.891 8  94709657.003 8       188.167          51.000
E33  24577031.242 8 129153187.894 8      1625.590          51.000    24577034.141 8  98961537.390 8      1245.630          51.000
> 2020 05 14 09 53  0.0000000  0 16        .000000000000
G02  22927326.648 5 120483882.922 5      -212.508          35.000
G06  23884592.109 5 125514377.384 5     -1645.844          33.000    23884598.086 5  97803403.198 5     -1282.479          31.000
G12  20850399.258 7 109569581.873 7     -1693.734          44.000    20850398.648 7  85378886.682 7     -1319.796          44.000
G24  23076270.992 8 121266587.083 8     -3367.316          48.000    23076271.812 8  94493440.255 8     -2623.886          48.000
G25  20152604.953 7 105902625.028 7       127.578          47.000    20152605.922 7  82521547.324 7        99.415          47.000
G29  21273025.969 8 111790526.191 8      2406.781          51.000    21273026.445 8  87109481.204 8      1875.417          51.000
G32  22425777.516 5 117848237.164 5     -1361.105          32.000    22425769.352 5  91829788.975 5     -1060.602          31.000
R12  19595039.070 8 104673158.534 8      -732.961          51.000    19595042.188 8  81412465.566 8      -570.084          50.000
R22  19477628.336 8 103972920.805 8       -80.207          51.000    19477631.492 8  80867827.524 8       -62.383          49.000
R23  21715460.766 6 116163116.770 6      4209.613          41.000    21715470.492 5  90349083.989 5      3274.144          31.000
C29  21906090.055 8 114070754.284 8      1315.039          51.000
C30  23079752.273 6 120182321.280 6     -1934.848          36.000
E01  25648052.859 5 134781446.428 5     -1822.484          32.000
E09  25113389.430 7 131971745.751 7     -2482.027          47.000    25113394.461 7 101121220.754 7     -1901.861          45.000
E31  23519694.594 8 123596820.599 8       243.273          51.000    23519698.203 8  94704066.083 8       186.410          51.000
E33  24567784.469 8 129104595.669 8      1616.246          51.000    24567786.914 8  98924304.400 8      1238.428          51.000
> 2020 05 14 09 53 30.0000000  0 14        .000000000000
G06  23894073.008 5 125564200.413 5     -1667.750          30.000    23894080.391 5  97842227.794 5     -1299.552          30.000
G12  20860129.195 7 109620713.535 7     -1706.836          44.000    20860127.859 7  85418729.514 7     -1330.002          44.000
G24  23095547.742 7 121367888.750 7     -3378.273          47.000    23095548.820 7  94572376.562 7     -2632.424          47.000
G25  20151944.781 7 105899155.701 7       111.691          47.000    20151945.617 7  82518843.960 7        87.032          47.000
G29  21259361.078 8 111718717.143 8      2388.297          51.000    21259361.859 8  87053526.145 8      1861.011          51.000
G32  22433633.406 5 117889523.286 5     -1383.457          34.000    22433625.047 5  91861959.735 5     -1078.022          33.000
R12  19599233.102 8 104695561.569 8      -752.438          51.000    19599236.031 8  81429890.134 8      -585.229          49.000
R22  19478193.055 8 103975936.076 8      -112.852          51.000    19478196.039 8  80870172.740 8       -87.773          49.000
R23  21691919.953 7 116037183.799 7      4193.945          43.000    21691929.695 5  90251136.127 5      3261.954          30.000
C29  21898592.914 8 114031715.376 8      1295.480          51.000
C30  23090970.344 5 120240737.141 5     -1951.152          31.000
E09  25127608.766 7 132046469.274 7     -2491.637          46.000    25127613.312 7 101178476.403 7     -1909.128          44.000
E31  23518357.836 8 123589796.048 8       232.941          51.000    23518361.211 8  94698683.645 8       178.467          51.000
E33  24558629.523 8 129056486.356 8      1598.980          51.000    24558631.875 8  98887441.443 8      1225.172          51.000
> 2020 05 14 09 54  0.0000000  0 15        .000000000000
G12  20869886.273 7 109671987.496 7     -1707.852          44.000    20869884.133 7  85458683.226 7     -1330.793          43.000
G24  23114839.320 7 121469269.970 7     -3376.883          45.000    23114840.664 7  94651374.834 7     -2631.340          45.000
G25  20151326.531 8 105895906.209 8       108.258          48.000    20151327.078 8  82516311.896 8        84.357          48.000
G29  21245753.477 8 111647209.155 8      2382.203          50.000    21245754.352 8  86997805.655 8      1856.262          50.000
G32  22441562.117 5 117931207.944 5     -1391.977          32.000    22441552.203 5  91894433.485 5     -1084.645          31.000
R12  19603488.039 8 104718291.270 8      -759.363          51.000    19603490.930 8  81447568.765 8      -590.616          49.000
R21  22521567.773 5 120517410.908 5     -3793.348          31.000    22521571.688 4  93735791.900 4     -2950.378          26.000
R22  19478892.859 8 103979671.276 8      -132.805          51.000    19478895.672 8  80873077.913 8      -103.293          49.000
R23  21668419.117 7 115911462.880 7      4190.758          45.000    21668427.477 4  90153353.251 4      3259.478          27.000
C29  21891159.750 8 113993010.822 8      1288.242          50.000
C30  23102236.828 5 120299397.798 5     -1955.887          33.000
E09  25141834.688 7 132121228.566 7     -2488.961          46.000    25141838.578 7 101235759.447 7     -1907.078          44.000
E26  24580662.641 5 129172147.775 5     -1185.172          33.000
E31  23517031.617 8 123582826.301 8       235.051          51.000    23517034.703 8  94693343.194 8       180.116          51.000
E33  24549525.258 8 129008643.371 8      1593.930          51.000    24549527.492 8  98850782.578 8      1221.305          51.000
> 2020 05 14 09 54 30.0000000  0 13        .000000000000
G12  20879702.133 7 109723569.418 7     -1723.438          44.000    20879699.586 7  85498876.919 7     -1342.935          44.000
G24  23134177.562 7 121570896.297 7     -3390.547          45.000    23134179.031 7  94730564.061 7     -2641.988          45.000
G25  20150781.672 7 105893043.159 7        89.957          47.000    20150781.930 7  82514080.966 7        70.096          47.000
G29  21232234.922 8 111576169.661 8      2361.133          50.000    21232235.930 8  86942450.227 8      1839.847          50.000
R12  19607836.070 8 104741517.892 8      -781.402          51.000    19607838.883 8  81465633.897 8      -607.757          48.000
R21  22542908.000 5 120631600.981 5     -3812.238          30.000    22542912.703 4  93824638.352 4     -2965.074          25.000
R22  19479759.062 8 103984294.896 8      -167.809          51.000    19479761.734 8  80876674.075 8      -130.518          48.000
R23  21644990.562 8 115786127.461 8      4172.484          48.000    21644994.500 4  90055879.273 4      3245.272          25.000
C29  21883822.289 8 113954806.396 8      1266.219          50.000
C30  23113581.703 5 120358466.469 5     -1974.578          35.000
E09  25156098.844 7 132196188.216 7     -2500.941          46.000    25156102.078 7 101293196.007 7     -1916.294          44.000
E31  23515747.609 8 123576078.469 8       222.328          51.000    23515750.492 8  94688172.774 8       170.337          51.000
E33  24540503.820 8 128961234.494 8      1574.074          51.000    24540505.227 8  98814456.335 8      1206.106          50.000
> 2020 05 14 09 55  0.0000000  0 14        .000000000000
G02  22933060.719 5 120514000.677 5      -282.730          34.000
G06  23923064.641 5 125716545.285 5     -1716.637          34.000    23923069.445 5  97960951.608 5     -1337.639          32.000
G12  20889571.484 7 109775432.787 7     -1730.395          44.000    20889569.578 7  85539289.916 7     -1348.359          44.000
G24  23153557.070 7 121672739.000 7     -3395.109          44.000    23153558.812 7  94809921.949 7     -2645.540          44.000
G25  20150305.359 7 105890540.717 7        80.633          47.000    20150305.398 7  82512131.008 7        62.831          47.000
G29  21218801.133 8 111505574.290 8      2349.137          51.000    21218801.734 8  86887440.825 8      1830.493          51.000
R12  19612272.398 8 104765215.945 8      -794.445          51.000    19612275.375 8  81484065.699 8      -617.905          48.000
R22  19480786.508 8 103989780.078 8      -193.840          51.000    19480789.148 8  80880940.316 8      -150.761          48.000
R23  21621629.617 8 115661154.850 8      4162.973          48.000    21621631.750 5  89958671.491 5      3237.871          30.000
C29  21876576.273 8 113917077.054 8      1252.938          51.000
C30  23124999.016 6 120417915.628 6     -1984.535          36.000
E09  25170396.094 7 132271320.279 7     -2503.996          45.000    25170398.805 7 101350764.668 7     -1918.595          45.000
E31  23514500.969 8 123569527.105 8       218.418          51.000    23514503.703 8  94683152.908 8       167.362          51.000
E33  24531560.320 8 128914235.019 8      1563.199          51.000    24531561.242 8  98778443.807 8      1197.731          50.000
> 2020 05 14 09 55 30.0000000  0 14        .000000000000
G06  23932907.969 5 125768277.768 5     -1741.422          31.000    23932914.203 5  98001262.616 5     -1356.952          32.000
G12  20899469.906 7 109827449.345 7     -1745.969          42.000    20899468.125 7  85579822.309 7     -1360.492          42.000
G24  23172952.180 7 121774668.799 7     -3408.496          42.000    23172956.461 7  94889347.774 7     -2655.971          42.000
G25  20149873.320 7 105888271.184 7        62.289          47.000    20149873.477 7  82510362.550 7        48.537          47.000
G29  21205428.148 8 111435296.978 8      2327.832          51.000    21205427.914 8  86832679.282 8      1813.895          51.000
R12  19616772.492 8 104789256.060 8      -816.730          51.000    19616775.500 8  81502763.560 8      -635.235          48.000
R21  22585772.250 5 120860937.225 5     -3840.840          33.000    22585777.438 4  94003021.123 4     -2987.320          25.000
R22  19481950.805 8 103995996.003 8      -229.047          50.000    19481953.664 8  80885774.957 8      -178.148          48.000
R23  21598312.336 8 115536419.025 8      4144.266          48.000    21598314.938 5  89861654.789 5      3223.321          32.000
C29  21869398.070 8 113879696.927 8      1230.707          51.000
C30  23136464.148 6 120477616.878 6     -2003.414          36.000
E09  25184701.164 7 132346495.093 7     -2515.934          44.000    25184704.406 7 101408366.061 7     -1927.754          45.000
E31  23513267.484 8 123563045.047 8       205.434          51.000    23513270.109 8  94678186.144 8       157.413          51.000
E33  24522670.312 8 128867518.380 8      1543.035          51.000    24522670.953 8  98742647.998 8      1182.323          50.000
> 2020 05 14 09 56  0.0000000  0 16        .000000000000
G02  22936464.141 6 120531884.258 6      -320.469          37.000
G06  23942836.781 5 125820450.712 5     -1754.973          33.000    23942842.883 5  98041916.888 5     -1367.511          32.000
G12  20909403.945 7 109879653.281 7     -1751.523          42.000    20909402.164 7  85620500.674 7     -1364.823          42.000
G24  23192370.430 7 121876719.589 7     -3411.715          43.000    23192377.523 7  94968867.910 7     -2658.476          43.000
G25  20149492.281 7 105886269.510 7        54.188          47.000    20149492.844 7  82508802.804 7        42.224          47.000
G29  21192122.125 8 111365373.556 8      2316.742          50.000    21192121.648 8  86778193.518 8      1805.254          50.000
R12  19621343.586 8 104813674.648 8      -828.484          51.000    19621346.719 8  81521755.785 8      -644.374          49.000
R21  22607281.062 5 120976031.654 5     -3849.320          33.000    22607288.141 4  94092538.990 4     -2993.919          27.000
R22  19483258.617 8 104002977.224 8      -253.727          50.000    19483260.984 7  80891204.779 7      -197.343          47.000
R23  21575045.984 7 115411959.375 7      4135.789          47.000    21575049.773 5  89764852.861 5      3216.728          33.000
C29  21862293.719 8 113842701.240 8      1218.746          51.000
C30  23147983.930 6 120537602.968 6     -2012.473          37.000
E01  25710984.414 5 135112135.020 5     -1852.957          34.000    25710993.648 6 103527484.571 6     -1419.676          36.000
E09  25199020.188 7 132421735.601 7     -2517.668          43.000    25199026.898 7 101466012.477 7     -1929.407          45.000
E31  23512053.977 8 123556667.725 8       202.652          51.000    23512056.461 8  94673299.629 8       155.288          51.000
E33  24513840.938 8 128821120.676 8      1533.012          51.000    24513841.430 8  98707096.564 8      1174.651          51.000
> 2020 05 14 09 56 30.0000000  0 17        .000000000000
G06  23952885.742 5 125873256.147 5     -1783.719          33.000    23952890.570 5  98083064.028 5     -1389.908          33.000
G12  20919410.188 6 109932237.152 6     -1772.023          41.000    20919408.781 6  85661475.083 6     -1380.797          41.000
G24  23211849.953 7 121979083.135 7     -3430.270          46.000    23211857.562 7  95048631.707 7     -2672.937          46.000
G25  20149199.156 8 105884729.290 8        30.684          48.000    20149200.102 8  82507602.627 8        23.906          48.000
G29  21178920.203 8 111295999.126 8      2290.438          49.000    21178920.273 8  86724135.553 8      1784.756          49.000
G32  22482631.164 6 118147009.527 6     -1496.488          36.000
R12  19626022.508 8 104838669.169 8      -855.871          51.000    19626026.211 8  81541195.936 8      -665.678          49.000
R21  22628878.320 5 121091596.949 5     -3872.801          34.000    22628885.742 4  94182422.995 4     -3012.184          28.000
R22  19484746.422 8 104010919.737 8      -293.891          50.000    19484749.023 8  80897382.305 8      -228.582          48.000
R23  21551868.570 8 115287976.748 8      4111.566          48.000    21551873.219 5  89668421.949 5      3197.888          33.000
C29  21855300.102 8 113806282.450 8      1191.520          51.000
C30  23159594.242 6 120598063.879 6     -2035.773          38.000
E01  25721555.617 5 135167686.198 5     -1869.262          31.000    25721570.148 6 103570053.498 6     -1431.965          36.000
E09  25213390.391 7 132497253.250 7     -2534.664          42.000    25213398.398 7 101523876.608 7     -1942.055          44.000
E26  24615587.438 6 129355772.013 6     -1272.227          38.000
E31  23510897.312 8 123550589.170 8       184.734          51.000    23510899.664 8  94668642.037 8       141.568          51.000
E33  24505109.469 8 128775236.598 8      1508.004          51.000    24505110.328 8  98671938.673 8      1155.457          51.000
> 2020 05 14 09 57  0.0000000  0 19        .000000000000
G02  22940310.883 6 120552207.659 6      -361.395          38.000
G06  23963082.062 5 125926836.968 5     -1794.645          33.000    23963086.734 5  98124815.291 5     -1398.427          33.000
G12  20929516.234 6 109985345.135 6     -1774.949          41.000    20929515.094 7  85702857.916 7     -1383.074          42.000
G24  23231416.633 7 122081900.960 7     -3430.848          47.000    23231423.641 7  95128749.456 7     -2673.388          47.000
G25  20149021.383 8 105883795.051 8        25.086          49.000    20149022.641 8  82506874.634 8        19.547          49.000
G29  21165850.719 8 111227319.484 8      2281.766          51.000    21165851.367 8  86670618.975 8      1778.002          51.000
G32  22491187.492 6 118191966.746 6     -1507.195          40.000    22491214.461 6  92097627.678 6     -1174.435          39.000
R11  22764326.336 5 121645728.269 5     -3240.027          34.000    22764337.156 4  94613315.274 4     -2520.024          29.000
R12  19630837.062 8 104864387.124 8      -865.227          51.000    19630840.836 8  81561198.776 8      -672.957          50.000
R21  22650592.062 5 121207776.172 5     -3878.605          34.000    22650596.328 4  94272784.462 4     -3016.699          27.000
R22  19486441.625 8 104019969.081 8      -315.992          51.000    19486444.430 7  80904420.708 7      -245.772          47.000
R23  21528808.242 7 115164622.062 7      4105.402          47.000    21528812.844 5  89572479.495 5      3193.094          32.000
C29  21848445.086 8 113770584.299 8      1181.895          51.000
C30  23171322.227 6 120659140.882 6     -2042.082          37.000
E01                                                                  25732210.484 5 103612953.487 5     -1431.289          31.000
E09  25227838.977 7 132573180.545 7     -2533.672          44.000    25227847.398 7 101582054.670 7     -1941.379          43.000
E26  24622851.633 5 129393951.907 5     -1279.703          35.000
E31  23509825.039 8 123544954.395 8       184.488          51.000    23509827.375 8  94664324.487 8       141.358          51.000
E33  24496503.508 8 128730011.791 8      1500.477          51.000    24496504.641 8  98637285.899 8      1149.791          51.000
> 2020 05 14 09 57 30.0000000  0 17        .000000000000
G02  22942385.391 5 120563113.074 5      -372.801          30.000    22942386.766 4  93945238.397 4      -290.494          28.000
G06  23973341.500 5 125980749.665 5     -1806.883          34.000    23973345.367 5  98166825.125 5     -1407.964          33.000
G12  20939637.523 6 110038534.451 6     -1778.160          40.000    20939636.562 6  85744304.136 6     -1385.576          38.000
G24  23250985.664 8 122184731.032 8     -3431.695          48.000    23250991.461 8  95208876.749 8     -2674.051          48.000
G25  20148874.891 8 105883025.106 8        19.098          48.000    20148876.258 8  82506274.667 8        14.881          48.000
G29  21152830.023 8 111158894.252 8      2272.781          51.000    21152830.711 8  86617300.626 8      1771.001          51.000
G32  22499803.164 6 118237242.851 6     -1517.977          37.000    22499835.117 5  92132907.542 5     -1182.869          34.000
R11  22782498.508 5 121742836.095 5     -3241.344          31.000    22782509.547 4  94688843.754 4     -2521.039          27.000
R12  19635703.211 8 104890380.193 8      -874.918          51.000    19635706.820 8  81581415.601 8      -680.492          50.000
R21  22672336.562 5 121324115.126 5     -3884.422          32.000
R22  19488259.930 8 104029675.562 8      -338.324          51.000    19488262.312 8  80911970.184 8      -263.141          48.000
R23  21505781.750 7 115041449.813 7      4098.840          46.000    21505785.266 5  89476678.956 5      3187.993          30.000
C29  21841644.266 8 113735169.666 8      1171.992          51.000
C30  23183084.820 6 120720394.403 6     -2048.387          39.000
E09  25242281.477 7 132649073.859 7     -2532.863          45.000    25242288.977 7 101640206.664 7     -1940.792          42.000
E31  23508753.094 8 123539322.200 8       183.949          51.000    23508755.664 8  94660008.912 8       140.954          51.000
E33  24487938.805 8 128685005.597 8      1492.781          51.000    24487940.445 8  98602800.647 8      1143.798          51.000
> 2020 05 14 09 58  0.0000000  0 17        .000000000000
G02  22944549.477 5 120574424.268 5      -387.520          35.000
G06  23983687.523 6 126035118.916 6     -1820.570          36.000    23983690.383 6  98209190.701 6     -1418.629          36.000
G12  20949798.406 6 110091931.529 6     -1783.973          38.000    20949797.797 6  85785912.196 6     -1390.112          37.000
G24  23270580.453 8 122287697.315 8     -3435.418          48.000    23270584.820 8  95289110.184 8     -2676.952          48.000
G25  20148783.695 8 105882545.976 8        10.156          48.000    20148785.062 8  82505901.333 8         7.914          48.000
G29  21139882.195 8 111090851.199 8      2260.820          51.000    21139882.492 8  86564280.087 8      1761.678          51.000
G32  22508500.539 5 118282962.085 5     -1531.664          31.000
R11  22800706.062 5 121840121.955 5     -3246.555          32.000
R12  19640644.969 8 104916777.843 8      -887.637          51.000    19640648.734 8  81601947.098 8      -690.387          50.000
R22  19490225.367 8 104040166.701 8      -363.785          51.000    19490227.773 8  80920129.970 8      -282.944          48.000
R23  21482813.977 7 114918592.610 7      4089.047          46.000    21482816.367 5  89381123.451 5      3180.373          31.000
C29  21834921.562 8 113700164.534 8      1159.137          49.000
C30  23194905.102 6 120781947.962 6     -2057.543          39.000
E01  25753492.594 5 135335513.622 5     -1868.055          32.000    25753496.969 5 103698665.730 5     -1431.453          35.000
E09  25256741.641 7 132725057.654 7     -2535.199          46.000    25256747.062 7 101698427.954 7     -1942.492          42.000
E31  23507705.734 8 123533819.613 8       180.395          51.000    23507708.648 8  94655792.646 8       138.245          51.000
E33  24479440.062 8 128640345.663 8      1481.949          51.000    24479442.188 8  98568580.719 8      1135.573          51.000
> 2020 05 14 09 58 30.0000000  0 17        .000000000000
G02  22946814.820 4 120586325.181 4      -406.008          29.000
G06  23994133.758 6 126090013.222 6     -1838.082          38.000
G12  20960011.594 6 110145601.848 6     -1793.566          40.000    20960011.156 6  85827733.172 6     -1397.584          40.000
G24  23290213.172 7 122390864.594 7     -3442.070          47.000    23290216.438 7  95369500.222 7     -2682.136          47.000
G25  20148760.531 8 105882424.328 8        -1.824          49.000    20148761.969 8  82505806.539 8        -1.421          49.000
G29  21127020.102 8 111023258.451 8      2245.672          51.000    21127019.844 8  86511610.439 8      1749.874          51.000
G32  22517296.539 5 118329188.610 5     -1548.605          33.000    22517300.789 5  92204582.240 5     -1206.706          31.000
R11  22818958.594 4 121937652.536 4     -3254.961          28.000
R12  19645675.242 8 104943648.447 8      -903.516          51.000    19645679.070 8  81622846.437 8      -702.734          49.000
R22  19492350.211 8 104051509.040 8      -392.199          51.000    19492352.797 8  80928951.818 8      -305.044          48.000
R23  21459918.695 8 114796121.715 8      4076.039          48.000    21459921.906 5  89285868.384 5      3170.256          35.000
C29  21828289.977 8 113665635.494 8      1143.195          48.000
C30  23206795.859 6 120843865.717 6     -2069.676          37.000
E01                                                                  25764166.031 4 103741619.200 4     -1434.842          28.000
E09  25271231.492 7 132801196.547 7     -2540.465          46.000    25271234.609 7 101756768.072 7     -1946.608          43.000
E31  23506695.875 8 123528513.803 8       173.621          51.000    23506698.953 8  94651727.145 8       133.070          51.000
E33  24471020.727 8 128596099.745 8      1468.008          51.000    24471022.523 8  98534678.022 8      1124.858          51.000
> 2020 05 14 09 59  0.0000000  0 17        .000000000000
G02  22949176.727 5 120598740.600 5      -421.637          33.000
G06  24004674.250 6 126145409.143 6     -1854.340          39.000
G12  20970274.109 6 110199530.009 6     -1801.168          40.000    20970273.500 6  85869755.068 6     -1403.511          40.000
G24  23309880.672 7 122494216.904 7     -3447.559          46.000    23309882.648 7  95450034.471 7     -2686.409          46.000
G25  20148802.766 8 105882645.583 8       -12.562          50.000    20148804.320 8  82505978.943 8        -9.789          50.000
G29  21114240.938 8 110956102.267 8      2231.770          51.000    21114240.445 8  86459280.979 8      1739.044          51.000
G32  22526186.438 5 118375905.829 5     -1564.789          33.000    22526189.953 5  92240985.348 5     -1219.319          34.000
R11  22837253.133 5 122035354.507 5     -3262.055          35.000
R12  19650791.289 8 104970977.636 8      -918.027          51.000    19650795.102 8  81644102.465 8      -714.021          49.000
R22  19494631.695 8 104063686.512 8      -419.277          51.000    19494634.172 8  80938423.187 8      -326.105          48.000
R23  21437093.422 7 114674026.318 7      4064.031          46.000    21437098.922 6  89190905.358 6      3160.916          38.000
C29  21821746.969 7 113631568.587 7      1128.387          47.000
C30  23218753.844 6 120906131.277 6     -2080.621          39.000
E01  25774872.711 5 135447888.671 5     -1876.332          34.000
E09  25285747.570 7 132877473.882 7     -2544.211          46.000    25285748.953 7 101815214.265 7     -1949.556          43.000
E31  23505720.828 8 123523390.618 8       168.348          51.000    23505723.906 8  94647801.590 8       129.012          51.000
E33  24462677.695 8 128552254.243 8      1455.457          51.000    24462678.977 8  98501082.144 8      1115.253          51.000
> 2020 05 14 09 59 30.0000000  0 17        .000000000000
G02  22951635.633 5 120611655.574 5      -439.281          32.000
G06  24015308.297 6 126201295.113 6     -1871.359          37.000    24015314.445 6  98338685.269 6     -1458.205          38.000
G12  20980582.891 6 110253702.674 6     -1810.719          40.000    20980582.117 6  85911967.538 6     -1410.950          40.000
G24  23329580.242 7 122597739.514 7     -3454.098          45.000    23329581.055 7  95530701.412 7     -2691.508          45.000
G25  20148907.758 8 105883196.934 8       -24.480          51.000    20148909.516 8  82506408.571 8       -19.076          51.000
G29  21101542.148 8 110889371.024 8      2216.680          50.000    21101541.930 8  86407282.628 8      1727.283          51.000
G32  22535167.477 6 118423098.817 6     -1581.508          39.000    22535171.867 6  92277759.176 6     -1232.344          40.000
R11  22855589.859 6 122133329.696 6     -3269.898          37.000
R12  19655990.672 8 104998753.000 8      -933.949          51.000    19655994.594 8  81665705.528 8      -726.405          49.000
R22  19497066.812 8 104076685.057 8      -447.641          51.000    19497069.094 8  80948533.187 8      -348.165          48.000
R23  21414335.945 7 114552297.222 7      4050.797          46.000    21414343.836 6  89096227.172 6      3150.617          40.000
C29  21815290.492 7 113597951.640 7      1112.512          47.000
C30  23230775.453 6 120968730.149 6     -2092.797          41.000
E01  25785597.852 5 135504231.691 5     -1880.977          34.000
E09  25300286.703 7 132953874.872 7     -2549.324          47.000    25300287.383 7 101873755.187 7     -1953.256          44.000
E31  23504778.273 8 123518437.819 8       161.664          51.000    23504781.430 8  94644006.584 8       123.926          51.000
E33  24454408.492 8 128508797.458 8      1441.465          51.000    24454409.367 8  98467784.131 8      1104.556          51.000
