     3.02           OBSERVATION DATA    M (MIXED)           RINEX VERSION / TYPE
SAVERINEX           SC600               20200516 155931 LCL PGM / RUN BY / DATE
       G = GPS       R = GLONASS       C = COMPASS          COMMENT
       S = SBAS      J = QZSS          E = GALILEO          COMMENT
BEAN                                                        MARKER NAME
1                                                           MARKER NUMBER
GEODETIC                                                    MARKER TYPE
Unige DICCA         GTER                                    OBSERVER / AGENCY
SC60291900056       SC600               2.12(191202)        REC # / TYPE / VERS
                    HEMA45          NONE                    ANT # / TYPE
  4509407.8091   693652.4678  4442337.6214                  APPROX POSITION XYZ
        0.0000        0.0000        0.0000                  ANTENNA: DELTA H/E/N
G    8 C1C L1C D1C S1C C2Y L2Y D2Y S2Y                      SYS / # / OBS TYPES
R    8 C1C L1C D1C S1C C2P L2P D2P S2P                      SYS / # / OBS TYPES
C    8 C1I L1I D1I S1I C7I L7I D7I S7I                      SYS / # / OBS TYPES
E    8 C1C L1C D1C S1C C7Q L7Q D7Q S7Q                      SYS / # / OBS TYPES
DBHZ                                                        COMMENT
     30.000                                                 INTERVAL
  2020    05    16    13    00    0.0000000     GPS         TIME OF FIRST OBS
  2020    05    16    13    59   30.0000000     GPS         TIME OF LAST OBS
     0                                                      RCV CLOCK OFFS APPL
G L1C  0.00000                                              SYS / PHASE SHIFT
G L2Y  0.00000                                              SYS / PHASE SHIFT
R L1C  0.00000                                              SYS / PHASE SHIFT
R L2P  0.25000                                              SYS / PHASE SHIFT
C L1I  0.00000                                              SYS / PHASE SHIFT
C L7I  0.00000                                              SYS / PHASE SHIFT
E L1C  0.50000                                              SYS / PHASE SHIFT
E L7Q -0.25000                                              SYS / PHASE SHIFT
 12 R02 -4 R03  5 R04  6 R05  1 R10 -5 R13 -2 R14 -7 R15  0 GLONASS SLOT / FRQ #
    R16 -1 R17  4 R18 -3 R19  3                             GLONASS SLOT / FRQ #
 C1C   71.950 C2C   71.950 C2P   71.950                     GLONASS COD/PHS/BIS
    18                                                      LEAP SECONDS
*** Above antenna height is from mark to ANTENNA BOTTOM.    COMMENT
    17     4        0.0000        ANT MEASURE TYPE/HEIGT    COMMENT
    0.0000    0.0000    0.0458    0.0405    0.0000          COMMENT
                    BASE STATION                            COMMENT
                                                            END OF HEADER
> 2020 05 16 13 00  0.0000000  0 16        .000000000000
G18  20318877.641 8 106776462.337 8       387.637          51.000    20318878.438 8  83202461.978 8       302.058          51.000
G20  23893310.586 5 125560194.321 5      3305.168          31.000
G21  20657505.234 8 108555996.141 8       280.320          48.000    20657504.086 8  84589109.118 8       218.431          49.000
G25  24459238.828 7 128534131.584 7     -3508.551          42.000    24459242.945 7 100156478.422 7     -2733.939          42.000
G26  20538000.539 5 107927922.431 5      1213.676          33.000    20538004.555 5  84099700.696 5       945.721          32.000
G31  22467602.102 7 118068042.063 7     -2683.625          44.000    22467602.398 7  92001064.903 7     -2091.133          44.000
R15  21864704.211 8 116838323.915 8     -4079.641          49.000    21864706.453 6  90874250.014 6     -3173.060          39.000
R16  19367538.609 7 103457899.048 7      -690.570          47.000    19367541.211 7  80467270.895 7      -537.110          45.000
R18  19374422.961 7 103422110.167 7      -893.055          43.000    19374426.305 6  80439392.972 6      -694.595          40.000
R19  20739148.578 5 110940472.940 5      2402.773          30.000    20739151.664 6  86287034.312 6      1868.827          36.000
C05  39629564.438 6 206361541.200 6        17.766          36.000    39629564.578 6 159571833.094 6        13.837          36.000
C29  24249571.547 6 126273878.114 6      2457.355          38.000
C30  21514183.492 8 112030112.371 8       140.520          51.000
E02  27058950.844 6 142195673.964 6     -2941.559          41.000    27058947.609 6 108955153.325 6     -2253.799          37.000
E15  23823865.453 8 125195258.329 8      1610.293          51.000    23823869.891 8  95928911.771 8      1233.921          51.000
E30  22466459.367 8 118062048.600 8     -1284.777          51.000    22466464.875 8  90463130.846 8      -984.422          51.000
> 2020 05 16 13 00 30.0000000  0 18        .000000000000
G18  20316721.586 8 106765132.121 8       364.930          51.000    20316722.383 8  83193633.252 8       284.364          50.000
G21  20655954.141 8 108547845.353 8       260.359          49.000    20655952.977 8  84582757.860 8       202.877          49.000
G25  24479283.742 6 128639468.469 6     -3516.129          38.000    24479287.719 6 100238559.036 6     -2739.844          38.000
G26  20531117.000 5 107891745.404 5      1194.109          31.000    20531123.828 5  84071510.845 5       930.469          31.000
G29  22143950.836 5 116367248.730 5     -2433.773          31.000    22143947.617 5  90675761.322 5     -1896.447          30.000
G31  22482957.047 7 118148733.566 7     -2698.676          45.000    22482956.695 7  92063941.425 7     -2102.864          45.000
R15  21887641.672 8 116960888.756 8     -4094.277          49.000    21887644.688 7  90969578.136 7     -3184.438          43.000
R16  19371492.820 7 103479023.249 7      -720.457          46.000    19371495.711 7  80483700.828 7      -560.355          44.000
R17  21923893.125 5 117319102.382 5     -3445.973          34.000
R18  19379490.938 7 103449161.128 7      -913.133          44.000    19379494.750 6  80460432.615 6      -710.214          39.000
R19  20725716.156 5 110868624.091 5      2384.617          31.000    20725719.094 5  86231151.961 5      1854.705          35.000
C05  39629465.031 5 206361022.559 5        13.984          35.000    39629465.328 6 159571432.813 6        10.950          36.000
C27  23479670.203 5 122264804.858 5     -2367.480          31.000
C29  24235435.320 6 126200259.026 6      2447.902          39.000
C30  21513405.422 8 112026061.179 8       126.895          51.000
E02  27075758.047 6 142283997.041 6     -2949.445          39.000    27075754.945 6 109022829.313 6     -2259.794          37.000
E15  23814703.578 8 125147110.632 8      1596.781          51.000    23814707.406 8  95892019.387 8      1223.586          51.000
E30  22473830.328 8 118100781.414 8     -1300.234          51.000    22473835.828 8  90492809.231 8      -996.251          51.000
> 2020 05 16 13 01  0.0000000  0 18        .000000000000
G18  20314694.250 8 106754478.520 8       343.508          51.000    20314695.039 8  83185331.747 8       267.668          50.000
G20  23855623.781 5 125362129.766 5      3294.293          30.000
G21  20654515.805 8 108540286.739 8       241.715          49.000    20654514.797 8  84576868.043 8       188.349          49.000
G25  24499370.508 5 128745029.159 5     -3523.105          34.000    24499374.648 5 100320814.028 5     -2745.283          32.000
G26  20524335.820 5 107856109.923 5      1178.230          33.000    20524339.969 5  84043743.020 5       918.102          33.000
G29  22157868.867 5 116440387.554 5     -2442.418          32.000    22157863.938 5  90732748.213 5     -1903.189          31.000
G31  22498397.133 7 118229868.835 7     -2712.145          47.000    22498395.680 7  92127163.643 7     -2113.362          47.000
R15  21910660.109 8 117083886.144 8     -4107.293          49.000    21910663.727 7  91065242.743 7     -3194.561          45.000
R16  19375613.727 7 103501038.005 7      -749.070          47.000    19375617.016 7  80500823.398 7      -582.610          44.000
R18  19384669.578 7 103476805.470 7      -931.754          43.000    19384672.742 6  80481933.739 6      -724.697          40.000
R19  20712386.094 5 110797323.284 5      2367.883          32.000    20712389.664 5  86175695.772 5      1841.687          35.000
C05  39629386.320 5 206360613.064 5        12.078          35.000    39629386.773 6 159571116.181 6         9.077          36.000
C27  23493319.188 5 122335891.761 5     -2373.645          31.000
C29  24221351.211 6 126126916.286 6      2439.770          39.000
C30  21512704.844 8 112022412.874 8       114.551          51.000
E02  27092608.289 6 142372546.960 6     -2955.617          40.000    27092605.883 6 109090679.164 6     -2264.813          38.000
E15  23805617.359 8 125099361.009 8      1584.695          51.000    23805620.641 8  95855432.018 8      1214.307          51.000
E30  22481288.219 8 118139970.571 8     -1314.199          51.000    22481293.352 8  90522837.254 8     -1006.975          51.000
> 2020 05 16 13 01 30.0000000  0 17        .000000000000
G18  20312774.000 8 106744387.443 8       327.918          51.000    20312775.094 8  83177468.574 8       255.520          51.000
G20  23836806.094 5 125263263.204 5      3295.359          34.000    23836811.188 5  97607762.737 5      2567.812          34.000
G21  20653168.430 8 108533205.825 8       229.117          50.000    20653167.438 8  84571350.460 8       178.536          50.000
G25  24519476.992 5 128850698.284 5     -3523.633          32.000    24519482.000 5 100403153.567 5     -2745.691          32.000
G26  20517636.312 5 107820906.949 5      1166.684          34.000    20517636.922 5  84016309.765 5       909.107          33.000
G29  22171812.258 6 116513666.314 6     -2444.223          36.000    22171815.055 6  90789848.573 6     -1904.589          36.000
G31  22513899.469 8 118311331.086 8     -2719.945          49.000    22513897.547 8  92190640.664 8     -2119.441          49.000
R15  21933736.898 8 117207196.733 8     -4114.637          49.000    21933740.766 7  91161150.956 7     -3200.273          46.000
R16  19379879.742 7 103523827.004 7      -771.605          47.000    19379883.367 7  80518548.149 7      -600.138          44.000
R18  19389937.664 7 103504925.432 7      -944.359          43.000    19389941.805 6  80503804.823 6      -734.502          41.000
R19  20699138.000 5 110726454.824 5      2355.750          32.000    20699141.430 5  86120575.893 5      1832.250          34.000
C05  39629306.812 5 206360198.982 5        14.988          35.000    39629307.367 6 159570796.986 6        11.363          36.000
C29  24207298.695 6 126053737.457 6      2437.574          39.000
C30  21512059.930 8 112019054.022 8       108.148          51.000
E02  27109479.648 6 142461208.836 6     -2956.430          39.000    27109478.281 6 109158614.771 6     -2265.340          38.000
E15  23796585.109 8 125051895.753 8      1578.320          51.000    23796588.211 8  95819062.551 8      1209.380          51.000
E30  22488811.266 8 118179501.914 8     -1322.500          51.000    22488815.883 8  90553127.478 8     -1013.362          51.000
> 2020 05 16 13 02  0.0000000  0 18        .000000000000
G18  20310958.906 8 106734849.702 8       307.965          51.000    20310960.203 8  83170036.586 8       239.976          51.000
G20  23818006.352 6 125164470.316 6      3291.059          38.000    23818012.250 5  97530775.323 5      2564.464          35.000
G21  20651910.297 8 108526592.973 8       211.859          50.000    20651908.914 8  84566197.585 8       165.085          50.000
G25  24539603.055 5 128956465.634 5     -3527.832          33.000    24539608.008 5 100485569.651 5     -2748.960          34.000
G26  20511016.484 5 107786122.894 5      1151.914          32.000    20511017.664 5  83989205.325 5       897.589          32.000
G29  22185783.758 5 116587087.294 5     -2450.590          35.000    22185793.797 6  90847059.690 6     -1909.557          36.000
G31  22529461.586 8 118393109.058 8     -2732.109          49.000    22529459.906 8  92254363.710 8     -2128.916          49.000
R15  21956869.914 8 117330808.223 8     -4126.199          50.000    21956873.703 7  91257293.194 7     -3209.266          45.000
R16  19384289.242 7 103547381.143 7      -798.754          47.000    19384292.531 7  80536868.015 7      -621.253          44.000
R18  19395292.352 7 103533509.826 7      -961.223          43.000    19395296.680 6  80526037.101 6      -747.621          40.000
R19  20685969.148 4 110656010.249 4      2339.609          29.000    20685972.430 5  86065785.678 5      1819.696          35.000
C05  39629224.758 6 206359771.473 6        13.391          36.000    39629225.289 6 159570467.350 6        10.578          36.000
C27  23520685.148 5 122478333.139 5     -2379.117          32.000
C29  24193274.906 6 125980714.031 6      2430.699          36.000
C30  21511468.578 8 112015975.230 8        97.176          51.000
E02  27126370.039 6 142549972.656 6     -2961.312          37.000    27126370.047 6 109226628.503 6     -2269.010          38.000
E15  23787605.344 8 125004706.127 8      1567.570          51.000    23787608.352 8  95782904.277 8      1201.188          51.000
E30  22496398.008 8 118219366.313 8     -1335.160          51.000    22496401.523 8  90583672.915 8     -1023.015          51.000
> 2020 05 16 13 02 30.0000000  0 17        .000000000000
G18  20309253.312 8 106725887.073 8       289.230          51.000    20309254.477 8  83163052.707 8       225.374          51.000
G20  23799224.289 6 125065768.387 6      3288.312          39.000    23799230.406 5  97453864.787 5      2562.318          33.000
G21  20650745.211 8 108520469.425 8       196.145          50.000    20650743.617 8  84561426.001 8       152.840          50.000
G25  24559752.391 5 129062351.979 5     -3531.430          35.000    24559756.914 5 100568078.400 5     -2751.766          35.000
G26  20504481.984 5 107751784.465 5      1137.113          34.000    20504483.750 5  83962448.042 5       886.065          34.000
G29  22199786.344 5 116660671.752 5     -2455.668          35.000    22199794.180 5  90904398.121 5     -1913.514          34.000
G31  22545087.125 8 118475221.604 8     -2742.520          51.000    22545085.984 8  92318347.473 8     -2137.028          51.000
R15  21980062.688 8 117454739.456 8     -4136.254          50.000    21980066.125 7  91353684.107 7     -3217.086          44.000
R16  19388845.875 7 103571722.322 7      -824.504          47.000    19388848.938 7  80555800.018 7      -641.284          43.000
R18  19400738.383 7 103562579.093 7      -976.922          44.000    19400742.680 7  80548646.511 7      -759.828          42.000
C05  39629144.195 5 206359352.299 5        13.672          35.000    39629144.789 6 159570143.218 6        10.599          36.000
C27  23534408.992 4 122549768.160 4     -2383.906          28.000
C29  24179282.969 6 125907868.314 6      2425.219          36.000
C30  21510935.125 8 112013197.677 8        87.715          51.000
E02  27143283.281 5 142638917.344 5     -2964.906          33.000    27143285.703 6 109294736.372 6     -2271.742          39.000
E15  23778682.328 8 124957814.309 8      1558.234          51.000    23778685.352 8  95746974.186 8      1193.975          51.000
E30  22504052.172 8 118259585.501 8     -1346.406          51.000    22504054.688 8  90614490.215 8     -1031.671          51.000
> 2020 05 16 13 03  0.0000000  0 18        .000000000000
G18  20307653.586 8 106717480.909 8       270.715          50.000    20307654.797 8  83156502.446 8       210.947          50.000
G20  23780456.094 6 124967141.707 6      3286.086          40.000    23780460.859 5  97377012.888 5      2560.589          33.000
G21  20649669.594 8 108514816.431 8       180.410          50.000    20649667.930 8  84557021.082 8       140.579          50.000
G25  24579921.773 6 129168337.543 6     -3534.457          39.000    24579924.609 6 100650664.420 6     -2754.128          39.000
G26  20498029.852 6 107717874.768 6      1122.898          37.000    20498031.016 6  83936024.903 6       874.986          36.000
G29  22213816.648 6 116734400.238 6     -2460.363          36.000    22213818.656 6  90961848.893 6     -1917.169          36.000
G31  22560772.211 8 118557647.841 8     -2752.941          50.000    22560771.398 8  92382575.664 8     -2145.149          51.000
R15  22003311.023 8 117578968.524 8     -4146.074          50.000    22003313.945 6  91450306.687 6     -3224.724          40.000
R16  19393546.250 8 103596831.051 8      -849.898          48.000    19393548.781 7  80575329.008 7      -661.032          42.000
R18  19406271.172 7 103592111.970 7      -992.473          44.000    19406275.586 6  80571616.542 6      -771.923          41.000
R19  20659882.453 4 110516426.726 4      2311.887          29.000    20659881.938 5  85957222.006 5      1798.137          34.000
C05  39629061.797 5 206358923.282 5        13.930          35.000    39629062.477 6 159569811.463 6        11.182          36.000
C27  23548148.992 5 122621386.986 5     -2387.105          32.000
C29  24165324.039 7 125835182.091 7      2420.121          42.000
C30  21510455.984 8 112010702.605 8        78.297          51.000
E02                                                                  27160221.836 6 109362923.478 6     -2274.317          39.000
E15  23769812.422 8 124911202.111 8      1548.945          51.000    23769815.789 8  95711258.352 8      1186.875          51.000
E30  22511769.984 8 118300140.891 8     -1357.613          51.000    22511771.883 8  90645565.100 8     -1040.222          51.000
> 2020 05 16 13 03 30.0000000  0 19        .000000000000
G18  20306157.922 8 106709621.368 8       253.773          50.000    20306159.227 8  83150378.130 8       197.749          50.000
G20  23761700.891 6 124868583.699 6      3284.922          39.000    23761705.320 4  97300214.522 4      2559.682          28.000
G21  20648681.461 8 108509623.678 8       166.387          50.000    20648679.695 8  84552974.770 8       129.649          50.000
G25  24600107.914 6 129274411.437 6     -3536.141          41.000    24600109.305 6 100733319.300 6     -2755.437          41.000
G26  20491657.992 6 107684385.851 6      1110.062          38.000    20491659.117 6  83909929.631 6       864.981          38.000
G29  22227872.234 5 116808262.458 5     -2463.930          31.000    22227871.781 4  91019403.864 4     -1919.948          27.000
G31  22576514.578 8 118640375.561 8     -2761.508          50.000    22576513.602 8  92447038.749 8     -2151.824          50.000
R15  22026612.258 7 117703482.418 7     -4154.098          47.000    22026615.195 5  91547150.819 5     -3230.968          34.000
R16  19398388.898 8 103622697.596 8      -873.891          48.000    19398390.672 7  80595447.401 7      -679.696          43.000
R17  22040116.984 5 117941060.762 5     -3463.059          35.000
R18  19411888.672 7 103622096.843 7     -1006.016          44.000    19411892.422 6  80594938.102 6      -782.457          41.000
R19  20646957.680 5 110447277.578 5      2299.000          31.000    20646955.422 5  85903439.351 5      1788.111          34.000
C05                                                                  39628976.477 6 159569464.827 6        12.396          36.000
C27  23561910.766 5 122693025.561 5     -2389.020          32.000
C29  24151395.773 7 125762646.502 7      2416.293          44.000
C30  21510029.164 8 112008479.986 8        70.449          51.000
E02                                                                  27177175.891 6 109431181.740 6     -2275.711          40.000
E15  23760993.805 8 124864860.165 8      1541.266          51.000    23760997.578 8  95675749.610 8      1180.817          51.000
E30  22519549.617 8 118341022.665 8     -1367.137          51.000    22519551.234 8  90676890.088 8     -1047.555          51.000
> 2020 05 16 13 04  0.0000000  0 19        .000000000000
G18  20304768.305 8 106702318.936 8       233.172          51.000    20304769.398 8  83144687.907 8       181.692          50.000
G20  23742961.391 6 124770108.080 6      3280.395          40.000    23742964.977 4  97223480.406 4      2556.161          25.000
G21  20647782.773 8 108504901.128 8       148.660          50.000    20647780.898 8  84549294.852 8       115.839          49.000
G25  24620312.406 7 129380583.053 7     -3541.621          42.000    24620313.289 6 100816050.353 6     -2759.705          41.000
G26  20485368.844 6 107651330.013 6      1093.996          40.000    20485369.227 6  83884171.827 6       852.468          39.000
G29  22241956.266 5 116882292.870 5     -2470.281          34.000    22241955.898 5  91077090.182 5     -1924.894          33.000
G31  22592315.844 8 118723412.862 8     -2773.863          50.000    22592314.727 8  92511743.085 8     -2161.452          50.000
R15  22049967.836 7 117828288.749 7     -4165.809          46.000
R16  19403375.414 8 103649332.336 8      -901.465          49.000    19403376.898 7  80616163.267 7      -701.139          43.000
R17  22059546.930 6 118045019.668 6     -3467.629          36.000
R18  19417592.672 7 103652542.462 7     -1023.430          45.000    19417595.297 6  80618618.048 6      -795.998          41.000
R19  20634111.320 5 110378559.811 5      2282.918          30.000    20634110.625 6  85849992.144 6      1775.600          36.000
C05  39628888.078 5 206358018.187 5        14.602          35.000    39628888.648 6 159569111.586 6        11.354          36.000
C27  23575653.719 4 122764614.971 4     -2395.430          27.000
C29  24137498.570 7 125690272.508 7      2408.848          45.000
C30  21509656.789 8 112006539.905 8        59.055          51.000
E02                                                                  27194148.359 6 109499518.594 6     -2279.698          38.000
E15  23752228.750 8 124818799.438 8      1529.785          51.000    23752232.641 8  95640456.321 8      1172.218          51.000
E30  22527393.047 8 118382241.337 8     -1380.457          51.000    22527394.812 8  90708473.208 8     -1057.759          51.000
> 2020 05 16 13 04 30.0000000  0 19        .000000000000
G18  20303497.828 8 106695642.858 8       213.582          50.000    20303498.695 8  83139485.752 8       166.428          50.000
G20  23724251.516 6 124671787.072 6      3276.461          39.000    23724253.859 4  97146866.672 4      2553.080          28.000
G21  20646986.695 8 108500717.627 8       131.957          50.000    20646984.836 8  84546034.992 8       102.824          50.000
G25  24640547.695 6 129486920.589 6     -3545.902          41.000    24640549.344 6 100898910.699 6     -2763.044          41.000
G26  20479175.156 6 107618778.404 6      1078.371          40.000    20479174.891 6  83858806.969 6       840.289          38.000
G29  22256076.930 6 116956510.255 6     -2476.016          37.000    22256097.859 4  91134954.770 4     -1929.375          26.000
G31  22608188.688 8 118806826.448 8     -2785.055          49.000    22608187.867 8  92576740.674 8     -2170.172          49.000
R15  22073390.805 7 117953454.833 7     -4176.594          44.000    22073397.617 6  91741644.212 6     -3248.462          36.000
R16  19408518.992 8 103676805.715 8      -928.195          48.000    19408520.188 7  80637531.439 7      -721.933          43.000
R17  22079003.781 5 118149128.288 5     -3471.449          35.000    22079017.383 4  91893851.664 4     -2700.022          28.000
R18  19423395.422 7 103683517.401 7     -1039.695          44.000    19423397.828 6  80642709.684 6      -808.652          40.000
R19  20621360.672 5 110310344.512 5      2267.355          32.000    20621359.734 6  85796935.813 6      1763.502          36.000
C05  39628811.977 6 206357623.304 6        13.707          36.000    39628812.531 6 159568805.080 6        10.475          36.000
C27  23589463.734 4 122836527.832 4     -2397.781          28.000
C29  24123645.773 7 125618129.488 7      2402.488          45.000
C30  21509351.773 8 112004950.726 8        48.691          51.000
E02                                                                  27211151.758 6 109567986.542 6     -2283.026          39.000
E15  23743530.453 8 124773089.648 8      1519.449          51.000    23743534.016 8  95605431.971 8      1164.229          51.000
E30  22535313.852 8 118423866.216 8     -1392.633          51.000    22535315.648 8  90740367.579 8     -1067.067          51.000
> 2020 05 16 13 05  0.0000000  0 17        .000000000000
G18  20302329.977 8 106689505.897 8       189.586          51.000    20302330.664 8  83134703.701 8       147.729          51.000
G20  23705554.961 6 124573536.918 6      3267.824          41.000    23705557.156 4  97070308.268 4      2546.360          27.000
G21  20646276.500 8 108496985.482 8       110.910          50.000    20646274.750 8  84543126.833 8        86.423          50.000
G25  24660797.258 6 129593335.804 6     -3554.383          40.000    24660800.148 6 100981831.566 6     -2769.652          41.000
G26  20473060.734 6 107586645.735 6      1057.926          39.000    20473060.562 6  83833768.548 6       824.358          39.000
G31  22624116.281 8 118890526.724 8     -2800.793          50.000    22624115.859 8  92641961.654 8     -2182.436          50.000
R15  22096862.633 6 118078888.753 6     -4191.625          40.000    22096870.398 6  91839203.891 6     -3260.156          39.000
R16  19413802.477 7 103705028.611 7      -959.305          46.000    19413803.953 7  80659482.558 7      -746.126          45.000
R18  19429280.602 7 103714931.487 7     -1060.559          43.000    19429282.750 6  80667142.836 6      -824.882          41.000
R19  20608686.422 4 110242574.772 4      2247.129          28.000    20608684.664 5  85744201.980 5      1747.767          35.000
C05  39628730.977 6 206357200.718 6         9.035          36.000    39628731.438 6 159568478.716 6         6.458          36.000
C27  23603286.492 5 122908504.429 5     -2407.066          31.000
C29  24109820.531 7 125546131.643 7      2391.531          46.000
C30  21509097.547 8 112003625.791 8        33.840          51.000
E02                                                                  27228171.016 6 109636518.097 6     -2289.896          41.000
E15  23734882.367 8 124727644.074 8      1504.508          51.000    23734885.484 8  95570610.066 8      1152.802          51.000
E30  22543295.586 8 118465810.115 8     -1409.344          51.000    22543297.320 8  90772506.395 8     -1079.905          51.000
> 2020 05 16 13 05 30.0000000  0 16        .000000000000
G18  20301277.555 8 106683975.222 8       177.262          50.000    20301278.008 8  83130394.088 8       138.126          50.000
G20  23686885.547 6 124475428.059 6      3271.184          41.000    23686886.953 5  96993859.840 5      2548.977          34.000
G21  20645664.789 8 108493771.854 8       101.641          49.000    20645663.312 8  84540622.722 8        79.200          49.000
G25  24681074.703 6 129699894.873 6     -3551.355          41.000    24681077.484 6 101064864.546 6     -2767.293          41.000
G26  20467038.328 6 107555000.976 6      1050.113          38.000    20467039.508 6  83809110.290 6       818.273          38.000
G31  22640111.008 8 118974578.861 8     -2804.387          50.000    22640110.875 8  92707456.795 8     -2185.236          50.000
R15  22120395.570 5 118204656.084 5     -4194.898          33.000    22120405.133 6  91937022.920 6     -3262.699          40.000
R16  19419238.688 7 103734069.272 7      -978.422          45.000    19419240.750 7  80682069.743 7      -760.995          45.000
R18  19435260.219 7 103746850.811 7     -1069.090          42.000    19435262.586 6  80691969.013 6      -831.514          41.000
C05  39628657.984 5 206356819.965 5        15.133          35.000    39628658.453 6 159568184.229 6        11.735          36.000
C27  23617147.164 6 122980663.183 6     -2404.934          37.000
C29  24096036.141 7 125474346.210 7      2392.367          44.000
C30  21508906.641 8 112002631.379 8        30.855          51.000
E02                                                                  27245219.320 7 109705164.123 7     -2287.507          43.000
E15  23726297.375 8 124682530.359 8      1501.465          51.000    23726300.555 8  95536042.448 8      1150.482          51.000
E30  22551350.922 8 118508140.270 8     -1414.211          51.000    22551352.461 8  90804941.165 8     -1083.613          51.000
> 2020 05 16 13 06  0.0000000  0 17        .000000000000
G18  20300313.805 8 106678910.943 8       156.727          51.000    20300313.867 8  83126447.897 8       122.125          51.000
G20  23668217.344 7 124377323.975 7      3265.727          42.000    23668218.078 6  96917415.139 6      2544.722          36.000
G21  20645125.172 8 108490936.621 8        83.957          49.000    20645123.883 8  84538413.450 8        65.421          49.000
G25  24701353.203 7 129806456.977 7     -3556.500          42.000    24701354.703 7 101147899.815 7     -2771.305          42.000
G26  20461082.117 6 107523706.244 6      1033.145          36.000    20461085.023 5  83784724.729 5       805.048          35.000
G31  22656145.805 8 119058840.642 8     -2816.449          50.000    22656145.422 8  92773115.299 8     -2194.636          50.000
R16  19424801.445 7 103763785.243 7     -1006.145          45.000    19424803.648 7  80705182.167 7      -782.557          45.000
R17  22137448.820 5 118461930.585 5     -3480.070          35.000
R18  19441307.086 6 103779131.515 6     -1086.297          40.000    19441309.523 6  80717076.201 6      -844.895          40.000
R19  20583579.148 5 110108256.218 5      2222.535          30.000    20583577.852 5  85639757.717 5      1728.635          33.000
C05  39628566.242 6 206356343.302 6        13.195          36.000    39628566.648 6 159567814.851 6        10.460          36.000
C27  23631010.547 5 123052835.459 5     -2409.879          33.000
C29  24082265.375 6 125402635.300 6      2384.863          40.000
C30  21508752.188 8 112001828.723 8        19.293          51.000
E02  27262265.867 5 143264178.720 5     -2990.969          33.000    27262269.484 7 109773816.977 7     -2291.850          44.000
E15  23717749.133 8 124637609.202 8      1489.875          51.000    23717752.766 8  95501622.351 8      1141.602          51.000
E30  22559453.195 8 118550716.912 8     -1427.605          51.000    22559454.305 8  90837564.796 8     -1093.862          51.000
> 2020 05 16 13 06 30.0000000  0 17        .000000000000
G18  20299474.031 8 106674497.326 8       137.797          51.000    20299473.703 8  83123008.699 8       107.374          50.000
G20  23649586.062 7 124279412.200 7      3261.934          43.000    23649585.320 6  96841120.316 6      2541.769          37.000
G21  20644692.492 8 108488663.418 8        67.945          49.000    20644691.469 8  84536642.133 8        52.944          49.000
G25  24721667.531 7 129913205.392 7     -3559.730          45.000    24721668.102 7 101231080.245 7     -2773.819          43.000
G26  20455228.297 6 107492947.624 6      1017.613          38.000    20455231.883 6  83760756.959 6       792.945          38.000
G31  22672254.789 8 119143493.526 8     -2826.680          49.000    22672253.805 8  92839078.547 8     -2202.608          49.000
R15  22167610.859 5 118456956.145 5     -4215.402          34.000    22167617.273 6  92133230.318 6     -3278.646          41.000
R16  19430525.539 7 103794363.556 7     -1032.129          44.000    19430527.641 7  80728965.294 7      -802.767          46.000
R17  22156963.383 6 118566372.916 6     -3482.535          36.000
R18  19447456.305 7 103811959.108 7     -1101.848          42.000    19447459.539 6  80742608.787 6      -856.993          40.000
R19  20571158.906 5 110041812.941 5      2207.668          31.000    20571158.883 5  85588079.671 5      1717.081          35.000
C05  39628490.977 5 206355950.695 5        13.480          35.000    39628491.453 5 159567512.070 5        10.028          35.000
C29  24068539.125 5 125331182.301 5      2378.793          32.000
C30  21508669.609 8 112001400.210 8         9.566          51.000
E02  27279354.227 6 143353969.009 6     -2994.719          40.000    27279356.344 7 109842617.266 7     -2294.604          44.000
E15  23709272.898 8 124593065.356 8      1480.051          51.000    23709276.523 8  95467491.354 8      1134.059          51.000
E30  22567637.508 8 118593724.371 8     -1439.215          51.000    22567638.141 8  90870518.534 8     -1102.778          51.000
> 2020 05 16 13 07  0.0000000  0 17        .000000000000
G18  20298741.219 8 106670646.086 8       119.887          51.000    20298740.734 8  83120007.760 8        93.421          50.000
G20  23630975.234 6 124181607.725 6      3259.188          41.000    23630973.828 6  96764909.087 6      2539.630          40.000
G21  20644349.922 8 108486863.853 8        52.992          49.000    20644349.172 8  84535239.889 8        41.293          49.000
G25  24742000.445 7 130020050.958 7     -3562.383          44.000    24742001.188 7 101314336.434 7     -2775.886          44.000
G26  20449460.477 6 107462638.829 6      1003.477          39.000    20449463.422 6  83737139.734 6       781.933          39.000
G31  22688420.578 8 119228446.889 8     -2835.922          48.000    22688419.188 8  92905275.930 8     -2209.809          48.000
R15  22191301.391 6 118583563.902 6     -4223.945          41.000    22191310.266 6  92231702.970 6     -3285.291          40.000
R16  19436393.867 7 103825714.087 7     -1056.961          44.000    19436396.594 7  80753349.017 7      -822.081          46.000
R17  22176492.289 5 118670891.174 5     -3484.102          32.000
R18  19453691.008 6 103845242.167 6     -1116.215          41.000    19453694.914 6  80768495.629 6      -868.164          40.000
R19  20558821.211 5 109975811.503 5      2193.938          30.000    20558822.648 6  85536745.244 6      1706.396          37.000
C05  39628415.578 6 206355558.254 6        14.082          36.000    39628416.008 5 159567208.574 5        10.829          35.000
C29  24054844.867 6 125259900.716 6      2373.730          36.000
C30  21508642.156 8 112001258.258 8          .820          51.000
E02  27296461.188 6 143443862.872 6     -2997.160          41.000    27296462.938 7 109911496.891 7     -2296.594          44.000
E15  23700851.828 8 124548811.160 8      1471.199          51.000    23700854.859 8  95433582.281 8      1127.300          51.000
E30  22575887.000 8 118637074.498 8     -1449.828          51.000    22575887.398 8  90903734.849 8     -1110.943          51.000
> 2020 05 16 13 07 30.0000000  0 18        .000000000000
G18  20298108.758 8 106667321.601 8       105.598          51.000    20298107.859 8  83117417.265 8        82.284          50.000
G20  23612378.453 6 124083878.509 6      3260.199          38.000    23612376.742 6  96688756.521 6      2540.412          38.000
G21  20644090.742 8 108485501.860 8        41.645          49.000    20644089.875 8  84534178.601 8        32.450          49.000
G25  24762344.750 7 130126957.111 7     -3560.918          44.000    24762346.477 7 101397639.822 7     -2774.744          43.000
G26  20443771.930 6 107432746.199 6       993.352          36.000    20443774.641 6  83713846.772 6       774.037          37.000
G29  22341407.422 5 117404868.965 5     -2500.855          33.000
G31  22704636.516 8 119313663.347 8     -2841.246          49.000    22704635.086 8  92971678.311 8     -2213.961          50.000
R15  22215039.477 7 118710412.353 7     -4228.602          43.000    22215047.922 6  92330362.816 6     -3288.915          38.000
R16  19442399.867 7 103857800.337 7     -1078.195          44.000    19442402.945 7  80778304.995 7      -838.596          44.000
R17  22196030.688 5 118775447.408 5     -3481.895          34.000    22196034.875 4  92380905.586 4     -2708.134          25.000
R18  19460003.977 6 103878942.863 6     -1126.633          39.000    19460008.062 6  80794707.263 6      -876.270          39.000
C05  39628333.359 5 206355130.027 5        18.477          35.000    39628333.734 5 159566877.453 5        14.269          35.000
C27  23672782.078 5 123270399.152 5     -2415.227          31.000
C29  24041182.047 6 125188755.489 6      2372.816          40.000
C30  21508663.039 8 112001367.341 8        -4.215          51.000
E02  27313579.938 6 143533824.019 6     -2996.344          41.000    27313582.250 7 109980428.053 7     -2295.735          44.000
E15  23692479.164 8 124504811.512 8      1465.977          51.000    23692481.547 8  95399868.255 8      1123.317          51.000
E30  22584194.711 8 118680731.783 8     -1456.738          51.000    22584195.281 8  90937186.508 8     -1116.196          51.000
> 2020 05 16 13 08  0.0000000  0 17        .000000000000
G18  20297592.891 8 106664609.808 8        81.211          51.000    20297591.641 8  83115304.187 8        63.281          50.000
G20  23593812.367 5 123986313.793 5      3250.352          33.000    23593810.906 5  96612732.118 5      2532.738          34.000
G21  20643931.211 8 108484663.102 8        20.387          49.000    20643930.172 8  84533525.023 8        15.886          49.000
G25  24782716.352 7 130234008.885 7     -3569.500          42.000    24782719.258 7 101481056.717 7     -2781.432          42.000
G26  20438179.531 6 107403357.636 6       972.402          38.000    20438182.594 6  83690946.549 6       757.713          37.000
G31  22720918.555 8 119399226.363 8     -2856.793          50.000    22720917.773 8  93038350.731 8     -2226.072          50.000
R15  22238839.133 7 118837585.735 7     -4243.391          45.000    22238846.125 6  92429275.376 6     -3300.418          37.000
R16  19448559.906 7 103890709.350 7     -1109.543          44.000    19448563.258 7  80803900.884 7      -862.978          44.000
R17  22215591.750 5 118880127.719 5     -3490.027          33.000    22215595.719 4  92462323.524 4     -2714.469          25.000
R18  19466410.445 6 103913146.656 6     -1147.355          39.000    19466414.438 6  80821310.209 6      -892.388          40.000
C05  39628260.695 5 206354751.845 5        12.543          35.000    39628261.062 5 159566584.992 5         9.829          35.000
C27  23686743.516 4 123343102.345 4     -2424.219          29.000
C29  24027563.547 7 125117832.849 7      2361.375          42.000
C30  21508748.609 8 112001812.550 8       -19.434          51.000
E02  27330727.867 6 143623937.714 6     -3005.109          41.000    27330730.477 7 110049476.113 7     -2302.694          44.000
E15  23684171.305 8 124461152.939 8      1450.652          51.000    23684173.508 8  95366415.583 8      1111.563          51.000
E30  22592577.102 8 118724782.300 8     -1473.824          51.000    22592578.133 8  90970939.466 8     -1129.249          51.000
> 2020 05 16 13 08 30.0000000  0 17        .000000000000
G18  20297177.547 8 106662426.582 8        63.570          51.000    20297176.320 8  83113602.990 8        49.535          50.000
G20  23575260.891 5 123888832.908 5      3247.344          33.000    23575260.492 5  96536772.939 5      2530.395          33.000
G21  20643855.086 8 108484262.803 8         5.762          49.000    20643854.008 8  84533213.100 8         4.490          49.000
G25  24803099.055 7 130341121.342 7     -3571.867          42.000    24803102.867 7 101564520.877 7     -2783.276          42.000
G26  20432667.695 6 107374390.911 6       958.047          40.000    20432670.727 6  83668375.061 6       746.527          40.000
G31  22737250.242 8 119485049.493 8     -2865.398          51.000    22737250.531 8  93105225.842 8     -2232.781          51.000
R15  22262683.203 7 118964995.882 7     -4251.188          45.000    22262689.844 6  92528372.049 6     -3306.485          37.000
R16  19454858.664 7 103924355.639 7     -1134.266          46.000    19454861.711 7  80830070.197 7      -882.210          44.000
R17  22235159.562 5 118984844.899 5     -3491.242          32.000
R18  19472895.938 6 103947766.591 6     -1161.344          39.000    19472900.828 6  80848236.779 6      -903.267          39.000
C05  39628181.773 5 206354340.692 5        13.770          35.000    39628182.195 5 159566267.049 5        10.808          35.000
C27  23700721.148 5 123415869.077 5     -2427.184          35.000
C29  24013972.375 7 125047050.282 7      2356.797          43.000
C30  21508882.547 8 112002510.376 8       -27.938          51.000
E02  27347888.938 6 143714119.319 6     -3007.547          41.000    27347891.656 7 110118576.179 7     -2304.484          44.000
E15  23675912.250 8 124417751.940 8      1442.004          51.000    23675914.891 8  95333160.285 8      1104.858          51.000
E30  22601018.219 8 118769142.073 8     -1484.320          51.000    22601019.789 8  91004929.389 8     -1137.303          51.000
> 2020 05 16 13 09  0.0000000  0 18        .000000000000
G18  20296869.469 8 106660806.332 8        44.344          51.000    20296868.164 8  83112340.464 8        34.554          50.000
G20  23556732.656 6 123791473.299 6      3242.762          39.000    23556733.406 6  96460908.349 6      2526.827          39.000
G21  20643868.938 8 108484335.154 8       -10.586          50.000    20643867.531 8  84533269.468 8        -8.252          50.000
G25  24823499.516 6 130448328.012 6     -3575.320          41.000    24823503.688 6 101648058.456 6     -2785.964          41.000
G26  20427243.188 6 107345882.421 6       942.301          41.000    20427246.438 6  83646160.653 6       734.260          40.000
G29  22384446.211 5 117631058.585 5     -2519.746          35.000
G31  22753637.641 8 119571164.968 8     -2875.586          50.000    22753638.930 8  93172328.755 8     -2240.719          50.000
R15  22286577.758 7 119092674.752 7     -4260.699          45.000    22286583.500 5  92627677.751 5     -3313.880          34.000
R16  19461302.234 8 103958773.685 8     -1160.477          48.000    19461304.586 7  80856839.766 7      -902.593          44.000
R17  22254741.852 5 119089632.179 5     -3494.527          32.000
R18  19479465.953 6 103982835.706 6     -1176.707          40.000    19479470.750 6  80875512.708 6      -915.220          38.000
C05  39628103.180 5 206353931.299 5        13.352          35.000    39628103.539 5 159565950.471 5        10.732          35.000
C27  23714718.836 6 123488750.565 6     -2431.707          37.000
C29  24000414.945 7 124976442.725 7      2350.480          43.000
C30  21509071.789 8 112003494.854 8       -37.855          51.000
E02  27365069.406 7 143804402.501 7     -3011.395          42.000    27365072.117 7 110187754.104 7     -2307.265          42.000
E15  23667708.828 8 124374643.483 8      1431.871          51.000    23667711.758 8  95300129.136 8      1097.199          51.000
E30  22609524.594 8 118813845.649 8     -1495.977          51.000    22609526.781 8  91039182.762 8     -1146.196          51.000
> 2020 05 16 13 09 30.0000000  0 17        .000000000000
G18  20296672.109 8 106659768.255 8        25.445          51.000    20296670.773 8  83111531.568 8        19.828          50.000
G20  23538232.289 6 123694257.948 6      3238.598          41.000    23538234.047 6  96385156.161 6      2523.586          40.000
G21  20643976.531 8 108484899.311 8       -26.309          50.000    20643974.656 8  84533709.069 8       -20.500          50.000
G25  24843921.000 6 130555647.111 6     -3578.699          40.000    24843925.406 6 101731683.622 6     -2788.600          40.000
G26  20421909.812 7 107317853.352 7       926.863          42.000    20421913.125 7  83624319.836 7       722.231          43.000
G31  22770083.930 8 119657589.548 8     -2885.328          50.000    22770085.828 8  93239672.540 8     -2248.308          50.000
R15  22310525.883 7 119220639.039 7     -4269.547          45.000    22310531.180 5  92727205.486 5     -3320.759          34.000
R16  19467894.188 8 103993982.776 8     -1186.281          49.000    19467895.789 7  80884224.615 7      -922.663          44.000
R17  22274339.461 5 119194507.659 5     -3496.641          30.000
R18  19486123.461 6 104018371.826 6     -1191.820          38.000    19486128.031 6  80903151.949 6      -926.968          37.000
C05  39628028.680 5 206353543.229 5        13.363          35.000    39628029.109 6 159565650.410 6        10.161          36.000
C27  23728740.172 4 123561756.613 4     -2435.535          28.000
C29  23986894.734 7 124906030.036 7      2344.328          42.000
C30  21509319.594 8 112004784.938 8       -47.570          51.000
E02  27382272.898 7 143894805.941 7     -3014.938          43.000    27382275.320 6 110257024.186 6     -2309.943          41.000
E15  23659565.039 8 124331847.437 8      1421.902          51.000    23659567.945 8  95267337.342 8      1089.495          51.000
E30  22618099.930 8 118858912.415 8     -1507.699          51.000    22618102.805 8  91073714.426 8     -1155.235          51.000
> 2020 05 16 13 10  0.0000000  0 17        .000000000000
G18  20296580.766 8 106659287.558 8        14.898          51.000    20296579.672 8  83111157.009 8        11.609          51.000
G20  23519755.156 6 123597165.453 6      3242.527          41.000    23519758.016 6  96309499.704 6      2526.642          40.000
G21  20644172.812 8 108485930.166 8       -34.020          51.000    20644170.633 8  84534512.340 8       -26.509          50.000
G25  24864358.844 6 130663053.128 6     -3573.547          39.000    24864363.172 6 101815376.531 6     -2784.585          38.000
G26  20416663.133 7 107290280.964 7       919.492          43.000    20416666.453 7  83602834.856 7       716.487          43.000
G29  22413285.297 6 117782578.178 6     -2522.348          36.000
G31  22786584.031 8 119744296.458 8     -2886.773          50.000    22786585.977 8  93307236.350 8     -2249.434          50.000
R15  22334521.797 7 119348860.736 7     -4270.035          44.000    22334527.695 5  92826933.357 5     -3321.141          32.000
R16  19474629.305 8 104029957.068 8     -1203.590          50.000    19474630.414 7  80912204.602 7      -936.125          44.000
R17  22293956.688 5 119299455.942 5     -3490.750          30.000
R18  19492863.539 6 104054348.240 6     -1198.215          39.000    19492867.898 6  80931133.597 6      -931.945          37.000
C05  39627953.641 6 206353152.519 6        21.020          36.000    39627954.070 5 159565348.294 5        16.021          35.000
C29  23973406.359 6 124835788.513 6      2346.457          39.000
C30  21509621.062 8 112006355.980 8       -48.949          51.000
E02  27399494.141 7 143985304.267 7     -3010.031          42.000    27399496.516 6 110326367.045 6     -2306.708          38.000
E15  23651476.086 8 124289339.622 8      1420.219          51.000    23651478.945 8  95234766.427 8      1088.232          51.000
E30  22626739.492 8 118904317.715 8     -1511.008          51.000    22626743.281 8  91108505.494 8     -1157.830          51.000
> 2020 05 16 13 10 30.0000000  0 17        .000000000000
G18  20296601.844 8 106659397.859 8       -13.020          51.000    20296601.016 8  83111242.960 8       -10.145          51.000
G20  23501308.820 7 123500233.093 7      3228.812          43.000    23501311.969 6  96233968.067 6      2515.961          38.000
G21  20644464.258 8 108487460.725 8       -58.949          51.000    20644461.805 8  84535704.986 8       -45.934          51.000
G25  24884819.359 6 130770578.777 6     -3585.961          38.000    24884824.680 6 101899162.659 6     -2794.255          38.000
G26  20411509.805 7 107263200.834 7       894.852          42.000    20411513.430 7  83581733.437 7       697.287          42.000
G29  22427751.617 6 117858580.562 6     -2535.613          38.000    22427736.344 5  91837898.435 5     -1975.809          35.000
G31  22803143.875 8 119831316.928 8     -2905.449          49.000    22803145.414 8  93375044.500 8     -2263.986          49.000
R15  22358571.516 7 119477371.076 7     -4287.875          43.000    22358577.180 3  92926910.233 3     -3335.017          23.000
R16  19481513.977 8 104066730.236 8     -1238.465          50.000    19481514.992 7  80940805.933 7      -963.250          44.000
R18  19499691.398 6 104090797.517 6     -1222.668          37.000    19499696.133 6  80959483.026 6      -950.967          36.000
C05  39627884.633 6 206352792.935 6        12.223          36.000    39627885.086 6 159565070.237 6         9.183          36.000
C27  23756816.664 5 123707976.473 5     -2442.719          32.000
C29  23959955.617 6 124765752.352 6      2331.699          36.000
C30  21509983.234 8 112008241.291 8       -67.559          51.000
E02  27416739.164 6 144075930.517 6     -3022.285          39.000    27416742.719 6 110395807.922 6     -2315.711          36.000
E15  23643448.516 8 124247154.311 8      1401.375          51.000    23643451.211 8  95202442.633 8      1073.787          51.000
E30  22635450.023 8 118950095.373 8     -1531.543          51.000    22635454.719 8  91143581.856 8     -1173.499          51.000
> 2020 05 16 13 11  0.0000000  0 16        .000000000000
G18  20296713.961 8 106659987.373 8       -25.395          51.000    20296713.188 8  83111702.317 8       -19.788          51.000
G20  23482872.883 7 123403352.491 7      3230.602          45.000    23482875.117 6  96158476.751 6      2517.355          37.000
G21  20644829.312 8 108489379.242 8       -68.043          50.000    20644826.898 8  84537199.948 8       -53.017          50.000
G26  20406429.234 7 107236503.232 7       885.742          43.000    20406433.219 7  83560930.084 7       690.189          43.000
G31  22819741.695 8 119918537.056 8     -2908.402          49.000    22819742.695 8  93443008.216 8     -2266.288          49.000
R15  22382652.891 6 119606053.760 6     -4290.113          40.000
R16  19488526.398 8 104104188.626 8     -1257.727          48.000    19488527.727 7  80969940.213 7      -978.235          43.000
R17  22333216.742 5 119509504.774 5     -3497.938          35.000
R18  19506586.625 5 104127604.631 5     -1230.277          34.000    19506590.242 6  80988110.747 6      -956.879          36.000
C05  39627800.422 6 206352355.515 6        18.055          36.000    39627800.852 5 159564731.164 5        14.384          35.000
C27  23770888.258 5 123781235.813 5     -2440.254          35.000
C29  23946521.305 5 124695811.711 5      2332.160          35.000
C30  21510384.445 8 112010330.070 8       -70.812          51.000
E02  27433986.188 5 144166572.556 5     -3019.609          33.000    27433993.195 6 110465260.840 6     -2313.676          37.000
E15  23635461.250 8 124205180.388 8      1397.887          51.000    23635463.570 8  95170280.811 8      1071.198          51.000
E30  22644210.680 8 118996133.779 8     -1536.641          51.000    22644215.727 8  91178858.028 8     -1177.435          51.000
> 2020 05 16 13 11 30.0000000  0 15        .000000000000
G18  20296935.969 8 106661154.001 8       -48.180          51.000    20296935.375 8  83112611.372 8       -37.543          51.000
G20  23464466.547 7 123306625.098 7      3222.102          46.000    23464467.320 6  96083104.848 6      2510.732          37.000
G21  20645286.688 8 108491783.244 8       -88.023          50.000    20645284.281 8  84539073.196 8       -68.590          50.000
G26  20401440.516 7 107210288.028 7       866.121          43.000    20401444.469 7  83540502.649 7       674.900          43.000
G29  22456721.203 6 118010846.195 6     -2543.020          37.000    22456735.125 6  91956557.309 6     -1981.574          36.000
G31  22836395.648 8 120006052.800 8     -2921.840          49.000    22836396.055 8  93511202.272 8     -2276.758          49.000
R15  22406784.906 6 119735005.514 6     -4302.336          37.000    22406787.539 4  93127271.391 4     -3346.270          26.000
R16  19495685.148 7 104142431.220 7     -1287.551          47.000    19495687.359 7  80999684.418 7     -1001.428          44.000
R18  19513566.539 6 104164867.066 6     -1249.246          40.000    19513571.055 5  81017092.645 5      -971.642          35.000
C05  39627719.789 6 206351935.301 6        13.848          36.000    39627720.336 5 159564406.635 5        10.901          35.000
C29  23933125.344 5 124626064.491 5      2321.285          35.000
C30  21510843.203 8 112012719.316 8       -84.340          51.000
E02                                                                  27451264.461 6 110534800.261 6     -2319.102          37.000
E15  23627532.859 8 124163516.427 8      1383.922          51.000    23627535.070 8  95138356.499 8      1060.432          51.000
E30  22653039.938 8 119042531.088 8     -1552.254          51.000    22653044.836 8  91214409.191 8     -1189.344          51.000
> 2020 05 16 13 12  0.0000000  0 15        .000000000000
G18  20297266.492 8 106662891.940 8       -79.004          51.000    20297266.445 8  83113965.628 8       -61.561          51.000
G20  23446089.094 7 123210048.729 7      3205.234          46.000    23446088.742 6  96007850.652 6      2497.591          36.000
G21  20645835.266 8 108494666.562 8      -115.543          50.000    20645832.930 8  84541319.952 8       -90.033          50.000
G26  20396542.938 7 107184551.479 7       838.574          44.000    20396546.406 7  83520448.197 7       653.434          43.000
G29  22471263.812 6 118087269.509 6     -2560.234          36.000    22471261.445 5  92016057.852 5     -1994.988          33.000
G31  22853104.094 8 120093855.778 8     -2943.125          49.000    22853103.711 8  93579620.149 8     -2293.344          49.000
R15  22430965.594 5 119864217.543 5     -4323.117          32.000    22430966.125 5  93227769.439 5     -3362.431          31.000
R16  19502989.102 7 104181451.401 7     -1325.371          45.000    19502992.508 7  81030033.434 7     -1030.847          44.000
R18  19520631.992 6 104202577.584 6     -1276.223          38.000    19520635.234 5  81046422.983 5      -992.618          35.000
C05  39627641.664 5 206351528.745 5         1.973          35.000    39627642.438 5 159564093.676 5         1.359          35.000
C29  23919767.539 6 124556505.801 6      2304.152          36.000
C30  21511358.938 8 112015403.362 8      -105.852          51.000
E02                                                                  27468555.164 5 110604421.499 5     -2330.958          35.000
E15  23619662.281 8 124122157.334 8      1361.988          51.000    23619664.930 8  95106665.782 8      1043.616          51.000
E30  22661936.688 8 119089281.716 8     -1575.797          51.000    22661941.117 8  91250231.069 8     -1207.459          51.000
> 2020 05 16 13 12 30.0000000  0 15        .000000000000
G18  20297724.406 8 106665299.559 8       -82.191          51.000    20297724.422 8  83115841.688 8       -64.045          51.000
G20  23427759.672 7 123113725.181 7      3215.793          45.000    23427758.211 6  95932793.462 6      2505.819          37.000
G21  20646493.664 8 108498127.324 8      -115.680          49.000    20646491.500 8  84544016.647 8       -90.140          49.000
G26  20391755.664 7 107159394.013 7       838.125          44.000    20391758.758 7  83500844.967 7       653.084          44.000
G31  22869885.430 8 120182042.476 8     -2936.738          49.000    22869883.820 8  93648337.010 8     -2288.371          49.000
R15  22455214.320 6 119993787.122 6     -4315.809          38.000    22455214.930 5  93328545.655 5     -3356.743          33.000
R16  19510457.273 7 104221349.161 7     -1334.898          44.000    19510461.477 7  81061065.002 7     -1038.254          43.000
R17  22392174.344 4 119825042.936 4     -3504.859          29.000
R18  19527798.500 6 104240834.010 6     -1274.953          37.000    19527803.148 5  81076178.103 5      -991.627          35.000
C05  39627585.055 6 206351234.443 6        17.555          36.000    39627586.031 6 159563866.111 6        13.115          36.000
C29  23906466.156 6 124487234.100 6      2313.469          38.000
C30  21511949.797 8 112018479.667 8       -99.902          51.000
E02                                                                  27485884.266 5 110674199.493 5     -2321.616          33.000
E15  23611868.617 8 124081202.144 8      1367.723          51.000    23611871.766 8  95075284.532 8      1048.031          51.000
E30  22670919.562 8 119136484.222 8     -1571.680          51.000    22670923.500 8  91286399.196 8     -1204.262          51.000
> 2020 05 16 13 13  0.0000000  0 16        .000000000000
G18  20298260.977 8 106668121.372 8      -105.480          51.000    20298261.422 8  83118040.489 8       -82.193          51.000
G20  23409430.242 7 123017402.628 7      3206.164          44.000    23409427.797 6  95857737.034 6      2498.313          37.000
G21  20647213.141 8 108501909.607 8      -135.984          48.000    20647211.273 8  84546963.883 8      -105.962          48.000
G26  20387030.383 7 107134562.200 7       817.602          45.000    20387033.367 7  83481495.488 7       637.089          44.000
G29  22500426.031 5 118240535.934 5     -2558.199          33.000
G31  22886690.508 7 120270355.335 7     -2950.422          47.000    22886687.445 7  93717152.168 7     -2299.033          47.000
R15  22479480.180 6 120123451.617 6     -4327.773          39.000    22479480.844 5  93429395.742 5     -3366.049          34.000
R16  19518041.578 7 104261863.914 7     -1365.480          45.000    19518045.430 7  81092576.455 7     -1062.040          42.000
R17  22411835.703 5 119930279.162 5     -3510.652          32.000
R18  19535019.586 6 104279376.151 6     -1293.801          38.000    19535021.727 5  81106155.185 5     -1006.296          31.000
C05  39627501.516 5 206350798.531 5        12.281          35.000    39627502.562 6 159563530.776 6         9.361          36.000
C27  23827413.211 5 124075596.027 5     -2458.836          33.000
C29  23893171.117 6 124417997.228 6      2302.918          38.000
C30  21512567.156 8 112021695.136 8      -113.980          51.000
E15  23604103.430 8 124040396.118 8      1353.219          51.000    23604106.906 8  95044017.580 8      1036.948          51.000
E30  22679939.734 8 119183883.411 8     -1587.688          51.000    22679943.242 8  91322718.035 8     -1216.561          51.000
> 2020 05 16 13 13 30.0000000  0 15        .000000000000
G18  20298901.695 8 106671490.861 8      -124.973          50.000    20298902.953 8  83120666.075 8       -97.381          51.000
G20  23391126.742 7 122921218.205 7      3200.188          43.000    23391123.008 6  95782788.199 6      2493.656          39.000
G21  20648019.266 8 108506146.759 8      -152.379          48.000    20648017.703 8  84550265.544 8      -118.737          49.000
G26  20382393.008 7 107110191.516 7       801.035          47.000    20382395.773 7  83462505.349 7       624.183          47.000
G31  22903544.250 7 120358925.717 7     -2960.195          45.000    22903540.109 7  93786167.970 7     -2306.649          45.000
R15  22503787.688 6 120253344.289 6     -4337.230          40.000    22503788.172 5  93530423.281 5     -3373.405          33.000
R16  19525767.125 7 104303131.290 7     -1391.793          45.000    19525770.547 7  81124673.267 7     -1082.506          42.000
R17  22431511.820 5 120035558.133 5     -3512.996          31.000    22431525.758 4  93361048.133 4     -2732.333          27.000
R18  19542318.805 5 104318337.481 5     -1308.875          30.000    19542322.172 5  81136458.456 5     -1018.008          35.000
C05  39627416.703 6 206350355.916 6        11.344          36.000    39627417.734 5 159563188.489 5         9.095          35.000
C27  23841575.828 5 124149336.947 5     -2463.059          34.000
C29  23879907.492 5 124348928.508 5      2295.930          34.000
C30  21513237.078 8 112025182.146 8      -124.262          51.000
E15  23596391.977 8 123999873.444 8      1342.457          51.000    23596395.680 8  95012967.758 8      1028.702          51.000
E30  22689022.727 8 119231612.966 8     -1600.070          51.000    22689026.000 8  91359290.006 8     -1225.995          51.000
> 2020 05 16 13 14  0.0000000  0 16        .000000000000
G18  20299675.445 8 106675558.720 8      -142.508          50.000    20299676.961 8  83123835.821 8      -111.045          50.000
G20  23372878.734 7 122825326.461 7      3196.023          43.000    23372875.055 6  95708067.411 6      2490.411          39.000
G21  20648940.594 8 108510988.930 8      -166.863          48.000    20648939.305 7  84554038.664 7      -130.023          47.000
G26  20377872.414 7 107086434.771 7       786.211          46.000    20377874.898 7  83443993.609 7       612.632          46.000
G31  22920475.211 7 120447902.207 7     -2968.168          44.000    22920471.758 7  93855500.238 7     -2312.858          43.000
R15  22528165.805 7 120383615.432 7     -4343.914          42.000    22528165.758 5  93631745.212 5     -3378.603          32.000
R16  19533662.234 7 104345303.406 7     -1416.070          46.000    19533665.102 7  81157473.781 7     -1101.388          42.000
R17  22451223.812 5 120141031.597 5     -3513.426          33.000    22451233.664 4  93443083.057 4     -2732.664          28.000
R18  19549724.320 5 104357869.695 5     -1322.617          33.000    19549729.141 5  81167205.874 5     -1028.699          31.000
C05                                                                  39627360.188 5 159562957.800 5         9.802          35.000
C27  23855749.969 4 124223169.239 4     -2465.039          29.000
C29  23866701.945 4 124280178.299 4      2291.223          29.000
C30  21513987.555 8 112029090.092 8      -132.668          51.000
E02  27537914.070 5 144712715.632 5     -3043.477          34.000    27537918.484 5 110883784.883 5     -2332.023          32.000
E15  23588763.141 8 123959785.547 8      1333.754          51.000    23588766.914 8  94982251.087 8      1021.970          51.000
E30  22698197.070 8 119279823.821 8     -1610.266          51.000    22698200.406 8  91396230.771 8     -1233.828          51.000
> 2020 05 16 13 14 30.0000000  0 17        .000000000000
G18  20300536.539 8 106680084.727 8      -165.348          50.000    20300538.312 8  83127362.568 8      -128.842          50.000
G20  23354641.211 7 122729490.784 7      3186.691          44.000    23354638.117 6  95633390.286 6      2483.139          39.000
G21  20649931.391 8 108516196.173 8      -186.547          48.000    20649930.242 8  84558096.254 8      -145.361          48.000
G26  20373423.195 7 107063053.810 7       766.016          47.000    20373425.414 7  83425774.674 7       596.895          47.000
G29  22544350.039 5 118471316.738 5     -2576.543          34.000    22544321.930 5  92315243.838 5     -2007.678          33.000
G31  22937437.898 7 120537042.266 7     -2980.734          46.000    22937436.531 7  93924959.951 7     -2322.653          46.000
R15  22552568.531 7 120514018.242 7     -4355.957          43.000    22552569.008 5  93733169.522 5     -3387.973          32.000
R16  19541680.734 7 104388135.920 7     -1445.805          45.000    19541683.453 7  81190787.942 7     -1124.515          43.000
R17  22470926.289 5 120246454.167 5     -3520.250          30.000    22470932.484 4  93525078.442 4     -2737.969          27.000
R18  19557191.180 5 104397727.520 5     -1341.488          34.000    19557192.180 4  81198155.293 4     -1043.380          29.000
R19  20383728.336 4 109039182.256 4      1963.617          29.000
C05  39627283.195 5 206349661.469 5         8.098          35.000    39627284.422 5 159562651.724 5         6.156          35.000
C27  23869956.641 5 124297127.923 5     -2473.035          31.000
C30  21514772.945 8 112033181.017 8      -146.348          51.000
E02  27555290.828 6 144804034.782 6     -3050.809          38.000    27555297.195 6 110953757.356 6     -2337.758          36.000
E15  23581171.844 8 123919892.964 8      1319.535          51.000    23581175.531 8  94951684.049 8      1011.126          51.000
E30  22707417.211 8 119328276.000 8     -1626.012          51.000    22707420.508 8  91433356.453 8     -1245.872          51.000
> 2020 05 16 13 15  0.0000000  0 16        .000000000000
G18  20301507.992 8 106685189.763 8      -177.508          51.000    20301509.898 8  83131340.524 8      -138.318          51.000
G20  23336438.352 7 122633835.665 7      3187.707          46.000    23336436.266 6  95558853.874 6      2483.928          41.000
G21  20651014.727 8 108521889.047 8      -195.504          48.000    20651013.664 8  84562532.261 8      -152.341          49.000
G26  20369068.758 7 107040171.628 7       756.703          47.000    20369070.867 7  83407944.392 7       589.639          47.000
G31  22954454.898 8 120626465.077 8     -2983.230          48.000    22954455.195 8  93994639.996 8     -2324.598          48.000
R15  22577018.680 7 120644672.918 7     -4357.035          44.000    22577019.656 5  93834789.744 5     -3388.808          33.000
R16  19549845.414 7 104431751.044 7     -1464.633          46.000    19549848.477 7  81224710.798 7     -1139.159          43.000
R17  22490641.469 5 120351947.789 5     -3514.973          35.000    22490644.000 4  93607096.105 4     -2733.865          26.000
R18  19564741.719 5 104438031.911 5     -1348.660          35.000    19564744.633 5  81229503.273 5     -1048.952          31.000
C05  39627212.102 5 206349291.921 5        14.094          35.000    39627213.445 5 159562365.960 5        10.937          35.000
C27  23884192.188 4 124371227.946 4     -2468.195          29.000
C29  23840372.891 5 124143082.438 5      2281.559          35.000
C30  21515616.625 8 112037574.889 8      -149.273          51.000
E02  27572689.031 6 144895466.808 6     -3047.344          41.000    27572696.516 6 111023815.555 6     -2335.076          37.000
E15  23573641.125 8 123880317.349 8      1316.219          51.000    23573645.023 8  94921359.892 8      1008.474          51.000
E30  22716706.328 8 119377090.738 8     -1630.977          51.000    22716709.609 8  91470759.961 8     -1249.721          51.000
> 2020 05 16 13 15 30.0000000  0 17        .000000000000
G18  20302575.727 8 106690799.670 8      -191.508          50.000    20302577.320 8  83135711.870 8      -149.227          50.000
G20  23318256.680 7 122538290.473 7      3186.922          47.000    23318255.773 7  95484403.135 7      2483.319          42.000
G21  20652176.273 8 108527992.870 8      -206.312          48.000    20652175.180 8  84567288.492 8      -160.763          48.000
G26  20364795.461 7 107017716.143 7       745.410          47.000    20364797.555 7  83390446.592 7       580.839          47.000
G29  22573759.836 5 118625905.012 5     -2573.562          33.000
G31  22971511.539 7 120716094.626 7     -2987.094          47.000    22971512.625 7  94064481.141 7     -2327.606          47.000
R15  22601501.344 7 120775501.480 7     -4359.695          43.000    22601502.258 5  93936545.226 5     -3390.874          32.000
R16  19558142.422 7 104476072.886 7     -1485.180          47.000    19558145.539 7  81259183.354 7     -1155.140          43.000
R17  22510355.258 6 120457435.914 6     -3512.316          36.000    22510355.461 4  93689134.391 4     -2731.805          27.000
R18  19572362.508 5 104478706.443 5     -1357.926          35.000    19572364.820 4  81261142.048 4     -1056.164          25.000
C05  39627132.055 5 206348874.359 5        18.688          35.000    39627133.445 6 159562043.845 6        14.251          36.000
C27  23898433.781 5 124445366.365 5     -2468.094          34.000
C29  23827254.766 6 124074745.361 6      2279.746          38.000
C30  21516504.406 8 112042198.312 8      -154.012          51.000
E02  27590094.328 6 144986936.094 6     -3045.484          40.000    27590102.656 6 111093902.338 6     -2333.565          37.000
E15  23566156.461 8 123840985.276 8      1310.945          51.000    23566161.039 8  94891222.343 8      1004.470          51.000
E30  22726050.195 8 119426194.120 8     -1637.684          51.000    22726053.938 8  91508384.611 8     -1254.866          51.000
> 2020 05 16 13 16  0.0000000  0 16        .000000000000
G18  20303757.883 8 106697011.497 8      -217.816          50.000    20303759.242 8  83140552.274 8      -169.727          50.000
G20  23300115.156 7 122442956.324 7      3173.449          46.000    23300115.602 7  95410116.839 7      2472.821          43.000
G21  20653434.555 8 108534604.834 8      -229.582          49.000    20653433.141 8  84572440.681 8      -178.895          49.000
G26  20360622.203 8 106995786.536 8       721.445          48.000    20360624.328 8  83373358.575 8       562.165          48.000
G31  22988625.328 7 120806025.218 7     -3003.465          45.000    22988626.883 7  94134556.903 7     -2340.362          45.000
R15  22626034.352 7 120906599.756 7     -4375.195          43.000    22626035.922 5  94038510.495 5     -3402.930          31.000
R16  19566590.164 7 104521199.748 7     -1518.277          47.000    19566593.352 7  81294282.000 7     -1180.885          43.000
R17  22530085.945 6 120563016.391 6     -3521.809          38.000    22530086.016 4  93771251.516 4     -2739.188          26.000
R18  19580069.148 5 104519848.025 5     -1380.062          31.000    19580078.555 5  81293123.999 5     -1073.379          31.000
C05  39627061.617 5 206348507.836 5        10.414          35.000    39627062.992 5 159561760.403 5         8.470          35.000
C27  23912700.117 4 124519703.685 4     -2479.934          26.000
C29  23814178.055 6 124006635.340 6      2265.863          38.000
C30  21517454.852 8 112047147.706 8      -171.152          51.000
E02  27607525.234 6 145078539.473 6     -3056.238          39.000    27607534.000 5 111164091.905 5     -2342.248          35.000
E15  23558736.438 8 123801994.683 8      1293.230          51.000    23558741.555 8  94861346.437 8       990.884          51.000
E30  22735467.586 8 119475683.553 8     -1656.844          51.000    22735471.859 8  91546305.066 8     -1269.545          51.000
> 2020 05 16 13 16 30.0000000  0 16        .000000000000
G18  20305029.664 8 106703694.170 8      -231.828          51.000    20305030.898 8  83145759.540 8      -180.645          51.000
G20  23281989.258 7 122347705.812 7      3172.363          45.000    23281991.078 7  95335895.718 7      2471.971          45.000
G21  20654764.672 8 108541593.428 8      -240.535          48.000    20654763.070 8  84577886.343 8      -187.430          49.000
G26  20356524.641 8 106974253.723 8       709.824          48.000    20356526.664 8  83356579.759 8       553.110          48.000
G29  22603257.555 6 118780927.176 6     -2586.660          37.000
G31  23005770.406 7 120896124.135 7     -3007.312          44.000    23005772.867 7  94204763.866 7     -2343.357          44.000
R15  22650592.719 6 121037832.214 6     -4377.863          41.000    22650595.477 5  94140580.095 5     -3405.008          30.000
R16  19575163.797 8 104566997.361 8     -1539.090          49.000    19575166.555 7  81329902.335 7     -1197.070          43.000
R17  22549809.594 6 120668554.809 6     -3518.617          39.000    22549808.453 4  93853336.874 4     -2736.702          24.000
R18  19587836.977 4 104561202.939 4     -1389.219          28.000    19587852.797 4  81325381.669 4     -1080.494          29.000
C05  39626975.977 5 206348062.130 5        15.055          35.000
C29  23801119.359 6 123938623.476 6      2264.430          36.000
C30  21518443.078 8 112052293.269 8      -176.043          51.000
E02  27624956.719 6 145170145.393 6     -3054.680          37.000    27624966.344 6 111234283.381 6     -2340.736          36.000
E15  23551356.719 8 123763215.236 8      1287.848          51.000    23551361.562 8  94831632.297 8       986.780          51.000
E30  22744933.688 8 119525428.206 8     -1663.676          51.000    22744938.086 8  91584421.075 8     -1274.759          51.000
> 2020 05 16 13 17  0.0000000  0 15        .000000000000
G18  20306428.883 8 106711046.142 8      -259.461          50.000    20306429.883 8  83151488.353 8      -202.177          50.000
G20  23263917.562 7 122252741.119 7      3157.520          45.000    23263920.727 7  95261897.305 7      2460.408          45.000
G21  20656204.039 8 108549156.738 8      -264.957          48.000    20656202.516 8  84583779.847 8      -206.457          48.000
G26  20352540.891 8 106953318.421 8       684.699          48.000    20352542.547 8  83340266.531 8       533.535          49.000
G31  23022984.844 7 120986588.008 7     -3024.816          45.000    23022987.891 7  94275255.201 7     -2357.000          45.000
R15  22675213.344 6 121169397.737 6     -4394.223          41.000    22675216.133 4  94242908.717 4     -3417.729          27.000
R16  19583900.742 8 104613667.023 8     -1573.480          48.000    19583903.219 7  81366200.942 7     -1223.818          44.000
R17  22569563.055 6 120774251.996 6     -3529.438          39.000
R18  19595705.562 5 104603209.665 5     -1412.082          35.000
C05  39626913.219 5 206347735.369 5         5.742          35.000    39626914.492 6 159561163.218 6         4.401          36.000
C29  23788119.258 4 123870979.002 4      2249.898          29.000
C30  21519506.914 8 112057831.946 8      -194.332          51.000
E02  27642425.742 5 145261951.958 5     -3066.680          33.000    27642436.945 6 111304628.669 6     -2349.832          37.000
E15  23544055.312 8 123724846.208 8      1268.938          51.000    23544059.320 8  94802232.656 8       972.345          51.000
E30  22754486.281 8 119575626.888 8     -1684.031          51.000    22754490.617 8  91622884.966 8     -1290.302          51.000
> 2020 05 16 13 17 30.0000000  0 14        .000000000000
G18  20307942.031 8 106718996.808 8      -269.918          50.000    20307942.586 8  83157683.685 8      -210.329          50.000
G20  23245887.805 7 122157995.526 7      3159.496          44.000    23245891.422 7  95188069.568 7      2461.945          44.000
G21  20657739.297 8 108557224.203 8      -272.105          48.000    20657737.773 8  84590066.191 8      -212.030          48.000
G26  20348657.758 8 106932912.069 8       676.562          49.000    20348659.055 8  83324365.483 8       527.192          49.000
G31  23040255.242 7 121077344.141 7     -3025.176          46.000    23040258.039 7  94345974.234 7     -2357.280          47.000
R15  22699882.766 6 121301222.137 6     -4393.094          38.000    22699884.836 4  94345456.251 4     -3416.857          28.000
R16  19592787.117 8 104661136.611 8     -1590.473          48.000    19592789.641 7  81403121.681 7     -1237.034          44.000
R17  22589331.594 6 120880035.276 6     -3522.535          36.000
R18  19603659.953 5 104645675.901 5     -1418.180          31.000    19603663.844 4  81391060.667 4     -1103.023          28.000
C05  39626859.781 5 206347456.877 5        13.656          35.000    39626860.922 5 159560947.240 5        10.684          35.000
C30  21520632.859 8 112063693.986 8      -195.742          51.000
E02  27659919.039 5 145353856.309 5     -3061.082          32.000    27659931.781 6 111375073.384 6     -2346.028          37.000
E15  23536818.797 8 123686817.826 8      1267.117          51.000    23536822.133 8  94773094.055 8       970.830          51.000
E30  22764111.992 8 119626209.302 8     -1687.293          51.000    22764115.984 8  91661642.883 8     -1292.885          51.000
> 2020 05 16 13 18  0.0000000  0 16        .000000000000
G18  20309543.523 8 106727411.797 8      -294.426          51.000    20309543.883 8  83164240.828 8      -229.420          51.000
G20  23227875.430 7 122063338.361 7      3147.547          46.000    23227878.734 7  95114310.732 7      2452.634          45.000
G21  20659344.812 8 108565661.093 8      -293.562          49.000    20659343.422 8  84596640.379 8      -228.750          49.000
G26  20344850.008 8 106912902.407 8       654.168          49.000    20344851.312 8  83308773.535 8       509.741          49.000
G29  22647721.891 5 119014572.401 5     -2607.434          31.000    22647740.156 5  92738656.794 5     -2031.766          33.000
G31  23057555.555 7 121168256.211 7     -3039.129          46.000    23057557.312 7  94416814.766 7     -2368.152          46.000
R15  22724574.148 5 121433166.016 5     -4406.188          34.000    22724577.000 4  94448082.170 4     -3427.038          27.000
R16  19601797.812 8 104709268.333 8     -1621.734          48.000    19601800.273 7  81440557.439 7     -1261.352          44.000
R17  22609089.477 6 120985766.998 6     -3530.141          37.000    22609090.000 4  94100070.031 4     -2745.659          25.000
R18  19611675.414 6 104688464.057 6     -1437.738          36.000    19611681.227 4  81424340.229 4     -1118.244          29.000
C05  39626790.445 5 206347095.939 5         7.184          35.000    39626791.523 5 159560667.610 5         5.818          35.000
C27  23969951.297 5 124817855.467 5     -2494.172          31.000
C30  21521794.945 8 112069746.421 8      -210.996          51.000
E02                                                                  27677425.586 6 111445514.288 6     -2352.568          37.000
E15  23529621.711 8 123648996.476 8      1251.164          51.000    23529624.898 8  94744114.089 8       958.741          51.000
E30  22773785.156 8 119677041.398 8     -1704.699          51.000    22773788.469 8  91700592.107 8     -1306.129          51.000
> 2020 05 16 13 18 30.0000000  0 16        .000000000000
G18  20311253.680 8 106736398.462 8      -308.227          50.000    20311253.992 8  83171243.434 8      -240.177          50.000
G20  23209901.391 7 121968880.730 7      3146.145          46.000    23209904.016 7  95040707.415 7      2451.541          44.000
G21  20661040.930 7 108574574.570 7      -304.238          47.000    20661039.766 7  84603585.946 7      -237.069          47.000
G26  20341138.609 8 106893398.928 8       642.469          49.000    20341140.164 8  83293576.021 8       500.625          49.000
G29  22662597.125 5 119092740.648 5     -2607.094          34.000    22662619.883 5  92799567.021 5     -2031.499          32.000
G31  23074905.656 7 121259429.496 7     -3042.609          44.000    23074906.102 7  94487858.842 7     -2370.867          44.000
R15  22749307.492 5 121565336.277 5     -4409.008          32.000    22749311.648 4  94550880.661 4     -3429.234          28.000
R16  19610952.977 7 104758171.135 7     -1642.102          47.000    19610955.172 7  81478592.923 7     -1277.190          44.000
R17  22628858.141 6 121091589.382 6     -3526.473          36.000    22628862.438 4  94182364.338 4     -2742.812          28.000
R18  19619772.172 4 104731662.400 4     -1446.570          29.000    19619782.086 5  81458012.321 5     -1125.110          30.000
C05  39626725.828 6 206346759.297 6        11.770          36.000    39626726.836 5 159560406.311 5         9.047          35.000
C27  23984284.508 5 124892602.118 5     -2492.484          33.000
C30  21523014.172 8 112076095.958 8      -215.758          51.000
E02  27694934.648 5 145537863.385 5     -3068.977          32.000    27694938.969 6 111516033.553 6     -2351.218          36.000
E15  23522484.859 8 123611490.503 8      1245.812          51.000    23522488.031 8  94715375.756 8       954.569          51.000
E30  22783526.516 8 119728230.909 8     -1711.402          51.000    22783528.992 8  91739815.217 8     -1311.343          51.000
> 2020 05 16 13 19  0.0000000  0 16        .000000000000
G18  20313065.500 8 106745919.214 8      -330.742          51.000    20313065.406 8  83178662.204 8      -257.721          50.000
G20  23191958.797 7 121874589.357 7      3135.754          47.000    23191960.797 7  94967233.660 7      2443.445          43.000
G21  20662820.648 8 108583926.760 8      -323.578          49.000    20662819.500 8  84610873.374 8      -252.139          49.000
G26  20337516.719 8 106874366.209 8       622.113          49.000    20337518.594 8  83278745.327 8       484.761          49.000
G31  23092297.977 7 121350824.716 7     -3054.773          42.000    23092297.180 7  94559075.837 7     -2380.346          42.000
R15  22774077.578 4 121697691.686 4     -4418.594          29.000    22774080.578 5  94653823.780 5     -3436.684          31.000
R16  19620245.055 7 104807805.761 7     -1671.328          46.000    19620246.930 7  81517197.634 7     -1299.922          44.000
R17  22648631.344 4 121197395.499 4     -3532.652          27.000    22648634.773 4  94264657.860 4     -2747.625          27.000
R18  19627946.977 5 104775269.794 5     -1464.719          35.000    19627946.938 4  81491928.660 4     -1139.226          28.000
C05  39626658.914 5 206346410.700 5         7.156          35.000
C27  23998642.312 5 124967421.685 5     -2499.609          31.000
C29  23736439.922 5 123601872.310 5      2226.613          31.000
C30  21524283.680 8 112082705.586 8      -229.012          51.000
E02  27712462.883 5 145629968.348 5     -3075.293          33.000    27712464.492 5 111586610.120 5     -2356.474          32.000
E15  23515401.125 8 123574263.072 8      1231.789          51.000    23515404.305 8  94686850.837 8       943.868          51.000
E30  22793328.867 8 119779740.569 8     -1726.781          51.000    22793330.492 8  91779283.640 8     -1323.094          51.000
> 2020 05 16 13 19 30.0000000  0 13        .000000000000
G18  20314974.203 8 106755949.293 8      -346.363          50.000    20314973.922 8  83186477.846 8      -269.890          50.000
G20  23174043.641 7 121780442.843 7      3132.098          47.000    23174044.547 7  94893872.772 7      2440.596          42.000
G21  20664679.148 8 108593692.892 8      -335.941          49.000    20664677.953 8  84618483.331 8      -261.773          49.000
G26  20333980.133 8 106855781.635 8       608.457          49.000    20333982.320 8  83264263.810 8       474.122          49.000
G29  22692408.758 6 119249390.530 6     -2617.613          37.000    22692428.102 6  92921598.328 6     -2039.708          36.000
G31  23109727.109 6 121442414.981 6     -3059.539          38.000    23109725.922 6  94630444.864 6     -2384.056          38.000
R16  19629669.086 7 104858146.592 7     -1693.324          46.000    19629671.133 7  81556351.624 7     -1317.030          45.000
R18  19636184.484 4 104819285.758 4     -1475.477          28.000    19636182.883 4  81526092.101 4     -1147.599          27.000
C05  39626585.219 5 206346027.466 5        10.215          35.000    39626586.180 5 159559840.640 5         7.853          35.000
C30  21525598.047 8 112089551.036 8      -235.590          51.000
E02                                                                  27729996.750 5 111657208.792 5     -2356.187          32.000
E15  23508365.672 8 123537290.290 8      1224.723          51.000    23508368.836 8  94658521.039 8       938.466          51.000
E30  22803187.438 8 119831545.930 8     -1735.250          51.000    22803188.539 8  91818978.645 8     -1329.562          51.000
> 2020 05 16 13 20  0.0000000  0 13        .000000000000
G18  20317003.359 8 106766612.715 8      -354.578          51.000    20317003.281 8  83194787.020 8      -276.295          50.000
G20  23156180.203 7 121686569.050 7      3136.012          47.000    23156179.570 6  94820724.416 6      2443.649          41.000
G21  20666639.914 8 108603996.664 8      -341.059          50.000    20666638.711 8  84626512.249 8      -265.760          50.000
G26  20330552.859 8 106837771.355 8       602.086          50.000    20330555.070 8  83250229.822 8       469.158          50.000
G31  23127215.516 5 121534322.449 5     -3057.613          32.000    23127216.656 5  94702061.121 5     -2382.553          31.000
R16  19639248.930 7 104909318.775 7     -1708.051          47.000    19639250.875 7  81596152.229 7     -1328.484          44.000
R18  19644509.742 5 104863724.605 5     -1478.465          32.000    19644510.797 4  81560689.306 4     -1149.923          26.000
C05  39626528.289 6 206345730.530 6        19.480          36.000    39626529.438 5 159559611.789 5        15.257          35.000
C29  23710806.883 5 123468378.209 5      2226.742          30.000
C30  21526981.148 8 112096755.515 8      -234.887          51.000
E02                                                                  27747559.180 5 111727926.459 5     -2350.937          33.000
E15  23501402.281 8 123500697.127 8      1224.738          51.000    23501405.359 8  94630482.117 8       938.493          51.000
E30  22813125.805 8 119883771.484 8     -1736.480          51.000    22813126.750 8  91858995.604 8     -1330.547          51.000
> 2020 05 16 13 20 30.0000000  0 15        .000000000000
G18  20319104.219 8 106777652.885 8      -382.605          51.000    20319104.070 8  83203389.735 8      -298.134          50.000
G20  23138320.492 7 121592715.389 7      3119.762          45.000    23138318.078 6  94747591.755 6      2430.986          40.000
G21  20668654.211 8 108614581.442 8      -365.812          50.000    20668652.898 8  84634760.132 8      -285.049          50.000
G26  20327186.461 8 106820080.915 8       576.086          50.000    20327188.594 8  83236445.062 8       448.898          50.000
G31  23144714.742 6 121626288.564 6     -3074.457          36.000    23144720.664 5  94773723.053 5     -2395.678          35.000
R16  19648935.164 7 104961061.013 7     -1742.500          44.000    19648937.133 7  81636396.192 7     -1355.278          44.000
R17  22707960.523 5 121514885.161 5     -3531.406          31.000    22707967.828 4  94511593.414 4     -2746.652          28.000
R18  19652880.531 5 104908409.642 5     -1501.672          34.000    19652874.055 3  81595404.478 3     -1167.967          23.000
C05  39626439.594 5 206345269.054 5         9.809          35.000    39626440.938 5 159559255.334 5         7.766          35.000
C27  24041843.969 5 125192175.391 5     -2505.305          31.000
C29  23698008.875 6 123401778.222 6      2211.492          37.000
C30  21528385.016 8 112104065.101 8      -253.629          51.000
E02                                                                  27765103.844 5 111798578.263 5     -2360.123          35.000
E15  23494462.219 8 123464227.828 8      1205.414          51.000    23494465.328 8  94602538.118 8       923.674          51.000
E30  22823095.008 8 119936160.929 8     -1757.191          51.000    22823096.359 8  91899138.142 8     -1346.407          51.000
> 2020 05 16 13 21  0.0000000  0 14        .000000000000
G18  20321341.445 8 106789409.959 8      -396.738          51.000    20321341.383 8  83212551.092 8      -309.144          51.000
G20  23120530.039 7 121499226.150 7      3117.480          45.000    23120526.352 6  94674743.072 6      2429.209          39.000
G21  20670786.586 8 108625786.951 8      -376.555          51.000    20670785.172 8  84643491.701 8      -293.419          49.000
G26  20323946.188 8 106803052.704 8       563.785          51.000    20323948.164 8  83223176.328 8       439.313          50.000
G31  23162290.891 6 121718651.832 6     -3078.504          40.000    23162302.195 6  94845694.431 6     -2398.837          39.000
R16  19658792.070 7 105013718.301 7     -1763.043          45.000    19658794.641 7  81677351.828 7     -1371.256          43.000
R17  22727766.781 4 121620855.913 4     -3528.066          29.000    22727770.922 5  94594014.964 5     -2744.058          31.000
R18  19661360.031 6 104953665.102 6     -1510.547          37.000    19661354.719 4  81630608.042 4     -1174.873          29.000
C05  39626384.281 5 206344980.692 5        13.723          35.000    39626385.602 5 159559032.744 5        10.611          35.000
C29  23685283.383 6 123335530.751 6      2209.211          36.000
C30  21529873.758 8 112111817.265 8      -258.617          51.000
E02                                                                  27782696.570 6 111869418.753 6     -2359.048          37.000
E15  23487610.516 8 123428223.527 8      1199.637          51.000    23487613.625 8  94574950.423 8       919.193          51.000
E30  22833160.164 8 119989054.908 8     -1764.348          51.000    22833162.141 8  91939667.266 8     -1351.888          51.000
> 2020 05 16 13 21 30.0000000  0 13        .000000000000
G18  20323680.727 8 106801703.181 8      -415.660          51.000    20323681.000 8  83222130.224 8      -323.891          51.000
G20  23102775.539 7 121405924.579 7      3110.090          46.000    23102771.359 6  94602040.608 6      2423.447          37.000
G21  20673002.695 8 108637432.661 8      -392.430          50.000    20673001.172 8  84652566.271 8      -305.789          49.000
G26  20320797.977 8 106786508.051 8       546.574          51.000    20320799.844 8  83210284.386 8       425.902          51.000
G31  23179908.406 7 121811229.540 7     -3086.500          43.000    23179924.508 6  94917832.869 6     -2405.062          40.000
R16  19668785.320 7 105067105.694 7     -1788.641          44.000    19668788.578 7  81718875.337 7     -1391.165          43.000
R18  19669908.945 6 104999306.333 6     -1524.762          37.000    19669915.289 5  81666106.857 5     -1185.923          35.000
C05  39626328.023 5 206344687.793 5        12.680          35.000    39626329.367 5 159558806.217 5        10.276          35.000
C27  24070734.961 5 125342659.056 5     -2508.691          30.000
C29  23672590.164 5 123269457.883 5      2202.691          33.000
C30  21531412.781 8 112119833.174 8      -268.586          51.000
E15  23480813.297 8 123392504.327 8      1188.938          51.000    23480816.156 8  94547581.166 8       911.016          51.000
E30  22843287.062 8 120042272.968 8     -1776.258          51.000    22843289.312 8  91980444.744 8     -1361.068          51.000
> 2020 05 16 13 22  0.0000000  0 13        .000000000000
G18  20326116.633 8 106814504.311 8      -438.629          51.000    20326117.000 8  83232105.123 8      -341.789          51.000
G20  23085052.039 7 121312786.327 7      3098.434          47.000    23085048.250 6  94529465.397 6      2414.367          39.000
G21  20675297.000 8 108649489.819 8      -412.168          50.000    20675295.633 8  84661961.475 8      -321.170          49.000
G26  20317736.703 8 106770420.878 8       525.176          51.000    20317738.648 8  83197748.925 8       409.228          51.000
G31  23197561.070 6 121903991.681 6     -3098.539          41.000    23197583.055 6  94990115.040 6     -2414.446          38.000
R16  19678910.047 7 105121193.940 7     -1817.898          45.000    19678913.836 7  81760943.933 7     -1413.924          43.000
R18  19678526.047 6 105045303.044 6     -1542.594          38.000    19678537.188 6  81701882.076 6     -1199.795          36.000
C05  39626265.586 5 206344362.828 5         8.098          35.000    39626267.047 6 159558554.964 6         6.026          36.000
C29  23659924.688 5 123203532.939 5      2192.027          31.000
C30  21532997.406 8 112128085.182 8      -282.430          51.000
E13  27440430.383 7 144200432.240 7      2701.395          43.000    27440433.305 6 110491258.634 6      2069.813          39.000
E15  23474065.281 8 123357042.894 8      1174.305          51.000    23474067.891 8  94520409.410 8       899.765          51.000
E30  22853470.375 8 120095787.281 8     -1792.176          51.000    22853472.555 8  92021449.219 8     -1373.244          51.000
> 2020 05 16 13 22 30.0000000  0 14        .000000000000
G18  20328640.281 8 106827766.366 8      -452.430          51.000    20328640.516 8  83242439.189 8      -352.543          51.000
G20  23067351.477 8 121219768.245 8      3095.801          48.000    23067348.281 6  94456983.806 6      2412.312          40.000
G21  20677660.594 8 108661911.206 8      -422.730          50.000    20677659.258 8  84671640.480 8      -329.400          49.000
G26  20314753.906 8 106754746.439 8       512.910          51.000    20314755.984 8  83185535.073 8       399.667          51.000
G31  23215239.367 6 121996889.489 6     -3101.203          40.000    23215267.188 6  95062502.933 6     -2416.519          36.000
R16  19689157.625 7 105175934.940 7     -1838.289          47.000    19689161.531 7  81803520.219 7     -1429.780          44.000
R17  22787165.844 5 121938650.474 5     -3532.562          35.000    22787167.836 5  94841196.769 5     -2747.552          32.000
R18  19687199.203 5 105091606.657 5     -1551.113          35.000    19687208.445 5  81737895.979 5     -1206.421          32.000
C05  39626188.352 5 206343960.493 5        11.805          35.000    39626189.680 5 159558243.804 5         9.753          35.000
C29  23647282.211 5 123137710.648 5      2189.918          32.000
C30  21534618.820 8 112136527.238 8      -287.195          51.000
E13  27424988.180 7 144119281.263 7      2701.754          44.000    27424988.602 6 110429078.113 6      2070.199          38.000
E15  23467357.383 8 123321793.235 8      1168.820          51.000    23467360.336 8  94493399.927 8       895.620          51.000
E30  22863701.031 8 120149551.330 8     -1798.957          51.000    22863703.281 8  92062645.058 8     -1378.407          51.000
> 2020 05 16 13 23  0.0000000  0 15        .000000000000
G18  20331281.859 8 106841647.952 8      -471.555          51.000    20331282.031 8  83253256.018 8      -367.442          50.000
G20  23049704.820 8 121127032.872 8      3088.074          49.000    23049701.820 6  94384722.487 6      2406.292          41.000
G21  20680123.586 8 108674855.519 8      -438.531          49.000    20680122.086 8  84681726.959 8      -341.713          49.000
G26  20311880.250 8 106739645.446 8       495.465          51.000    20311882.453 8  83173768.063 8       386.077          51.000
G31  23232972.758 6 122090080.000 6     -3109.754          37.000    23233007.023 5  95135118.851 5     -2423.191          35.000
R16  19699557.633 7 105231488.446 7     -1863.707          47.000    19699561.523 7  81846728.483 7     -1449.550          44.000
R17  22806977.102 6 122044660.809 6     -3533.527          36.000    22806978.742 5  94923649.160 5     -2748.302          31.000
R18  19695960.031 6 105138377.027 6     -1564.977          38.000    19695963.258 4  81774272.878 4     -1217.207          29.000
C05  39626126.602 5 206343638.797 5        11.035          35.000    39626127.961 5 159557995.076 5         8.439          35.000
C27  24114189.828 5 125568898.928 5     -2517.531          32.000
C29  23634691.766 5 123072149.467 5      2182.840          31.000
C30  21536306.797 8 112145316.850 8      -297.148          51.000
E13  27409582.773 7 144038324.716 7      2697.004          45.000    27409582.867 6 110367046.528 6      2066.500          41.000
E15  23460720.008 8 123286914.843 8      1158.070          51.000    23460723.680 8  94466674.944 8       887.347          51.000
E30  22874009.047 8 120203724.139 8     -1810.996          50.000    22874011.891 8  92104154.061 8     -1387.598          51.000
> 2020 05 16 13 23 30.0000000  0 14        .000000000000
G18  20334022.266 8 106856048.807 8      -489.562          51.000    20334022.344 8  83264477.471 8      -381.477          51.000
G20  23032093.492 8 121034484.062 8      3080.836          48.000    23032091.383 7  94312606.589 7      2400.651          44.000
G21  20682667.039 8 108688221.986 8      -453.504          49.000    20682665.547 8  84692142.384 8      -353.377          48.000
G26  20309097.062 8 106725019.853 8       478.754          51.000    20309099.602 8  83162371.483 8       373.055          51.000
G31  23250742.719 6 122183460.715 6     -3116.801          37.000    23250781.727 5  95207882.982 5     -2428.676          33.000
R16  19710090.461 7 105287752.068 7     -1888.133          46.000    19710094.469 7  81890489.064 7     -1468.548          44.000
R17  22826787.297 5 122150667.446 5     -3533.746          31.000    22826789.984 5  95006098.758 5     -2748.466          32.000
R18  19704789.820 6 105185511.072 6     -1577.754          36.000    19704791.938 5  81810932.611 5     -1227.145          33.000
C05  39626061.422 5 206343299.562 5        10.727          35.000    39626062.680 5 159557732.756 5         8.310          35.000
C27  24128701.820 5 125644450.892 5     -2520.406          32.000
C30  21538042.516 8 112154355.109 8      -306.273          51.000
E13  27394195.430 7 143957464.038 7      2692.879          45.000    27394195.266 6 110305088.417 6      2063.471          41.000
E15  23454134.797 8 123252308.482 8      1148.141          51.000    23454138.383 8  94440158.393 8       879.729          51.000
E30  22884375.961 8 120258205.855 8     -1822.105          51.000    22884379.594 8  92145899.758 8     -1396.168          51.000
> 2020 05 16 13 24  0.0000000  0 14        .000000000000
G18  20336822.555 8 106870764.421 8      -537.887          51.000    20336822.438 8  83275944.183 8      -419.133          51.000
G20  23014479.312 8 120941921.390 8      3043.520          49.000    23014478.422 7  94240479.869 7      2371.574          45.000
G21  20685252.117 8 108701806.278 8      -498.605          49.000    20685250.398 8  84702727.549 8      -388.524          49.000
G26  20306365.922 8 106710667.371 8       431.652          51.000    20306368.547 8  83151187.719 8       336.352          51.000
G31  23268510.422 6 122276825.467 6     -3154.016          38.000    23268551.789 5  95280818.673 5     -2457.684          33.000
R16  19720716.922 7 105344516.882 7     -1943.387          46.000    19720721.031 7  81934639.450 7     -1511.523          44.000
R18  19713647.758 5 105232799.741 5     -1621.855          35.000    19713653.383 5  81847712.797 5     -1261.437          33.000
C05  39625954.195 5 206342741.215 5       -19.430          35.000    39625955.633 5 159557300.985 5       -14.870          35.000
C27  24143185.977 5 125719859.739 5     -2553.418          30.000
C29  23609579.727 5 122941226.144 5      2140.281          35.000
C30  21539787.297 8 112163439.827 8      -345.352          51.000
E13  27378787.539 7 143876496.492 7      2658.590          45.000    27378787.812 7 110243048.418 7      2037.056          43.000
E15  23447562.609 8 123217770.611 8      1107.934          51.000    23447565.727 8  94413694.319 8       848.972          51.000
E30  22894763.625 8 120312792.413 8     -1863.504          51.000    22894767.492 8  92187725.798 8     -1427.790          51.000
> 2020 05 16 13 24 30.0000000  0 14        .000000000000
G18  20339827.961 8 106886557.598 8      -515.801          51.000    20339827.820 8  83288250.551 8      -401.923          51.000
G20  22997008.328 8 120850111.653 8      3076.242          48.000    22997008.664 7  94168939.853 7      2397.075          47.000
G21  20688023.836 8 108716371.117 8      -473.270          50.000    20688021.664 8  84714076.778 8      -368.781          49.000
G26  20303832.352 8 106697352.938 8       455.074          51.000    20303834.641 8  83140812.840 8       354.603          51.000
G31  23286420.320 6 122370935.337 6     -3120.789          37.000    23286462.367 5  95354150.987 5     -2431.790          33.000
R16  19731582.281 7 105402557.580 7     -1926.777          46.000    19731586.500 7  81979782.183 7     -1498.605          44.000
R17  22866424.742 4 122362856.140 4     -3525.312          29.000    22866435.797 4  95171142.341 4     -2741.910          29.000
R18  19722681.148 6 105281017.161 6     -1594.000          38.000    19722684.180 4  81885215.091 4     -1239.784          29.000
C05  39625950.375 5 206342720.780 5        20.465          35.000    39625951.805 5 159557286.214 5        15.239          35.000
C29  23597147.336 5 122876508.476 5      2173.707          31.000
C30  21541686.125 8 112173327.315 8      -314.598          51.000
E13  27363504.453 7 143796186.630 7      2694.711          44.000    27363505.562 7 110181512.348 7      2064.701          44.000
E15  23441148.352 8 123184064.995 8      1138.246          51.000    23441151.477 8  94387867.955 8       872.154          51.000
E30  22905316.906 8 120368247.062 8     -1834.344          51.000    22905320.750 8  92230217.020 8     -1405.539          51.000
> 2020 05 16 13 25  0.0000000  0 14        .000000000000
G18  20342857.367 8 106902476.923 8      -543.500          51.000    20342857.258 8  83300655.229 8      -423.506          51.000
G20  22979500.539 8 120758107.593 8      3059.246          48.000    22979501.781 8  94097248.399 8      2383.831          48.000
G21  20690801.156 8 108730965.013 8      -497.758          49.000    20690798.523 8  84725448.647 8      -387.863          49.000
G26  20301315.586 8 106684127.358 8       428.562          51.000    20301317.742 8  83130507.195 8       333.945          51.000
G31  23304291.375 6 122464837.353 6     -3137.453          37.000    23304331.258 5  95427321.411 5     -2444.778          34.000
R16  19742505.414 7 105460906.076 7     -1960.910          46.000    19742509.500 7  82025164.349 7     -1525.152          44.000
R17  22886226.328 5 122468809.059 5     -3536.805          32.000    22886236.109 4  95253550.165 4     -2750.848          26.000
R18  19731706.656 5 105329195.216 5     -1615.773          32.000    19731708.531 5  81922686.943 5     -1256.710          31.000
C05  39625869.133 5 206342297.721 5        10.375          35.000    39625870.414 5 159556958.281 5         7.983          35.000
C29  23584674.414 4 122811568.216 4      2157.777          27.000
C30  21543558.188 8 112183075.313 8      -333.301          51.000
E13  27348165.781 7 143715584.791 7      2680.832          44.000    27348167.742 7 110119752.562 7      2054.102          44.000
E15  23434711.656 8 123150241.242 8      1118.695          51.000    23434715.047 8  94361951.066 8       857.155          51.000
E30  22915854.211 8 120423618.858 8     -1855.117          51.000    22915858.195 8  92272644.739 8     -1421.415          51.000
> 2020 05 16 13 25 30.0000000  0 14        .000000000000
G18  20346008.070 8 106919033.797 8      -560.848          51.000    20346007.617 8  83313556.682 8      -437.027          50.000
G20  22962053.594 7 120666424.582 7      3052.484          45.000    22962055.555 7  94025807.115 7      2378.562          45.000
G21  20693681.102 8 108746099.086 8      -511.773          49.000    20693678.320 8  84737241.441 8      -398.784          49.000
G26  20298913.398 8 106671504.214 8       412.340          51.000    20298915.766 8  83120670.977 8       321.304          51.000
G31  23322220.227 6 122559040.727 6     -3143.656          39.000    23322254.406 5  95500726.302 5     -2449.611          31.000
R16  19753583.344 7 105520081.376 7     -1984.746          46.000    19753587.188 7  82071189.564 7     -1543.691          44.000
R17  22906051.000 5 122574876.559 5     -3535.215          33.000    22906058.055 4  95336066.604 4     -2749.615          26.000
R18  19740820.617 5 105377841.818 5     -1628.090          35.000    19740823.242 5  81960531.868 5     -1266.289          30.000
C05  39625807.742 5 206341977.828 5        10.949          35.000    39625809.039 5 159556710.935 5         8.074          35.000
C27  24186891.211 5 125947482.477 5     -2530.609          32.000
C30  21545500.984 8 112193191.030 8      -341.730          51.000
E13  27332869.219 7 143635204.146 7      2677.203          43.000    27332871.984 7 110058162.232 7      2051.456          45.000
E15  23428350.250 8 123116811.742 8      1109.387          51.000    23428353.711 8  94336336.251 8       850.014          51.000
E30  22926472.500 8 120479419.652 8     -1865.508          51.000    22926476.844 8  92315401.161 8     -1429.436          51.000
> 2020 05 16 13 26  0.0000000  0 14        .000000000000
G18  20349272.188 8 106936186.667 8      -587.855          51.000    20349271.680 8  83326922.542 8      -458.069          50.000
G20  22944659.578 6 120575025.341 6      3035.801          41.000    22944663.031 6  93954586.935 6      2365.559          41.000
G21  20696655.914 8 108761731.683 8      -535.523          50.000    20696653.211 8  84749422.697 8      -417.291          50.000
G26  20296618.367 8 106659444.167 8       386.547          51.000    20296620.914 8  83111273.524 8       301.208          51.000
G31  23340198.312 6 122653502.692 6     -3159.465          38.000
R16  19764807.906 7 105580040.270 7     -2017.844          47.000    19764811.273 7  82117824.215 7     -1569.437          44.000
R17  22925887.320 5 122681016.430 5     -3545.078          30.000    22925893.414 4  95418619.293 4     -2757.286          27.000
R18  19750017.844 6 105426935.429 6     -1649.895          37.000    19750016.117 4  81998724.185 4     -1283.257          27.000
C05  39625758.781 5 206341723.155 5         1.398          35.000    39625759.898 5 159556513.204 5         1.112          35.000
C27  24201489.422 4 126023503.003 4     -2541.848          29.000
C30  21547506.531 8 112203633.842 8      -359.574          51.000
E13  27317607.445 6 143555004.945 6      2664.086          41.000    27317610.672 7 109996710.940 7      2041.453          45.000
E15  23422056.156 8 123083735.951 8      1090.535          51.000    23422059.484 8  94310992.472 8       835.584          51.000
E30  22937164.172 8 120535608.352 8     -1885.527          50.000    22937168.617 8  92358454.812 8     -1444.770          51.000
> 2020 05 16 13 26 30.0000000  0 13        .000000000000
G18  20352629.781 8 106953831.015 8      -595.355          51.000    20352629.445 8  83340671.393 8      -463.913          50.000
G20  22927299.000 6 120483809.257 6      3038.566          39.000    22927304.867 6  93883509.434 6      2367.711          39.000
G21  20699705.773 8 108777758.291 8      -539.664          49.000    20699702.977 8  84761910.962 8      -420.517          49.000
G26  20294411.078 8 106647844.900 8       380.000          51.000    20294413.672 8  83102235.126 8       296.104          51.000
G31  23358205.555 6 122748116.790 6     -3155.242          37.000    23358188.992 6  95647890.695 6     -2458.633          36.000
R16  19776158.977 8 105640675.562 8     -2031.332          48.000    19776162.102 7  82164984.952 7     -1579.925          44.000
R18  19759276.008 5 105476357.928 5     -1651.637          34.000    19759279.281 5  82037154.405 5     -1284.603          32.000
C05  39625702.258 5 206341429.298 5        11.410          35.000    39625703.422 5 159556285.940 5         8.974          35.000
C27  24216093.055 5 126099543.327 5     -2534.250          33.000
C30  21549555.039 8 112214300.738 8      -358.328          51.000
E13  27302361.031 6 143474884.506 6      2670.559          40.000    27302364.281 7 109935319.992 7      2046.137          45.000
E15  23415809.844 8 123050910.400 8      1090.969          51.000    23415812.781 8  94285840.454 8       835.946          51.000
E30  22947909.945 8 120592080.936 8     -1886.215          49.000    22947914.031 8  92401725.976 8     -1445.252          50.000
> 2020 05 16 13 27  0.0000000  0 13        .000000000000
G18  20356082.875 8 106971976.327 8      -613.145          51.000    20356082.219 8  83354810.581 8      -477.775          50.000
G20  22909977.852 7 120392789.838 7      3030.746          43.000    22909983.328 6  93812585.188 6      2361.620          40.000
G21  20702832.250 8 108794187.893 8      -554.230          50.000    20702829.516 8  84774713.259 8      -431.868          50.000
G26  20292293.750 8 106636718.040 8       363.215          51.000    20292296.195 8  83093564.843 8       283.025          51.000
G31  23376243.109 5 122842890.983 5     -3162.039          30.000    23376222.188 5  95721740.605 5     -2463.930          32.000
R16  19787638.562 8 105701996.030 8     -2055.285          48.000    19787641.523 7  82212678.622 7     -1598.555          44.000
R18  19768598.031 6 105526117.555 6     -1664.277          39.000    19768604.414 5  82075856.444 5     -1294.438          32.000
C05  39625640.625 5 206341108.278 5        11.805          35.000    39625641.703 5 159556037.361 5         8.745          35.000
C29  23535235.688 5 122554130.343 5      2134.914          31.000
C30  21551648.406 8 112225201.583 8      -367.094          51.000
E13  27287132.094 7 143394854.052 7      2666.469          42.000    27287135.188 7 109873997.985 7      2043.102          45.000
E15  23409613.359 8 123018345.522 8      1081.301          51.000    23409615.938 8  94260888.185 8       828.550          51.000
E30  22958711.914 8 120648847.320 8     -1896.914          50.000    22958715.406 8  92445222.264 8     -1453.447          50.000
> 2020 05 16 13 27 30.0000000  0 14        .000000000000
G18  20359632.188 8 106990627.946 8      -630.367          51.000    20359631.531 8  83369344.335 8      -491.192          51.000
G20  22892697.609 7 120301977.001 7      3023.445          45.000    22892700.500 6  93741821.972 6      2355.934          39.000
G21  20706036.625 8 108811026.073 8      -568.199          50.000    20706034.094 8  84787833.923 8      -442.753          50.000
G26  20290267.719 8 106626071.205 8       346.742          51.000    20290269.992 8  83085268.608 8       270.189          51.000
R15  23200226.656 5 123974977.882 5     -4507.984          32.000    23200235.211 5  96424998.038 5     -3506.210          33.000
R16  19799247.281 7 105764006.204 7     -2078.578          47.000    19799249.977 7  82260908.749 7     -1616.675          44.000
R18  19777983.570 5 105576219.258 5     -1675.816          35.000    19777983.320 4  82114824.338 4     -1303.413          29.000
C05  39625574.789 5 206340766.259 5        11.418          35.000    39625575.891 5 159555772.473 5         8.678          35.000
C27  24245288.742 5 126251581.138 5     -2538.375          32.000
C29  23522953.164 5 122490194.558 5      2128.770          35.000
C30  21553787.875 8 112236342.340 8      -375.492          51.000
E13  27271921.477 7 143314920.829 7      2662.508          44.000    27271924.969 7 109812750.494 7      2040.100          46.000
E15  23403467.742 8 122986047.820 8      1071.961          51.000    23403470.148 8  94236140.623 8       821.379          51.000
E30  22969571.445 8 120705913.449 8     -1907.379          51.000    22969574.367 8  92488948.232 8     -1461.543          51.000
> 2020 05 16 13 28  0.0000000  0 13        .000000000000
G18  20363286.648 8 107009831.973 8      -649.871          51.000    20363286.266 8  83384308.507 8      -506.393          51.000
G20  22875466.453 7 120211420.420 7      3013.688          44.000    22875466.945 6  93671258.479 6      2348.331          37.000
G21  20709327.367 8 108828318.881 8      -584.578          49.000    20709324.859 8  84801308.828 8      -455.515          49.000
G26  20288342.195 8 106615952.662 8       327.879          51.000    20288344.445 8  83077384.029 8       255.490          51.000
R15  23225559.938 5 124110331.924 5     -4514.754          35.000    23225564.562 5  96530273.309 5     -3511.478          32.000
R16  19810993.477 7 105826751.825 7     -2104.242          47.000    19810996.117 7  82309710.866 7     -1636.633          44.000
R18  19787442.039 6 105626708.503 6     -1689.621          38.000    19787446.422 5  82154093.777 5     -1314.150          34.000
C05  39625513.914 5 206340448.581 5         9.609          35.000    39625515.102 5 159555527.581 5         7.316          35.000
C29  23510714.500 6 122426453.044 6      2120.934          37.000
C30  21555982.398 8 112247769.156 8      -386.180          51.000
E13  27256738.281 7 143235132.674 7      2656.621          45.000    27256742.602 7 109751614.166 7      2035.575          46.000
E15  23397381.820 8 122954064.417 8      1060.254          51.000    23397384.156 8  94211633.863 8       812.435          51.000
E30  22980497.242 8 120763325.858 8     -1920.105          51.000    22980500.000 8  92532939.519 8     -1471.253          51.000
> 2020 05 16 13 28 30.0000000  0 14        .000000000000
G18  20367040.758 8 107029560.526 8      -666.129          50.000    20367040.492 8  83399681.408 8      -519.061          50.000
G20  22858279.266 7 120121096.737 7      3007.094          44.000    22858278.172 6  93600876.410 6      2343.190          38.000
G21  20712699.125 8 108846038.078 8      -597.602          48.000    20712696.664 8  84815115.996 8      -465.664          48.000
G26  20286512.297 8 106606336.742 8       312.473          51.000    20286514.672 8  83069891.095 8       243.485          51.000
R15  23250918.836 5 124245817.302 5     -4517.770          33.000    23250917.766 5  96635650.735 5     -3513.824          31.000
R16  19822871.648 7 105890203.516 7     -2126.656          45.000    19822874.289 7  82359062.163 7     -1654.066          44.000
R18  19796968.180 6 105677556.339 6     -1700.539          39.000    19796976.578 5  82193642.181 5     -1322.641          33.000
C05  39625452.922 5 206340131.278 5        11.238          35.000    39625454.211 5 159555282.241 5         8.445          35.000
C27  24274607.672 5 126404252.361 5     -2543.773          34.000
C29  23498509.672 5 122362893.603 5      2115.531          34.000
C30  21558226.734 8 112259455.082 8      -393.594          51.000
E13  27241577.625 7 143155463.603 7      2653.969          46.000    27241583.070 7 109690569.091 7      2033.563          47.000
E15  23391350.273 8 122922368.481 8      1051.938          51.000    23391353.000 8  94187347.369 8       806.102          51.000
E30  22991483.883 8 120821057.195 8     -1929.453          51.000    22991486.531 8  92577175.187 8     -1478.319          51.000
> 2020 05 16 13 29  0.0000000  0 15        .000000000000
G18  20370887.227 8 107049774.309 8      -679.941          50.000    20370887.172 8  83415432.402 8      -529.824          51.000
G20  22841129.086 7 120030970.931 7      3002.949          45.000    22841127.883 6  93530648.572 6      2339.963          39.000
G21  20716144.797 8 108864144.778 8      -608.062          49.000    20716142.555 8  84829225.111 8      -473.815          49.000
G26  20284771.016 8 106597186.363 8       299.203          51.000    20284773.484 8  83062760.927 8       233.145          51.000
R15  23276281.234 5 124381398.950 5     -4518.445          32.000    23276286.453 5  96741082.540 5     -3514.346          31.000
R16  19834873.570 7 105954320.360 7     -2146.480          43.000    19834876.789 7  82408930.795 7     -1669.485          43.000
R17  23044826.117 4 123317472.585 4     -3532.738          28.000    23044829.539 4  95913638.014 4     -2747.685          27.000
R18  19806553.859 5 105728721.608 5     -1709.051          33.000    19806544.039 4  82233436.764 4     -1329.262          26.000
C05  39625384.602 5 206339774.868 5        14.512          35.000    39625385.898 5 159555007.387 5        11.140          34.000
C27  24289263.852 5 126480577.637 5     -2542.000          34.000
C29  23486335.141 5 122299478.654 5      2113.273          31.000
C30  21560513.383 8 112271361.744 8      -398.645          51.000
E13  27226432.578 7 143075876.212 7      2653.590          47.000    27226439.008 7 109629586.589 7      2033.261          47.000
E15  23385365.750 8 122890921.776 8      1046.016          51.000    23385369.227 8  94163251.852 8       801.543          51.000
E30  23002523.820 8 120879068.666 8     -1936.434          51.000    23002526.156 8  92621625.515 8     -1483.731          51.000
> 2020 05 16 13 29 30.0000000  0 12        .000000000000
G18  20374853.555 8 107070617.761 8      -705.055          51.000    20374853.812 8  83431674.043 8      -549.393          51.000
G20  22824044.781 7 119941191.345 7      2987.109          47.000    22824043.875 6  93460690.456 6      2327.618          41.000
G21  20719691.508 8 108882782.859 8      -629.758          49.000    20719689.430 8  84843748.293 8      -490.720          49.000
G26  20283146.188 8 106588648.126 8       274.672          51.000    20283148.758 8  83056107.744 8       214.030          51.000
R15  23301698.336 5 124517207.334 5     -4530.559          32.000    23301703.297 5  96846711.133 5     -3523.774          33.000
R16  19847027.617 7 106019247.987 7     -2177.266          44.000    19847031.016 7  82459430.048 7     -1693.429          43.000
R18  19816225.914 6 105780349.983 6     -1728.680          36.000    19816229.250 5  82273586.644 5     -1344.529          33.000
C05  39625336.773 5 206339525.606 5         6.398          35.000    39625337.852 5 159554814.634 5         5.011          34.000
C30  21562869.781 8 112283632.859 8      -414.809          51.000
E13  27211331.055 7 142996516.780 7      2641.758          47.000    27211338.031 7 109568778.763 7      2024.111          47.000
E15  23379456.367 8 122859869.815 8      1028.746          51.000    23379460.383 8  94139458.798 8       788.233          51.000
E30  23013644.359 8 120937505.184 8     -1954.691          51.000    23013646.703 8  92666401.525 8     -1497.834          51.000
> 2020 05 16 13 30  0.0000000  0 16        .000000000000
G18  20378890.820 8 107091833.863 8      -716.148          51.000    20378891.148 8  83448206.072 8      -558.038          50.000
G20  22806978.344 7 119851505.366 7      2985.191          47.000    22806978.047 7  93390805.316 7      2326.126          42.000
G21  20723290.516 8 108901695.388 8      -637.660          50.000    20723288.414 8  84858485.323 8      -496.878          50.000
G26  20281589.336 8 106580467.286 8       263.977          51.000    20281592.117 8  83049733.053 8       205.696          51.000
G29  23011157.195 5 120924449.300 5     -2697.574          34.000
G31  23485164.445 5 123415375.212 5     -3195.457          33.000    23485163.602 5  96167805.674 5     -2489.967          32.000
R15  23327105.625 5 124652986.153 5     -4528.113          32.000    23327110.977 5  96952316.634 5     -3521.875          32.000
R16  19859285.000 7 106084724.274 7     -2194.438          46.000    19859288.195 7  82510356.056 7     -1706.785          42.000
R18  19825935.906 5 105832179.705 5     -1734.145          32.000    19825944.445 5  82313898.665 5     -1348.776          35.000
C05  39625260.523 5 206339129.201 5        12.852          35.000    39625261.703 5 159554507.099 5        10.270          35.000
C27  24318609.117 5 126633366.795 5     -2548.906          32.000
C29  23462103.266 5 122173309.879 5      2099.969          34.000
C30  21565247.344 8 112296014.476 8      -417.219          51.000
E13  27196224.508 7 142917130.222 7      2644.004          47.000    27196231.312 7 109507950.160 7      2025.874          47.000
E15  23373573.664 8 122828956.725 8      1025.430          51.000    23373577.508 8  94115772.147 8       785.713          51.000
E30  23024796.812 8 120996110.315 8     -1958.988          51.000    23024799.266 8  92711306.729 8     -1501.013          51.000
> 2020 05 16 13 30 30.0000000  0 15        .000000000000
G18  20383044.938 8 107113663.591 8      -736.391          51.000    20383045.094 8  83465216.238 8      -573.811          51.000
G20  22789976.438 8 119762158.111 8      2974.129          49.000    22789976.320 6  93321184.104 6      2317.506          41.000
G21  20726987.570 8 108921123.349 8      -654.551          50.000    20726985.594 8  84873624.006 8      -510.040          50.000
G26  20280146.805 8 106572886.982 8       244.219          51.000    20280149.742 8  83043826.308 8       190.300          51.000
G31  23503438.367 5 123511401.960 5     -3204.039          35.000    23503438.844 5  96242631.608 5     -2496.657          34.000
R15  23352554.188 5 124788978.144 5     -4534.371          35.000    23352557.344 4  97058099.961 4     -3526.739          28.000
R16  19871691.141 8 106150993.387 8     -2220.531          48.000    19871693.898 7  82561898.688 7     -1727.080          42.000
R18  19835728.242 5 105884454.419 5     -1748.695          31.000    19835737.703 5  82354556.802 5     -1360.099          34.000
C05  39625202.148 5 206338824.751 5        10.242          35.000    39625203.578 5 159554273.962 5         7.826          34.000
C27  24333316.227 5 126709942.329 5     -2553.562          32.000
C29  23450037.625 5 122110496.518 5      2090.609          33.000
C30  21567692.297 8 112308745.988 8      -428.781          51.000
E13  27181159.039 8 142837959.382 8      2636.875          48.000    27181164.953 7 109447286.836 7      2020.579          47.000
E15  23367763.320 8 122798424.561 8      1012.875          51.000    23367767.203 8  94092377.376 8       776.075          51.000
E30  23036027.133 8 121055125.561 8     -1972.574          51.000    23036029.633 8  92756526.184 8     -1511.471          51.000
> 2020 05 16 13 31  0.0000000  0 14        .000000000000
G18  20387314.453 8 107136099.344 8      -754.750          51.000    20387314.672 8  83482698.657 8      -588.117          51.000
G20  22773038.406 8 119673146.298 8      2964.840          49.000    22773038.023 6  93251824.276 6      2310.268          41.000
G21  20730781.172 8 108941058.980 8      -669.629          50.000    20730779.258 8  84889158.270 8      -521.789          50.000
G26  20278817.641 8 106565901.890 8       226.363          51.000    20278820.391 8  83038383.368 8       176.387          50.000
G31  23521759.172 5 123607680.961 5     -3209.863          35.000    23521763.367 5  96317654.072 5     -2501.192          35.000
R15  23378041.812 6 124925173.774 6     -4540.094          36.000    23378046.820 4  97164026.778 4     -3531.190          28.000
R16  19884244.344 8 106218046.252 8     -2244.781          49.000    19884246.328 7  82614050.907 7     -1745.944          42.000
R18  19845603.266 4 105937165.849 4     -1760.566          29.000    19845613.609 5  82395554.568 5     -1369.329          34.000
C05                                                                  39625161.953 5 159554105.937 5         7.168          34.000
C29  23438023.336 4 122047938.257 4      2084.828          29.000
C30  21570203.102 8 112321820.595 8      -438.242          51.000
E13  27166133.391 8 142758998.615 8      2631.863          48.000    27166137.914 7 109386784.501 7      2016.691          47.000
E15  23362023.852 8 122768266.849 8      1002.414          51.000    23362028.375 8  94069269.542 8       768.086          51.000
E30  23047334.008 8 121114543.885 8     -1983.961          51.000    23047336.656 8  92802054.491 8     -1520.166          51.000
> 2020 05 16 13 31 30.0000000  0 15        .000000000000
G18  20391657.773 8 107158923.131 8      -763.695          51.000    20391657.836 8  83500483.434 8      -595.087          51.000
G20  22756123.414 8 119584256.221 8      2964.426          49.000    22756122.656 7  93182559.327 7      2309.942          42.000
G21  20734629.859 8 108961284.308 8      -675.426          51.000    20734627.953 8  84904918.262 8      -526.306          51.000
G26  20277560.758 8 106559296.169 8       217.371          51.000    20277563.328 8  83033236.055 8       169.380          51.000
G31  23540086.250 5 123703992.590 5     -3207.660          35.000    23540093.555 5  96392701.995 5     -2499.475          35.000
R15  23403525.977 5 125061349.026 5     -4535.344          34.000    23403532.133 4  97269956.692 4     -3527.496          29.000
R16  19896902.570 8 106285660.058 8     -2259.531          48.000    19896903.812 6  82666639.399 6     -1757.413          41.000
R18  19855518.227 5 105990094.272 5     -1764.438          31.000    19855520.555 4  82436763.948 4     -1372.337          29.000
C05  39625094.453 5 206338264.449 5        17.039          35.000    39625095.688 5 159553839.421 5        13.224          34.000
C27  24362771.719 5 126863336.233 5     -2551.016          33.000
C29  23426024.875 5 121985450.892 5      2084.863          33.000
C30  21572738.398 8 112335022.900 8      -438.766          51.000
E13  27151106.422 8 142680031.784 8      2635.875          48.000    27151109.703 8 109326277.512 8      2019.693          48.000
E15  23356314.500 8 122738266.729 8      1000.867          51.000    23356319.539 8  94046282.445 8       766.955          51.000
E30  23058676.117 8 121174147.806 8     -1986.336          51.000    23058678.898 8  92847725.010 8     -1522.043          51.000
> 2020 05 16 13 32  0.0000000  0 14        .000000000000
G18  20396096.789 8 107182250.041 8      -788.988          51.000    20396096.562 8  83518660.241 8      -614.796          51.000
G20  22739253.844 8 119495606.957 8      2947.863          48.000    22739252.719 7  93113482.036 7      2297.039          42.000
G21  20738555.539 8 108981914.382 8      -697.438          51.000    20738553.625 8  84920993.642 8      -543.458          51.000
G26  20276398.266 8 106553187.116 8       192.258          51.000    20276401.039 8  83028475.752 8       149.811          51.000
G31  23558441.742 5 123800450.478 5     -3221.031          30.000    23558450.234 5  96467863.829 5     -2509.904          31.000
R16  19909686.812 7 106353950.870 7     -2290.789          47.000    19909687.875 6  82719754.421 6     -1781.725          40.000
R18  19865494.859 5 106043350.325 5     -1784.438          34.000    19865494.508 4  82478158.712 4     -1387.899          26.000
C05  39625025.844 5 206337907.292 5         9.195          35.000    39625027.062 5 159553562.727 5         7.089          35.000
C27  24377508.664 6 126940049.316 6     -2560.887          37.000
C29  23414059.672 5 121923134.807 5      2071.109          32.000
C30  21575320.281 8 112348467.710 8      -455.281          51.000
E13  27136100.539 8 142601175.951 8      2623.582          48.000    27136103.188 8 109265855.579 8      2010.256          49.000
E15  23350657.734 8 122708540.423 8       983.191          51.000    23350662.914 8  94023505.148 8       753.357          51.000
E30  23070075.477 8 121234052.989 8     -2004.977          51.000    23070078.320 8  92893626.372 8     -1536.269          51.000
> 2020 05 16 13 32 30.0000000  0 13        .000000000000
G18  20400638.781 8 107206118.725 8      -796.059          51.000    20400638.664 8  83537259.231 8      -620.305          50.000
G20  22722438.047 7 119407241.652 7      2949.352          46.000    22722437.766 7  93044625.961 7      2298.196          44.000
G21  20742565.562 8 109002987.662 8      -701.254          51.000    20742563.711 8  84937414.383 8      -546.432          51.000
G26  20275338.016 8 106547615.626 8       185.199          51.000    20275340.914 8  83024134.325 8       144.311          51.000
R16  19922604.406 7 106422956.833 7     -2303.508          46.000    19922605.398 6  82773425.653 6     -1791.620          39.000
R18  19875541.227 5 106096974.848 5     -1785.254          31.000    19875549.227 4  82519866.061 4     -1388.537          27.000
C05  39624962.508 5 206337577.795 5        19.496          35.000    39624963.641 5 159553307.043 5        15.091          34.000
C27  24392263.992 5 127016851.743 5     -2552.883          35.000
C29  23402134.492 5 121861029.990 5      2075.320          35.000
C30  21577956.180 8 112362194.031 8      -453.730          51.000
E13  27121123.461 7 142522471.731 7      2629.477          47.000    27121126.133 8 109205549.791 8      2014.848          49.000
E15  23345060.867 8 122679127.715 8       983.656          51.000    23345066.055 8  94000968.141 8       753.770          51.000
E30  23081539.594 8 121294298.647 8     -2005.320          51.000    23081542.328 8  92939788.624 8     -1536.553          51.000
> 2020 05 16 13 33  0.0000000  0 13        .000000000000
G18  20405267.844 8 107230444.766 8      -823.586          51.000    20405267.758 8  83556214.586 8      -641.755          50.000
G20  22705661.094 7 119319080.060 7      2930.234          45.000    22705661.859 7  92975928.640 7      2283.300          44.000
G21  20746643.891 8 109024419.777 8      -725.594          51.000    20746642.242 8  84954114.743 8      -565.398          51.000
G26  20274364.406 8 106542499.411 8       157.707          51.000    20274367.438 8  83020147.668 8       122.889          51.000
R16  19935639.633 7 106492590.760 7     -2336.906          46.000    19935640.352 6  82827585.307 6     -1817.594          40.000
R18  19885639.570 5 106150881.731 5     -1806.703          34.000
C05  39624888.531 5 206337192.211 5         9.219          35.000    39624889.555 5 159553009.286 5         6.621          34.000
C27  24407015.469 5 127093660.659 5     -2565.641          30.000
C29  23390234.664 5 121799054.221 5      2058.441          32.000
C30  21580630.250 8 112376118.920 8      -472.621          51.000
E13  27106159.625 7 142443836.576 7      2614.812          46.000    27106162.648 8 109145296.932 8      2003.546          50.000
E15  23339507.836 8 122649945.287 8       963.699          51.000    23339512.898 8  93978607.589 8       738.455          51.000
E30  23093052.516 8 121354800.892 8     -2026.133          51.000    23093054.680 8  92986147.483 8     -1552.515          51.000
> 2020 05 16 13 33 30.0000000  0 12        .000000000000
G18  20410020.602 8 107255420.962 8      -853.453          51.000    20410020.352 8  83575676.561 8      -665.025          50.000
G20  22688960.281 7 119231319.525 7      2908.504          45.000    22688961.750 7  92907543.836 7      2266.370          43.000
G21  20750827.312 8 109046403.821 8      -751.996          51.000    20750825.758 8  84971245.170 8      -585.971          50.000
G26  20273514.688 8 106538033.534 8       127.980          51.000    20273517.695 8  83016667.750 8        99.722          51.000
R16  19948829.344 7 106563048.118 7     -2372.480          46.000    19948830.242 7  82882385.446 7     -1845.263          42.000
R18  19895828.984 6 106205265.792 6     -1831.000          36.000
C05                                                                  39624842.039 5 159552817.679 5        -3.078          35.000
C27  24421800.867 5 127170733.586 5     -2580.617          33.000
C30  21583379.258 8 112390434.167 8      -493.621          51.000
E13  27091246.219 7 142365465.279 7      2597.871          46.000    27091249.453 8 109085246.227 8      1990.595          50.000
E15  23334035.625 8 122621187.146 8       941.508          51.000    23334040.367 8  93956572.125 8       721.421          51.000
E30  23104650.984 8 121415753.119 8     -2049.305          51.000    23104652.719 8  93032851.136 8     -1570.217          51.000
> 2020 05 16 13 34  0.0000000  0 14        .000000000000
G18  20414881.703 8 107280966.098 8      -854.730          51.000    20414881.258 8  83595581.865 8      -666.024          50.000
G20  22672320.945 7 119143882.894 7      2915.348          44.000    22672323.078 7  92839411.414 7      2271.699          42.000
G21  20755100.164 8 109068858.151 8      -750.016          51.000    20755098.648 8  84988742.049 8      -584.428          51.000
G26  20272773.719 8 106534138.965 8       126.414          51.000    20272776.430 8  83013633.035 8        98.504          51.000
R15  23531273.148 5 125743997.518 5     -4557.277          30.000    23531280.867 4  97800908.129 4     -3544.549          27.000
R16  19962157.484 7 106634244.682 7     -2379.152          46.000    19962159.062 7  82937760.557 7     -1850.452          43.000
R18  19906085.977 4 106260055.124 4     -1826.375          28.000
C05                                                                  39624805.844 5 159552672.158 5         8.920          34.000
C27  24436611.898 5 127247858.556 5     -2566.480          34.000
C29  23366592.969 5 121676009.910 5      2049.008          32.000
C30  21586187.992 8 112405060.078 8      -486.594          51.000
E13  27076368.086 7 142287278.588 7      2609.316          46.000    27076371.336 8 109025336.993 8      1999.334          50.000
E15  23328629.086 8 122592773.259 8       947.594          51.000    23328633.469 8  93934800.442 8       726.054          51.000
E30  23116319.422 8 121477074.713 8     -2043.961          50.000    23116321.633 8  93079837.788 8     -1566.203          51.000
> 2020 05 16 13 34 30.0000000  0 15        .000000000000
G18  20419806.016 8 107306843.198 8      -868.797          51.000    20419805.547 8  83615745.846 8      -676.982          50.000
G20  22655699.352 7 119056537.413 7      2909.172          44.000    22655701.055 7  92771349.998 7      2266.887          42.000
G21  20759417.500 8 109091545.809 8      -760.750          51.000    20759416.008 8  85006420.746 8      -592.792          50.000
G26  20272096.664 8 106530580.977 8       112.242          51.000    20272099.344 8  83010860.573 8        87.461          51.000
G29  23150734.031 5 121657884.249 5     -2727.848          35.000    23150725.953 6  94798345.045 6     -2125.599          36.000
R15  23556866.805 5 125880745.480 5     -4557.312          32.000    23556873.688 4  97907277.449 4     -3544.582          26.000
R16  19975579.008 7 106705938.569 7     -2398.805          47.000    19975580.555 7  82993522.486 7     -1865.734          44.000
R18  19916379.031 5 106315008.962 5     -1834.262          33.000    19916410.727 4  82689563.208 4     -1426.648          27.000
C05  39624734.750 5 206336391.391 5        13.652          35.000    39624736.039 5 159552390.216 5        11.040          34.000
C27  24451400.203 4 127324867.661 4     -2565.820          29.000
C29  23354800.398 5 121614608.460 5      2045.961          32.000
C30  21589011.656 8 112419762.662 8      -492.168          51.000
E13  27061480.484 7 142209041.522 7      2607.977          46.000    27061483.414 8 108965389.186 8      1998.278          49.000
E15  23323243.227 8 122564467.775 8       940.926          51.000    23323247.195 8  93913111.826 8       720.918          51.000
E30  23128013.242 8 121538529.315 8     -2051.562          50.000    23128016.305 8  93126926.326 8     -1571.964          51.000
> 2020 05 16 13 35  0.0000000  0 13        .000000000000
G18  20424878.453 8 107333498.917 8      -888.812          51.000    20424877.742 8  83636516.544 8      -692.581          49.000
G20  22639181.641 7 118969734.242 7      2897.098          46.000    22639181.867 6  92703711.179 6      2257.482          40.000
G21  20763864.227 8 109114913.538 8      -777.582          51.000    20763862.805 8  85024629.366 8      -605.908          50.000
G26  20271569.031 8 106527808.377 8        91.980          51.000    20271571.883 8  83008700.095 8        71.673          51.000
R16  19989178.508 7 106778582.659 7     -2424.441          47.000    19989180.047 7  83050023.437 7     -1885.677          44.000
R18  19926782.469 5 106370544.743 5     -1848.938          34.000    19926801.984 4  82732757.305 4     -1438.066          26.000
C05  39624716.320 5 206336295.759 5        11.449          35.000    39624717.883 5 159552317.797 5         8.542          34.000
C27  24466274.250 5 127402263.319 5     -2570.508          33.000
C29  23343097.859 4 121553660.845 4      2037.273          29.000
C30  21591935.133 8 112434985.226 8      -503.629          51.000
E13  27046668.633 7 142131202.726 7      2600.598          46.000    27046671.016 8 108905746.553 8      1992.621          49.000
E15  23317963.055 8 122536718.550 8       928.301          51.000    23317966.508 8  93891849.439 8       711.316          51.000
E30  23139818.141 8 121600564.088 8     -2064.863          51.000    23139821.789 8  93174459.426 8     -1582.141          51.000
> 2020 05 16 13 35 30.0000000  0 12        .000000000000
G18  20429989.367 8 107360356.515 8      -900.789          51.000    20429988.336 8  83657444.538 8      -701.914          50.000
G20  22622658.586 8 118882900.874 8      2892.785          49.000    22622654.836 5  92636048.879 5      2254.121          34.000
G21  20768330.508 8 109138384.531 8      -786.266          51.000    20768329.172 8  85042918.463 8      -612.675          50.000
G26  20271081.594 8 106525246.593 8        79.801          51.000    20271084.555 8  83006703.898 8        62.182          51.000
R16  20002845.461 7 106851589.286 7     -2441.703          46.000    20002847.289 7  83106806.363 7     -1899.102          44.000
R18  19937188.070 5 106426099.326 5     -1853.980          34.000    19937198.695 4  82775884.417 4     -1441.982          29.000
C05  39624640.086 5 206335897.947 5        15.844          35.000
C27  24481063.930 6 127479356.405 6     -2567.488          36.000
C30  21594848.805 8 112450157.124 8      -506.996          51.000
E13  27031823.164 7 142053187.424 7      2601.184          45.000    27031824.859 8 108845968.669 8      1993.082          48.000
E15  23312679.070 8 122508950.045 8       923.754          51.000    23312682.102 8  93870572.282 8       707.716          51.000
E30  23151624.031 8 121662602.904 8     -2070.254          51.000    23151628.078 8  93221995.652 8     -1586.361          51.000
> 2020 05 16 13 36  0.0000000  0 15        .000000000000
G18  20435210.336 8 107387792.673 8      -920.465          51.000    20435209.422 8  83678823.381 8      -717.245          50.000
G20  22606202.445 8 118796418.563 8      2880.695          49.000    22606193.773 5  92568660.115 5      2244.701          34.000
G21  20772888.289 8 109162335.625 8      -802.582          51.000    20772886.961 8  85061581.641 8      -625.389          50.000
G26  20270706.414 8 106523274.582 8        59.676          51.000    20270709.266 8  83005167.258 8        46.501          51.000
G29  23197636.430 6 121904377.066 6     -2739.594          36.000    23197632.727 6  94990426.269 6     -2134.748          36.000
G31  23706405.562 4 124578014.875 4     -3254.477          28.000    23706405.891 4  97073767.176 4     -2535.959          29.000
R16  20016651.242 7 106925340.302 7     -2466.898          45.000    20016653.969 7  83164168.252 7     -1918.699          44.000
R18  19947670.359 6 106482054.875 6     -1867.781          39.000    19947678.422 4  82819405.411 4     -1452.722          28.000
C05                                                                  39624579.758 5 159551761.591 5        10.173          34.000
C27  24495887.273 6 127556580.012 6     -2572.430          37.000
C29  23319692.242 5 121431774.304 5      2026.359          33.000
C30  21597824.633 8 112465652.483 8      -518.148          51.000
E13  27017015.859 7 141975374.410 7      2594.094          43.000    27017017.156 8 108786345.761 8      1987.757          48.000
E15  23307463.367 8 122481540.188 8       911.469          51.000    23307465.961 8  93849569.922 8       698.455          51.000
E30  23163502.336 8 121725023.029 8     -2083.238          51.000    23163506.695 8  93269824.055 8     -1596.245          51.000
> 2020 05 16 13 36 30.0000000  0 14        .000000000000
G18  20440522.578 8 107415708.514 8      -940.941          51.000    20440521.570 8  83700575.992 8      -733.198          49.000
G20  22589794.945 8 118710192.646 8      2867.449          50.000    22589786.133 6  92501471.180 6      2234.379          36.000
G21  20777518.523 8 109186667.745 8      -819.828          51.000    20777517.383 8  85080541.753 8      -638.824          50.000
G26  20270425.062 8 106521795.613 8        38.676          51.000    20270427.828 8  83004014.816 8        30.137          51.000
G29  23213298.180 5 121986674.057 5     -2747.316          34.000    23213295.344 5  95054553.709 5     -2140.772          34.000
R16  20030577.297 7 106999733.854 7     -2492.926          45.000    20030580.641 7  83222029.858 7     -1938.945          44.000
R18  19958208.656 6 106538310.049 6     -1882.672          36.000    19958205.609 4  82863091.891 4     -1464.303          25.000
C05  39624511.641 5 206335228.938 5         9.844          35.000    39624513.219 5 159551494.140 5         7.373          34.000
C27  24510723.586 5 127633836.992 5     -2577.902          33.000
C29  23308047.828 5 121371132.242 5      2016.680          34.000
C30  21600843.930 8 112481374.108 8      -530.254          51.000
E13  27002227.242 6 141897666.845 6      2585.906          37.000    27002229.562 8 108726803.625 8      1981.504          48.000
E15  23302297.125 8 122454391.261 8       898.199          51.000    23302299.430 8  93828767.517 8       688.180          51.000
E30  23175434.086 8 121787726.261 8     -2097.230          50.000    23175438.711 8  93317869.375 8     -1607.011          51.000
> 2020 05 16 13 37  0.0000000  0 13        .000000000000
G18  20445972.719 8 107444349.364 8      -956.699          51.000    20445971.516 8  83722893.517 8      -745.480          49.000
G20  22573483.320 8 118624472.682 8      2858.809          48.000    22573476.570 6  92434676.455 6      2227.643          39.000
G21  20782267.930 8 109211626.051 8      -832.320          51.000    20782266.781 8  85099989.784 8      -648.561          50.000
G26  20270284.445 8 106521057.221 8        22.305          51.000    20270287.195 8  83003439.418 8        17.377          51.000
R16  20044670.930 7 107075018.167 7     -2514.105          47.000    20044673.797 7  83280584.284 7     -1955.418          43.000
R18  19968849.516 6 106595113.399 6     -1892.301          36.000
C05  39624487.859 6 206335105.744 6        10.293          36.000    39624489.383 5 159551398.090 5         7.887          34.000
C27  24525617.227 5 127711371.197 5     -2579.262          30.000
C29  23296480.023 5 121310897.521 5      2011.227          33.000
C30  21603953.492 8 112497565.956 8      -537.645          51.000
E13  26987504.047 5 141820291.993 5      2582.590          31.000    26987509.242 8 108667531.744 8      1978.927          48.000
E15  23297226.867 8 122427749.778 8       889.617          51.000    23297229.461 8  93808353.933 8       681.688          51.000
E30  23187466.008 8 121850958.494 8     -2106.523          48.000    23187471.039 8  93366320.020 8     -1614.018          51.000
> 2020 05 16 13 37 30.0000000  0 14        .000000000000
G18  20451479.250 8 107473286.863 8      -973.730          50.000    20451478.336 8  83745442.212 8      -758.751          49.000
G20  22557186.664 7 118538834.758 7      2848.949          47.000    22557182.680 7  92367945.656 7      2219.963          43.000
G21  20787054.984 8 109236782.550 8      -846.055          49.000    20787053.914 8  85119592.242 8      -659.263          49.000
G26  20270203.703 8 106520633.195 8         4.688          51.000    20270206.188 8  83003108.992 8         3.653          51.000
G31  23762334.484 5 124871921.283 5     -3271.531          33.000    23762339.992 5  97302793.837 5     -2549.245          32.000
R16  20058849.875 7 107150756.569 7     -2536.496          47.000    20058851.930 7  83339491.916 7     -1972.830          43.000
R18  19979512.609 6 106652029.243 6     -1903.156          38.000
C05  39624425.445 5 206334780.308 5         9.961          35.000    39624426.945 5 159551146.414 5         7.733          34.000
C27  24540482.320 4 127788729.402 4     -2581.020          29.000
C29  23284907.680 4 121250623.957 4      2003.215          28.000
C30  21607071.922 8 112513804.407 8      -546.238          51.000
E13                                                                  26972775.125 8 108608203.452 8      1975.306          49.000
E15  23292172.070 8 122401188.640 8       879.727          51.000    23292174.930 8  93788001.894 8       674.091          51.000
E30  23199517.453 8 121914291.976 8     -2117.062          49.000    23199522.500 8  93414848.245 8     -1622.198          51.000
> 2020 05 16 13 38  0.0000000  0 14        .000000000000
G18  20457092.844 8 107502787.557 8      -971.016          50.000    20457092.188 8  83768429.764 8      -756.639          49.000
G20  22540956.953 8 118453549.971 8      2858.668          48.000    22540955.266 7  92301490.016 7      2227.533          44.000
G21  20791930.312 8 109262403.853 8      -840.016          49.000    20791929.625 8  85139556.898 8      -654.558          49.000
G26  20270234.031 8 106520792.306 8         6.785          51.000    20270236.312 8  83003232.963 8         5.287          51.000
G29  23260464.188 6 122234539.064 6     -2737.586          38.000
G31  23781034.312 5 124970159.952 5     -3256.672          33.000    23781033.992 5  97379343.412 5     -2537.669          33.000
R16  20073164.242 8 107227218.655 8     -2538.625          48.000    20073166.078 7  83398962.413 7     -1974.486          44.000
R18  19990247.023 5 106709327.720 5     -1894.414          33.000
C05  39624375.344 5 206334519.413 5        29.367          35.000
C27  24555366.508 5 127866235.346 5     -2563.922          33.000
C30  21610250.219 8 112530354.503 8      -535.242          51.000
E13  26958075.508 6 141665640.187 6      2593.012          37.000    26958078.266 8 108549024.611 8      1986.784          49.000
E15  23287183.828 8 122374975.648 8       889.770          51.000    23287186.906 8  93767916.603 8       681.759          51.000
E30  23211639.539 8 121977993.911 8     -2107.695          50.000    23211644.148 8  93463658.797 8     -1615.017          51.000
> 2020 05 16 13 38 30.0000000  0 14        .000000000000
G18  20462766.828 8 107532605.460 8     -1015.395          50.000    20462766.352 8  83791664.471 8      -791.217          49.000
G20  22524748.648 8 118368376.428 8      2821.164          48.000    22524748.320 7  92235121.047 7      2198.313          45.000
G21  20796847.312 8 109288243.824 8      -881.070          48.000    20796846.773 8  85159691.924 8      -686.548          48.000
G26  20270328.906 8 106521290.737 8       -38.301          51.000    20270330.883 8  83003621.334 8       -29.845          51.000
G29  23276181.742 5 122317160.207 5     -2768.984          30.000    23276164.883 4  95312012.254 4     -2157.644          24.000
G31  23799721.789 5 125068340.309 5     -3287.801          31.000    23799715.750 5  97455847.520 5     -2561.929          31.000
R16  20087566.844 8 107304153.218 8     -2588.695          48.000    20087569.094 7  83458800.374 7     -2013.433          44.000
R18  20001004.531 6 106766757.904 6     -1932.926          36.000
C05  39624291.109 5 206334080.801 5         1.684          35.000    39624292.570 5 159550605.487 5         1.682          34.000
C27  24570228.703 5 127943617.374 5     -2591.469          30.000
C30  21613441.648 8 112546973.380 8      -570.859          51.000
E13  26943369.586 7 141588357.795 7      2560.891          42.000    26943372.164 8 108489808.286 8      1962.367          49.000
E15  23282215.172 8 122348866.004 8       852.543          51.000    23282218.711 8  93747910.518 8       653.406          51.000
E30  23223785.719 8 122041818.939 8     -2145.531          51.000    23223789.391 8  93512563.655 8     -1643.865          51.000
> 2020 05 16 13 39  0.0000000  0 14        .000000000000
G18  20468571.797 8 107563111.259 8     -1022.270          51.000    20468571.703 8  83815435.212 8      -796.574          49.000
G20  22508633.055 8 118283689.505 8      2820.773          48.000    22508633.320 7  92169131.239 7      2198.005          46.000
G21  20801876.508 7 109314673.302 7      -884.648          47.000    20801875.992 8  85180286.298 8      -689.336          48.000
G26  20270559.242 8 106522501.407 8       -46.121          51.000    20270560.852 8  83004564.695 8       -35.942          51.000
G29  23291956.258 5 122400061.404 5     -2762.688          32.000
G31  23818466.312 6 125166873.771 6     -3282.098          37.000    23818456.969 6  97532594.706 6     -2557.485          38.000
R16  20102127.531 7 107381935.526 7     -2600.551          46.000    20102130.484 7  83519297.688 7     -2022.651          44.000
R18  20011859.617 6 106824696.650 6     -1933.480          36.000    20011865.820 4  83085866.311 4     -1503.821          29.000
C05  39624243.438 5 206333832.375 5        10.980          35.000    39624245.117 5 159550414.140 5         8.917          34.000
C27  24585141.570 4 128021281.010 4     -2585.836          29.000
C30  21616716.945 8 112564029.325 8      -569.746          51.000
E13  26928724.742 7 141511399.279 7      2566.094          43.000    26928727.578 8 108430840.135 8      1966.150          49.000
E15  23277337.031 8 122323231.749 8       852.680          51.000    23277340.758 8  93728268.688 8       653.364          51.000
E30  23236026.266 8 122106138.436 8     -2146.121          51.000    23236029.258 8  93561847.402 8     -1644.404          51.000
> 2020 05 16 13 39 30.0000000  0 14        .000000000000
G18  20474491.469 8 107594219.224 8     -1060.527          51.000    20474491.367 8  83839675.182 8      -826.385          50.000
G20  22492594.297 7 118199407.842 7      2789.012          46.000    22492595.195 7  92103457.212 7      2173.256          46.000
G21  20807001.656 7 109341606.626 7      -919.727          47.000    20807001.219 7  85201273.300 7      -716.670          47.000
G26  20270909.156 8 106524340.684 8       -85.238          51.000    20270910.617 8  83005997.881 8       -66.419          51.000
G31  23837253.906 6 125265590.723 6     -3307.699          39.000    23837240.781 6  97609516.899 6     -2577.434          39.000
R16  20116830.039 7 107460477.232 7     -2644.406          45.000    20116833.992 7  83580385.645 7     -2056.760          44.000
R18  20022792.516 5 106883055.705 5     -1965.594          32.000    20022803.867 5  83131256.728 5     -1528.795          34.000
C05  39624216.469 5 206333692.593 5       -10.824          35.000    39624218.359 5 159550306.582 5        -8.195          34.000
C27  24600085.078 5 128099066.239 5     -2608.941          31.000
C29  23239029.164 5 121011725.492 5      1959.375          31.000
C30  21620060.078 8 112581438.210 8      -599.559          51.000
E13  26914125.703 7 141434680.949 7      2539.957          42.000    26914128.398 8 108372055.998 8      1946.111          49.000
E15  23272533.430 8 122297988.273 8       821.469          51.000    23272536.734 8  93708926.298 8       629.422          51.000
E30  23248344.492 8 122170867.174 8     -2177.926          51.000    23248347.227 8  93611444.721 8     -1668.767          51.000
> 2020 05 16 13 40  0.0000000  0 12        .000000000000
G18  20480504.258 8 107625816.661 8     -1058.859          51.000    20480504.172 8  83864296.556 8      -825.085          50.000
G20  22476611.547 7 118115423.148 7      2796.812          44.000    22476613.375 7  92038014.601 7      2179.334          44.000
G21  20812201.359 8 109368931.035 8      -914.691          48.000    20812200.891 8  85222565.035 8      -712.747          48.000
G26  20271357.688 8 106526698.089 8       -84.648          51.000    20271359.156 8  83007834.795 8       -65.960          51.000
G31  23856062.156 6 125364418.391 6     -3293.383          39.000    23856045.367 6  97686525.399 6     -2566.275          39.000
R16  20131653.555 7 107539662.381 7     -2647.539          46.000    20131657.617 7  83641974.076 7     -2059.197          43.000
C05  39624189.203 5 206333550.504 5         7.711          35.000    39624190.984 5 159550196.728 5         5.503          34.000
C29  23227670.719 5 120952589.707 5      1970.418          35.000
C30  21623449.867 8 112599089.366 8      -589.848          51.000
E13  26899551.633 7 141358092.205 7      2553.383          42.000    26899553.695 8 108313371.155 8      1956.560          49.000
E15  23267783.156 8 122273024.232 8       830.109          51.000    23267785.766 8  93689798.027 8       636.085          51.000
E30  23260718.977 8 122235893.201 8     -2169.848          51.000    23260721.742 8  93661269.827 8     -1662.599          51.000
> 2020 05 16 13 40 30.0000000  0 13        .000000000000
G18  20486586.688 8 107657779.848 8     -1073.566          51.000    20486586.922 8  83889202.935 8      -836.545          49.000
G20  22460662.641 7 118031616.199 7      2788.652          42.000    22460665.242 7  91972710.467 7      2172.976          43.000
G21  20817451.984 8 109396522.676 8      -926.168          48.000    20817451.234 8  85244064.991 8      -721.689          48.000
G26  20271881.781 8 106529451.989 8      -100.426          51.000    20271883.086 8  83009980.692 8       -78.254          51.000
G31  23874867.227 6 125463231.565 6     -3295.379          39.000    23874848.328 6  97763522.560 6     -2567.828          36.000
R16  20146574.094 7 107619364.007 7     -2667.359          45.000    20146577.336 7  83703964.233 7     -2074.610          42.000
R18  20044807.578 6 107000541.891 6     -1966.312          37.000    20044806.703 5  83222665.068 5     -1529.354          32.000
C05  39624138.242 5 206333285.089 5         8.773          35.000    39624140.031 5 159549991.449 5         6.763          34.000
C29  23216325.289 5 120893517.208 5      1966.023          34.000
C30  21626862.594 8 112616861.129 8      -596.461          51.000
E13  26884979.367 6 141281511.368 6      2550.551          41.000    26884980.414 8 108254692.381 8      1954.303          48.000
E15  23263062.852 8 122248217.111 8       822.301          51.000    23263064.953 8  93670790.000 8       630.060          51.000
E30  23273126.453 8 122301093.357 8     -2178.199          51.000    23273129.500 8  93711228.363 8     -1669.040          51.000
> 2020 05 16 13 41  0.0000000  0 15        .000000000000
G18  20492740.781 8 107690120.006 8     -1072.285          51.000    20492741.172 8  83914403.066 8      -835.547          50.000
G20  22444751.008 7 117948002.340 7      2795.898          43.000    22444753.438 7  91907556.834 7      2178.625          43.000
G21  20822755.523 8 109424393.041 8      -921.566          48.000    20822754.539 8  85265782.161 8      -718.104          48.000
G26  20272483.883 8 106532615.838 8      -100.254          51.000    20272485.148 8  83012446.015 8       -78.120          51.000
G31  23893670.953 6 125562040.560 6     -3281.621          39.000    23893650.797 5  97840516.458 5     -2557.116          34.000
R02  22862728.414 6 121999898.002 6       837.062          37.000    22862731.328 5  94888819.359 5       651.052          33.000
R16  20161593.023 7 107699592.246 7     -2670.816          45.000    20161594.883 6  83766363.985 6     -2077.302          39.000
R18  20055866.352 5 107059575.501 5     -1958.590          34.000    20055868.320 5  83268580.052 5     -1523.348          34.000
C05  39624066.039 6 206332908.961 6        26.492          36.000    39624067.789 5 159549700.599 5        20.458          34.000
C27  24644885.531 5 128332377.037 5     -2577.375          34.000
C29  23204997.688 5 120834520.946 5      1976.840          33.000
C30  21630300.719 8 112634765.576 8      -587.117          51.000
E13  26870410.891 7 141204951.827 7      2563.492          42.000    26870411.320 8 108196029.909 8      1964.300          48.000
E15  23258374.703 8 122223579.441 8       830.375          51.000    23258376.641 8  93651911.792 8       636.249          51.000
E30  23285569.414 8 122366479.582 8     -2170.730          51.000    23285572.812 8  93761329.469 8     -1663.293          51.000
> 2020 05 16 13 41 30.0000000  0 15        .000000000000
G18  20499014.203 8 107723087.404 8     -1118.988          51.000    20499014.406 8  83940091.956 8      -871.939          49.000
G20  22428925.469 7 117864836.644 7      2755.102          44.000    22428926.820 7  91842752.410 7      2146.832          44.000
G21  20828159.859 8 109452792.374 8      -965.121          49.000    20828158.656 8  85287911.493 8      -752.042          49.000
G26  20273211.984 8 106536442.059 8      -148.227          51.000    20273213.305 8  83015427.475 8      -115.501          51.000
G31  23912502.422 6 125661050.091 6     -3315.562          38.000    23912507.250 5  97917705.906 5     -2583.555          34.000
R02  22858192.336 5 121975707.985 5       781.738          35.000    22858199.703 5  94870004.900 5       608.022          33.000
R16  20176758.273 7 107780600.004 7     -2723.156          45.000    20176758.250 6  83829369.969 6     -2118.013          38.000
R18  20067006.930 5 107119053.218 5     -2000.023          34.000    20067013.148 5  83314840.557 5     -1555.571          34.000
C05  39624020.656 5 206332672.925 5        -3.559          35.000    39624022.133 5 159549516.797 5        -3.223          33.000
C27  24659843.289 5 128410266.709 5     -2609.016          30.000
C29  23193733.961 4 120775850.736 4      1940.062          29.000
C30  21633812.352 8 112653051.715 8      -625.441          51.000
E13  26855893.977 7 141128665.921 7      2528.629          43.000    26855894.680 8 108137577.123 8      1937.521          48.000
E15  23253766.453 8 122199362.824 8       790.508          51.000    23253768.828 8  93633356.186 8       605.747          51.000
E30  23298095.602 8 122432302.763 8     -2211.016          51.000    23298099.016 8  93811765.371 8     -1694.161          51.000
> 2020 05 16 13 42  0.0000000  0 13        .000000000000
G18  20505388.555 8 107756584.727 8     -1120.676          51.000    20505388.734 8  83966193.756 8      -873.254          50.000
G20  22413167.781 7 117782026.101 7      2759.227          46.000    22413168.812 7  91778224.760 7      2150.050          45.000
G21  20833646.281 8 109481623.428 8      -963.375          49.000    20833644.953 8  85310377.248 8      -750.682          48.000
G26  20274048.055 8 106540835.430 8      -151.160          51.000    20274049.312 8  83018850.867 8      -117.787          51.000
G31  23931378.250 6 125760249.516 6     -3304.328          38.000    23931397.359 5  97995003.892 5     -2574.810          35.000
R02  22853801.914 6 121952281.947 6       772.805          37.000    22853809.328 5  94851784.664 5       601.067          31.000
R16  20192050.594 7 107862287.061 7     -2729.305          46.000    20192049.906 6  83892904.279 6     -2122.793          39.000
R18  20078214.469 5 107178875.258 5     -1995.145          34.000    20078221.969 5  83361368.880 5     -1551.776          31.000
C05  39623983.758 6 206332480.600 6        10.477          36.000    39623985.047 5 159549367.173 5         8.004          34.000
C30  21637378.930 8 112671624.055 8      -619.062          51.000
E13  26841410.570 7 141052558.461 7      2538.793          44.000    26841412.312 8 108079261.033 8      1945.252          48.000
E15  23249219.742 8 122175471.177 8       795.773          51.000    23249223.000 8  93615049.584 8       609.722          51.000
E30  23310686.344 8 122498466.236 8     -2206.332          51.000    23310689.531 8  93862462.037 8     -1690.524          51.000
> 2020 05 16 13 42 30.0000000  0 13        .000000000000
G18  20511840.719 8 107790491.219 8     -1139.145          51.000    20511841.031 8  83992614.423 8      -887.645          50.000
G20  22397455.070 7 117699454.278 7      2746.289          45.000    22397456.625 7  91713883.124 7      2139.969          45.000
G21  20839191.938 8 109510765.694 8      -978.711          49.000    20839190.500 8  85333085.507 8      -762.632          49.000
G26  20274969.641 8 106545677.416 8      -171.000          51.000    20274970.859 8  83022623.842 8      -133.247          51.000
G31  23950258.359 6 125859473.117 6     -3309.566          36.000    23950273.117 5  98072320.954 5     -2578.880          30.000
R02  22849533.016 6 121929500.547 6       746.340          36.000    22849539.211 5  94834065.767 5       580.484          30.000
R16  20207446.453 7 107944529.215 7     -2752.746          45.000    20207446.461 6  83956870.347 6     -2141.025          41.000
C05  39623932.750 5 206332214.488 5         8.320          35.000    39623933.727 5 159549160.488 5         6.231          33.000
C27  24689786.195 5 128566194.582 5     -2600.168          34.000
C30  21640977.734 8 112690364.016 8      -629.566          51.000
E13  26826938.805 7 140976510.857 7      2531.820          45.000    26826941.273 7 108020990.821 7      1939.975          47.000
E15  23244712.258 8 122151785.083 8       783.949          51.000    23244715.867 8  93596900.489 8       600.694          51.000
E30  23323318.633 8 122564849.943 8     -2218.609          51.000    23323321.664 8  93913327.459 8     -1700.006          51.000
> 2020 05 16 13 43  0.0000000  0 13        .000000000000
G18  20518390.195 8 107824908.725 8     -1155.148          51.000    20518390.367 8  84019433.253 8      -900.116          50.000
G20  22381807.594 7 117617227.553 7      2735.859          45.000    22381809.852 7  91649810.383 7      2131.838          45.000
G21  20844816.250 8 109540320.917 8      -991.422          49.000    20844814.703 8  85356115.541 8      -772.537          49.000
G26  20275996.352 8 106551071.918 8      -188.453          51.000    20275997.594 8  83026827.350 8      -146.847          51.000
G31  23969162.453 5 125958821.682 5     -3312.352          31.000    23969180.062 4  98149735.420 4     -2581.050          28.000
R02  22845403.555 5 121907470.475 5       722.305          32.000    22845410.766 4  94816931.318 4       561.796          29.000
R16  20222964.523 7 108027428.607 7     -2773.516          44.000    20222966.234 6  84021347.643 6     -2157.179          41.000
C05  39623887.125 6 206331977.595 6         8.062          36.000    39623888.109 5 159548977.013 5         6.168          34.000
C27  24704771.781 4 128644227.408 4     -2601.117          29.000
C30  21644628.477 8 112709373.427 8      -637.523          51.000
E13  26812498.500 8 140900626.947 8      2527.383          48.000    26812501.008 7 107962846.063 7      1936.533          47.000
E15  23240263.766 8 122128407.567 8       774.691          51.000    23240266.859 8  93578987.843 8       593.628          51.000
E30  23336012.195 8 122631556.306 8     -2228.297          51.000    23336015.125 8  93964440.103 8     -1707.390          51.000
> 2020 05 16 13 43 30.0000000  0 11        .000000000000
G18  20525034.773 8 107859826.067 8     -1171.418          51.000    20525034.945 8  84046641.570 8      -912.793          50.000
G20  22366224.406 7 117535339.495 7      2724.395          45.000    22366227.383 7  91586001.533 7      2122.908          45.000
G21  20850516.906 8 109570278.006 8     -1004.488          50.000    20850515.531 8  85379458.739 8      -782.718          49.000
G26  20277126.312 8 106557009.972 8      -206.281          51.000    20277127.844 8  83031454.399 8      -160.739          51.000
R02  22841413.773 5 121886184.121 5       697.309          30.000    22841422.258 5  94800375.169 5       542.351          32.000
R16  20238603.547 7 108110972.458 7     -2794.688          45.000    20238606.492 7  84086326.216 7     -2173.646          42.000
C05  39623845.211 6 206331759.109 6         7.574          36.000    39623846.242 5 159548807.540 5         5.941          34.000
C30  21648328.992 8 112728642.325 8      -645.914          51.000
E13  26798087.844 8 140824897.801 8      2522.367          49.000    26798089.672 7 107904819.891 7      1932.645          46.000
E15  23235872.227 8 122105328.894 8       764.984          51.000    23235874.852 8  93561304.188 8       586.118          51.000
E30  23348765.211 8 122698574.892 8     -2238.531          51.000    23348767.922 8  94015791.987 8     -1715.208          51.000
> 2020 05 16 13 44  0.0000000  0 12        .000000000000
G18  20531765.516 8 107895196.066 8     -1187.297          51.000    20531765.805 8  84074202.620 8      -925.166          51.000
G20  22350697.844 7 117453746.868 7      2714.039          47.000    22350700.977 7  91522422.889 7      2114.839          46.000
G21  20856285.211 8 109600590.082 8     -1016.875          50.000    20856283.727 8  85403078.531 8      -792.370          50.000
G26  20278351.133 8 106563446.513 8      -223.637          51.000    20278352.961 8  83036469.877 8      -174.262          51.000
R02  22837555.031 5 121865596.398 5       672.824          30.000    22837564.570 5  94784362.424 5       523.308          33.000
R16  20254354.875 7 108195111.358 7     -2815.195          46.000    20254357.781 7  84151767.578 7     -2189.593          42.000
C05  39623798.328 6 206331514.856 6         7.703          36.000    39623799.273 5 159548618.684 5         5.875          34.000
C27  24734774.406 6 128800448.995 6     -2604.598          36.000
C30  21652070.406 8 112748124.997 8      -653.617          51.000
E13  26783698.234 8 140749278.397 8      2518.184          50.000    26783699.023 7 107846877.790 7      1929.463          46.000
E15  23231528.555 8 122082503.175 8       755.977          51.000    23231531.336 8  93543814.362 8       579.261          51.000
E30  23361568.781 8 122765859.243 8     -2247.859          51.000    23361571.547 8  94067347.487 8     -1722.410          51.000
> 2020 05 16 13 44 30.0000000  0 12        .000000000000
G18  20538577.742 8 107930994.245 8     -1189.148          51.000    20538577.633 8  84102097.307 8      -926.609          50.000
G20  22335224.336 8 117372429.870 8      2717.262          49.000    22335226.500 7  91459059.001 7      2117.347          45.000
G21  20862116.352 8 109631232.507 8     -1015.535          50.000    20862114.727 8  85426955.745 8      -791.326          50.000
G26  20279666.484 8 106570359.204 8      -227.121          51.000    20279668.625 8  83041856.374 8      -176.977          51.000
R02  22833824.648 5 121845656.832 5       664.098          33.000    22833833.125 5  94768876.544 5       516.526          32.000
R16  20270212.711 7 108279819.013 7     -2821.605          45.000    20270215.359 6  84217651.272 6     -2194.585          41.000
C05  39623742.219 6 206331222.403 6        22.000          36.000    39623742.930 5 159548392.519 5        17.045          33.000
C29  23126878.273 5 120427703.425 5      1928.219          34.000
C30  21655848.586 8 112767798.263 8      -647.770          51.000
E13  26769325.102 8 140673746.425 8      2527.676          49.000    26769325.430 7 107789002.688 7      1936.755          46.000
E15  23227228.250 8 122059907.279 8       760.625          51.000    23227231.430 8  93526500.625 8       582.975          51.000
E30  23374418.469 8 122833385.543 8     -2243.582          51.000    23374421.617 8  94119088.380 8     -1718.983          51.000
> 2020 05 16 13 45  0.0000000  0 13        .000000000000
G18  20545486.125 8 107967297.696 8     -1210.152          51.000    20545485.648 8  84130385.700 8      -942.976          50.000
G20  22319819.039 8 117291470.223 8      2701.062          51.000    22319819.906 7  91395973.581 7      2104.727          44.000
G21  20868024.984 8 109662282.439 8     -1033.422          51.000    20868023.688 8  85451150.499 8      -805.264          50.000
G26  20281087.547 8 106577827.144 8      -249.805          51.000    20281089.859 8  83047675.539 8      -194.653          51.000
R02  22830237.742 5 121826504.753 5       634.387          31.000    22830244.320 5  94753980.523 5       493.409          33.000
R16  20286191.242 7 108365172.462 7     -2847.207          47.000    20286193.680 6  84284037.237 6     -2214.494          41.000
C05  39623691.719 5 206330959.688 5        16.883          35.000    39623692.430 5 159548188.875 5        12.656          34.000
C27  24764793.711 5 128956776.978 5     -2599.543          34.000
C29  23115863.688 5 120370320.502 5      1917.438          30.000
C30  21659678.484 8 112787739.508 8      -660.855          51.000
E13  26754983.227 8 140598381.070 8      2517.801          48.000    26754984.477 7 107731255.245 7      1929.320          47.000
E15  23222986.828 8 122037619.560 8       746.227          51.000    23222989.992 8  93509423.013 8       571.781          51.000
E30  23387329.211 8 122901231.445 8     -2258.457          51.000    23387332.258 8  94171074.182 8     -1730.503          51.000
> 2020 05 16 13 45 30.0000000  0 12        .000000000000
G18  20552511.234 8 108004214.643 8     -1242.152          51.000    20552510.914 8  84159152.166 8      -967.911          50.000
G20  22304503.258 8 117210980.818 8      2673.727          51.000    22304503.305 7  91333254.610 7      2083.426          44.000
G21  20874031.867 8 109693848.331 8     -1062.266          51.000    20874030.742 8  85475747.308 8      -827.739          50.000
G26  20282635.266 8 106585960.761 8      -283.684          51.000    20282637.648 8  83054013.427 8      -221.052          51.000
R16  20302311.391 8 108451280.118 8     -2884.215          48.000    20302313.148 6  84351009.822 6     -2243.281          41.000
C05  39623667.859 5 206330836.307 5          .297          35.000    39623668.656 5 159548093.039 5          .353          34.000
C27  24779838.406 5 129035150.882 5     -2617.242          33.000
C30  21663580.445 8 112808057.114 8      -684.891          51.000
E13  26740693.680 8 140523292.792 8      2496.922          48.000    26740697.148 8 107673720.111 8      1913.181          48.000
E15  23218825.297 8 122015749.611 8       720.613          51.000    23218828.266 8  93492665.523 8       552.215          51.000
E27  23702415.328 6 124557030.289 6       529.910          41.000    23702418.570 6  95439814.261 6       405.966          41.000
E30  23400321.609 8 122969505.962 8     -2284.301          51.000    23400324.039 8  94223388.420 8     -1750.335          51.000
> 2020 05 16 13 46  0.0000000  0 15        .000000000000
G18  20559581.250 8 108041367.687 8     -1249.629          51.000    20559580.773 8  84188102.577 8      -973.737          50.000
G20  22289205.492 8 117130588.426 8      2670.699          49.000    22289205.156 7  91270611.256 7      2081.067          44.000
G21  20880065.055 8 109725552.693 8     -1066.434          51.000    20880063.883 8  85500452.012 8      -830.987          49.000
G26  20284238.102 8 106594384.693 8      -293.098          51.000    20284240.750 8  83060577.524 8      -228.388          51.000
R02  22823477.672 4 121790469.847 4       577.434          29.000    22823484.219 5  94725927.757 5       449.112          31.000
R09  20632683.656 5 110177368.616 5      2220.191          33.000    20632684.289 4  85693520.357 4      1726.816          25.000
R16  20318500.492 8 108537756.805 8     -2895.996          49.000    20318502.078 6  84418269.411 6     -2252.444          41.000
R18  20169758.117 6 107667549.689 6     -2073.973          36.000    20169758.219 4  83741428.641 4     -1613.093          28.000
C05  39623599.125 5 206330478.382 5         8.586          35.000    39623599.938 5 159547816.188 5         6.343          34.000
C27  24794845.805 5 129113334.800 5     -2610.047          34.000
C30  21667482.602 8 112828378.148 8      -684.641          51.000
E13  26726385.656 8 140448106.305 8      2500.465          48.000    26726391.422 8 107616109.711 8      1915.953          48.000
E15  23214671.742 8 121993921.344 8       719.555          51.000    23214674.469 8  93475939.997 8       551.350          51.000
E27  23699362.477 7 124540985.201 7       524.844          42.000    23699364.906 7  95427519.963 7       402.228          42.000
E30  23413323.852 8 123037832.343 8     -2285.754          51.000    23413325.648 8  94275742.395 8     -1751.425          51.000
> 2020 05 16 13 46 30.0000000  0 13        .000000000000
G18  20566760.328 8 108079094.105 8     -1265.770          51.000    20566759.914 8  84217499.789 8      -986.314          50.000
G20  22273990.430 7 117050634.917 7      2659.188          47.000    22273990.258 7  91208309.882 7      2072.097          43.000
G21  20886188.859 8 109757733.155 8     -1079.230          51.000    20886187.570 8  85525527.685 8      -840.959          50.000
G26  20285960.867 8 106603438.336 8      -311.020          51.000    20285963.531 8  83067632.317 8      -242.353          51.000
R16  20334822.180 7 108624944.069 7     -2916.617          47.000    20334824.094 6  84486081.699 6     -2268.480          41.000
R18  20181428.891 6 107729904.885 6     -2083.711          37.000    20181435.320 4  83789927.254 4     -1620.661          24.000
C05  39623550.133 5 206330222.473 5         7.898          35.000    39623550.906 5 159547619.507 5         6.416          33.000
C27  24809888.156 5 129191663.974 5     -2611.887          33.000
C30  21671449.812 8 112849037.987 8      -693.008          51.000
E13  26712123.797 8 140373161.052 8      2495.438          48.000    26712130.992 8 107558684.181 8      1912.166          48.000
E15  23210590.312 8 121972473.437 8       709.836          51.000    23210592.656 8  93459505.906 8       543.975          51.000
E27  23696404.273 7 124525437.604 7       511.227          42.000    23696407.102 7  95415606.836 7       391.581          42.000
E30  23426400.047 8 123106548.552 8     -2295.676          51.000    23426401.719 8  94328395.061 8     -1759.072          51.000
> 2020 05 16 13 47  0.0000000  0 14        .000000000000
G18  20574036.617 8 108117331.324 8     -1279.293          51.000    20574036.617 8  84247295.029 8      -996.852          50.000
G20  22258847.273 7 116971062.105 7      2649.598          44.000    22258847.633 7  91146305.161 7      2064.625          43.000
G21  20892391.211 8 109790327.205 8     -1089.645          50.000    20892390.086 8  85550925.665 8      -849.074          50.000
G26  20287792.062 8 106613061.235 8      -326.504          51.000    20287794.812 8  83075130.674 8      -254.419          51.000
G31  24121000.461 5 126756712.303 5     -3332.539          33.000    24120998.781 5  98771454.885 5     -2596.787          32.000
R16  20351264.320 7 108712776.880 7     -2934.754          46.000    20351267.156 7  84554396.083 7     -2282.586          42.000
R18  20193166.734 6 107792581.898 6     -2090.746          39.000
C27  24824947.789 5 129270077.581 5     -2611.660          32.000
C29  23072157.492 5 120142773.391 5      1886.008          31.000
C30  21675470.797 8 112869975.743 8      -698.891          51.000
E13  26697896.594 8 140298396.664 8      2492.848          48.000    26697903.469 7 107501397.245 7      1910.047          46.000
E15  23206569.547 8 121951344.661 8       702.676          51.000    23206571.664 8  93443316.341 8       538.363          51.000
E27  23693529.117 7 124510327.473 7       500.133          43.000    23693531.852 6  95404028.926 6       383.204          41.000
E30  23439538.320 8 123175592.752 8     -2303.266          51.000    23439540.242 8  94381299.038 8     -1764.876          51.000
> 2020 05 16 13 47 30.0000000  0 15        .000000000000
G18  20581411.305 8 108156085.820 8     -1298.023          51.000    20581411.398 8  84277493.327 8     -1011.447          50.000
G20  22243778.680 7 116891880.980 7      2635.617          45.000    22243779.219 6  91084605.623 6      2053.731          41.000
G21  20898673.586 8 109823341.555 8     -1104.988          51.000    20898672.523 8  85576651.133 8      -861.030          50.000
G26  20289733.383 8 106623261.936 8      -347.238          51.000    20289736.102 8  83083079.254 8      -270.578          51.000
G31  24140060.609 6 126856871.719 6     -3338.004          36.000    24140059.062 6  98849501.111 6     -2601.048          36.000
R16  20367827.539 7 108801259.883 7     -2957.844          45.000    20367831.398 7  84623216.200 7     -2300.545          42.000
R18  20204967.375 6 107855586.412 6     -2103.062          37.000
C05  39623478.070 5 206329847.388 5         6.957          35.000
C27  24840023.492 5 129348583.152 5     -2616.227          35.000
C29  23061335.438 4 120086426.875 4      1877.172          26.000
C30  21679546.742 8 112891198.948 8      -709.734          51.000
E13  26683705.672 8 140223821.845 8      2485.168          49.000    26683709.977 7 107444255.562 7      1904.297          46.000
E15  23202611.234 8 121930542.834 8       690.430          51.000    23202613.477 8  93427377.284 8       529.114          51.000
E27  23690739.023 7 124495663.897 7       483.719          43.000    23690740.422 6  95392793.228 6       370.725          41.000
E30  23452740.422 8 123244972.034 8     -2315.723          51.000    23452742.773 8  94434459.748 8     -1774.259          51.000
> 2020 05 16 13 48  0.0000000  0 14        .000000000000
G18  20588829.227 8 108195067.480 8     -1314.637          51.000    20588829.227 8  84307868.641 8     -1024.392          49.000
G20  22228730.828 7 116812805.962 7      2622.496          47.000    22228731.766 7  91022988.730 7      2043.503          43.000
G21  20904980.680 8 109856486.056 8     -1118.500          50.000    20904979.625 8  85602478.009 8      -871.558          50.000
G26  20291729.883 8 106633752.363 8      -366.094          51.000    20291732.375 8  83091253.592 8      -285.268          51.000
G29  23579090.992 5 123908959.124 5     -2824.980          30.000
G31  24159088.281 6 126956861.064 6     -3341.484          37.000    24159087.023 6  98927414.791 6     -2603.757          36.000
R16  20384457.742 7 108890097.177 7     -2978.863          47.000    20384461.656 7  84692311.859 7     -2316.894          42.000
C05  39623401.719 5 206329449.726 5         5.988          35.000
C27  24855063.391 6 129426894.607 6     -2618.555          37.000
C30  21683622.477 8 112912421.256 8      -718.781          51.000
E13  26669496.031 8 140149148.653 8      2479.211          49.000    26669496.930 7 107387038.506 7      1899.673          45.000
E15  23198660.102 8 121909779.201 8       679.961          51.000    23198662.812 8  93411467.507 8       521.018          51.000
E27  23687979.055 7 124481159.419 7       469.180          42.000    23687980.250 7  95381679.401 7       359.711          42.000
E30  23465951.305 8 123314397.052 8     -2326.387          51.000    23465954.102 8  94487655.480 8     -1782.571          51.000
> 2020 05 16 13 48 30.0000000  0 14        .000000000000
G18  20596372.383 8 108234707.114 8     -1328.004          51.000    20596372.562 8  84338756.661 8     -1034.808          50.000
G20  22213786.359 8 116734272.749 8      2613.109          49.000    22213787.414 7  90961794.041 7      2036.189          42.000
G21  20911394.594 8 109890191.651 8     -1128.559          50.000    20911393.703 8  85628742.103 8      -879.396          50.000
G26  20293863.930 8 106644965.382 8      -381.625          51.000    20293865.977 8  83099991.002 8      -297.370          51.000
G31  24178165.586 6 127057110.129 6     -3341.789          36.000    24178163.984 5  99005530.881 5     -2603.998          35.000
R16  20401236.836 8 108979724.764 8     -2996.309          48.000    20401239.500 6  84762022.152 6     -2330.462          41.000
R18  20228683.367 5 107982138.251 5     -2120.438          35.000    20228682.445 5  83986063.764 5     -1649.232          31.000
C05  39623362.422 5 206329245.377 5         8.539          35.000
C27  24870149.609 5 129505439.819 5     -2617.848          32.000
C30  21687779.938 8 112934070.686 8      -724.539          51.000
E13  26655349.945 7 140074810.070 7      2476.582          47.000    26655348.727 7 107330077.816 7      1897.769          46.000
E15  23194798.289 8 121889485.894 8       672.930          51.000    23194801.414 8  93395918.108 8       515.666          51.000
E27  23685331.305 6 124467247.349 6       458.234          41.000    23685333.531 7  95371019.496 7       351.133          43.000
E30  23479253.234 8 123384299.251 8     -2333.664          51.000    23479256.031 8  94541216.842 8     -1788.171          51.000
> 2020 05 16 13 49  0.0000000  0 13        .000000000000
G18  20604021.047 8 108274901.122 8     -1356.422          51.000    20604021.438 8  84370076.664 8     -1056.952          50.000
G20  22198926.594 8 116656181.988 8      2588.301          50.000    22198927.000 7  90900944.101 7      2016.858          44.000
G21  20917895.688 8 109924354.865 8     -1153.668          50.000    20917894.844 8  85655362.787 8      -898.962          50.000
G26  20296116.172 8 106656799.504 8      -412.176          51.000    20296117.875 8  83109212.371 8      -321.176          51.000
G31  24197272.508 6 127157514.156 6     -3357.152          37.000    24197271.789 6  99083767.753 6     -2615.960          36.000
R16  20418144.055 8 109070035.986 8     -3029.359          48.000    20418145.234 6  84832264.157 6     -2356.171          41.000
R18  20240646.461 6 108046010.280 6     -2142.445          38.000    20240649.344 5  84035741.988 5     -1666.343          35.000
C05  39623341.016 5 206329133.548 5        -4.934          35.000
C30  21691999.750 8 112956045.793 8      -745.164          51.000
E13  26641248.039 7 140000704.740 7      2458.984          47.000    26641246.359 7 107273295.851 7      1884.052          46.000
E15  23191006.484 8 121869560.778 8       650.617          51.000    23191009.805 8  93380650.807 8       498.588          51.000
E27  23682776.742 6 124453826.779 6       431.812          41.000    23682779.414 7  95360736.205 7       330.827          42.000
E30  23492626.516 8 123454575.777 8     -2356.117          50.000    23492629.328 8  94595065.031 8     -1805.340          51.000
> 2020 05 16 13 49 30.0000000  0 13        .000000000000
G18  20611747.578 8 108315503.618 8     -1355.797          51.000    20611747.875 8  84401714.962 8     -1056.465          50.000
G20  22184124.133 8 116578391.768 8      2592.355          50.000    22184124.234 7  90840328.375 7      2020.020          44.000
G21  20924456.164 8 109958830.228 8     -1150.000          51.000    20924455.242 8  85682226.696 8      -896.104          50.000
G26  20298459.180 8 106669110.807 8      -413.969          51.000    20298460.828 8  83118805.577 8      -322.573          51.000
G31  24216380.391 6 127257926.396 6     -3342.867          36.000    24216380.008 5  99162010.953 5     -2604.841          34.000
R16  20435150.812 8 109160880.864 8     -3032.480          48.000    20435150.867 6  84902921.229 6     -2358.596          39.000
R18  20252651.008 6 108110098.372 6     -2135.723          36.000    20252655.461 5  84085588.295 5     -1661.115          35.000
C05  39623309.852 5 206328971.335 5        10.625          35.000
C30  21696254.703 8 112978203.173 8      -737.324          51.000
E13  26627163.078 7 139926689.002 7      2470.055          46.000    26627162.227 7 107216582.502 7      1892.597          47.000
E15  23187257.203 8 121849859.273 8       657.379          51.000    23187260.664 8  93365554.841 8       503.682          51.000
E27  23680288.758 6 124440754.395 6       434.242          41.000    23680291.156 7  95350719.720 7       332.719          43.000
E30  23506043.125 8 123525081.372 8     -2349.645          49.000    23506046.383 8  94649088.790 8     -1800.404          51.000
> 2020 05 16 13 50  0.0000000  0 16        .000000000000
G18  20619508.766 8 108356288.510 8     -1373.410          51.000    20619508.883 8  84433495.399 8     -1070.190          50.000
G20  22169336.742 8 116500681.134 8      2578.145          50.000    22169336.727 7  90779774.663 7      2008.947          46.000
G21  20931032.969 8 109993391.428 8     -1164.398          50.000    20931031.922 8  85709157.500 8      -907.323          50.000
G26  20300850.117 8 106681675.297 8      -433.945          51.000    20300851.977 8  83128596.070 8      -338.139          51.000
G31  24235446.734 5 127358119.890 5     -3347.367          32.000    24235447.078 5  99240083.695 5     -2608.344          32.000
R02  22801949.375 6 121675505.069 6       380.547          40.000    22801947.102 4  94636541.112 4       295.981          26.000
R16  20452213.578 7 109252028.175 7     -3054.160          45.000    20452212.711 6  84973813.505 6     -2375.461          38.000
R18  20264653.945 6 108174172.687 6     -2146.582          37.000    20264656.625 5  84135423.840 5     -1669.567          34.000
C05  39623226.383 5 206328536.569 5         8.477          35.000
C27  24915431.930 6 129741208.195 6     -2621.258          36.000
C29  23007695.555 5 119807086.418 5      1846.008          33.000
C30  21700502.023 8 113000319.955 8      -747.348          51.000
E13  26613052.617 7 139852538.958 7      2462.973          44.000    26613053.281 8 107159766.244 8      1887.315          48.000
E15  23183507.820 8 121830156.700 8       645.898          51.000    23183511.273 8  93350458.064 8       494.885          51.000
E27  23677824.758 7 124427806.786 7       418.520          42.000    23677827.289 7  95340798.795 7       320.717          43.000
E30  23519460.453 8 123595590.664 8     -2361.234          50.000    23519464.383 8  94703115.410 8     -1809.231          51.000
> 2020 05 16 13 50 30.0000000  0 15        .000000000000
G18  20627403.469 8 108397775.044 8     -1391.016          51.000    20627403.461 8  84465822.567 8     -1083.908          49.000
G20  22154664.047 8 116423573.604 8      2563.789          51.000    22154663.500 7  90719690.889 7      1997.758          47.000
G21  20937724.898 8 110028557.859 8     -1178.633          51.000    20937723.797 8  85736559.917 8      -918.415          49.000
G26  20303388.312 8 106695014.286 8      -453.910          51.000    20303390.289 8  83138990.066 8      -353.696          51.000
R02  22799890.086 6 121664579.954 6       353.105          36.000    22799892.719 4  94628010.482 4       274.641          28.000
R16  20469431.047 7 109344004.024 7     -3076.238          43.000    20469430.859 6  85045350.248 6     -2392.630          40.000
R18  20276753.797 6 108238760.694 6     -2157.676          38.000    20276754.031 5  84185658.892 5     -1678.192          35.000
C05  39623189.703 5 206328345.621 5         5.980          35.000
C27  24930547.609 6 129819922.850 6     -2624.852          38.000
C29  22997087.328 5 119751852.118 5      1837.379          32.000
C30  21704840.648 8 113022911.889 8      -757.406          51.000
E13  26599016.133 7 139778776.073 7      2455.957          45.000    26599018.367 8 107103246.662 8      1881.771          50.000
E15  23179857.539 8 121810973.704 8       634.367          51.000    23179860.680 8  93335759.424 8       486.092          51.000
E27  23675483.938 7 124415505.710 7       403.008          43.000    23675485.734 7  95331373.317 7       308.684          42.000
E30  23532977.828 8 123666623.674 8     -2372.859          51.000    23532982.047 8  94757543.314 8     -1818.183          51.000
> 2020 05 16 13 51  0.0000000  0 15        .000000000000
G18  20635417.812 8 108439890.561 8     -1410.234          50.000    20635417.781 8  84498639.851 8     -1098.884          50.000
G20  22140093.062 8 116347001.104 8      2547.469          51.000    22140092.055 7  90660024.030 7      1985.041          46.000
G21  20944518.227 8 110064257.085 8     -1194.883          51.000    20944517.086 8  85764377.488 8      -931.074          50.000
G26  20306060.430 8 106709057.049 8      -475.910          51.000    20306062.438 8  83149932.477 8      -370.839          51.000
G29  23676119.727 5 124418837.731 5     -2846.195          33.000
R02  22798000.484 5 121654518.680 5       324.297          34.000    22798006.195 4  94620188.150 4       252.237          27.000
R16  20486789.523 7 109436733.116 7     -3099.570          44.000    20486790.969 7  85117472.904 7     -2410.777          42.000
R18  20288935.758 5 108303788.196 5     -2171.121          34.000    20288937.156 6  84236235.885 6     -1688.644          36.000
C05  39623186.359 5 206328328.273 5         1.730          35.000
C27  24945704.484 5 129898848.657 5     -2630.336          35.000
C30  21709257.008 8 113045908.192 8      -769.328          51.000
E13  26585040.305 7 139705329.953 7      2446.941          45.000    26585043.586 8 107046969.802 8      1874.866          50.000
E15  23176292.688 8 121792239.038 8       621.000          51.000    23176295.406 8  93321404.287 8       475.825          51.000
E27  23673253.031 7 124403781.195 7       385.207          43.000    23673253.453 7  95322389.611 7       295.090          42.000
E30  23546581.250 8 123738108.471 8     -2386.414          51.000    23546585.469 8  94812317.372 8     -1828.539          51.000
> 2020 05 16 13 51 30.0000000  0 15        .000000000000
G18  20643473.891 8 108482225.753 8     -1419.141          50.000    20643473.898 8  84531628.324 8     -1105.824          50.000
G20  22125546.680 8 116270558.944 8      2541.660          50.000    22125545.062 7  90600458.726 7      1980.517          46.000
G21  20951335.078 8 110100080.057 8     -1200.488          50.000    20951333.734 8  85792291.500 8      -935.445          50.000
G26  20308788.922 8 106723396.381 8      -487.074          51.000    20308791.414 8  83161105.976 8      -379.538          51.000
G29  23692339.344 5 124504072.190 5     -2843.441          34.000    23692352.508 5  97016224.131 5     -2215.672          32.000
R02  22796210.789 6 121644965.336 6       305.750          40.000    22796216.438 5  94612757.742 5       237.809          33.000
R16  20504211.703 7 109529797.653 7     -3111.930          46.000    20504214.242 7  85189856.435 7     -2420.390          44.000
R18  20301121.367 5 108368839.593 5     -2172.617          35.000    20301124.781 6  84286831.406 6     -1689.813          36.000
C05  39623138.992 5 206328080.821 5         8.445          35.000
C27  24960825.055 5 129977581.283 5     -2626.012          32.000
C30  21713673.336 8 113068904.510 8      -770.707          51.000
E13  26571047.305 7 139631793.491 7      2448.602          45.000    26571051.250 8 106990623.741 8      1876.159          49.000
E15  23172735.320 8 121773544.806 8       618.344          51.000    23172738.125 8  93307080.123 8       473.790          51.000
E27  23671054.328 7 124392226.542 7       378.070          42.000    23671054.648 7  95313536.032 7       289.807          44.000
E30  23560192.852 8 123809636.470 8     -2389.090          51.000    23560196.938 8  94867124.526 8     -1830.640          51.000
> 2020 05 16 13 52  0.0000000  0 14        .000000000000
G18  20651627.484 8 108525072.859 8     -1437.207          51.000    20651627.492 8  84565015.670 8     -1119.905          50.000
G20  22111081.336 8 116194543.568 8      2526.156          50.000    22111080.164 7  90541226.015 7      1968.436          45.000
G21  20958231.188 8 110136319.292 8     -1215.391          51.000    20958229.867 8  85820529.851 8      -947.058          50.000
G26  20311629.750 8 106738326.432 8      -507.930          51.000    20311632.805 8  83172739.760 8      -395.792          51.000
R02  22794572.648 5 121636219.865 5       277.703          34.000    22794578.453 6  94605955.692 6       215.991          36.000
R16  20521752.406 7 109623493.336 7     -3134.109          47.000    20521755.352 7  85262730.832 7     -2437.641          45.000
R18  20313367.773 6 108434211.512 6     -2184.570          37.000    20313373.328 6  84337676.171 6     -1699.110          36.000
C05  39623103.375 5 206327895.623 5         5.176          35.000
C27  24975964.375 5 130056411.453 5     -2629.859          34.000
C30  21718145.352 8 113092191.591 8      -781.574          51.000
E13  26557092.938 7 139558461.174 7      2440.523          44.000    26557097.266 8 106934434.089 8      1869.937          49.000
E15  23169241.320 8 121755184.559 8       605.953          51.000    23169244.523 8  93293011.896 8       464.281          51.000
E27  23668943.969 7 124381136.526 7       361.262          43.000    23668944.750 7  95305038.470 7       276.982          44.000
E30  23573868.250 8 123881500.571 8     -2401.551          51.000    23573872.203 8  94922189.176 8     -1840.185          51.000
> 2020 05 16 13 52 30.0000000  0 15        .000000000000
G18  20659855.078 8 108568309.372 8     -1448.859          50.000    20659855.117 8  84598706.446 8     -1128.981          50.000
G20  22096674.852 8 116118837.192 8      2517.363          49.000    22096673.883 7  90482234.064 7      1961.582          45.000
G21  20965183.242 8 110172852.268 8     -1223.855          50.000    20965182.039 8  85848997.111 8      -953.654          50.000
G26  20314560.117 8 106753726.739 8      -522.293          51.000    20314563.258 8  83184739.983 8      -406.982          51.000
G29  23724840.641 5 124674858.887 5     -2848.730          33.000    23724841.547 5  97149256.211 5     -2219.790          32.000
R02  22793062.711 5 121628146.460 5       256.145          30.000    22793068.867 6  94599695.465 6       199.227          37.000
R16  20539387.445 7 109717693.994 7     -3149.449          47.000    20539390.266 7  85335997.988 7     -2449.572          45.000
R18  20325651.180 6 108499779.347 6     -2189.945          39.000    20325655.773 5  84388673.309 5     -1703.294          34.000
C05  39623056.469 5 206327652.214 5         8.148          35.000
C27  24991099.273 5 130135219.424 5     -2627.945          34.000
C30  21722650.133 8 113115649.304 8      -785.859          51.000
E13  26543153.727 7 139485212.785 7      2439.145          42.000    26543158.531 8 106878308.704 8      1868.943          48.000
E15  23165788.016 8 121737037.256 8       600.219          51.000    23165791.219 8  93279106.823 8       459.935          51.000
E27  23666899.234 7 124370391.251 7       351.316          43.000    23666900.570 7  95296805.077 7       269.113          45.000
E30  23587584.594 8 123953578.966 8     -2407.289          51.000    23587588.086 8  94977418.038 8     -1844.537          51.000
> 2020 05 16 13 53  0.0000000  0 14        .000000000000
G18  20668185.211 8 108612085.126 8     -1466.988          50.000    20668185.242 8  84632817.418 8     -1143.108          50.000
G20  22082356.305 8 116043594.326 8      2501.461          50.000    22082355.859 7  90423603.304 7      1949.190          44.000
G21  20972219.641 8 110209829.040 8     -1238.766          51.000    20972218.258 8  85877810.184 8      -965.272          50.000
G26  20317608.969 8 106769749.109 8      -543.203          51.000    20317611.922 8  83197224.949 8      -423.275          51.000
R02  22791711.578 5 121620928.346 5       227.973          34.000    22791716.297 5  94594081.387 5       177.312          33.000
R16  20557144.695 7 109812550.297 7     -3171.508          45.000    20557147.250 7  85409775.086 7     -2466.728          44.000
R18  20338000.047 6 108565695.332 6     -2201.984          37.000    20338002.766 6  84439941.238 6     -1712.655          37.000
C05  39623027.375 5 206327499.909 5         4.129          35.000
C27  25006257.797 5 130214154.644 5     -2632.859          32.000
C30  21727216.422 8 113139427.406 8      -796.770          51.000
E13  26529258.852 7 139412200.392 7      2430.883          42.000    26529264.086 8 106822364.173 8      1862.624          48.000
E15  23162403.914 8 121719254.162 8       587.871          51.000    23162407.117 8  93265480.818 8       450.396          51.000
E27  23664949.117 7 124360143.183 7       334.293          44.000    23664951.438 7  95288952.636 7       256.311          46.000
E30  23601370.555 8 124026022.260 8     -2419.656          51.000    23601372.930 8  95032926.499 8     -1854.085          51.000
> 2020 05 16 13 53 30.0000000  0 13        .000000000000
G18  20676580.547 8 108656203.129 8     -1469.633          50.000    20676580.555 8  84667195.059 8     -1145.168          49.000
G20  22068089.289 8 115968622.218 8      2501.039          50.000    22068089.172 7  90365183.497 7      1948.862          43.000
G21  20979303.203 8 110247053.189 8     -1238.430          51.000    20979301.656 8  85906816.001 8      -965.010          49.000
G26  20320739.094 8 106786198.471 8      -548.812          51.000    20320741.703 8  83210042.629 8      -427.646          51.000
R16  20574985.961 7 109907860.122 7     -3177.793          43.000    20574988.922 7  85483904.924 7     -2471.617          42.000
R18  20350375.883 5 108631759.200 5     -2197.895          35.000    20350379.766 6  84491324.261 6     -1709.470          39.000
C05  39622978.578 5 206327246.266 5        16.809          35.000
C27  25021401.961 5 130293023.413 5     -2621.727          33.000
C30  21731806.938 8 113163331.886 8      -792.457          51.000
E13  26515372.484 7 139339229.185 7      2438.000          43.000    26515377.352 8 106766451.201 8      1868.192          48.000
E15  23159051.516 8 121701639.643 8       590.867          51.000    23159055.133 8  93251983.990 8       452.575          51.000
E27  23663056.289 7 124350197.859 7       332.801          44.000    23663059.445 7  95281332.197 7       254.994          46.000
E30  23615188.469 8 124098634.038 8     -2416.711          51.000    23615189.367 8  95088564.040 8     -1851.921          49.000
> 2020 05 16 13 54  0.0000000  0 13        .000000000000
G18  20685090.727 8 108700925.195 8     -1496.070          48.000    20685090.883 8  84702043.430 8     -1165.769          48.000
G20  22053924.703 8 115894187.279 8      2476.832          51.000    22053924.750 7  90307182.260 7      1929.999          44.000
G21  20986483.656 8 110284786.219 8     -1261.574          51.000    20986482.133 8  85936218.360 8      -983.045          50.000
G26  20324000.766 8 106803338.654 8      -578.125          51.000    20324003.148 8  83223398.596 8      -450.487          51.000
R16  20592961.211 6 110003888.188 6     -3208.090          41.000    20592964.906 7  85558593.400 7     -2495.181          42.000
R18  20362828.891 6 108698236.918 6     -2217.684          36.000    20362833.812 6  84543029.106 6     -1724.865          40.000
C05  39622960.516 5 206327153.204 5         5.270          35.000
C27  25036584.047 4 130372086.481 4     -2634.680          28.000
C30  21736471.719 8 113187623.526 8      -811.539          51.000
E13  26501544.680 7 139266563.250 7      2421.852          43.000    26501548.867 8 106710772.163 8      1855.636          49.000
E15  23155781.430 8 121684456.944 8       570.332          51.000    23155785.398 8  93238818.033 8       437.017          51.000
E27  23661271.500 7 124340819.761 7       307.871          44.000    23661274.727 7  95274146.369 7       236.033          46.000
E30  23629088.094 8 124171676.942 8     -2437.262          51.000    23629087.344 8  95144531.917 8     -1867.503          48.000
> 2020 05 16 13 54 30.0000000  0 12        .000000000000
G18  20693663.758 8 108745977.074 8     -1508.680          49.000    20693663.945 8  84737148.766 8     -1175.598          48.000
G20  22039811.266 8 115820019.635 8      2466.453          51.000    22039811.188 7  90249389.343 7      1921.915          44.000
G21  20993708.711 8 110322753.915 8     -1270.910          51.000    20993707.141 8  85965803.591 8      -990.320          50.000
G26  20327342.180 8 106820897.308 8      -593.629          51.000    20327344.336 8  83237080.650 8      -462.568          51.000
R16  20611019.258 7 110100353.858 7     -3224.285          44.000    20611023.422 7  85633622.215 7     -2507.780          42.000
R18  20375307.930 6 108764849.658 6     -2224.109          38.000    20375311.992 6  84594838.995 6     -1729.866          39.000
C05  39622921.414 5 206326948.359 5         6.824          35.000
C30  21741159.062 8 113212031.796 8      -816.922          51.000
E13  26487723.477 7 139193930.572 7      2419.230          43.000    26487727.039 8 106655118.586 8      1853.729          49.000
E15  23152541.922 8 121667433.216 8       563.387          51.000    23152545.859 8  93225773.881 8       431.707          51.000
E27  23659542.945 7 124331737.189 7       296.371          44.000    23659546.859 7  95267186.986 7       227.110          46.000
E30  23643017.469 8 124244877.375 8     -2444.070          51.000    23643016.156 8  95200620.511 8     -1872.711          49.000
> 2020 05 16 13 55  0.0000000  0 12        .000000000000
G18  20702322.188 7 108791477.457 7     -1524.133          47.000    20702322.336 7  84772603.606 7     -1187.636          47.000
G20  22025772.297 8 115746242.422 8      2452.617          51.000    22025771.492 7  90191900.627 7      1911.133          44.000
G21  21001001.148 8 110361075.460 8     -1283.355          51.000    21000999.469 8  85995664.520 8     -1000.017          49.000
G26  20330786.281 8 106838995.122 8      -612.363          51.000    20330787.789 8  83251182.857 8      -477.163          51.000
R16  20629182.914 7 110197376.381 7     -3243.453          46.000    20629186.625 7  85709084.137 7     -2522.686          44.000
R18  20387834.547 6 108831718.272 6     -2233.086          38.000    20387838.312 6  84646847.937 6     -1736.848          39.000
C05  39622884.297 5 206326755.655 5         6.324          35.000
C30  21745891.742 8 113236675.661 8      -825.340          51.000
E13  26473931.469 7 139121452.207 7      2413.230          44.000    26473934.914 8 106599583.263 8      1849.165          49.000
E15  23149355.602 8 121650688.638 8       553.445          51.000    23149359.453 8  93212943.616 8       424.083          51.000
E27  23657893.719 7 124323071.445 7       281.957          45.000    23657898.125 7  95260546.997 7       215.982          46.000
E30  23656999.555 8 124318354.830 8     -2453.867          51.000    23656999.078 8  95256921.389 8     -1880.212          50.000
> 2020 05 16 13 55 30.0000000  0 14        .000000000000
G18  20711003.781 8 108837099.443 8     -1526.777          49.000    20711004.055 8  84808153.219 8     -1189.697          48.000
G20  22011746.258 8 115672533.690 8      2451.793          51.000    22011745.234 7  90134465.326 7      1910.491          44.000
G21  21008298.711 8 110399424.141 8     -1282.773          51.000    21008296.992 8  86025546.614 8      -999.564          49.000
G26  20334271.133 8 106857307.152 8      -617.984          51.000    20334272.523 8  83265451.960 8      -481.546          51.000
R02  22786963.359 6 121595586.040 6       116.461          37.000    22786961.484 5  94574343.443 5        90.578          31.000
R16  20647388.391 7 110294621.897 7     -3249.145          47.000    20647391.844 7  85784719.524 7     -2527.112          44.000
R18  20400346.703 6 108898510.471 6     -2229.098          39.000    20400350.195 6  84698797.454 6     -1733.740          38.000
C05  39622787.203 6 206326249.658 6        18.164          36.000
C27  25082053.078 5 130608837.568 5     -2624.711          33.000
C30  21750607.641 8 113261232.490 8      -821.031          51.000
E13  26460106.609 7 139048803.461 7      2420.738          43.000    26460110.578 8 106543917.390 8      1854.687          50.000
E15  23146160.594 8 121633897.737 8       556.500          51.000    23146164.484 8  93200077.869 8       426.415          51.000
E27  23656262.203 7 124314498.199 7       280.379          45.000    23656266.734 7  95253977.910 7       214.740          46.000
E30  23670972.445 8 124391783.148 8     -2450.773          51.000    23670973.086 8  95313184.628 8     -1877.835          51.000
> 2020 05 16 13 56  0.0000000  0 14        .000000000000
G18  20719829.859 8 108883480.016 8     -1552.891          50.000    20719830.016 7  84844293.910 7     -1210.045          47.000
G20  21997855.195 8 115599534.717 8      2427.152          51.000    21997853.820 7  90077583.045 7      1891.288          44.000
G21  21015722.703 8 110438437.016 8     -1305.621          51.000    21015720.945 8  86055946.261 8     -1017.367          49.000
G26  20337918.273 8 106876472.185 8      -647.289          51.000    20337919.797 8  83280385.731 8      -504.381          51.000
R02  22786443.289 5 121592831.156 5        79.512          34.000    22786448.078 5  94572209.010 5        61.845          32.000
R16  20665756.000 7 110392735.790 7     -3278.891          47.000    20665759.531 7  85861030.332 7     -2550.248          44.000
R18  20412966.445 6 108965873.417 6     -2248.965          39.000    20412969.656 6  84751190.805 6     -1749.198          38.000
C05  39622751.625 6 206326064.268 6         6.371          36.000
C27  25097245.344 6 130687940.271 6     -2636.863          36.000
C30  21755428.109 8 113286334.673 8      -840.059          51.000
E13  26446370.719 7 138976623.563 7      2403.832          43.000    26446375.414 8 106488610.748 8      1841.960          50.000
E15  23143078.383 8 121617698.847 8       535.848          51.000    23143082.203 8  93187665.742 8       410.623          51.000
E27  23654769.906 7 124306656.991 7       254.828          45.000    23654774.852 7  95247969.695 7       195.381          47.000
E30  23685057.258 8 124465799.910 8     -2471.285          51.000    23685059.359 8  95369898.762 8     -1893.588          51.000
> 2020 05 16 13 56 30.0000000  0 15        .000000000000
G18  20728734.891 8 108930275.530 8     -1569.215          49.000    20728734.570 8  84880757.926 8     -1222.765          48.000
G20  21984034.359 8 115526906.386 8      2411.918          50.000    21984033.391 7  90020989.574 7      1879.417          45.000
G21  21023207.672 8 110477770.841 8     -1319.219          51.000    21023206.172 8  86086596.011 8     -1027.963          49.000
G26  20341662.656 8 106896148.551 8      -667.105          51.000    20341664.258 8  83295717.957 8      -519.822          51.000
R02  22786065.602 5 121590808.637 5        52.191          32.000    22786066.961 4  94570636.001 4        40.587          28.000
R16  20684219.984 7 110491367.198 7     -3298.891          45.000    20684223.953 7  85937743.655 7     -2565.804          43.000
R18  20425627.977 6 109033457.967 6     -2259.281          39.000    20425633.117 6  84803756.542 6     -1757.216          38.000
C05  39622712.594 5 206325861.005 5         4.484          35.000
C27  25112441.188 5 130767056.782 5     -2640.453          33.000
C29  22872618.891 5 119103727.789 5      1759.777          30.000
C30  21760288.219 8 113311643.118 8      -849.770          51.000
E13  26432659.258 7 138904571.184 7      2396.730          43.000    26432664.523 8 106433401.808 8      1836.573          51.000
E15  23140043.695 8 121601749.853 8       524.785          51.000    23140047.117 8  93175445.084 8       402.060          51.000
E27  23653351.859 7 124299206.790 7       239.164          44.000    23653357.195 7  95242261.084 7       183.247          47.000
E30  23699188.602 8 124540062.324 8     -2482.145          50.000    23699192.359 8  95426801.094 8     -1901.942          51.000
> 2020 05 16 13 57  0.0000000  0 14        .000000000000
G18  20737750.477 8 108977652.240 8     -1586.711          49.000    20737749.961 8  84917674.854 8     -1236.398          48.000
G20  21970316.266 8 115454819.234 8      2395.898          49.000    21970315.805 7  89964817.779 7      1866.934          46.000
G21  21030785.406 8 110517592.191 8     -1333.367          51.000    21030783.930 8  86117625.645 8     -1038.987          49.000
G26  20345536.336 8 106916504.442 8      -687.645          51.000    20345537.961 8  83311579.694 8      -535.827          51.000
R02  22785857.023 5 121589728.199 5        24.172          33.000    22785858.734 5  94569771.753 5        18.800          30.000
R16  20702812.062 7 110590683.853 7     -3319.633          45.000    20702816.094 7  86014989.886 7     -2581.937          42.000
R18  20438362.094 6 109101433.140 6     -2270.152          38.000    20438367.727 6  84856626.168 6     -1765.674          36.000
C05  39622702.023 5 206325806.567 5         1.406          35.000
C29  22862506.492 5 119051104.245 5      1750.316          34.000
C30  21765219.969 8 113337323.910 8      -860.094          51.000
E13  26419004.445 7 138832814.909 7      2389.109          43.000    26419010.062 8 106378419.762 8      1830.515          51.000
E15  23137088.445 8 121586218.477 8       512.828          51.000    23137091.398 8  93163544.414 8       392.904          51.000
E27  23652040.688 7 124292316.468 7       222.504          45.000    23652045.789 7  95236981.468 7       170.454          47.000
E30  23713398.508 8 124614737.360 8     -2493.867          50.000    23713403.109 8  95484019.599 8     -1910.993          51.000
> 2020 05 16 13 57 30.0000000  0 14        .000000000000
G18  20746860.133 8 109025523.299 8     -1596.363          50.000    20746859.812 8  84954976.979 8     -1243.919          48.000
G20  21956685.508 8 115383191.076 8      2387.418          48.000    21956685.938 7  89909003.632 7      1860.326          47.000
G21  21038439.305 8 110557813.984 8     -1339.836          51.000    21038437.766 8  86148967.299 8     -1044.028          49.000
G26  20349523.078 8 106937454.818 8      -700.789          51.000    20349524.906 8  83327904.654 8      -546.069          51.000
G31  24523085.977 5 128869692.389 5     -3365.848          34.000
R16  20721516.164 7 110690595.503 7     -3332.566          46.000    20721519.219 6  86092698.854 6     -2591.999          40.000
R18  20451152.516 6 109169710.941 6     -2273.094          38.000    20451156.148 5  84909731.031 5     -1767.965          35.000
C05  39622703.945 5 206325816.832 5         6.133          35.000
C29  22852447.703 4 118998737.059 4      1748.648          29.000
C30  21770206.953 8 113363292.268 8      -862.926          51.000
E13  26405390.148 7 138761270.069 7      2388.938          45.000    26405395.797 8 106323599.714 8      1830.488          51.000
E15  23134196.375 8 121571019.224 8       508.711          51.000    23134199.148 8  93151898.244 8       389.827          51.000
E27  23650820.438 7 124285901.630 7       213.488          46.000    23650824.312 7  95232066.198 7       163.615          46.000
E30  23727670.633 8 124689738.764 8     -2497.887          50.000    23727675.188 8  95541488.173 8     -1913.929          51.000
> 2020 05 16 13 58  0.0000000  0 13        .000000000000
G18  20756018.898 8 109073652.912 8     -1611.508          49.000    20756018.461 8  84992480.567 8     -1255.720          48.000
G20  21943097.773 7 115311790.480 7      2373.266          46.000    21943099.281 7  89853366.817 7      1849.298          46.000
G21  21046124.680 8 110598200.948 8     -1351.938          51.000    21046123.328 8  86180437.653 8     -1053.458          49.000
G26  20353578.320 8 106958765.776 8      -719.312          50.000    20353580.516 8  83344510.587 8      -560.503          50.000
R16  20740286.789 7 110790860.809 7     -3351.145          47.000    20740288.672 6  86170682.863 6     -2606.452          40.000
R18  20463954.719 5 109238051.600 5     -2282.746          32.000    20463955.984 6  84962884.864 6     -1775.469          36.000
C05  39622673.898 5 206325660.022 5         5.020          35.000
C29  22842396.211 4 118946350.863 4      1741.762          29.000
C30  21775204.508 8 113389315.892 8      -871.277          51.000
E13  26391771.758 7 138689703.155 7      2382.867          47.000    26391777.148 8 106268762.750 8      1825.953          51.000
E15  23131322.852 8 121555917.784 8       498.883          51.000    23131325.531 8  93140327.019 8       382.252          51.000
E27  23649645.945 7 124279729.111 7       198.766          45.000    23649648.578 7  95227336.623 7       152.214          46.000
E30  23741960.180 8 124764831.504 8     -2507.531          50.000    23741963.984 8  95599026.737 8     -1921.331          51.000
> 2020 05 16 13 58 30.0000000  0 14        .000000000000
G18  20765212.500 8 109121965.768 8     -1612.832          49.000    20765211.859 8  85030126.941 8     -1256.752          48.000
G20  21929539.781 7 115240546.851 7      2372.523          46.000    21929542.078 7  89797852.298 7      1848.720          46.000
G21  21053827.156 8 110638677.641 8     -1350.223          51.000    21053825.828 8  86211977.939 8     -1052.122          49.000
G26  20357688.109 8 106980363.877 8      -724.180          50.000    20357690.555 8  83361340.262 8      -564.296          50.000
R02  22786000.742 6 121590406.417 6       -34.328          38.000    22785999.586 4  94570358.337 4       -26.700          26.000
R16  20759108.539 7 110891401.130 7     -3355.391          46.000    20759110.391 7  86248880.845 7     -2609.748          42.000
R18  20476755.016 6 109306379.010 6     -2276.809          36.000    20476756.977 6  85016028.408 6     -1770.848          37.000
C05  39622597.664 5 206325263.423 5        17.641          35.000
C29  22832339.773 5 118893959.744 5      1747.336          31.000
C30  21780198.688 8 113415321.528 8      -866.008          51.000
E13  26378135.219 8 138618041.165 8      2390.785          49.000    26378140.172 8 106213852.960 8      1831.951          50.000
E15  23128453.734 8 121540840.291 8       502.699          51.000    23128456.297 8  93128774.143 8       385.242          51.000
E27  23648503.242 7 124273726.177 7       197.766          45.000    23648505.797 7  95222736.959 7       151.490          46.000
E30  23756252.938 8 124839941.028 8     -2503.430          51.000    23756256.070 8  95656578.178 8     -1918.197          50.000
> 2020 05 16 13 59  0.0000000  0 15        .000000000000
G10  24094526.414 6 126617590.909 6      3453.332          37.000    24094531.633 6  98663071.800 6      2690.914          37.000
G18  20774546.453 8 109171015.933 8     -1653.652          48.000    20774546.156 8  85068347.823 8     -1288.560          48.000
G20  21916118.109 7 115170018.879 7      2332.559          46.000    21916120.992 7  89742895.445 7      1817.578          46.000
G21  21061652.281 8 110679798.796 8     -1387.797          51.000    21061650.516 8  86244020.390 8     -1081.400          48.000
G26  20361958.352 8 107002805.023 8      -768.555          50.000    20361961.188 8  83378826.854 8      -598.874          50.000
G31  24580716.609 5 129172545.369 5     -3381.707          33.000
R02  22786351.211 6 121592326.971 6       -86.648          40.000    22786351.992 5  94571812.580 5       -67.393          30.000
R16  20778086.328 7 110992778.484 7     -3399.656          46.000    20778089.102 7  86327729.911 7     -2644.177          43.000
R18  20489658.000 6 109375256.160 6     -2311.555          36.000    20489661.969 6  85069599.478 6     -1797.882          38.000
C05  39622581.336 5 206325178.602 5        -8.672          35.000
C30  21785295.102 8 113441859.578 8      -899.797          51.000
E13  26364586.344 8 138546840.425 8      2359.223          48.000    26364590.625 8 106159296.587 8      1807.746          50.000
E15  23125694.734 8 121526342.246 8       467.215          51.000    23125697.344 8  93117665.261 8       357.978          51.000
E27  23647499.141 7 124268449.378 7       157.406          46.000    23647501.867 7  95218693.685 7       120.595          47.000
E30  23770654.625 8 124915622.099 8     -2538.523          51.000    23770657.320 8  95714567.557 8     -1945.159          51.000
> 2020 05 16 13 59 30.0000000  0 16        .000000000000
G10  24074719.000 6 126513508.371 6      3466.309          38.000    24074726.445 6  98581968.589 6      2701.023          36.000
G18  20783926.672 8 109220309.420 8     -1651.863          48.000    20783926.570 8  85106758.328 8     -1287.166          48.000
G20  21902740.125 8 115099716.778 8      2334.969          49.000    21902742.781 7  89688114.579 7      1819.456          46.000
G21  21069506.078 8 110721070.533 8     -1382.883          50.000    21069503.805 8  86276180.175 8     -1077.571          49.000
G26  20366295.500 8 107025597.036 8      -770.285          51.000    20366298.680 8  83396586.834 8      -600.225          51.000
R02  22786806.578 4 121594761.815 4       -95.711          29.000    22786810.852 5  94573709.746 5       -74.433          31.000
R16  20797126.453 7 111094488.582 7     -3400.586          47.000    20797130.047 7  86406837.788 7     -2644.900          43.000
R18  20502569.773 6 109444180.897 6     -2302.605          37.000    20502575.750 6  85123207.657 6     -1790.909          38.000
C05  39622531.062 6 206324916.433 6         7.016          36.000
C27  25203772.570 5 131242626.290 5     -2643.242          35.000
C29  22812406.164 4 118790207.252 4      1723.852          29.000
C30  21790399.906 8 113468441.880 8      -891.379          51.000
E13  26351031.539 8 138475609.253 8      2370.230          48.000    26351034.938 8 106104716.901 8      1816.082          49.000
E15  23122952.242 8 121511931.110 8       474.223          51.000    23122954.945 8  93106622.968 8       363.392          51.000
E27  23646539.992 7 124263407.294 7       159.449          46.000    23646542.641 7  95214830.255 7       122.193          47.000
E30  23785071.500 8 124991381.477 8     -2531.219          51.000    23785073.750 8  95772616.936 8     -1939.529          51.000
