     3.02           OBSERVATION DATA    M (MIXED)           RINEX VERSION / TYPE
SAVERINEX           SC600               20200511 115931 LCL PGM / RUN BY / DATE
       G = GPS       R = GLONASS       C = COMPASS          COMMENT
       S = SBAS      J = QZSS          E = GALILEO          COMMENT
BEAN                                                        MARKER NAME
1                                                           MARKER NUMBER
GEODETIC                                                    MARKER TYPE
Unige DICCA         GTER                                    OBSERVER / AGENCY
SC60291900056       SC600               2.12(191226)        REC # / TYPE / VERS
                    HEMA45          NONE                    ANT # / TYPE
  4509407.8091   693652.4678  4442337.6214                  APPROX POSITION XYZ
        0.0000        0.0000        0.0000                  ANTENNA: DELTA H/E/N
G    8 C1C L1C D1C S1C C2Y L2Y D2Y S2Y                      SYS / # / OBS TYPES
R    8 C1C L1C D1C S1C C2P L2P D2P S2P                      SYS / # / OBS TYPES
C    8 C1I L1I D1I S1I C7I L7I D7I S7I                      SYS / # / OBS TYPES
E    8 C1C L1C D1C S1C C7Q L7Q D7Q S7Q                      SYS / # / OBS TYPES
DBHZ                                                        COMMENT
     30.000                                                 INTERVAL
  2020    05    11    09    00    0.0000000     GPS         TIME OF FIRST OBS
  2020    05    11    09    59   30.0000000     GPS         TIME OF LAST OBS
     0                                                      RCV CLOCK OFFS APPL
G L1C  0.00000                                              SYS / PHASE SHIFT
G L2Y  0.00000                                              SYS / PHASE SHIFT
R L1C  0.00000                                              SYS / PHASE SHIFT
R L2P  0.25000                                              SYS / PHASE SHIFT
C L1I  0.00000                                              SYS / PHASE SHIFT
C L7I  0.00000                                              SYS / PHASE SHIFT
E L1C  0.50000                                              SYS / PHASE SHIFT
E L7Q -0.25000                                              SYS / PHASE SHIFT
 13 R04  6 R05  1 R06 -4 R07  5 R09 -2 R10 -5 R14 -7 R15  0 GLONASS SLOT / FRQ #
    R16 -1 R17  4 R18 -3 R19  3 R20  2                      GLONASS SLOT / FRQ #
 C1C   71.950 C2C   71.950 C2P   71.950                     GLONASS COD/PHS/BIS
    18                                                      LEAP SECONDS
*** Above antenna height is from mark to ANTENNA BOTTOM.    COMMENT
    17     4        0.0000        ANT MEASURE TYPE/HEIGT    COMMENT
    0.0000    0.0000    0.0458    0.0405    0.0000          COMMENT
                    BASE STATION                            COMMENT
                                                            END OF HEADER
> 2020 05 11 09 00  0.0000000  0 16        .000000000000
G02  23562018.109 5 123819212.679 5      1795.715          31.000
G12  20076957.188 8 105505120.985 8      -306.492          51.000    20076956.047 8  82211786.656 8      -238.828          51.000
G24  21011043.711 8 110413795.995 8     -2034.730          51.000    21011046.883 8  86036713.511 8     -1585.504          51.000
G25  20810193.672 5 109358317.744 5      1612.105          34.000    20810191.430 5  85214276.910 5      1256.192          32.000
G29  23641557.469 6 124237257.640 6      3739.277          38.000    23641549.789 6  96808220.891 6      2913.720          36.000
R07  22255546.883 5 119135687.992 5     -3046.281          35.000    22255561.359 6  92661125.037 6     -2369.327          39.000
R18  20761153.922 6 110824477.880 6     -1504.102          37.000    20761157.547 6  86196769.026 6     -1169.860          36.000
R19  20425143.641 6 109260749.670 6      2538.680          41.000    20425145.180 7  84980596.022 7      1974.532          42.000
C11  24061888.664 8 125296609.447 8      3101.312          48.000    24061886.617 8  96887230.763 8      2398.011          51.000
C12  22297429.359 8 116108607.466 8       405.121          49.000    22297429.414 8  89782529.144 8       313.202          51.000
C24  23274797.727 6 121197953.848 6     -1899.488          40.000
C25  21972790.883 6 114418065.384 6       879.910          38.000
E01  23763227.484 6 124876591.113 6       465.625          39.000    23763231.000 6  95684661.395 6       356.562          38.000
E04  25650005.141 7 134791713.104 7     -1740.777          43.000    25650011.406 8 103281928.976 8     -1333.789          48.000
E21                                                                  24979669.383 7 100582752.922 7     -1218.129          44.000
E26  24850086.938 7 130588114.467 7      2587.621          45.000    24850098.672 8 100061063.325 8      1982.711          51.000
> 2020 05 11 09 00 30.0000000  0 15        .000000000000
G12  20078731.023 8 105514443.074 8      -316.938          51.000    20078730.000 8  82219050.604 8      -246.964          51.000
G24  21022685.625 8 110474973.648 8     -2045.598          51.000    21022688.523 8  86084384.425 8     -1593.972          51.000
G25  20801012.062 5 109310068.769 5      1603.078          35.000    20801010.625 5  85176680.286 5      1249.152          33.000
G29  23620216.141 6 124125113.392 6      3735.367          37.000    23620208.914 6  96720835.843 6      2910.673          37.000
R07  22272652.508 6 119227243.127 6     -3059.668          36.000    22272662.492 6  92732334.516 6     -2379.742          41.000
R18  20769669.992 5 110869936.303 5     -1528.152          35.000    20769674.758 6  86232125.670 6     -1188.560          36.000
R19  20410960.461 7 109184879.669 7      2517.398          42.000    20410962.102 7  84921586.031 7      1957.977          43.000
C11  24044033.453 8 125203632.411 8      3095.445          49.000    24044033.586 8  96815335.040 8      2393.580          51.000
C12  22295135.422 8 116096662.543 8       389.465          49.000    22295135.531 8  89773292.570 8       301.231          51.000
C24  23285750.977 6 121254986.102 6     -1904.727          40.000
C25  21967735.406 6 114391747.529 6       872.773          36.000
E01  23760576.789 6 124862651.623 6       462.215          40.000    23760578.172 6  95673980.507 6       354.081          39.000
E04  25659963.734 7 134844045.247 7     -1749.781          43.000    25659969.281 8 103322027.621 8     -1340.816          48.000
E21                                                                  24988743.023 7 100619291.831 7     -1219.204          44.000
E26  24835324.898 7 130510543.039 7      2582.012          46.000    24835335.789 8 100001625.441 8      1978.472          51.000
> 2020 05 11 09 01  0.0000000  0 15        .000000000000
G12  20080576.281 8 105524139.979 8      -329.410          51.000    20080575.148 8  82226606.634 8      -256.683          51.000
G24  21034401.305 8 110536538.662 8     -2058.531          51.000    21034403.711 8  86132357.158 8     -1604.050          51.000
G25  20791893.414 6 109262150.315 6      1591.773          37.000    20791892.828 6  85139341.127 6      1240.340          37.000
G29  23598906.906 6 124013139.509 6      3729.480          36.000    23598900.867 6  96633583.495 6      2906.092          36.000
R07  22289845.242 6 119319264.736 6     -3075.066          37.000    22289851.992 6  92803906.899 6     -2391.718          41.000
R18  20778334.609 6 110916186.705 6     -1554.875          37.000    20778339.297 5  86268098.223 5     -1209.347          34.000
R19  20396908.492 7 109109711.015 7      2493.984          43.000    20396910.273 7  84863121.547 7      1939.769          43.000
C11  24026224.289 8 125110891.937 8      3087.398          51.000    24026225.406 8  96743622.252 8      2387.342          51.000
C12  22292942.852 8 116085245.945 8       371.742          48.000    22292942.891 8  89764464.542 8       287.437          51.000
C24  23296746.773 6 121312242.277 6     -1911.965          40.000
C25  21962730.969 6 114365692.620 6       863.996          37.000
E01  23757954.875 6 124848870.354 6       456.781          38.000    23757954.492 6  95663420.871 6       349.861          39.000
E04  25669986.672 7 134896712.854 7     -1760.930          43.000    25669991.055 8 103362383.318 8     -1349.392          48.000
E21                                                                  24997837.672 7 100655915.012 7     -1222.173          43.000
E26  24820607.727 8 130433203.329 8      2574.137          48.000    24820615.500 8  99942365.123 8      1972.384          48.000
> 2020 05 11 09 01 30.0000000  0 16        .000000000000
G12  20082495.578 8 105534225.747 8      -342.770          51.000    20082494.438 8  82234465.684 8      -267.093          51.000
G24  21046193.422 8 110598504.898 8     -2072.211          51.000    21046195.266 8  86180642.515 8     -1614.710          51.000
G25  20782839.727 4 109214577.080 4      1580.758          29.000    20782838.578 4  85102271.147 4      1231.772          28.000
G29  23577632.961 5 123901353.276 5      3722.934          34.000    23577629.711 5  96546477.409 5      2900.993          34.000
R07  22307126.672 6 119411763.645 6     -3091.262          40.000    22307130.898 6  92875850.482 6     -2404.315          41.000
R09  20025405.727 5 106934515.212 5      1655.766          34.000
R18  20787149.820 6 110963241.292 6     -1582.145          36.000    20787153.047 5  86304696.168 5     -1230.557          34.000
R19  20382991.133 7 109035262.378 7      2469.445          43.000    20382993.203 7  84805217.112 7      1920.683          43.000
C11  24008463.789 8 125018404.854 8      3078.574          51.000    24008465.266 8  96672105.401 8      2380.573          51.000
C12  22290854.391 7 116074372.360 7       353.379          47.000    22290854.539 8  89756056.412 8       273.258          51.000
C24  23307788.477 6 121369736.742 6     -1920.598          39.000
C25  21957781.547 6 114339916.229 6       854.703          40.000
E01  23755364.555 6 124835262.189 6       450.473          39.000    23755364.164 6  95652993.772 6       345.443          40.000
E04  25680075.828 7 134949729.078 7     -1773.012          45.000    25680079.398 8 103403006.109 8     -1358.601          48.000
E21                                                                  25006955.562 7 100692633.641 7     -1225.588          42.000
E26  24805938.695 8 130356112.113 8      2565.445          50.000    24805943.398 7  99883295.196 7      1965.755          45.000
> 2020 05 11 09 02  0.0000000  0 14        .000000000000
G12  20084485.016 8 105544679.691 8      -353.121          51.000    20084483.750 8  82242611.606 8      -275.159          51.000
G24  21058058.047 8 110660852.158 8     -2083.184          51.000    21058059.039 8  86229224.753 8     -1623.263          51.000
G29  23556391.695 5 123789737.128 5      3718.938          32.000    23556391.305 5  96459503.856 5      2897.873          31.000
R07  22324492.070 6 119504715.280 6     -3104.496          41.000    22324494.609 6  92948146.166 6     -2414.611          41.000
R18  20796111.914 6 111011026.451 6     -1605.988          36.000    20796114.797 5  86341924.263 5     -1249.102          33.000
R19  20369204.969 7 108961516.571 7      2447.895          42.000    20369207.383 7  84747859.315 7      1903.921          42.000
C11  23990748.344 8 124926153.680 8      3072.512          50.000    23990749.844 8  96600770.958 8      2375.885          51.000
C12  22288866.891 8 116064022.412 8       337.656          48.000    22288866.977 8  89748053.188 8       261.149          51.000
C24  23318872.031 6 121427449.723 6     -1925.992          39.000
C25  21952882.125 6 114314399.621 6       847.590          40.000
E01  23752803.102 6 124821807.178 6       447.512          40.000    23752804.367 7  95642684.138 7       342.842          42.000
E04  25690226.961 7 135003072.558 7     -1782.230          45.000    25690230.375 7 103443879.652 7     -1365.545          47.000
E21                                                                  25016094.258 7 100729432.471 7     -1226.914          42.000
E26  24791313.867 8 130279251.502 8      2559.555          51.000    24791316.242 6  99824402.011 6      1961.292          40.000
> 2020 05 11 09 02 30.0000000  0 14        .000000000000
G12  20086549.812 8 105555529.491 8      -367.473          51.000    20086548.227 8  82251065.994 8      -286.342          51.000
G24  21070000.125 8 110723607.407 8     -2097.867          51.000    21070000.711 8  86278124.889 8     -1634.705          51.000
R07  22341945.328 6 119598143.737 6     -3121.418          39.000    22341947.039 6  93020812.728 6     -2427.770          40.000
R09  20006892.383 4 106835700.647 4      1637.613          27.000    20006899.250 4  83094456.158 4      1273.690          26.000
R18  20805226.281 6 111059670.921 6     -1634.047          39.000    20805225.742 5  86379758.656 5     -1270.928          33.000
R19  20355555.875 6 108888505.863 6      2422.227          39.000    20355558.852 7  84691073.223 7      1883.954          43.000
C11  23973083.703 8 124834168.612 8      3062.406          50.000    23973085.148 8  96529642.302 8      2368.077          51.000
C12  22286985.211 8 116054224.101 8       318.250          48.000    22286985.242 8  89740476.571 8       246.025          51.000
C24  23330002.617 7 121485409.033 7     -1935.438          42.000
C25  21948038.086 6 114289171.711 6       836.961          40.000
E01  23750276.930 7 124808533.875 7       440.266          42.000    23750279.484 7  95632513.663 7       337.269          42.000
E04  25700445.000 7 135056769.996 7     -1795.168          43.000    25700448.719 7 103485024.434 7     -1375.381          47.000
E21                                                                  25025258.992 7 100766333.098 7     -1231.083          42.000
E26  24776738.570 8 130202651.760 8      2549.707          51.000    24776733.141 6  99765708.944 6      1953.274          36.000
> 2020 05 11 09 03  0.0000000  0 14        .000000000000
G12  20088671.234 8 105566676.895 8      -376.387          51.000    20088669.430 8  82259752.278 8      -293.288          51.000
G24  21082001.055 8 110786672.957 8     -2107.223          51.000    21082001.695 8  86327266.836 8     -1641.995          51.000
G25  20756054.227 6 109073782.142 6      1550.816          36.000    20756073.109 5  84992667.680 5      1208.425          34.000
R07  22359468.641 7 119691945.744 7     -3132.582          42.000    22359469.289 6  93093769.803 6     -2436.453          40.000
R18  20814469.750 5 111109056.830 5     -1656.230          33.000    20814473.156 5  86418142.890 5     -1288.170          33.000
R19  20342026.008 6 108816134.805 6      2401.801          38.000    20342030.000 7  84634784.640 7      1868.067          43.000
C11  23955452.016 8 124742355.483 8      3057.770          49.000    23955453.188 8  96458646.607 8      2364.422          51.000
C12  22285191.219 8 116044881.291 8       304.070          49.000    22285190.609 8  89733252.130 8       235.120          51.000
C24  23341162.844 7 121543518.070 7     -1939.160          43.000
C25  21943230.227 6 114264137.047 6       831.539          39.000
E01  23747767.352 7 124795345.014 7       438.383          44.000    23747769.984 7  95622407.902 7       336.014          42.000
E04  25710711.375 7 135110722.588 7     -1802.422          42.000    25710715.414 7 103526364.744 7     -1381.166          46.000
E21                                                                  25034430.406 6 100803260.962 6     -1231.224          41.000
E26  24762194.508 8 130126217.541 8      2545.219          51.000    24762184.180 6  99707142.565 6      1950.071          41.000
> 2020 05 11 09 03 30.0000000  0 15        .000000000000
G12  20090868.547 8 105578223.283 8      -392.543          51.000    20090866.719 8  82268749.446 8      -305.878          51.000
G24  21094080.062 8 110850149.495 8     -2123.746          51.000    21094081.180 8  86376729.057 8     -1654.867          51.000
G25  20747246.664 5 109027506.713 5      1535.352          31.000    20747286.516 5  84956609.106 5      1196.381          31.000
R07  22377080.156 7 119786220.484 7     -3151.398          44.000    22377079.570 6  93167094.504 6     -2451.091          39.000
R16  20872946.688 5 111499538.372 5     -2128.770          31.000    20872962.031 4  86721896.540 4     -1655.713          26.000
R18  20823865.531 6 111159215.853 6     -1686.621          37.000    20823871.250 5  86457155.331 5     -1311.819          34.000
R19  20328636.008 6 108744510.423 6      2374.031          38.000    20328640.586 7  84579076.823 7      1846.472          44.000
C11  23937872.922 8 124650817.355 8      3045.609          48.000    23937874.000 8  96387863.545 8      2354.980          51.000
C12  22283503.938 8 116036094.895 8       282.551          49.000    22283503.273 8  89726457.976 8       218.459          51.000
C24  23352370.102 6 121601877.710 6     -1950.422          41.000
C25  21938478.820 6 114239397.450 6       818.516          39.000
E01  23745293.062 7 124782342.509 7       429.297          44.000    23745294.727 6  95612444.970 6       328.867          40.000
E04  25721046.031 7 135165030.724 7     -1817.191          43.000    25721049.141 7 103567977.459 7     -1392.280          45.000
E21                                                                  25043627.641 6 100840294.029 6     -1236.866          39.000
E26  24747701.102 8 130050052.663 8      2533.242          51.000    24747694.500 7  99648782.540 7      1940.975          46.000
> 2020 05 11 09 04  0.0000000  0 16        .000000000000
G12  20093136.938 8 105590143.569 8      -402.207          51.000    20093135.203 8  82278037.982 8      -313.405          51.000
G24  21106232.578 8 110914012.178 8     -2133.832          51.000    21106234.219 8  86426492.189 8     -1662.726          51.000
G25  20738502.852 5 108981567.303 5      1527.480          33.000    20738506.453 5  84920711.736 5      1190.241          33.000
G29  23471757.797 5 123344901.352 5      3696.082          31.000
R07  22394774.094 7 119880939.192 7     -3163.203          44.000    22394772.883 6  93240764.575 6     -2460.269          38.000
R16  20884914.867 5 111563490.099 5     -2135.570          33.000
R18  20833407.984 5 111210155.531 5     -1709.754          35.000    20833411.031 4  86496775.115 4     -1329.815          29.000
R19  20315381.969 6 108673611.121 6      2352.598          39.000    20315386.688 7  84523932.956 7      1829.801          44.000
C11  23920341.992 7 124559532.583 7      3039.895          46.000    23920343.562 8  96317276.378 8      2350.603          51.000
C12  22281919.023 8 116027841.194 8       267.652          50.000    22281918.344 8  89720075.740 8       206.839          51.000
C24  23363620.062 6 121660463.916 6     -1955.398          41.000
C25  21933779.867 6 114214929.968 6       812.621          40.000
E01  23742848.953 7 124769502.425 7       426.410          42.000    23742849.938 6  95602606.495 6       326.850          40.000
E04  25731443.953 7 135219668.767 7     -1825.473          44.000    25731445.445 7 103609842.906 7     -1398.715          45.000
E21                                                                  25052845.320 6 100877413.910 6     -1237.746          38.000
E26  24733254.359 8 129974135.108 8      2527.750          51.000    24733252.328 8  99590611.970 8      1936.817          50.000
> 2020 05 11 09 04 30.0000000  0 16        .000000000000
G12  20095467.492 8 105602391.155 8      -414.672          51.000    20095465.828 8  82287581.570 8      -323.121          51.000
G24  21118449.508 8 110978214.355 8     -2146.719          50.000    21118451.875 8  86476519.847 8     -1672.768          50.000
G25  20729816.188 5 108935918.283 5      1515.344          31.000    20729818.633 5  84885141.179 5      1180.796          32.000
G29  23450681.828 5 123234135.392 5      3688.527          33.000    23450687.203 5  96026621.710 5      2874.177          32.000
R07  22412540.180 7 119976050.881 7     -3177.781          42.000    22412540.117 6  93314740.285 6     -2471.608          39.000
R16  20896933.266 5 111627685.795 5     -2144.887          35.000
R18  20843087.711 5 111261827.191 5     -1735.715          35.000    20843090.016 5  86536964.056 5     -1350.003          32.000
R19  20302254.984 6 108603393.524 6      2328.289          38.000    20302260.109 7  84469319.304 7      1810.891          45.000
C11  23902851.062 7 124468457.912 7      3031.340          46.000    23902853.297 8  96246851.712 8      2344.024          51.000
C12  22280427.773 8 116020074.925 8       249.895          49.000    22280426.734 8  89714070.363 8       193.083          51.000
C24  23374905.438 6 121719230.992 6     -1962.793          41.000
C25  21929125.094 6 114190690.248 6       803.262          41.000
E01  23740426.992 7 124756778.996 7       421.184          42.000    23740428.117 6  95592857.422 6       322.722          41.000
E04  25741895.578 7 135274589.294 7     -1836.398          45.000    25741895.828 7 103651924.821 7     -1407.215          47.000
E21                                                                  25062077.945 6 100914585.381 6     -1240.535          38.000
E26  24718845.938 8 129898420.963 8      2519.441          51.000    24718847.961 8  99532597.253 8      1930.403          51.000
> 2020 05 11 09 05  0.0000000  0 15        .000000000000
G02  23462849.211 5 123298083.307 5      1677.828          33.000
G12  20097865.586 8 105614993.705 8      -424.891          51.000    20097863.812 8  82297401.745 8      -331.084          51.000
G24  21130736.305 8 111042783.697 8     -2157.148          49.000    21130739.383 8  86526833.606 8     -1680.895          49.000
G29  23429638.273 5 123123545.043 5      3684.656          32.000    23429642.984 5  95940447.487 5      2871.164          30.000
R07  22430383.891 6 120071579.765 6     -3190.230          41.000    22430384.953 6  93389040.467 6     -2481.290          38.000
R16  20909001.062 5 111692154.096 5     -2152.359          34.000    20909001.758 4  86871658.537 4     -1674.054          26.000
R19  20289262.109 6 108533889.968 6      2306.070          40.000    20289267.180 7  84415260.974 7      1793.610          45.000
C11  23885406.641 7 124377623.665 7      3024.941          46.000    23885408.750 8  96176612.942 8      2339.052          49.000
C12  22279035.094 7 116012824.100 7       234.086          47.000    22279034.586 8  89708463.611 8       181.146          51.000
C24  23386229.977 6 121778206.992 6     -1968.359          39.000
C25  21924520.242 7 114166707.140 7       796.508          43.000
E01  23738033.352 7 124744200.750 7       417.914          43.000    23738034.703 7  95583219.567 7       320.340          42.000
E04  25752405.859 7 135329819.158 7     -1845.055          46.000    25752406.234 8 103694243.766 8     -1413.758          48.000
E21  25071327.508 5 131750720.440 5     -1620.852          34.000    25071329.391 6 100951830.130 6     -1241.933          38.000
E26  24704481.883 8 129822940.566 8      2513.227          49.000    24704487.070 8  99474761.653 8      1925.725          51.000
> 2020 05 11 09 05 30.0000000  0 16        .000000000000
G02  23453319.430 5 123247992.486 5      1662.512          31.000
G12  20100337.930 8 105627986.308 8      -440.000          51.000    20100336.195 8  82307525.845 8      -342.857          51.000
G24  21143099.633 8 111107754.790 8     -2172.832          48.000    21143103.180 7  86577460.420 7     -1693.119          47.000
G25  20712630.906 5 108845638.655 5      1492.188          31.000    20712639.953 5  84814799.982 5      1162.740          30.000
G29  23408635.914 5 123013168.507 5      3674.355          34.000    23408641.258 5  95854439.824 5      2863.134          34.000
R07  22448311.984 7 120167557.991 7     -3207.117          43.000    22448313.891 6  93463690.125 6     -2494.428          39.000
R18  20862878.016 5 111367460.521 5     -1786.730          30.000    20862885.383 4  86619138.671 4     -1389.679          28.000
R19  20276411.008 6 108465140.157 6      2278.555          41.000    20276414.672 7  84361788.887 7      1772.209          44.000
C11  23868015.844 7 124287067.492 7      3013.387          46.000    23868017.273 8  96106589.214 8      2330.142          48.000
C12  22277748.648 7 116006124.303 7       213.719          47.000    22277748.188 8  89703282.925 8       165.270          51.000
C24  23397602.297 7 121837427.201 7     -1978.605          43.000
C25  21919971.867 7 114143017.125 7       784.273          44.000
E01  23735674.164 7 124731803.609 7       409.777          44.000    23735675.844 7  95573720.415 7       314.081          42.000
E04  25762981.328 7 135385392.446 7     -1858.543          45.000    25762982.609 8 103736825.898 8     -1424.075          49.000
E21  25080600.398 4 131799444.431 4     -1627.383          29.000    25080605.594 5 100989175.561 5     -1246.938          34.000
E26  24690169.523 8 129747731.648 8      2501.934          49.000    24690176.469 8  99417134.053 8      1917.081          51.000
> 2020 05 11 09 06  0.0000000  0 14        .000000000000
G12  20102883.141 8 105641361.856 8      -448.023          51.000    20102881.727 8  82317948.361 8      -349.109          51.000
G24  21155537.531 7 111173119.849 7     -2181.066          44.000    21155541.852 7  86628394.248 7     -1699.532          44.000
G29  23387673.875 5 122903001.594 5      3672.766          34.000    23387679.125 5  95768595.528 5      2861.898          35.000
G32  22257156.352 6 116962141.348 6       915.320          36.000    22257156.609 6  91139334.028 6       713.237          36.000
R07  22466322.742 7 120263974.522 7     -3216.879          42.000    22466325.797 6  93538680.699 6     -2502.017          40.000
R19  20263700.500 7 108397140.725 7      2258.539          42.000    20263702.492 7  84308900.470 7      1756.645          44.000
C11  23850677.961 7 124196785.197 7      3008.945          47.000    23850678.258 8  96036777.287 8      2326.677          48.000
C12  22276566.719 7 115999969.253 7       200.324          46.000    22276565.891 8  89698523.442 8       154.780          51.000
C24  23409021.539 7 121896885.031 7     -1981.438          45.000
C25  21915478.273 7 114119614.851 7       779.539          44.000
E01  23733348.305 7 124719581.266 7       408.746          44.000    23733350.148 7  95564355.253 7       313.042          43.000
E04  25773620.867 7 135441301.356 7     -1864.941          46.000    25773622.836 8 103779665.201 8     -1429.053          50.000
E21  25089898.398 6 131848311.493 6     -1626.660          36.000    25089902.812 4 101026640.844 4     -1246.222          28.000
E26  24675908.469 8 129672789.857 8      2497.812          50.000    24675915.656 8  99359711.128 8      1913.878          51.000
> 2020 05 11 09 06 30.0000000  0 13        .000000000000
G12  20105508.078 8 105655156.217 8      -473.395          51.000    20105506.820 8  82328697.211 8      -368.879          51.000
G24  21168056.914 7 111238914.692 7     -2206.902          44.000    21168062.414 7  86679662.943 7     -1719.664          44.000
G25  20695725.688 6 108756767.155 6      1462.246          36.000    20695724.992 5  84745528.103 5      1139.422          33.000
R07  22484421.148 7 120360861.951 7     -3244.094          44.000    22484425.953 6  93614037.580 6     -2523.184          41.000
R19  20251137.328 7 108329931.807 7      2220.266          42.000    20251138.117 7  84256626.928 7      1726.876          43.000
C11  23833400.469 7 124106815.090 7      2987.359          47.000    23833399.750 8  95967206.733 8      2309.907          48.000
C12  22275496.344 7 115994395.011 7       169.520          46.000    22275495.289 8  89694213.063 8       131.159          51.000
C24  23420493.398 7 121956616.516 7     -2002.117          44.000
C25  21911046.641 7 114096537.212 7       757.223          45.000
E01  23731062.758 7 124707570.182 7       390.215          44.000    23731064.609 7  95555151.955 7       299.089          44.000
E04  25784330.938 7 135497580.633 7     -1888.766          46.000    25784332.922 8 103822788.263 8     -1447.239          50.000
E21  25099226.570 6 131897336.869 6     -1643.711          36.000
E26  24661705.734 8 129598153.499 8      2476.156          51.000    24661712.453 8  99302522.244 8      1897.365          51.000
> 2020 05 11 09 07  0.0000000  0 15        .000000000000
G12  20108196.852 8 105669285.965 8      -476.551          51.000    20108195.375 8  82339707.404 8      -371.335          51.000
G24  21180642.953 8 111305056.066 8     -2210.324          48.000    21180648.680 8  86731201.676 8     -1722.331          48.000
G25  20687367.031 5 108712846.559 5      1459.148          31.000    20687363.219 5  84711292.032 5      1137.008          30.000
R07  22502591.758 7 120458131.751 7     -3248.523          46.000    22502596.547 6  93689691.825 6     -2526.632          40.000
R09  19926147.055 4 106404449.644 4      1553.836          28.000
R16  20957852.617 5 111953054.295 5     -2193.191          32.000    20957851.812 4  87074621.716 4     -1705.812          25.000
R19  20238706.320 6 108263432.295 6      2204.711          41.000    20238706.227 7  84204905.120 7      1714.778          42.000
C11  23816167.734 8 124017077.330 8      2987.324          48.000    23816166.492 8  95897815.830 8      2310.025          49.000
C12  22274521.586 7 115989319.626 7       160.875          45.000    22274520.742 8  89690288.447 8       124.438          51.000
C24  23432001.180 7 122016539.495 7     -2000.512          44.000
C25  21906661.586 7 114073703.280 7       757.180          44.000
E01  23728802.062 7 124695687.869 7       393.977          45.000    23728803.812 7  95546047.324 7       301.929          44.000
E04  25795095.477 7 135554146.007 7     -1890.203          47.000    25795097.062 8 103866130.557 8     -1448.370          50.000
E21  25108570.719 6 131946440.872 6     -1637.680          36.000
E26  24647545.859 8 129523741.817 8      2476.668          51.000    24647551.297 8  99245505.514 8      1897.710          50.000
> 2020 05 11 09 07 30.0000000  0 14        .000000000000
G12  20110959.734 8 105683804.979 8      -483.844          51.000    20110958.133 8  82351020.930 8      -377.021          51.000
G24  21193306.031 8 111371598.405 8     -2218.211          50.000    21193311.180 8  86783052.837 8     -1728.476          50.000
G29  23325041.812 5 122573921.548 5      3654.047          35.000
R07  22520844.383 7 120555836.126 7     -3257.336          47.000    22520848.266 6  93765684.053 6     -2533.487          40.000
R16  20970206.359 5 112019038.228 5     -2198.184          31.000
R19  20226418.469 6 108197701.927 6      2184.926          40.000    20226418.664 7  84153781.560 7      1699.387          42.000
C11  23798990.602 8 123927629.044 8      2983.328          48.000    23798989.047 8  95828648.780 8      2306.850          49.000
C12  22273652.594 7 115984797.853 7       148.043          46.000    22273652.422 8  89686791.965 8       114.398          51.000
C24  23443556.523 7 122076708.692 7     -2003.227          43.000
C25  21902333.953 7 114051168.992 7       752.695          46.000
E01  23726576.484 7 124683989.934 7       393.375          45.000    23726578.242 7  95537083.985 7       301.429          44.000
E04  25805924.406 7 135611051.405 7     -1896.016          46.000    25805925.898 8 103909733.375 8     -1452.776          50.000
E21  25117940.906 5 131995679.115 5     -1637.062          35.000
E26  24633439.727 8 129449612.257 8      2472.809          51.000    24633443.680 8  99188704.997 8      1894.666          49.000
> 2020 05 11 09 08  0.0000000  0 17        .000000000000
G02  23406759.758 5 123003356.942 5      1595.457          33.000
G12  20113750.281 8 105698469.215 8      -503.504          51.000    20113748.797 8  82362447.605 8      -392.341          51.000
G24  21205998.992 8 111438296.529 8     -2238.156          50.000    21206003.312 8  86835025.409 8     -1744.018          50.000
G25  20670798.375 5 108625773.482 5      1434.363          32.000
G29  23304191.938 6 122464381.540 6      3639.168          38.000
R07  22539131.188 7 120653721.721 7     -3278.395          46.000    22539134.492 6  93841817.227 6     -2549.862          41.000
R09  19908741.617 5 106311568.342 5      1531.363          31.000
R16  20982569.367 5 112085102.236 5     -2215.160          33.000    20982577.148 4  87177330.830 4     -1722.902          27.000
R19  20214228.312 6 108132494.966 6      2152.398          39.000    20214228.852 7  84103065.077 7      1674.091          42.000
C11  23781822.906 8 123838230.529 8      2966.922          49.000    23781821.039 8  95759520.195 8      2294.122          48.000
C12  22272844.320 8 115980587.919 8       122.938          48.000    22272843.680 8  89683536.555 8        95.048          51.000
C24  23455112.000 6 122136882.047 6     -2018.211          39.000
C25  21898017.508 7 114028693.336 7       736.012          45.000
E01  23724339.266 7 124672232.383 7       380.586          43.000    23724341.312 7  95528074.946 7       291.507          45.000
E04  25816770.984 7 135668051.069 7     -1913.816          46.000    25816772.930 8 103953408.424 8     -1466.428          50.000
E21  25127289.961 5 132044799.391 5     -1648.160          35.000
E26  24619340.992 8 129375522.625 8      2456.637          51.000    24619343.828 8  99131935.075 8      1882.373          48.000
> 2020 05 11 09 08 30.0000000  0 16        .000000000000
G02  23397684.430 5 122955669.030 5      1585.125          32.000    23397679.734 5  95809581.792 5      1235.162          30.000
G12  20116653.969 8 105713728.059 8      -511.973          51.000    20116652.484 8  82374337.614 8      -398.940          51.000
G24  21218807.016 8 111505599.954 8     -2246.906          50.000    21218810.641 8  86887469.617 8     -1750.836          50.000
G25  20662636.891 6 108582877.400 6      1427.113          36.000    20662653.492 6  84610065.261 6      1112.039          36.000
G29  23283428.398 6 122355278.287 6      3635.957          37.000    23283411.297 5  95341666.877 5      2833.213          32.000
R07  22557536.031 7 120752242.681 7     -3287.848          45.000    22557540.180 7  93918444.629 7     -2557.218          43.000
R16  20995030.211 5 112151668.920 5     -2220.184          31.000
R19  20202222.000 6 108068272.874 6      2131.203          40.000    20202223.078 7  84053114.591 7      1657.599          42.000
C11  23764750.773 8 123749330.039 8      2961.648          49.000    23764748.422 8  95690776.741 8      2290.092          48.000
C12  22272181.281 8 115977135.961 8       109.070          48.000    22272180.602 8  89680867.295 8        84.325          51.000
C24  23466751.922 6 122197505.673 6     -2021.426          38.000
C25  21893797.984 7 114006723.469 7       730.508          46.000
E01  23722176.000 7 124660865.644 7       378.957          43.000    23722178.555 7  95519365.355 7       290.453          45.000
E04  25827720.383 7 135725593.671 7     -1920.406          45.000    25827723.273 8 103997499.509 8     -1471.510          49.000
E21  25136703.664 5 132094267.788 5     -1648.094          34.000
E26  24605335.680 8 129301925.156 8      2451.613          51.000    24605338.000 8  99075542.254 8      1878.575          48.000
> 2020 05 11 09 09  0.0000000  0 16        .000000000000
G12  20119615.719 8 105729292.617 8      -524.871          51.000    20119614.156 8  82386465.839 8      -408.990          51.000
G24  21231675.242 8 111573219.795 8     -2260.098          51.000    21231677.773 8  86940160.396 8     -1761.115          51.000
G25  20654526.930 5 108540259.375 5      1415.082          34.000    20654552.273 5  84576856.520 5      1102.670          31.000
G29  23262693.547 6 122246326.070 6      3628.133          37.000    23262677.688 6  95256769.170 6      2827.123          37.000
R07  22576003.352 7 120851101.038 7     -3301.766          46.000    22576009.250 7  93995334.431 7     -2568.040          43.000
R16  21007532.445 5 112218462.892 5     -2230.680          32.000
R18  20936688.336 5 111761463.227 5     -1964.848          34.000
R19  20190345.719 6 108004745.460 6      2104.699          39.000    20190347.039 7  84003704.407 7      1636.988          42.000
C11  23747719.836 8 123660644.428 8      2951.500          49.000    23747717.102 8  95622199.428 8      2282.580          48.000
C12  22271609.047 8 115974156.375 8        90.547          49.000    22271608.516 8  89678563.309 8        70.092          51.000
C24  23478425.117 6 122258293.833 6     -2029.797          40.000
C25  21889621.344 7 113984974.920 7       720.402          47.000
E01  23720032.391 7 124649601.839 7       372.891          43.000    23720034.922 7  95510734.634 7       285.784          45.000
E04  25838717.836 7 135783389.601 7     -1931.617          44.000    25838721.680 8 104041784.682 8     -1480.025          48.000
E21  25146127.328 6 132143789.541 6     -1652.566          36.000
E26  24591369.445 8 129228533.769 8      2442.125          51.000    24591372.484 8  99019307.354 8      1871.215          49.000
> 2020 05 11 09 09 30.0000000  0 15        .000000000000
G12  20122643.508 8 105745204.418 8      -536.602          51.000    20122642.070 8  82398864.629 8      -418.131          51.000
G24  21244611.469 8 111641197.466 8     -2272.328          51.000    21244612.438 8  86993129.996 8     -1770.648          51.000
G25  20646477.016 5 108497962.362 5      1404.742          33.000    20646478.180 5  84543869.063 5      1094.604          30.000
G29  23241997.039 6 122137570.081 6      3621.832          38.000    23241985.805 6  95172024.333 6      2822.207          37.000
R07  22594541.281 7 120950336.100 7     -3314.430          46.000    22594547.758 7  94072517.230 7     -2577.890          43.000
R16  21020087.055 4 112285527.081 4     -2239.777          26.000
R19  20178608.109 6 107941959.045 6      2080.094          39.000    20178609.430 7  83954870.563 7      1617.854          42.000
C11  23730738.414 8 123572217.851 8      2942.754          49.000    23730735.750 8  95553822.440 8      2275.624          49.000
C12  22271135.781 8 115971691.143 8        73.242          49.000    22271134.883 8  89676657.047 8        56.569          51.000
C24  23490139.133 6 122319288.514 6     -2037.062          41.000
C25  21885495.594 7 113963490.605 7       711.434          47.000
E01  23717916.391 7 124638483.537 7       367.707          43.000    23717918.922 7  95502215.395 7       281.747          45.000
E04  25849771.430 7 135841479.663 7     -1941.613          44.000    25849775.469 8 104086295.214 8     -1487.801          48.000
E21  25155569.055 6 132193404.741 6     -1655.879          38.000    25155591.578 5 101291105.610 5     -1268.856          35.000
E26  24577451.234 8 129155392.851 8      2433.430          51.000    24577455.062 8  98963264.323 8      1864.552          50.000
> 2020 05 11 09 10  0.0000000  0 15        .000000000000
G12  20125711.438 8 105761326.849 8      -539.914          51.000    20125710.328 8  82411427.566 8      -420.712          51.000
G24  21257589.586 8 111709395.875 8     -2275.805          51.000    21257589.133 8  87046271.595 8     -1773.354          51.000
G25  20638463.305 5 108455850.491 5      1401.609          35.000    20638467.117 5  84511054.624 5      1092.163          35.000
G29  23221312.977 6 122028876.277 6      3623.090          36.000    23221301.695 5  95087327.975 5      2823.193          35.000
G32  22219070.039 5 116762006.184 5       764.133          34.000    22219071.570 5  90983379.278 5       595.422          35.000
R07  22613123.102 7 121049804.393 7     -3318.445          47.000    22613128.984 7  94149881.376 7     -2581.013          42.000
R19  20166984.008 6 107879777.820 6      2063.777          38.000    20166985.516 6  83906507.442 6      1605.163          41.000
C11  23713781.016 8 123483917.684 8      2942.133          48.000    23713778.859 8  95485543.152 8      2275.183          51.000
C12  22270735.219 8 115969605.373 8        64.184          49.000    22270734.227 8  89675044.197 8        49.721          51.000
C24  23501867.109 7 122380354.604 7     -2035.715          42.000
C25  21881394.578 7 113942136.789 7       710.719          46.000
E01  23715802.273 7 124627374.856 7       371.219          43.000    23715804.766 7  95493703.533 7       284.521          46.000
E04  25860855.359 7 135899726.204 7     -1942.902          46.000    25860858.422 7 104130925.647 7     -1488.816          47.000
E21  25165003.125 5 132242983.750 5     -1650.910          33.000    25165021.734 5 101329090.665 5     -1264.678          35.000
E26  24563554.969 8 129082368.314 8      2433.164          50.000    24563559.977 8  98907310.471 8      1864.435          51.000
> 2020 05 11 09 10 30.0000000  0 17        .000000000000
G12  20128887.664 8 105778017.973 8      -562.281          51.000    20128886.562 8  82424433.637 8      -438.141          51.000
G24  21270677.539 8 111778172.573 8     -2298.559          51.000    21270676.484 8  87099863.779 8     -1791.088          51.000
G25  20630553.281 5 108414282.825 5      1380.070          35.000    20630556.469 5  84478664.265 5      1075.383          35.000
G29  23200710.062 5 121920605.680 5      3605.715          35.000    23200698.188 5  95002961.348 5      2809.651          35.000
G32  22214822.430 5 116739695.792 5       733.828          34.000    22214837.078 4  90965994.530 4       571.799          29.000
R07  22631815.805 7 121149866.861 7     -3341.609          47.000    22631820.953 7  94227707.696 7     -2599.033          42.000
R09  19866331.047 5 106085067.406 5      1483.262          33.000
R18  20970423.141 5 111941541.267 5     -2039.320          35.000    20970413.906 4  87065604.398 4     -1586.138          26.000
R19  20155542.016 6 107818570.224 6      2027.750          37.000    20155542.820 6  83858901.557 6      1577.142          41.000
C11  23696916.562 8 123396101.455 8      2922.660          49.000    23696915.102 8  95417638.071 8      2259.983          51.000
C12  22270475.969 8 115968254.352 8        36.262          50.000    22270475.375 8  89673999.546 8        28.064          51.000
C24  23513676.203 6 122441847.547 6     -2053.336          40.000
C25  21877387.164 7 113921269.841 7       690.934          47.000
E01  23713757.961 7 124616634.685 7       355.504          42.000    23713760.539 7  95485474.036 7       272.363          46.000
E04  25872037.148 7 135958486.336 7     -1963.719          47.000    25872039.055 8 104175949.603 8     -1504.536          48.000
E21  25174497.547 6 132292875.005 6     -1664.703          38.000    25174503.117 5 101367319.110 5     -1275.860          31.000
E26  24549749.367 8 129009820.797 8      2413.852          49.000    24549755.375 8  98851722.135 8      1849.640          51.000
> 2020 05 11 09 11  0.0000000  0 17        .000000000000
G02  23353376.508 5 122722839.228 5      1518.832          34.000    23353367.742 5  95628137.893 5      1183.490          34.000
G12  20132124.922 8 105795029.439 8      -572.223          51.000    20132123.477 8  82437689.320 8      -445.891          51.000
G24  21283828.078 8 111847278.937 8     -2308.875          51.000    21283827.016 8  87153712.850 8     -1799.123          51.000
G25  20622698.766 5 108373012.139 5      1370.035          33.000    20622699.312 5  84446505.277 5      1067.560          32.000
G29  23180139.508 5 121812513.188 5      3600.242          35.000    23180127.078 5  94918733.572 5      2805.390          34.000
R07  22650571.391 7 121250266.811 7     -3352.062          47.000    22650575.914 7  94305796.509 7     -2607.160          42.000
R16  21058065.508 5 112488378.880 5     -2268.203          31.000    21058058.906 4  87490937.626 4     -1764.155          26.000
R18  20981962.945 4 112003142.730 4     -2062.543          28.000    20981932.953 4  87113436.355 4     -1604.215          26.000
R19  20144234.797 6 107758086.581 6      2004.148          37.000    20144235.875 7  83811858.773 7      1558.782          42.000
C11  23680098.672 8 123308526.066 8      2915.332          50.000    23680097.938 8  95349919.226 8      2254.320          51.000
C12  22270310.555 8 115967392.706 8        20.734          48.000    22270310.031 8  89673333.272 8        16.039          51.000
C24  23525520.312 6 122503521.850 6     -2058.898          40.000
C25  21873426.828 8 113900645.464 8       683.512          48.000
E01  23711736.461 6 124606015.711 6       352.051          41.000    23711739.414 7  95477337.429 7       269.717          46.000
E04  25883269.047 7 136017510.896 7     -1971.723          46.000    25883270.773 8 104221176.218 8     -1510.827          48.000
E21  25184005.023 5 132342836.129 5     -1666.219          34.000
E26  24535987.898 8 128937504.701 8      2406.777          50.000    24535994.492 8  98796311.128 8      1844.169          51.000
> 2020 05 11 09 11 30.0000000  0 17        .000000000000
G02  23344750.062 5 122677545.916 5      1503.082          33.000    23344745.547 5  95592844.513 5      1171.242          34.000
G12  20135438.562 8 105812442.318 8      -586.051          51.000    20135437.055 8  82451257.791 8      -456.663          51.000
G24  21297056.523 8 111916796.272 8     -2323.086          50.000    21297056.016 8  87207882.158 8     -1810.200          50.000
G25  20614917.164 5 108332120.419 5      1358.027          32.000    20614914.648 5  84414641.521 5      1058.203          33.000
G29  23159609.797 5 121704575.049 5      3591.160          35.000    23159604.305 5  94834719.163 5      2798.310          31.000
R07  22669404.750 8 121351083.172 8     -3366.414          48.000    22669408.781 7  94384209.204 7     -2618.322          42.000
R09  19849753.336 5 105996573.695 5      1463.977          32.000
R16  21070838.297 5 112556613.649 5     -2279.633          33.000    21070839.383 4  87544065.484 4     -1773.045          25.000
R19  20133079.555 6 107698413.294 6      1976.914          38.000    20133080.961 7  83765446.240 7      1537.600          43.000
C11  23663343.062 8 123221274.746 8      2903.992          50.000    23663342.930 8  95282450.994 8      2245.639          51.000
C12  22270254.562 8 115967101.254 8         1.227          49.000    22270254.031 8  89673107.915 8         1.015          51.000
C24  23537415.172 6 122565458.298 6     -2068.219          38.000
C25  21869528.773 8 113880345.605 8       672.371          48.000
E01  23709754.062 7 124595599.868 7       344.945          43.000    23709757.016 7  95469356.443 7       264.300          46.000
E04  25894566.188 7 136076880.042 7     -1983.676          46.000    25894568.719 8 104266666.850 8     -1519.900          49.000
E21  25193540.484 5 132392950.007 5     -1672.078          33.000
E26  24522286.805 8 128865503.795 8      2395.781          51.000    24522293.203 8  98741141.618 8      1835.779          51.000
> 2020 05 11 09 12  0.0000000  0 16        .000000000000
G02  23336197.383 5 122632628.918 5      1489.816          35.000
G12  20138814.250 8 105830181.380 8      -597.406          51.000    20138812.961 8  82465080.435 8      -465.511          51.000
G24  21310348.695 8 111986648.911 8     -2334.555          49.000    21310349.094 8  87262312.776 8     -1819.134          49.000
G25  20607193.531 5 108291532.309 5      1347.152          35.000    20607192.531 5  84383015.266 5      1049.729          34.000
G29  23139122.453 5 121596934.919 5      3584.203          34.000    23139122.344 5  94750843.832 5      2792.886          33.000
R07  22688300.656 7 121452235.729 7     -3377.953          47.000    22688304.391 7  94462883.352 7     -2627.300          42.000
R16  21083664.836 5 112625128.984 5     -2288.500          34.000    21083663.812 4  87597335.730 4     -1779.947          25.000
R19  20122062.328 6 107639477.019 6      1951.496          40.000    20122063.375 7  83719606.912 7      1517.830          45.000
C11  23646635.883 8 123134275.622 8      2895.082          50.000    23646636.062 8  95215177.780 8      2238.721          51.000
C12  22270294.289 8 115967306.000 8       -15.742          48.000    22270293.805 8  89673266.261 8       -12.158          51.000
C24  23549345.422 6 122627582.937 6     -2074.812          38.000
C25  21865678.953 8 113860297.365 8       663.336          49.000
E01  23707796.844 7 124585312.788 7       340.223          44.000    23707799.070 7  95461474.142 7       260.648          46.000
E04  25905914.812 7 136136517.595 7     -1992.949          47.000    25905917.961 8 104312363.149 8     -1527.092          49.000
E21  25203091.078 5 132443139.871 5     -1674.992          34.000
E26  24508632.102 8 128793745.364 8      2387.262          51.000    24508637.641 8  98686157.900 8      1829.210          51.000
> 2020 05 11 09 12 30.0000000  0 15        .000000000000
G12  20142232.750 8 105848145.657 8      -611.305          51.000    20142231.461 8  82479078.555 8      -476.341          51.000
G24  21323685.625 8 112056735.580 8     -2348.836          51.000    21323687.062 8  87316925.751 8     -1830.262          51.000
G25  20599509.570 5 108251150.351 5      1334.031          35.000    20599508.938 5  84351548.767 5      1039.502          34.000
R07  22707239.359 7 121553617.655 7     -3392.137          47.000    22707242.734 7  94541735.921 7     -2638.329          42.000
R09  19833396.180 4 105909227.541 4      1441.387          27.000    19833411.391 4  82373870.934 4      1121.082          25.000
R16  21096518.227 5 112693793.718 5     -2300.715          31.000
R19  20111164.375 6 107581178.893 6      1923.703          40.000    20111165.742 7  83674263.953 7      1496.214          46.000
C11  23629958.391 8 123047431.749 8      2883.461          49.000    23629958.797 8  95148024.667 8      2229.563          51.000
C12  22270409.789 7 115967907.591 7       -35.324          47.000    22270409.109 8  89673731.479 8       -27.448          48.000
C24  23561291.875 6 122689796.366 6     -2083.859          36.000
C25  21861858.445 8 113840402.561 8       651.895          49.000
E01  23705845.414 7 124575054.596 7       332.738          45.000    23705846.719 7  95453613.988 7       254.776          46.000
E04  25917295.367 8 136196321.861 8     -2004.980          48.000    25917299.195 8 104358187.164 8     -1536.371          50.000
E21                                                                  25212644.141 5 101520859.895 5     -1287.383          32.000
E26  24495004.867 8 128722131.332 8      2375.844          51.000    24495009.484 8  98631284.839 8      1820.452          51.000
> 2020 05 11 09 13  0.0000000  0 16        .000000000000
G02  23319314.227 5 122543834.238 5      1467.379          31.000
G12  20145746.430 8 105866610.335 8      -616.785          51.000    20145744.891 8  82493466.604 8      -480.612          51.000
G24  21337119.531 8 112127330.939 8     -2354.578          51.000    21337121.555 8  87371935.135 8     -1834.736          51.000
G25  20591916.562 6 108211249.282 6      1329.027          36.000    20591916.188 5  84320457.081 5      1035.606          35.000
R07  22726272.633 7 121655505.568 7     -3397.559          46.000    22726276.008 7  94620982.016 7     -2642.549          43.000
R16  21109454.047 5 112762888.040 5     -2302.199          33.000
R18  21029424.047 5 112256466.500 5     -2156.680          34.000    21029416.125 4  87310575.673 4     -1677.418          26.000
R19  20100438.734 6 107523802.508 6      1904.445          41.000    20100440.211 7  83629637.898 7      1481.235          46.000
C11  23613363.672 8 122961018.659 8      2880.238          49.000    23613363.852 8  95081204.639 8      2227.174          50.000
C12  22270653.656 7 115969179.051 7       -46.613          45.000    22270652.602 8  89674714.650 8       -35.987          48.000
C24  23573308.680 5 122752371.683 5     -2085.332          35.000
C25  21858119.781 8 113820935.427 8       648.656          48.000
E01  23703951.758 7 124565101.254 7       333.715          45.000    23703952.648 7  95445987.403 7       255.647          46.000
E04  25928759.867 8 136256566.999 8     -2008.508          48.000    25928763.586 8 104404348.972 8     -1539.001          49.000
E21                                                                  25222237.719 5 101559504.325 5     -1285.327          31.000
E26  24481457.617 8 128650939.350 8      2373.059          51.000    24481461.320 8  98576735.182 8      1818.336          51.000
> 2020 05 11 09 13 30.0000000  0 13        .000000000000
G12  20149312.133 8 105885348.709 8      -631.578          51.000    20149310.492 8  82508067.934 8      -492.139          51.000
G24  21350607.148 8 112198208.269 8     -2369.773          51.000    21350609.711 8  87427164.231 8     -1846.577          51.000
G25  20584372.508 6 108171604.142 6      1314.828          36.000    20584372.789 6  84289564.708 6      1024.541          36.000
R07  22745357.234 7 121757665.384 7     -3412.297          47.000    22745360.672 7  94700439.604 7     -2654.009          43.000
R19  20089843.102 6 107467120.753 6      1875.434          40.000    20089844.500 7  83585552.111 7      1458.674          47.000
C11  23596808.914 8 122874814.817 8      2867.418          48.000    23596808.805 8  95014546.447 8      2217.303          49.000
C12  22270983.336 7 115970896.657 7       -67.027          44.000    22270982.078 8  89676042.838 8       -51.984          48.000
C24  23585351.648 5 122815085.208 5     -2095.035          35.000
C25  21854420.211 8 113801673.432 8       636.133          48.000
E01  23702073.000 7 124555227.422 7       325.203          46.000    23702073.828 7  95438421.737 7       249.182          46.000
E04  25940264.820 8 136317025.766 8     -2021.383          49.000    25940267.672 8 104450674.489 8     -1548.900          49.000
E21                                                                  25231836.547 5 101598150.698 5     -1290.981          33.000
E26  24467947.945 8 128579945.819 8      2360.660          51.000    24467950.828 8  98522337.605 8      1808.683          51.000
> 2020 05 11 09 14  0.0000000  0 14        .000000000000
G12  20152930.008 8 105904360.804 8      -641.340          51.000    20152928.477 8  82522882.549 8      -499.745          51.000
G24  21364148.281 8 112269367.730 8     -2379.602          49.000    21364151.398 8  87482613.142 8     -1854.238          49.000
G25  20576877.312 5 108132215.373 5      1305.824          35.000    20576878.602 5  84258872.171 5      1017.528          35.000
G32  22188155.078 5 116599539.608 5       599.250          34.000
R07  22764492.000 7 121860092.883 7     -3421.754          47.000    22764494.891 7  94780105.398 7     -2661.367          43.000
R19  20079377.594 6 107411136.586 6      1851.348          39.000    20079379.234 7  83542008.898 7      1439.940          45.000
C11  23580294.695 8 122788822.639 8      2859.875          48.000    23580294.438 8  94948051.886 8      2211.443          50.000
C12  22271398.688 7 115973060.480 7       -82.355          44.000    22271397.227 8  89677716.037 8       -63.812          49.000
C24  23597421.469 6 122877936.937 6     -2100.336          37.000
C25  21850760.469 8 113782617.819 8       628.781          49.000
E01  23700209.477 7 124545433.614 7       322.105          46.000    23700210.125 7  95430917.389 7       246.763          47.000
E04  25951809.578 7 136377696.819 7     -2028.891          46.000    25951812.070 8 104497162.663 8     -1554.610          49.000
E21                                                                  25241441.492 5 101636826.261 5     -1292.110          32.000
E26  24454476.234 8 128509152.976 8      2353.367          51.000    24454478.773 8  98468093.793 8      1803.241          51.000
> 2020 05 11 09 14 30.0000000  0 17        .000000000000
G02  23294574.773 5 122413835.861 5      1422.281          33.000    23294571.727 5  95387376.127 5      1108.271          33.000
G12  20156641.102 8 105923862.317 8      -656.082          51.000    20156639.672 8  82538078.530 8      -511.233          51.000
G24  21377783.953 8 112341024.752 8     -2394.711          49.000    21377787.555 8  87538449.781 8     -1866.009          49.000
G25  20569472.156 5 108093299.993 5      1290.602          34.000    20569474.211 5  84228548.514 5      1005.664          35.000
G29  23037293.508 6 121061817.574 6      3546.566          36.000    23037302.234 6  94333887.901 6      2763.561          37.000
G32  22184801.086 6 116581926.900 6       577.250          38.000    22184794.383 5  90843023.497 5       449.805          32.000
R07  22783717.781 7 121963004.151 7     -3436.242          47.000    22783719.516 7  94860147.434 7     -2672.636          43.000
R09  19801373.047 5 105738225.079 5      1403.184          32.000    19801372.469 4  82240840.155 4      1091.365          27.000
R19  20069084.062 6 107356073.338 6      1821.926          38.000    20069085.461 7  83499181.901 7      1417.053          44.000
C11  23563862.844 8 122703259.115 8      2847.039          49.000    23563862.609 8  94881888.743 8      2201.478          50.000
C12  22271941.102 7 115975884.978 7      -103.023          45.000    22271939.500 8  89679900.128 8       -79.725          50.000
C24  23609559.836 6 122941141.503 6     -2110.410          36.000
C25  21847182.109 8 113763984.340 8       616.215          50.000
E01  23698402.617 7 124535936.782 7       313.727          46.000    23698402.930 7  95423640.568 7       240.442          46.000
E04  25963435.492 7 136438795.217 7     -2041.516          46.000    25963438.016 8 104543978.309 8     -1564.392          48.000
E21                                                                  25251090.984 5 101675689.228 5     -1297.111          34.000
E26  24441084.477 8 128438779.450 8      2340.883          51.000    24441087.227 8  98414171.256 8      1793.690          51.000
> 2020 05 11 09 15  0.0000000  0 16        .000000000000
G02  23286490.211 5 122371338.935 5      1410.207          31.000    23286490.414 5  95354268.682 5      1098.857          31.000
G12  20160408.891 8 105943661.918 8      -664.617          51.000    20160407.375 8  82553506.790 8      -517.880          51.000
G24  21391477.609 8 112412986.895 8     -2403.551          49.000    21391481.734 8  87594524.186 8     -1872.897          48.000
G25  20562120.969 6 108054667.299 6      1283.191          37.000    20562123.039 6  84198445.139 6       999.889          38.000
G29  23017060.297 6 120955486.789 6      3541.859          40.000    23017067.180 6  94251032.771 6      2759.890          41.000
G32  22181551.914 6 116564854.298 6       560.051          37.000    22181539.758 5  90829696.271 5       436.409          32.000
R07  22802996.586 7 122066200.455 7     -3444.316          46.000    22802997.453 7  94940411.161 7     -2678.913          42.000
R19  20058926.430 6 107301739.378 6      1799.246          38.000    20058928.133 7  83456922.181 7      1399.414          44.000
C11  23547477.383 8 122617937.165 8      2840.273          49.000    23547477.453 8  94815912.391 8      2196.243          51.000
C12  22272574.078 7 115979180.715 7      -117.391          46.000    22272572.602 8  89682448.620 8       -90.819          51.000
C24  23621730.445 6 123004509.821 6     -2114.816          36.000
C25  21843648.742 8 113745584.822 8       609.652          49.000
E01  23696616.078 7 124526546.244 7       311.496          46.000    23696615.734 7  95416445.227 7       238.640          46.000
E04  25975106.719 7 136500128.445 7     -2048.113          47.000    25975108.961 8 104590973.860 8     -1569.357          49.000
E21  25260748.375 5 132746139.956 5     -1692.875          35.000    25260753.461 6 101714593.264 6     -1297.153          36.000
E26  24427736.578 8 128368636.253 8      2334.414          51.000    24427740.281 8  98360425.223 8      1788.680          51.000
> 2020 05 11 09 15 30.0000000  0 15        .000000000000
G12  20164241.766 8 105963803.935 8      -677.621          51.000    20164240.078 8  82569201.875 8      -528.016          51.000
G24  21405237.727 8 112485298.841 8     -2416.750          48.000    21405242.398 8  87650871.175 8     -1883.179          48.000
G25  20554832.477 6 108016363.023 6      1270.910          37.000    20554832.484 6  84168597.682 6       990.320          38.000
G29  22996870.484 7 120849384.225 7      3532.453          43.000    22996875.133 7  94168355.475 7      2752.561          42.000
G32  22178415.336 6 116548367.582 6       539.078          37.000    22178410.195 3  90816854.640 3       420.079          23.000
R07  22822335.891 7 122169723.165 7     -3456.836          45.000    22822336.359 7  95020928.804 7     -2688.650          42.000
R19  20048914.570 6 107248182.796 6      1771.836          40.000    20048915.969 7  83415267.092 7      1378.095          43.000
C11  23531147.422 8 122532903.696 8      2829.125          48.000    23531147.820 8  94750159.101 8      2187.650          51.000
C12  22273306.242 7 115982992.311 7      -136.191          47.000    22273304.766 8  89685395.983 8      -105.291          51.000
C24  23633940.422 6 123068086.346 6     -2123.406          41.000
C25  21840168.922 8 113727465.097 8       598.703          49.000
E01  23694858.297 7 124517307.466 7       304.906          46.000    23694857.523 7  95409366.163 7       233.552          46.000
E04  25986831.516 8 136561740.072 8     -2058.957          49.000    25986833.258 8 104638182.737 8     -1577.606          48.000
E21  25270431.875 6 132797012.004 6     -1697.867          36.000    25270435.750 5 101753573.126 5     -1300.969          35.000
E26  24414441.508 8 128298770.564 8      2323.629          50.000    24414446.391 8  98306891.803 8      1780.506          51.000
> 2020 05 11 09 16  0.0000000  0 16        .000000000000
G12  20168143.438 8 105984307.601 8      -689.547          51.000    20168141.703 8  82585178.759 8      -537.309          51.000
G24  21419068.086 8 112557979.389 8     -2428.883          49.000    21419072.953 8  87707505.351 8     -1892.636          49.000
G25  20547609.461 6 107978407.426 6      1259.391          36.000    20547605.898 5  84139021.960 5       981.346          35.000
G29  22976727.578 7 120743532.041 7      3524.066          42.000    22976730.102 6  94085873.286 6      2746.026          41.000
G32  22175393.773 6 116532487.316 6       519.363          38.000    22175390.594 5  90804480.469 5       404.705          31.000
R07  22841738.828 7 122273588.499 7     -3467.777          44.000    22841739.484 7  95101712.933 7     -2697.160          42.000
R16  21188076.797 4 113182901.871 4     -2361.840          28.000
R19  20039052.672 6 107195427.150 6      1745.105          39.000    20039053.227 7  83374234.960 7      1357.304          43.000
C11  23514877.000 8 122448180.667 8      2818.891          48.000    23514877.758 8  94684645.896 8      2179.763          51.000
C12  22274141.031 7 115987339.185 7      -153.703          47.000    22274139.750 8  89688757.281 8      -118.922          51.000
C24  23646194.602 6 123131890.746 6     -2130.848          40.000
C25  21836746.719 8 113709645.962 8       588.938          50.000
E01  23693133.141 7 124508240.698 7       299.344          47.000    23693132.336 7  95402418.922 7       229.394          47.000
E04  25998612.727 8 136623648.531 8     -2068.645          49.000    25998613.977 8 104685619.070 8     -1585.014          48.000
E21                                                                  25280137.523 5 101792644.293 5     -1303.926          35.000
E26  24401202.977 8 128229204.317 8      2313.859          49.000    24401208.773 8  98253587.817 8      1772.945          51.000
> 2020 05 11 09 16 30.0000000  0 16        .000000000000
G12  20172110.211 8 106005153.095 8      -701.523          51.000    20172108.609 8  82601421.993 8      -546.642          51.000
G24  21432965.133 8 112631008.117 8     -2441.027          50.000    21432969.211 8  87764410.847 8     -1902.099          50.000
G25  20540448.367 5 107940781.603 5      1247.902          35.000    20540445.969 5  84109703.071 5       972.385          34.000
G29  22956628.922 7 120637913.426 7      3515.559          43.000    22956629.594 7  94003573.108 7      2739.396          43.000
G32  22172484.500 5 116517194.827 5       498.207          34.000    22172481.688 4  90792605.288 4       388.228          26.000
R07  22861201.719 7 122377772.150 7     -3479.066          45.000    22861202.469 7  95182744.623 7     -2705.944          42.000
R09  19770263.156 5 105572088.211 5      1362.355          32.000    19770261.828 4  82111639.283 4      1059.604          25.000
R19  20029336.570 6 107143454.836 6      1718.043          39.000    20029337.289 7  83333812.091 7      1336.256          44.000
C11  23498663.195 8 122363751.052 8      2808.453          49.000    23498664.086 8  94619359.557 8      2171.701          51.000
C12  22275074.719 7 115992201.983 7      -171.625          47.000    22275073.914 8  89692517.518 8      -132.769          51.000
C24  23658487.758 6 123195903.784 6     -2138.352          40.000
C25  21833378.898 8 113692109.250 8       578.848          50.000
E01  23691436.914 8 124499326.898 8       293.578          48.000    23691436.594 7  95395588.891 7       224.940          46.000
E04  26010446.133 8 136685832.731 8     -2078.402          48.000    26010447.109 7 104733266.689 7     -1592.539          47.000
E21  25289857.914 6 132899096.274 6     -1705.773          38.000    25289860.719 6 101831791.929 6     -1306.887          37.000
E26  24388017.992 8 128159920.087 8      2303.773          48.000    24388024.438 8  98200499.906 8      1765.265          51.000
> 2020 05 11 09 17  0.0000000  0 16        .000000000000
G12  20176149.820 8 106026381.373 8      -720.656          51.000    20176148.406 8  82617963.510 8      -561.550          51.000
G24  21446936.398 8 112704425.620 8     -2460.414          51.000    21446939.328 8  87821619.236 8     -1917.206          51.000
G25  20533358.781 5 107903527.276 5      1228.961          33.000    20533358.516 5  84080673.692 5       957.635          31.000
G29  22936582.984 7 120532571.880 7      3499.953          44.000    22936582.086 7  93921488.815 7      2727.236          44.000
G32  22169700.484 5 116502561.693 5       471.578          34.000
R07  22880731.234 7 122482311.988 7     -3497.129          43.000    22880731.773 6  95264053.336 6     -2719.992          41.000
R09  19762638.773 5 105531377.999 5      1344.441          30.000
R19  20019775.773 6 107092310.816 6      1684.055          39.000    20019776.508 7  83294033.411 7      1309.820          45.000
C11  23482514.102 8 122279658.226 8      2790.867          49.000    23482515.047 8  94554333.687 8      2158.009          51.000
C12  22276115.531 7 115997621.563 7      -196.520          47.000    22276114.781 8  89696708.280 8      -151.989          51.000
C24  23670829.523 6 123260166.368 6     -2152.801          41.000
C25  21830073.719 8 113674897.203 8       561.797          51.000
E01  23689777.539 7 124490607.944 7       280.699          47.000    23689778.016 7  95388908.145 7       215.135          47.000
E04  26022339.320 8 136748332.669 8     -2095.031          48.000    26022340.383 7 104781156.237 7     -1605.394          47.000
E21  25299607.961 6 132950328.777 6     -1717.008          38.000    25299612.594 6 101871048.000 6     -1315.384          38.000
E26  24374895.289 8 128090961.415 8      2286.445          50.000    24374901.242 8  98147661.446 8      1751.976          50.000
> 2020 05 11 09 17 30.0000000  0 14        .000000000000
G12  20180262.578 8 106047994.566 8      -724.910          51.000    20180261.359 8  82634804.970 8      -564.865          51.000
G24  21460982.320 8 112778234.587 8     -2465.023          51.000    21460983.812 8  87879132.683 8     -1920.801          51.000
G25  20526340.812 6 107866648.071 6      1225.059          36.000    20526342.203 6  84051936.653 6       954.591          37.000
G29  22916591.062 7 120427513.483 7      3498.945          45.000    22916589.219 7  93839625.143 7      2726.451          44.000
R07  22900326.727 7 122587206.887 7     -3500.539          44.000    22900326.625 6  95345638.234 6     -2722.641          40.000
R19  20010370.219 6 107042000.763 6      1665.238          39.000    20010371.914 7  83254903.404 7      1295.188          44.000
C11  23466430.891 8 122195907.564 8      2787.777          49.000    23466431.430 8  94489572.394 8      2155.732          51.000
C12  22277263.578 7 116003600.807 7      -206.801          47.000    22277263.078 8  89701331.821 8      -159.911          51.000
C24  23683218.586 6 123324681.745 6     -2153.137          40.000
C25  21826831.977 8 113658014.028 8       559.125          51.000
E01  23688155.914 7 124482087.341 7       282.652          47.000    23688156.930 7  95382379.404 7       216.509          47.000
E04  26034293.148 8 136811150.047 8     -2097.297          49.000    26034294.305 7 104829288.980 7     -1606.978          47.000
E21  25309385.742 6 133001706.256 6     -1713.242          36.000    25309390.609 6 101910415.081 6     -1312.690          36.000
E26  24361836.312 8 128022333.421 8      2283.918          51.000    24361840.555 8  98095076.410 8      1750.033          49.000
> 2020 05 11 09 18  0.0000000  0 14        .000000000000
G12  20184426.547 8 106069876.393 8      -735.695          51.000    20184425.344 8  82651855.739 8      -573.269          51.000
G24  21475080.477 8 112852318.237 8     -2475.844          51.000    21475081.156 8  87936860.151 8     -1929.232          51.000
G25  20519372.125 6 107830028.528 6      1214.625          37.000    20519374.852 6  84023401.976 6       946.464          36.000
G29  22896631.820 7 120322624.497 7      3491.535          45.000    22896629.195 7  93757893.499 7      2720.677          45.000
R07  22919965.148 7 122692334.596 7     -3509.930          44.000    22919965.266 6  95427404.197 6     -2729.945          41.000
R19  20001099.383 6 106992409.398 6      1638.625          38.000    20001101.492 7  83216332.351 7      1274.486          45.000
C11  23450391.641 8 122112386.325 8      2778.379          49.000    23450391.617 8  94424988.528 8      2148.349          51.000
C12  22278497.281 7 116010024.698 7      -223.527          47.000    22278496.984 8  89706299.182 8      -172.716          51.000
C24  23695634.609 7 123389334.864 7     -2159.160          43.000
C25  21823631.516 8 113641346.008 8       550.117          51.000
E01  23686549.875 7 124473649.609 7       278.098          46.000    23686551.203 7  95375914.119 7       213.037          47.000
E04  26046285.203 8 136874167.347 8     -2105.797          49.000    26046286.562 8 104877574.904 8     -1613.500          48.000
E21  25319168.516 6 133053112.809 6     -1715.758          39.000    25319171.383 5 101949804.496 5     -1314.549          33.000
E26  24348818.711 8 127953922.225 8      2274.844          51.000    24348820.695 8  98042657.487 8      1743.122          49.000
> 2020 05 11 09 18 30.0000000  0 14        .000000000000
G12  20188661.453 8 106092130.809 8      -747.301          51.000    20188660.086 8  82669196.829 8      -582.315          51.000
G24  21489250.359 8 112926779.092 8     -2487.559          51.000    21489250.695 8  87994881.548 8     -1938.357          51.000
G25  20512473.398 6 107793773.538 6      1202.926          41.000    20512475.797 6  83995151.356 6       937.348          41.000
G29  22876725.719 6 120218011.962 6      3483.246          41.000    22876722.203 6  93676377.298 6      2714.221          41.000
R07  22939666.102 7 122797796.867 7     -3519.988          43.000    22939666.977 6  95509430.357 6     -2737.769          41.000
R19  19991983.242 6 106943645.104 6      1612.453          37.000    19991985.875 7  83178404.585 7      1254.130          45.000
C11  23434416.570 8 122029200.269 8      2768.027          48.000    23434416.008 8  94360663.829 8      2140.448          50.000
C12  22279836.047 7 116016996.325 7      -240.594          46.000    22279835.898 8  89711690.108 8      -186.148          51.000
C24  23708096.578 6 123454229.159 6     -2166.434          39.000
C25  21820492.180 8 113624997.718 8       540.254          51.000
E01  23684979.641 7 124465399.485 7       272.727          46.000    23684981.117 7  95369592.592 7       208.886          47.000
E04  26058334.977 8 136937487.340 8     -2114.930          51.000    26058336.531 8 104926092.799 8     -1620.608          49.000
E21  25328976.273 6 133104653.263 6     -1719.824          36.000    25328975.344 5 101989296.546 5     -1317.219          34.000
E26  24335862.453 8 127885834.236 8      2264.941          51.000    24335863.438 8  97990486.242 8      1735.475          50.000
> 2020 05 11 09 19  0.0000000  0 16        .000000000000
G02  23224720.352 5 122046733.298 5      1295.602          33.000
G12  20192960.586 8 106114722.827 8      -758.668          51.000    20192959.117 8  82686801.003 8      -591.170          51.000
G24  21503485.297 8 113001582.603 8     -2499.215          51.000    21503485.359 8  88053169.968 8     -1947.443          51.000
G25  20505637.445 6 107757849.094 6      1191.973          38.000    20505637.688 6  83967158.229 6       928.801          37.000
G29  22856866.867 6 120113643.811 6      3474.691          37.000    22856861.805 6  93595051.501 6      2707.552          37.000
R07  22959422.023 7 122903554.655 7     -3530.238          42.000    22959424.070 6  95591686.380 6     -2745.744          41.000
R09  19732744.758 6 105371679.455 6      1309.469          38.000
R19  19983015.297 6 106895675.498 6      1585.914          36.000    19983018.648 7  83141094.900 7      1233.489          45.000
C11  23418499.586 7 121946317.430 7      2757.723          47.000    23418498.930 8  94296573.590 8      2132.443          51.000
C12  22281273.523 7 116024481.447 7      -258.180          46.000    22281273.242 8  89717478.071 8      -199.511          51.000
C24  23720597.922 6 123519330.458 6     -2173.367          38.000
C25  21817407.672 8 113608936.146 8       530.582          51.000
E01  23683438.750 7 124457303.005 7       267.473          46.000    23683440.539 8  95363388.784 8       204.854          48.000
E04  26070435.156 8 137001074.126 8     -2123.977          50.000    26070437.469 8 104974815.100 8     -1627.400          50.000
E21  25338802.820 5 133156293.201 5     -1723.113          35.000    25338802.656 6 102028864.867 6     -1320.236          36.000
E26  24322961.430 8 127818037.102 8      2255.035          51.000    24322962.352 8  97938537.831 8      1727.917          51.000
> 2020 05 11 09 19 30.0000000  0 15        .000000000000
G02  23217366.320 5 122008088.332 5      1278.574          31.000
G12  20197323.961 8 106137652.825 8      -771.816          51.000    20197322.688 8  82704668.522 8      -601.415          51.000
G24  21517785.141 8 113076729.148 8     -2512.508          50.000    21517785.164 8  88111725.720 8     -1957.798          51.000
G25  20498863.555 5 107722256.826 5      1178.898          34.000    20498862.852 5  83939424.084 5       918.628          32.000
R07  22979231.805 7 123009604.560 7     -3541.738          43.000    22979235.086 6  95674169.588 6     -2754.685          40.000
R09  19725417.219 6 105332549.343 6      1296.977          36.000
R19  19974196.953 6 106848504.374 6      1556.930          36.000    19974200.336 7  83104406.243 7      1210.945          44.000
C11  23402641.688 7 121863741.507 7      2745.453          47.000    23402641.273 8  94232720.665 8      2122.965          51.000
C12  22282809.805 7 116032481.022 7      -276.938          44.000    22282809.359 8  89723663.868 8      -214.405          50.000
C24  23733139.391 6 123584640.093 6     -2182.281          37.000
C25  21814378.570 8 113593163.811 8       518.977          51.000
E01  23681927.500 7 124449361.918 7       260.117          46.000    23681929.750 8  95357304.048 8       199.352          48.000
E04  26082585.859 8 137064927.569 8     -2134.785          50.000    26082588.688 8 105023741.735 8     -1635.750          49.000
E21                                                                  25348651.062 6 102068510.717 6     -1324.285          37.000
E26  24310116.141 8 127750534.175 8      2243.195          51.000    24310117.555 8  97886814.843 8      1718.818          51.000
> 2020 05 11 09 20  0.0000000  0 16        .000000000000
G02  23210094.758 5 121969870.442 5      1269.129          30.000
G12  20201758.914 8 106160958.808 8      -779.867          51.000    20201757.891 8  82722829.016 8      -607.689          51.000
G24  21532156.805 8 113152255.550 8     -2520.500          48.000    21532157.289 8  88170577.471 8     -1964.026          48.000
G25  20492160.984 6 107687035.623 6      1171.180          37.000    20492160.984 6  83911978.949 6       912.608          36.000
G29  22817287.359 6 119905633.578 6      3459.727          38.000    22817284.930 6  93432978.137 6      2695.894          38.000
R07  22999102.969 7 123115981.551 7     -3547.953          43.000    22999106.586 6  95756907.210 6     -2759.522          40.000
R18  21212239.797 5 113232349.988 5     -2483.406          31.000    21212222.969 4  88069561.622 4     -1931.538          26.000
R19  19965535.758 6 106802172.955 6      1533.566          38.000    19965539.086 7  83068370.718 7      1192.777          44.000
C11  23386850.672 8 121781512.324 8      2738.492          49.000    23386850.578 8  94169135.863 8      2117.531          51.000
C12  22284452.453 7 116041032.669 7      -291.102          44.000    22284451.305 8  89730276.522 8      -225.068          49.000
C24  23745727.086 5 123650195.838 5     -2185.875          35.000
C25  21811412.312 8 113577719.640 8       512.648          51.000
E01  23680453.125 7 124441614.800 7       258.387          46.000    23680455.766 8  95351367.961 8       197.916          48.000
E04  26094794.328 8 137129084.255 8     -2140.309          49.000    26094797.125 8 105072900.734 8     -1639.917          49.000
E21                                                                  25358523.328 5 102108263.561 5     -1324.543          33.000
E26  24297334.266 8 127683365.697 8      2236.688          51.000    24297336.812 8  97835348.113 8      1713.840          51.000
> 2020 05 11 09 20 30.0000000  0 15        .000000000000
G12  20206246.484 8 106184541.000 8      -793.352          51.000    20206245.406 8  82741204.744 8      -618.196          51.000
G24  21546581.625 8 113228062.064 8     -2534.191          48.000    21546582.859 8  88229647.496 8     -1974.692          48.000
G25  20485510.883 6 107652086.720 6      1157.648          39.000    20485511.789 6  83884745.974 6       902.061          38.000
G29  22797566.555 7 119801995.190 7      3448.555          44.000    22797561.672 7  93352221.112 7      2687.189          44.000
R07  23019016.750 7 123222580.327 7     -3559.641          44.000    23019019.711 6  95839817.299 6     -2768.612          40.000
R18  21226253.180 5 113307186.296 5     -2507.633          32.000    21226256.812 4  88127767.142 4     -1950.372          26.000
R19  19957013.703 6 106756582.723 6      1504.418          39.000    19957016.656 7  83032911.665 7      1170.106          45.000
C11  23371108.281 8 121699534.237 8      2725.809          50.000    23371108.109 8  94105745.225 8      2107.816          51.000
C12  22286182.266 7 116050037.918 7      -310.312          43.000    22286180.367 7  89737239.924 7      -239.905          47.000
C24  23758343.609 5 123715899.638 5     -2195.371          35.000
C25  21808490.492 8 113562506.664 8       500.648          51.000
E01  23678996.906 7 124433963.119 7       250.883          46.000    23678999.734 8  95345504.975 8       192.253          48.000
E04  26107041.461 8 137193443.616 8     -2151.289          50.000    26107044.156 8 105122214.995 8     -1648.384          50.000
E21                                                                  25368397.578 5 102148024.808 5     -1328.895          31.000
E26  24284596.945 8 127616434.643 8      2224.434          50.000    24284601.242 8  97784063.302 8      1704.496          51.000
> 2020 05 11 09 21  0.0000000  0 15        .000000000000
G12  20210813.602 8 106208540.772 8      -804.590          51.000    20210812.148 8  82759905.852 8      -626.953          51.000
G24  21561086.641 8 113304289.707 8     -2545.465          48.000    21561088.531 8  88289045.650 8     -1983.479          48.000
G25  20478939.773 6 107617552.487 6      1146.918          38.000    20478943.711 6  83857836.140 6       893.702          37.000
G29  22777910.141 7 119698693.332 7      3440.191          46.000    22777905.227 7  93271726.227 7      2680.672          46.000
R07  23038998.719 7 123329540.945 7     -3568.871          44.000    23039001.133 6  95923008.816 6     -2775.789          40.000
R18  21240399.672 5 113382665.695 5     -2529.043          33.000
R19  19948657.758 6 106711880.561 6      1477.617          41.000    19948660.102 7  82998143.343 7      1149.258          46.000
C11  23355441.328 8 121617949.819 8      2715.203          50.000    23355441.219 8  94042659.006 8      2099.733          51.000
C12  22288025.508 6 116059637.002 6      -327.445          40.000    22288023.648 7  89744662.577 7      -253.235          45.000
C24  23771017.320 6 123781891.824 6     -2202.238          39.000
C25  21805640.453 8 113547666.594 8       490.836          51.000
E01  23677586.078 7 124426549.136 7       245.688          46.000    23677588.867 8  95339824.129 8       188.293          48.000
E04  26119354.281 8 137258145.971 8     -2160.016          51.000    26119356.516 8 105171792.096 8     -1655.044          50.000
E21  25378312.977 5 133363925.695 5     -1737.801          32.000    25378312.211 4 102187946.213 4     -1331.232          29.000
E26  24271931.898 8 127549884.912 8      2214.457          48.000    24271937.984 8  97733070.656 8      1696.795          51.000
> 2020 05 11 09 21 30.0000000  0 17        .000000000000
G12  20215419.141 8 106232742.235 8      -813.758          51.000    20215417.250 8  82778764.120 8      -634.097          51.000
G24  21575631.125 8 113380722.086 8     -2554.879          48.000    21575633.367 8  88348603.340 8     -1990.815          48.000
G25  20472406.648 6 107583218.158 6      1137.215          38.000    20472412.539 6  83831082.116 6       886.141          38.000
G29  22758277.125 7 119595515.376 7      3433.516          46.000    22758271.945 7  93191327.868 7      2675.470          46.000
R07  23059006.219 7 123436640.160 7     -3575.871          43.000    23059008.820 6  96006308.142 6     -2781.236          40.000
R09  19696697.453 5 105179251.844 5      1256.723          35.000    19696704.055 4  81806117.880 4       977.451          24.000
R16  21337126.562 5 113979105.637 5     -2461.078          31.000
R18  21254671.766 5 113458776.371 5     -2549.547          34.000    21254670.312 4  88245786.641 4     -1982.978          28.000
R19  19940427.234 6 106667849.490 6      1452.617          40.000    19940429.281 7  82963896.981 7      1129.816          46.000
C11  23339809.250 8 121536548.078 8      2706.699          50.000    23339809.164 8  93979714.039 8      2092.985          51.000
C12  22289941.805 6 116069616.388 6      -342.547          40.000    22289939.148 6  89752379.294 6      -265.000          38.000
C24  23783706.289 6 123847959.106 6     -2207.148          38.000
C25  21802821.328 8 113532987.268 8       482.883          51.000
E01  23676179.773 7 124419158.063 7       242.246          47.000    23676182.234 8  95334160.845 8       185.653          48.000
E04  26131691.180 8 137322974.503 8     -2166.707          51.000    26131693.141 8 105221465.891 8     -1660.264          51.000
E21                                                                  25388224.250 5 102227855.069 5     -1332.295          31.000
E26  24259299.016 7 127483503.194 7      2206.223          47.000    24259306.188 8  97682206.757 8      1690.473          50.000
> 2020 05 11 09 22  0.0000000  0 16        .000000000000
G12  20220099.539 8 106257337.428 8      -825.945          51.000    20220097.430 8  82797929.210 8      -643.594          51.000
G24  21590251.258 8 113457550.823 8     -2567.109          49.000    21590253.469 8  88408469.854 8     -2000.345          49.000
G25  20465947.453 5 107549276.575 5      1126.004          31.000    20465950.180 4  83804634.242 4       877.415          29.000
G29  22738703.984 7 119492656.504 7      3423.762          45.000    22738698.625 7  93111178.151 7      2667.869          45.000
G32  22147983.789 4 116388436.430 4       280.621          28.000
R07  23079074.688 7 123544069.638 7     -3586.070          43.000    23079077.906 6  96089864.366 6     -2789.166          39.000
R09  19689670.828 6 105141719.801 6      1245.004          37.000    19689678.266 4  81776936.843 4       968.339          25.000
R16  21350977.883 5 114053102.392 5     -2471.270          31.000
R19  19932358.781 6 106624687.657 6      1424.770          40.000    19932360.836 7  82930326.694 7      1108.157          46.000
C11  23324248.977 8 121455522.014 8      2694.875          50.000    23324248.891 8  93917059.539 8      2084.057          51.000
C12  22291967.984 6 116080166.528 6      -360.715          39.000    22291964.094 6  89760537.397 6      -279.045          37.000
C24  23796444.625 5 123914292.416 5     -2215.000          32.000
C25  21800070.125 8 113518660.680 8       472.082          51.000
E01  23674814.641 7 124411982.925 7       236.027          47.000    23674816.648 8  95328663.024 8       180.897          48.000
E04  26144088.148 8 137388120.238 8     -2176.309          50.000    26144090.219 8 105271382.739 8     -1667.552          51.000
E26  24246735.773 8 127417484.140 8      2195.012          48.000    24246742.570 8  97631620.758 8      1681.898          48.000
> 2020 05 11 09 22 30.0000000  0 17        .000000000000
G12  20224847.078 8 106282285.919 8      -833.879          51.000    20224845.008 8  82817369.594 8      -649.776          51.000
G24  21604938.984 8 113534735.067 8     -2575.012          49.000    21604940.969 8  88468613.375 8     -2006.503          49.000
G25  20459555.461 6 107515688.538 6      1117.074          36.000    20459554.328 6  83778461.784 6       870.457          36.000
G29  22719183.391 7 119390079.117 7      3418.340          43.000    22719178.688 7  93031247.750 7      2663.641          43.000
G32  22146434.414 5 116380279.027 5       264.984          33.000
R07  23099196.320 7 123651784.154 7     -3591.270          44.000    23099199.445 6  96173642.313 6     -2793.210          38.000
R09  19682704.242 6 105104535.018 6      1237.602          37.000
R16  21364887.672 5 114127395.696 5     -2477.816          34.000
R19  19924445.133 6 106582356.640 6      1401.031          38.000    19924447.422 7  82897402.581 7      1089.694          46.000
C11  23308753.492 8 121374834.290 8      2687.562          50.000    23308753.367 8  93854666.681 8      2078.167          50.000
C12  22294096.047 6 116091247.422 6      -374.559          41.000    22294093.172 7  89769105.931 7      -289.799          42.000
C24  23809225.289 5 123980852.018 5     -2218.582          33.000
C25  21797379.516 8 113504648.344 8       465.531          51.000
E01  23673483.078 7 124404984.205 7       234.125          46.000    23673484.633 8  95323300.374 8       179.332          48.000
E04  26156536.883 8 137453541.699 8     -2181.617          48.000    26156539.297 8 105321510.864 8     -1671.623          50.000
E21  25408129.984 5 133520622.911 5     -1743.500          33.000
E26  24234234.711 8 127351789.781 8      2188.129          48.000    24234240.344 8  97581283.593 8      1676.543          48.000
> 2020 05 11 09 23  0.0000000  0 16        .000000000000
G12  20229665.297 8 106307605.686 8      -851.773          51.000    20229663.352 8  82837099.285 8      -663.720          51.000
G24  21619697.875 8 113612292.334 8     -2593.246          50.000    21619699.211 8  88529047.589 8     -2020.711          50.000
G25  20453235.398 5 107482472.444 5      1099.473          35.000    20453234.836 5  83752579.140 5       856.732          35.000
G29  22699718.984 7 119287803.862 7      3402.727          42.000    22699716.617 7  92951552.758 7      2651.475          42.000
G32  22145003.867 6 116372762.892 6       238.441          36.000    22145000.789 5  90680076.958 5       185.792          31.000
R07  23119374.406 7 123759798.314 7     -3607.145          44.000    23119376.469 6  96257653.290 6     -2805.560          37.000
R09  19675806.977 5 105067717.751 5      1219.469          32.000    19675811.852 4  81719327.819 4       948.488          28.000
R19  19916690.945 6 106540877.290 6      1366.645          38.000    19916693.406 7  82865140.859 7      1062.946          45.000
C11  23293326.938 8 121294505.097 8      2669.961          51.000    23293326.508 8  93792551.067 8      2064.628          50.000
C12  22296329.359 7 116102876.790 7      -398.441          42.000    22296327.992 7  89778098.528 7      -308.112          46.000
C24  23822051.906 5 124047676.031 5     -2233.066          32.000
C25  21794752.945 8 113490969.476 8       448.754          51.000
E01  23672188.414 7 124398180.633 7       221.852          47.000    23672189.719 8  95318087.238 8       170.029          49.000
E04  26169041.094 7 137519255.592 7     -2197.117          47.000    26169043.766 8 105371863.042 8     -1683.389          51.000
E21  25418115.250 5 133573096.405 5     -1754.004          32.000
E26  24221799.195 8 127286440.290 8      2170.844          50.000    24221803.805 8  97531210.685 8      1663.449          49.000
> 2020 05 11 09 23 30.0000000  0 17        .000000000000
G12  20234556.094 8 106333306.859 8      -855.562          51.000    20234554.391 8  82857126.162 8      -666.672          51.000
G24  21634529.594 8 113690232.973 8     -2596.875          50.000    21634530.633 8  88589780.522 8     -2023.539          50.000
G29  22680314.766 7 119185844.624 7      3400.910          43.000    22680314.977 7  92872103.951 7      2650.057          43.000
G32  22143695.891 6 116365889.608 6       225.672          36.000    22143689.133 4  90674721.069 4       175.839          29.000
R07  23139610.219 7 123868119.291 7     -3608.199          42.000    23139611.289 6  96341902.910 6     -2806.377          37.000
R09  19668981.734 5 105031281.367 5      1215.355          34.000    19668990.070 4  81691019.299 4       945.273          24.000
R16  21392878.609 5 114276924.483 5     -2495.273          32.000
R18  21313008.000 5 113770250.392 5     -2633.992          33.000    21313008.633 4  88488010.463 4     -2048.667          26.000
R19  19909098.406 6 106500263.104 6      1347.402          36.000    19909100.914 7  82833552.042 7      1047.980          45.000
C11  23277972.141 8 121214547.822 8      2666.457          51.000    23277971.133 8  93730723.095 8      2061.847          50.000
C12  22298669.844 7 116115065.443 7      -408.234          43.000    22298669.570 8  89787523.560 8      -315.624          48.000
C24  23834931.164 6 124114735.362 6     -2232.430          36.000
C25  21792192.688 8 113477636.456 8       446.055          51.000
E01  23670932.867 7 124391583.960 7       223.969          47.000    23670934.227 8  95313032.638 8       171.642          49.000
E04  26181603.266 8 137585271.608 8     -2197.949          49.000    26181605.609 8 105422446.729 8     -1684.179          50.000
E21  25428131.008 5 133625728.136 5     -1750.066          33.000
E26  24209432.266 8 127221449.013 8      2167.938          51.000    24209436.211 8  97481412.238 8      1661.156          49.000
> 2020 05 11 09 24  0.0000000  0 16        .000000000000
G02  23154934.953 5 121680042.668 5      1142.344          35.000
G12  20239489.719 8 106359233.377 8      -876.055          51.000    20239488.141 8  82877328.630 8      -682.640          51.000
G24  21649404.320 8 113768399.839 8     -2617.414          50.000    21649405.875 8  88650689.745 8     -2039.543          50.000
G29  22660943.109 7 119084047.705 7      3382.492          46.000    22660944.141 7  92792781.669 7      2635.711          46.000
G32  22142475.156 5 116359487.050 5       196.516          35.000    22142473.055 5  90669724.335 5       153.129          34.000
R07  23159872.562 6 123976583.941 6     -3625.898          41.000    23159873.758 6  96426264.242 6     -2820.146          37.000
R09  19662199.602 5 104995069.176 5      1195.383          34.000
R18  21327887.930 5 113849679.328 5     -2665.180          32.000    21327888.906 4  88549788.427 4     -2072.921          28.000
R19  19901637.977 6 106460357.267 6      1310.121          37.000    19901641.070 7  82802514.179 7      1018.983          45.000
C11  23262659.523 8 121134810.129 8      2646.180          51.000    23262658.039 8  93669064.911 8      2046.279          50.000
C12  22301088.211 7 116127658.513 7      -434.520          45.000    22301088.438 8  89797261.308 8      -335.992          49.000
C24  23847830.555 6 124181895.678 6     -2248.848          37.000
C25  21789669.234 8 113464495.894 8       426.793          51.000
E01  23669686.961 7 124385038.770 7       209.270          46.000    23669688.664 8  95308017.488 8       160.263          49.000
E04  26194193.531 8 137651432.286 8     -2215.812          50.000    26194194.844 8 105473141.243 8     -1697.776          50.000
E26  24197104.414 8 127156662.034 8      2148.121          51.000    24197108.055 8  97431770.308 8      1645.954          50.000
> 2020 05 11 09 24 30.0000000  0 17        .000000000000
G02  23148439.828 5 121645916.026 5      1131.734          34.000
G12  20244513.219 8 106385632.258 8      -883.828          51.000    20244511.461 8  82897899.183 8      -688.697          51.000
G24  21664369.125 8 113847039.805 8     -2625.195          50.000    21664371.203 8  88711967.640 8     -2045.610          50.000
G25  20434671.070 5 107384950.261 5      1066.281          33.000    20434669.688 5  83676554.715 5       830.865          33.000
G29  22641650.852 8 118982663.610 8      3376.543          48.000    22641651.812 8  92713781.081 8      2631.072          48.000
G32  22141391.422 5 116353804.104 5       179.668          31.000
R07  23180208.500 6 124085440.516 6     -3630.902          41.000    23180209.438 6  96510930.406 6     -2824.035          36.000
R09  19655508.789 6 104959334.721 6      1187.520          36.000
R19  19894358.227 6 106421414.602 6      1285.969          39.000    19894361.188 7  82772225.436 7      1000.198          45.000
C11  23247436.555 8 121055539.861 8      2638.594          51.000    23247435.344 8  93607768.179 8      2040.186          51.000
C12  22303631.258 7 116140901.174 7      -448.312          45.000    22303631.578 8  89807501.362 8      -346.697          49.000
C24  23860795.617 6 124249402.468 6     -2252.008          40.000
C25  21787230.047 8 113451794.575 8       419.992          51.000
E01  23668498.062 7 124378793.391 7       207.086          46.000    23668500.227 8  95303232.039 8       158.724          49.000
E04  26206858.297 8 137717983.929 8     -2220.961          51.000    26206858.984 8 105524135.303 8     -1701.727          51.000
E21  25448213.953 5 133731291.905 5     -1763.105          34.000
E26  24184863.031 8 127092329.177 8      2140.809          51.000    24184866.422 8  97382476.326 8      1640.300          51.000
> 2020 05 11 09 25  0.0000000  0 16        .000000000000
G02  23142010.578 6 121612132.730 6      1120.172          39.000
G12  20249579.469 8 106412255.830 8      -892.051          51.000    20249577.539 8  82918644.823 8      -695.105          51.000
G24  21679376.859 8 113925904.506 8     -2633.457          50.000    21679379.484 8  88773420.656 8     -2052.044          50.000
G25  20428602.047 5 107353052.750 5      1058.578          34.000    20428598.688 5  83651699.616 5       824.866          30.000
G29  22622390.719 8 118881447.690 8      3370.195          49.000    22622391.820 8  92634911.563 8      2626.129          49.000
R07  23200569.016 7 124194432.429 7     -3636.082          42.000    23200570.078 5  96595701.855 5     -2828.064          35.000
R09  19648860.578 6 104923828.642 6      1178.887          37.000    19648878.688 4  81607489.143 4       916.912          25.000
R19  19887211.797 6 106383184.904 6      1261.539          40.000    19887214.312 7  82742491.257 7       981.197          45.000
C11  23232256.531 8 120976494.136 8      2630.320          50.000    23232255.945 8  93546645.034 8      2033.943          51.000
C12  22306251.672 7 116154547.890 7      -462.469          45.000    22306251.977 8  89818053.845 8      -357.553          50.000
C24  23873779.758 6 124317010.685 6     -2256.008          38.000
C25  21784828.344 8 113439288.622 8       412.789          51.000
E01  23667319.500 7 124372601.058 7       204.746          46.000    23667321.859 8  95298487.256 8       156.856          49.000
E04  26219550.188 8 137784677.719 8     -2226.258          51.000    26219550.508 8 105575238.274 8     -1705.861          51.000
E21  25458276.203 5 133784143.908 5     -1763.320          33.000    25458284.812 5 102509957.913 5     -1351.325          34.000
E26  24172661.141 8 127028205.194 8      2133.168          51.000    24172664.430 8  97333342.386 8      1634.442          51.000
> 2020 05 11 09 25 30.0000000  0 18        .000000000000
G02  23135670.211 6 121578814.386 6      1101.777          36.000
G12  20254711.250 8 106439223.579 8      -905.727          51.000    20254709.398 8  82939658.664 8      -705.761          51.000
G24  21694450.070 8 114005112.994 8     -2646.934          51.000    21694453.188 8  88835141.550 8     -2062.546          51.000
G25  20422599.758 6 107321505.196 6      1044.707          37.000    20422598.430 6  83627117.417 6       814.060          37.000
G29  22603185.586 8 118780521.619 8      3358.281          51.000    22603186.742 8  92556267.901 8      2616.843          51.000
R07  23220976.680 7 124303677.836 7     -3646.957          43.000    23220978.656 5  96680670.450 5     -2836.522          35.000
R09  19642278.203 5 104888674.193 5      1164.969          35.000
R16  21449454.984 5 114579127.545 5     -2536.777          32.000
R18  21373287.305 4 114092051.997 4     -2724.953          28.000
R19  19880222.039 6 106345792.167 6      1231.035          40.000    19880223.914 7  82713408.035 7       957.472          45.000
C11  23217142.320 8 120897793.716 8      2616.492          48.000    23217142.742 8  93485788.884 8      2023.241          51.000
C12  22308972.547 7 116168716.940 7      -481.957          46.000    22308972.953 8  89829010.262 8      -372.737          51.000
C24  23886803.867 6 124384838.934 6     -2265.578          39.000
C25  21782487.094 8 113427097.693 8       400.047          51.000
E01  23666174.062 7 124366581.853 7       196.578          47.000    23666176.438 8  95293875.141 8       150.733          49.000
E04  26232291.430 8 137851631.697 8     -2237.215          50.000    26232291.875 8 105626540.638 8     -1714.209          51.000
E21  25468363.203 5 133837149.709 5     -1769.621          33.000    25468365.680 5 102550567.335 5     -1356.144          32.000
E26  24160521.758 8 126964411.627 8      2119.891          51.000    24160525.219 8  97284461.627 8      1624.320          51.000
> 2020 05 11 09 26  0.0000000  0 16        .000000000000
G02  23129426.312 5 121545957.918 5      1088.441          33.000
G12  20259917.070 8 106466580.447 8      -915.504          51.000    20259915.469 8  82960975.716 8      -713.380          51.000
G24  21709597.148 8 114084710.064 8     -2656.852          51.000    21709600.461 8  88897165.217 8     -2070.274          51.000
G25  20416672.102 6 107290354.113 6      1033.914          36.000    20416674.859 6  83602843.765 6       805.647          36.000
G29  22584044.742 8 118679933.751 8      3350.043          51.000    22584045.336 8  92477887.776 8      2610.426          51.000
R07  23241439.180 7 124413218.818 7     -3653.316          42.000    23241443.211 6  96765868.945 6     -2841.471          37.000
R09  19635769.898 5 104853919.870 5      1155.066          34.000    19635777.297 4  81553077.318 4       898.391          27.000
R19  19873397.562 6 106309284.583 6      1205.230          40.000    19873399.117 7  82685013.296 7       937.405          45.000
C11  23202103.047 7 120819486.140 7      2606.637          46.000    23202104.797 8  93425236.497 8      2015.511          51.000
C12  22311802.359 7 116183453.071 7      -497.922          46.000    22311802.898 8  89840405.167 8      -384.901          51.000
C24  23899880.852 6 124452932.373 6     -2271.387          40.000
C25  21780215.219 8 113415268.392 8       391.105          51.000
E01  23665070.438 7 124360782.103 7       192.516          47.000    23665072.859 8  95289431.186 8       147.560          49.000
E04  26245090.203 8 137918890.162 8     -2244.188          49.000    26245091.516 8 105678076.308 8     -1719.521          51.000
E21  25478481.406 5 133890321.453 5     -1771.703          35.000    25478475.992 5 102591263.721 5     -1357.859          31.000
E26  24148454.055 8 126900996.360 8      2110.469          51.000    24148457.664 8  97235870.720 8      1617.148          51.000
> 2020 05 11 09 26 30.0000000  0 15        .000000000000
G12  20265174.805 8 106494210.071 8      -925.242          51.000    20265173.383 8  82982505.299 8      -720.968          51.000
G24  21724795.984 8 114164578.736 8     -2666.500          51.000    21724799.203 8  88959400.522 8     -2077.792          51.000
G25  20410796.266 5 107259457.576 5      1025.094          33.000    20410800.836 5  83578789.658 5       798.777          32.000
G29  22564946.859 8 118579571.331 8      3341.953          51.000    22564946.367 8  92399683.325 8      2604.122          51.000
R07  23261934.148 7 124522933.731 7     -3659.629          42.000    23261940.242 6  96851202.733 6     -2846.378          37.000
R09  19629313.766 5 104819450.066 5      1144.910          31.000    19629318.219 4  81526267.492 4       890.483          28.000
R19  19866717.094 6 106273546.833 6      1178.793          39.000    19866718.281 7  82657217.305 7       916.839          44.000
C11  23187117.500 7 120741459.267 7      2596.559          45.000    23187120.555 8  93364901.161 8      2007.775          51.000
C12  22314719.281 7 116198641.725 7      -513.629          45.000    22314719.594 8  89852149.985 8      -397.080          51.000
C24  23912987.484 5 124521176.707 5     -2276.605          34.000
C25  21777991.094 8 113403687.571 8       382.180          51.000
E01  23663986.750 7 124355087.046 7       188.391          47.000    23663989.266 8  95285067.445 8       144.351          50.000
E04  26257924.555 8 137986336.138 8     -2250.980          48.000    26257926.820 8 105729755.668 8     -1724.810          51.000
E21  25488607.539 5 133943533.052 5     -1774.105          34.000    25488603.406 5 102632042.686 5     -1359.209          33.000
E26  24136436.562 8 126837845.983 8      2100.887          51.000    24136440.586 8  97187482.785 8      1609.699          51.000
> 2020 05 11 09 27  0.0000000  0 15        .000000000000
G02  23117183.078 5 121481608.172 5      1057.812          33.000
G12  20270497.859 8 106522183.326 8      -937.293          50.000    20270496.734 8  83004302.638 8      -730.355          50.000
G24  21740059.898 8 114244789.150 8     -2678.582          51.000    21740062.727 8  89021902.113 8     -2087.207          51.000
G25  20404987.883 5 107228939.643 5      1012.469          35.000    20404992.734 5  83555009.332 5       788.937          35.000
G29  22545905.797 8 118479507.378 8      3331.367          51.000    22545904.078 8  92321711.456 8      2595.871          51.000
R07  23282474.258 6 124632890.366 6     -3668.254          41.000    23282481.055 5  96936724.514 5     -2853.089          35.000
R09  19622924.539 5 104785338.800 5      1132.590          31.000    19622930.750 5  81499736.589 5       880.912          30.000
R19  19860194.055 6 106238652.957 6      1150.098          38.000    19860195.031 7  82630077.644 7       894.520          44.000
C11  23172200.602 7 120663785.300 7      2583.930          46.000    23172204.195 8  93304838.689 8      1998.194          51.000
C12  22317736.188 7 116214352.267 7      -531.582          44.000    22317736.305 8  89864298.377 8      -411.053          51.000
C25  21775828.438 8 113392426.438 8       370.809          51.000
E01  23662936.688 7 124349567.855 7       181.840          47.000    23662939.219 8  95280838.435 8       139.365          50.000
E04  26270807.859 8 138054038.785 8     -2260.191          49.000    26270810.617 8 105781631.698 8     -1731.871          51.000
E21  25498757.281 5 133996862.440 5     -1778.258          33.000    25498751.211 5 102672904.789 5     -1362.884          33.000
E26  24124483.133 8 126775033.117 8      2088.941          50.000    24124487.938 8  97139353.486 8      1600.614          51.000
> 2020 05 11 09 27 30.0000000  0 17        .000000000000
G02  23111175.547 5 121450033.184 5      1039.566          33.000
G12  20275864.617 8 106550386.352 8      -951.098          50.000    20275863.750 8  83026279.028 8      -741.115          50.000
G24  21755366.883 8 114325226.728 8     -2692.199          51.000    21755368.883 8  89084580.717 8     -2097.818          51.000
G25  20399225.664 5 107198661.945 5       998.062          35.000    20399230.688 5  83531416.341 5       777.714          35.000
G29  22526900.047 8 118379631.321 8      3318.945          51.000    22526897.719 8  92243886.001 8      2586.191          51.000
G32  22137223.680 5 116331912.068 5        59.508          35.000    22137222.070 5  90648240.047 5        46.373          33.000
R07  23303037.406 7 124742969.306 7     -3678.539          42.000    23303043.242 5  97022341.419 5     -2861.089          34.000
R09  19616582.148 4 104751452.742 4      1118.031          29.000    19616588.227 5  81473396.332 5       869.580          31.000
R19  19853806.867 6 106204489.026 6      1119.598          37.000    19853808.547 7  82603505.726 7       870.798          45.000
C11  23157331.148 8 120586354.218 8      2570.004          48.000    23157334.547 8  93244964.079 8      1987.196          51.000
C12  22320831.727 7 116230472.230 7      -551.289          43.000    22320831.859 8  89876763.353 8      -426.307          51.000
C24  23939299.367 5 124658208.096 5     -2294.996          32.000
C25  21773705.852 8 113381374.019 8       357.809          51.000
E01  23661898.680 8 124344111.856 8       173.652          48.000    23661901.305 8  95276657.856 8       133.073          50.000
E04  26283718.586 8 138121883.379 8     -2271.035          51.000    26283721.125 8 105833616.513 8     -1740.087          51.000
E21                                                                  25508900.523 5 102713771.523 5     -1367.646          34.000
E26  24112572.844 8 126712446.553 8      2075.277          50.000    24112578.062 8  97091397.595 8      1590.151          51.000
> 2020 05 11 09 28  0.0000000  0 15        .000000000000
G02  23105291.961 5 121419123.917 5      1027.289          33.000
G12  20281332.102 8 106579118.558 8      -959.273          51.000    20281331.125 8  83048667.759 8      -747.486          51.000
G24  21770773.672 8 114406191.152 8     -2700.238          49.000    21770775.227 8  89147669.840 8     -2104.082          49.000
G29  22507986.844 8 118280245.568 8      3311.949          49.000    22507984.672 8  92166442.567 8      2580.740          49.000
R07  23323680.414 7 124853471.707 7     -3683.047          44.000    23323683.570 5  97108287.623 5     -2864.595          35.000
R09  19610343.523 5 104718138.736 5      1109.082          32.000    19610348.102 4  81447485.380 4       862.613          28.000
R19  19847613.977 6 106171362.707 6      1094.496          37.000    19847616.000 7  82577740.807 7       851.275          45.000
C11  23142566.328 8 120509465.423 8      2561.066          50.000    23142569.102 8  93185508.770 8      1980.445          51.000
C12  22324062.938 6 116247298.311 6      -565.273          40.000    22324063.211 8  89889774.364 8      -437.235          51.000
C24  23952555.047 5 124727188.002 5     -2299.168          34.000
C25  21771680.695 8 113370828.700 8       350.266          51.000
E01  23660929.891 8 124339019.588 8       170.926          48.000    23660932.570 8  95272755.980 8       130.972          51.000
E04  26296713.180 8 138190168.331 8     -2276.152          51.000    26296715.219 8 105885938.732 8     -1744.110          51.000
E21                                                                  25519111.117 6 102754872.956 6     -1368.359          38.000
E26  24100763.359 8 126650388.309 8      2067.109          50.000    24100768.539 8  97043846.483 8      1583.835          51.000
> 2020 05 11 09 28 30.0000000  0 16        .000000000000
G02  23099468.844 5 121388528.964 5      1011.582          33.000
G12  20286830.625 8 106608013.679 8      -970.094          51.000    20286829.367 8  83071183.435 8      -755.914          51.000
G24  21786210.367 7 114487315.664 7     -2711.129          46.000    21786212.523 7  89210883.714 7     -2112.568          46.000
G29  22489097.281 8 118180986.716 8      3302.188          49.000    22489096.047 8  92089097.995 8      2573.133          49.000
R07  23344332.281 7 124964020.900 7     -3689.930          42.000    23344334.367 6  97194270.217 6     -2869.945          36.000
R09  19604139.312 5 104685006.526 5      1096.727          32.000    19604140.125 5  81421715.881 5       853.010          30.000
R18  21467249.977 6 114593537.408 6     -2847.723          36.000    21467255.906 4  89128400.810 4     -2214.895          28.000
R19  19841545.828 6 106138902.996 6      1066.398          37.000    19841548.305 7  82552494.380 7       829.421          45.000
C11  23127836.586 8 120432758.634 8      2549.680          51.000    23127838.688 8  93126194.234 8      1971.532          51.000
C12  22327360.023 6 116264467.497 6      -582.055          37.000    22327360.164 8  89903050.683 8      -450.254          49.000
C24  23965809.500 5 124796211.575 5     -2305.488          32.000
C25  21769683.555 8 113360429.250 8       340.031          51.000
E01  23659960.859 8 124333925.844 8       165.520          49.000    23659963.336 8  95268852.974 8       126.809          51.000
E04  26309721.406 8 138258526.332 8     -2284.152          51.000    26309722.922 8 105938316.925 8     -1750.186          50.000
E21  25529307.117 5 134157420.745 5     -1789.219          34.000    25529309.922 6 102795929.071 6     -1371.112          37.000
E26  24088985.078 8 126588494.535 8      2056.039          50.000    24088990.328 8  96996421.387 8      1575.389          51.000
> 2020 05 11 09 29  0.0000000  0 18        .000000000000
G02  23093752.398 5 121358497.419 5       997.535          34.000
G12  20292405.758 8 106637311.340 8      -979.410          51.000    20292404.461 8  83094012.764 8      -763.177          51.000
G24  21801722.422 7 114568839.034 7     -2720.234          43.000    21801725.320 7  89274408.440 7     -2119.663          43.000
G25  20382395.883 5 107110198.942 5       968.156          35.000    20382397.898 5  83462507.460 5       754.401          35.000
G29  22470278.586 8 118082097.225 8      3294.070          51.000    22470278.680 8  92012041.265 8      2566.808          51.000
R07  23365038.336 6 125074857.288 6     -3695.238          41.000    23365040.164 6  97280476.200 6     -2874.074          37.000
R09  19598015.508 5 104652302.465 5      1086.875          33.000    19598015.875 5  81396279.414 5       845.347          33.000
R16  21550405.352 4 115118391.006 4     -2597.152          28.000    21550414.031 4  89536566.078 4     -2020.007          26.000
R18  21483321.227 5 114679309.092 5     -2866.582          33.000    21483324.086 4  89195112.093 4     -2229.564          29.000
R19  19835648.031 6 106107356.403 6      1040.445          37.000    19835651.023 7  82527958.175 7       809.235          46.000
C11  23113187.570 8 120356473.882 8      2539.621          51.000    23113189.359 8  93067206.041 8      1963.896          51.000
C12  22330768.617 5 116282217.333 5      -598.000          32.000    22330768.422 8  89916775.894 8      -461.859          48.000
C24  23979116.688 6 124865516.535 6     -2310.727          39.000
C25  21767760.289 8 113350414.769 8       331.234          51.000
E01  23659037.297 8 124329071.236 8       161.746          50.000    23659039.281 8  95265133.207 8       123.995          51.000
E04  26322788.461 8 138327195.875 8     -2290.102          50.000    26322790.055 8 105990933.833 8     -1754.807          51.000
E21                                                                  25539539.828 5 102837124.213 5     -1372.331          33.000
E26  24077284.211 8 126527007.256 8      2046.742          51.000    24077289.820 8  96949307.782 8      1568.355          51.000
> 2020 05 11 09 29 30.0000000  0 15        .000000000000
G12  20298048.406 8 106666964.020 8      -993.453          51.000    20298047.227 8  83117118.732 8      -774.122          51.000
G24  21817301.836 7 114650713.256 7     -2734.035          45.000    21817305.375 7  89338206.509 7     -2130.417          45.000
G25  20376917.977 6 107081420.803 6       954.570          36.000    20376921.461 5  83440082.906 5       743.824          34.000
G29  22451522.164 8 117983532.563 8      3280.945          51.000    22451523.508 8  91935237.654 8      2556.581          51.000
R07  23385788.523 6 125185928.506 6     -3705.293          39.000    23385790.039 6  97366864.899 6     -2881.895          38.000
R09  19591963.414 6 104619980.401 6      1071.812          36.000    19591964.039 5  81371140.010 5       833.629          35.000
R19  19829912.398 6 106076675.936 6      1009.031          38.000    19829915.555 7  82504095.618 7       784.802          46.000
C11  23098610.680 8 120280566.654 8      2524.828          51.000    23098612.125 8  93008509.794 8      1952.354          51.000
C12  22334278.391 5 116300452.538 5      -616.469          30.000    22334279.469 8  89930913.604 8      -477.505          49.000
C24  23992472.500 6 124935056.250 6     -2320.863          36.000
C25  21765902.180 8 113340739.724 8       317.715          51.000
E01  23658150.234 8 124324409.296 8       153.105          51.000    23658151.758 8  95261561.081 8       117.309          51.000
E04  26335905.227 8 138396128.392 8     -2301.191          49.000    26335907.602 8 106043752.228 8     -1763.280          51.000
E21  25549791.258 6 134265057.789 6     -1797.695          36.000    25549796.250 5 102878422.633 5     -1377.790          34.000
E26  24065652.656 8 126465881.399 8      2032.402          51.000    24065658.391 8  96902471.116 8      1557.277          51.000
> 2020 05 11 09 30  0.0000000  0 15        .000000000000
G12  20303746.742 8 106696909.226 8     -1002.168          51.000    20303745.594 8  83140452.651 8      -780.910          51.000
G24  21832936.711 7 114732875.068 7     -2742.824          46.000    21832940.062 7  89402228.660 7     -2137.266          46.000
G29  22432816.430 8 117885233.071 8      3273.039          51.000    22432818.375 8  91858640.641 8      2550.420          51.000
R07  23406570.273 6 125297167.355 6     -3710.121          38.000    23406571.172 6  97453383.943 6     -2885.653          37.000
R09  19585971.461 6 104587979.033 6      1062.266          38.000    19585970.383 5  81346250.055 5       826.210          35.000
R16  21579717.789 5 115274985.741 5     -2616.801          31.000
R19  19824327.828 6 106046800.560 6       983.293          36.000    19824330.375 7  82480859.227 7       764.783          46.000
C11  23084094.383 8 120204977.552 8      2515.168          50.000    23084095.508 8  92950059.559 8      1944.845          51.000
C12  22337878.008 5 116319196.051 5      -632.344          32.000    22337880.898 7  89945415.677 7      -488.802          47.000
C24  24005861.484 6 125004769.045 6     -2326.098          41.000
C25  21764097.609 8 113331343.814 8       309.289          51.000
E01  23657288.008 8 124319878.513 8       149.711          51.000    23657289.328 8  95258089.435 8       114.693          51.000
E04  26349060.188 8 138465260.195 8     -2306.824          49.000    26349063.141 8 106096723.332 8     -1767.579          51.000
E21  25560063.930 5 134319028.522 5     -1799.301          35.000    25560069.797 5 102919776.822 5     -1378.769          35.000
E26  24054078.672 8 126405056.794 8      2023.285          51.000    24054084.000 8  96855865.281 8      1550.318          51.000
> 2020 05 11 09 30 30.0000000  0 16        .000000000000
G12  20309498.172 8 106727133.250 8     -1012.273          51.000    20309497.180 8  83164003.832 8      -788.784          51.000
G24  21848624.055 8 114815310.594 8     -2752.602          49.000    21848626.961 8  89466464.101 8     -2144.884          49.000
G25  20366139.047 6 107024780.835 6       934.836          36.000    20366142.148 6  83395927.476 6       728.447          36.000
G29  22414159.430 8 117787188.145 8      3263.723          51.000    22414160.930 8  91782242.013 8      2543.164          51.000
G32  22137157.266 5 116331554.974 5       -55.914          35.000
R07  23427379.859 6 125408556.239 6     -3715.844          37.000    23427380.445 6  97540019.705 6     -2890.101          37.000
R09  19580037.023 6 104556287.111 6      1051.312          39.000    19580035.133 5  81321600.782 5       817.684          35.000
R19  19818891.430 6 106017718.481 6       956.172          37.000    19818893.766 7  82458239.844 7       743.689          46.000
C11  23069636.859 8 120129695.913 8      2504.066          49.000    23069637.781 8  92891847.056 8      1936.267          51.000
C12  22341568.414 6 116338408.320 6      -648.348          38.000    22341570.195 7  89960271.784 7      -501.274          46.000
C24  24019281.203 6 125074641.943 6     -2332.094          38.000
C25  21762344.344 8 113322215.231 8       299.641          51.000
E01  23656448.367 8 124315466.349 8       144.848          51.000    23656449.773 8  95254708.680 8       111.014          51.000
E04  26362250.812 8 138534576.704 8     -2313.777          49.000    26362253.805 8 106149835.957 8     -1772.891          51.000
E21                                                                  25570353.625 5 102961177.217 5     -1381.325          31.000
E26  24042559.789 8 126344522.334 8      2012.789          51.000    24042563.719 8  96809481.749 8      1542.249          49.000
> 2020 05 11 09 31  0.0000000  0 15        .000000000000
G12  20315311.680 8 106757682.821 8     -1028.281          51.000    20315310.859 8  83187808.695 8      -801.258          51.000
G24  21864372.508 8 114898065.800 8     -2768.270          50.000    21864375.195 8  89530948.641 8     -2157.096          50.000
G25  20360844.578 6 106996947.103 6       917.375          36.000    20360847.273 6  83374238.848 6       714.835          37.000
G29  22395560.383 8 117689447.141 8      3248.441          51.000    22395560.531 8  91706080.256 8      2531.256          51.000
R07  23448224.695 6 125520138.929 6     -3727.105          37.000    23448225.758 6  97626806.209 6     -2898.860          36.000
R09  19574168.984 6 104524954.417 6      1033.645          36.000    19574168.023 5  81297230.918 5       803.949          35.000
R18  21548702.617 5 115028440.823 5     -2952.566          32.000
R19  19813612.523 5 105989479.012 5       922.664          34.000    19813614.445 7  82436275.815 7       717.631          46.000
C11  23055247.867 8 120054770.450 8      2487.055          48.000    23055248.344 8  92833909.937 8      1923.151          51.000
C12  22345355.953 6 116358124.515 6      -670.211          39.000    22345356.344 7  89975517.627 7      -518.183          44.000
C24  24032737.242 5 125144721.873 5     -2343.930          33.000
C25  21760651.781 8 113313401.886 8       284.016          51.000
E01  23655640.391 8 124311220.573 8       134.152          51.000    23655642.047 8  95251455.411 8       102.822          51.000
E04  26375485.445 8 138604123.481 8     -2326.570          50.000    26375488.344 8 106203125.000 8     -1782.658          51.000
E26  24031105.297 8 126284327.111 8      1996.230          51.000    24031107.953 8  96763358.176 8      1529.576          49.000
> 2020 05 11 09 31 30.0000000  0 16        .000000000000
G12  20321194.602 8 106788596.920 8     -1034.930          51.000    20321193.656 8  83211897.594 8      -806.439          51.000
G24  21880189.336 8 114981179.549 8     -2774.754          51.000    21880191.133 8  89595712.595 8     -2162.146          51.000
G25  20355619.219 5 106969495.896 5       910.738          35.000    20355621.734 5  83352848.227 5       709.669          35.000
G29  22377027.125 8 117592052.494 8      3242.418          51.000    22377025.961 8  91630188.402 8      2526.562          51.000
R07  23469112.656 6 125631951.861 6     -3729.262          37.000    23469113.695 5  97713771.768 5     -2900.540          34.000
R09  19568375.781 5 104494023.189 5      1026.570          34.000    19568376.312 5  81273173.290 5       798.444          35.000
R16  21624041.945 5 115511739.334 5     -2643.348          30.000    21624045.414 4  89842479.874 4     -2055.934          27.000
R18  21565329.641 5 115117202.448 5     -2967.586          34.000
R19  19808498.727 5 105962124.441 5       899.055          35.000    19808500.625 7  82415000.021 7       699.265          46.000
C11  23040935.609 8 119980242.663 8      2479.398          49.000    23040935.320 8  92776280.336 8      1917.234          51.000
C12  22349247.328 6 116378383.400 6      -682.738          41.000    22349246.234 6  89991183.119 6      -527.837          41.000
C24  24046243.617 6 125215047.702 6     -2346.348          37.000
C25  21759027.695 8 113304944.356 8       277.691          51.000
E01  23654871.742 8 124307181.498 8       132.906          51.000    23654873.609 8  95248360.528 8       101.828          51.000
E04  26388771.258 8 138673938.690 8     -2329.898          50.000    26388773.703 8 106256619.735 8     -1785.262          51.000
E26  24019723.398 8 126224512.796 8      1989.141          51.000    24019725.078 8  96717526.468 8      1524.153          50.000
> 2020 05 11 09 32  0.0000000  0 18        .000000000000
G06  23484812.992 5 123413505.797 5      -382.016          35.000    23484832.125 5  96166431.739 5      -297.675          32.000
G12  20327131.359 8 106819794.125 8     -1042.102          51.000    20327130.195 8  83236207.093 8      -812.027          51.000
G24  21896058.633 8 115064569.497 8     -2781.738          51.000    21896059.547 8  89660691.756 8     -2167.588          51.000
G25  20350451.516 6 106942346.458 6       902.473          37.000    20350453.812 6  83331692.865 6       703.228          37.000
G29  22358544.641 8 117494925.434 8      3235.688          51.000    22358543.195 8  91554505.030 8      2521.318          51.000
G32  22138638.789 5 116339321.711 5      -112.422          32.000
R07  23490028.609 6 125743908.125 6     -3731.441          36.000    23490028.359 5  97800848.801 5     -2902.235          33.000
R09  19562642.492 5 104463412.832 5      1017.867          34.000    19562644.164 5  81249365.143 5       791.671          34.000
R18  21582060.523 5 115206511.947 5     -2983.379          35.000    21582072.922 4  89605106.251 4     -2320.406          26.000
R19  19803535.203 6 105935573.201 6       874.219          37.000    19803536.984 7  82394349.063 7       679.951          45.000
C11  23026684.789 8 119906034.262 8      2470.762          48.000    23026684.031 8  92718897.693 8      1910.577          51.000
C12  22353227.109 7 116399103.970 7      -695.934          42.000    22353224.188 6  90007205.599 6      -538.055          39.000
C24  24059780.383 6 125285539.255 6     -2349.570          37.000
C25  21757456.672 8 113296763.383 8       270.637          51.000
E01  23654127.117 8 124303268.542 8       130.934          51.000    23654128.945 8  95245362.275 8       100.350          51.000
E04  26402092.023 8 138743939.634 8     -2333.855          49.000    26402094.141 8 106310256.779 8     -1788.333          51.000
E21  25601330.758 5 134535890.028 5     -1810.297          35.000    25601340.094 5 103085972.116 5     -1387.197          32.000
E26  24008398.711 8 126165000.164 8      1981.320          49.000    24008400.406 8  96671925.925 8      1518.155          50.000
> 2020 05 11 09 32 30.0000000  0 17        .000000000000
G06  23487065.352 6 123425333.840 6      -404.504          36.000    23487088.242 5  96175648.338 5      -315.201          32.000
G12  20333124.289 8 106851286.709 8     -1055.629          51.000    20333123.117 8  83260746.765 8      -822.568          51.000
G24  21911982.281 8 115148247.236 8     -2794.980          50.000    21911982.680 8  89725895.162 8     -2177.907          50.000
G25  20345345.227 6 106915512.115 6       888.492          38.000    20345343.180 6  83310783.067 6       692.335          37.000
G29  22340115.680 8 117398080.924 8      3222.469          51.000    22340114.664 8  91479041.802 8      2511.015          51.000
R09  19556972.898 5 104433137.959 5      1002.293          33.000    19556975.039 5  81225818.088 5       779.558          35.000
R16  21653830.078 5 115670886.630 5     -2661.520          30.000    21653838.766 4  89966258.903 4     -2070.071          29.000
R18  21598896.703 5 115296378.816 5     -3006.176          34.000    21598905.461 4  89674997.131 4     -2338.140          26.000
R19  19798724.383 6 105909839.419 6       842.980          39.000    19798726.133 7  82374333.923 7       655.651          45.000
C11  23012497.836 8 119832159.819 8      2455.949          49.000    23012497.297 8  92661773.277 8      1899.126          51.000
C12  22357297.805 7 116420298.181 7      -715.309          42.000    22357294.453 6  90023594.341 6      -553.158          38.000
C24  24073349.969 6 125356209.146 6     -2359.535          38.000
C25  21755941.234 8 113288872.636 8       257.254          50.000
E01  23653409.078 8 124299494.919 8       122.520          51.000    23653410.586 8  95242470.795 8        93.855          51.000
E04  26415449.828 8 138814137.330 8     -2344.184          48.000    26415452.039 8 106364044.594 8     -1796.208          51.000
E21                                                                  25611707.648 4 103127731.869 4     -1392.244          28.000
E26  23997133.383 8 126105803.749 8      1966.898          48.000    23997136.031 8  96626567.662 8      1507.197          50.000
> 2020 05 11 09 33  0.0000000  0 16        .000000000000
G06  23489441.625 6 123437820.587 6      -426.566          37.000    23489435.992 5  96185320.961 5      -332.386          35.000
G12  20339192.117 8 106883173.068 8     -1068.766          51.000    20339191.117 8  83285593.271 8      -832.804          51.000
G24  21927978.922 8 115232310.642 8     -2807.738          49.000    21927979.672 8  89791399.090 8     -2187.848          49.000
G25  20340317.383 5 106889092.093 5       874.941          31.000    20340316.680 5  83290196.135 5       681.776          32.000
G29  22321759.484 8 117301620.265 8      3209.719          50.000    22321759.234 8  91403877.670 8      2501.080          50.000
R09  19551385.180 6 104403301.122 6       988.473          36.000    19551387.250 6  81202611.668 6       768.812          36.000
R18  21615858.109 4 115386917.092 4     -3028.230          29.000    21615855.375 4  89745368.430 4     -2355.290          28.000
R19  19794085.828 6 105885025.594 6       812.301          40.000    19794087.750 7  82355034.343 7       631.793          45.000
C11  22998394.055 8 119758719.470 8      2441.531          49.000    22998394.320 8  92604984.542 8      1887.935          51.000
C12  22361477.703 7 116442063.366 7      -734.438          42.000    22361475.211 6  90040424.626 6      -567.442          37.000
C24  24086972.734 6 125427155.206 6     -2368.531          37.000
C25  21754500.453 8 113281371.288 8       244.332          50.000
E01  23652736.578 8 124295960.168 8       114.605          51.000    23652737.727 8  95239762.338 8        87.845          51.000
E04  26428863.328 7 138884629.127 7     -2353.844          46.000    26428866.102 8 106418057.776 8     -1803.619          51.000
E21  25622082.891 6 134644979.397 6     -1822.879          37.000
E26  23985946.844 7 126047024.415 7      1953.156          47.000    23985950.523 8  96581528.912 8      1496.544          51.000
> 2020 05 11 09 33 30.0000000  0 15        .000000000000
G06  23491926.945 5 123450885.326 5      -445.441          34.000    23491928.469 5  96195501.299 5      -347.097          34.000
G12  20345319.203 8 106915371.194 8     -1078.613          51.000    20345318.281 8  83310682.707 8      -840.478          51.000
G24  21944033.047 8 115316677.504 8     -2817.410          48.000    21944034.336 8  89857139.491 8     -2195.385          48.000
G29  22303461.367 8 117205464.635 8      3200.023          50.000    22303461.312 8  91328951.209 8      2493.525          50.000
R07  23553007.867 5 126081094.159 5     -3753.402          31.000
R09  19545864.359 5 104373821.663 5       976.695          35.000    19545866.367 6  81179683.206 6       759.649          37.000
R19  19789603.820 6 105861049.998 6       785.109          40.000    19789606.047 7  82336386.699 7       610.644          45.000
C11  22984358.523 8 119685634.660 8      2430.109          49.000    22984359.727 8  92548470.738 8      1879.024          51.000
C12  22365751.820 7 116464318.354 7      -750.227          42.000    22365748.844 6  90057633.588 6      -580.096          36.000
C24  24100634.281 6 125498296.787 6     -2374.812          40.000
C25  21753119.375 8 113274179.972 8       234.277          49.000
E01  23652094.203 8 124292583.564 8       109.730          51.000    23652095.242 8  95237175.064 8        84.079          51.000
E04  26442317.641 8 138955332.171 8     -2360.395          48.000    26442320.578 8 106472232.821 8     -1808.686          51.000
E21  25632492.641 6 134699691.029 6     -1825.621          37.000
E26  23974824.789 7 125988582.762 7      1942.191          47.000    23974829.438 8  96536748.915 8      1488.143          51.000
> 2020 05 11 09 34  0.0000000  0 16        .000000000000
G06  23494536.320 6 123464601.017 6      -458.758          37.000    23494536.578 6  96206188.873 6      -357.471          36.000
G12  20351519.398 8 106947953.753 8     -1083.453          51.000    20351518.508 8  83336071.703 8      -844.249          51.000
G24  21960158.625 8 115401419.760 8     -2821.887          48.000    21960160.234 8  89923172.408 8     -2198.873          48.000
G25  20330467.258 6 106837313.728 6       858.234          36.000    20330470.594 6  83249881.276 6       668.757          36.000
G29  22285235.758 8 117109689.540 8      3195.117          49.000    22285235.281 8  91254321.261 8      2489.705          49.000
R07  23574036.375 5 126193678.565 5     -3753.391          34.000    23574048.352 5  98150679.205 5     -2919.304          31.000
R09  19540425.336 6 104344775.586 6       970.305          38.000    19540426.922 6  81157091.773 6       754.681          37.000
R18  21650108.992 5 115569708.552 5     -3059.527          34.000    21650109.102 4  89887580.197 4     -2379.629          28.000
R19  19785292.797 6 105837988.180 6       762.660          39.000    19785294.891 7  82318449.746 7       593.183          45.000
C11  22970405.664 8 119612979.909 8      2423.469          49.000    22970407.484 8  92492289.488 8      1874.043          51.000
C12  22370132.992 7 116487134.838 7      -761.086          42.000    22370131.148 6  90075276.842 6      -588.617          38.000
C24  24114347.875 6 125569706.344 6     -2375.977          36.000
C25  21751811.953 8 113267372.285 8       229.395          49.000
E01  23651495.867 8 124289438.815 8       109.918          51.000    23651496.961 8  95234765.444 8        84.235          51.000
E04  26455826.562 8 139026318.021 8     -2361.965          51.000    26455829.148 8 106526624.549 8     -1809.769          51.000
E26  23963781.984 8 125930553.705 8      1936.402          49.000    23963787.422 8  96492285.100 8      1483.722          51.000
> 2020 05 11 09 34 30.0000000  0 18        .000000000000
G02  23036672.859 5 121058539.453 5       818.344          35.000
G06  23497245.547 5 123478842.284 5      -487.676          34.000    23497245.188 5  96217285.990 5      -380.007          34.000
G12  20357768.688 8 106980794.641 8     -1102.871          51.000    20357767.742 8  83361662.004 8      -859.380          51.000
G24  21976331.844 8 115486410.259 8     -2840.832          50.000    21976333.078 8  89989398.709 8     -2213.635          50.000
G25  20325633.961 5 106811916.340 5       838.309          35.000    20325637.078 5  83230091.053 5       653.227          32.000
G29  22267059.180 8 117014171.296 8      3175.586          48.000    22267058.000 8  91179891.500 8      2474.483          48.000
R07  23595120.867 5 126306528.991 5     -3767.148          35.000    23595128.984 5  98238451.708 5     -2930.007          30.000
R09  19535044.438 6 104316037.123 6       948.980          37.000    19535045.469 6  81134739.602 6       738.096          37.000
R16  21714063.070 5 115992603.602 5     -2701.719          31.000
R19  19781128.711 6 105815713.436 6       725.320          38.000    19781130.695 7  82301124.959 7       564.138          45.000
C11  22956511.836 8 119540632.664 8      2402.484          49.000    22956513.883 8  92436346.048 8      1857.856          51.000
C12  22374598.312 7 116510387.579 7      -786.160          42.000    22374598.258 5  90093257.357 5      -607.601          35.000
C24  24128089.766 5 125641259.100 5     -2391.250          35.000
C25  21750554.508 8 113260824.765 8       210.145          50.000
E01  23650917.797 8 124286400.763 8        95.672          51.000    23650918.859 8  95232437.586 8        73.328          51.000
E04  26469365.383 8 139097459.254 8     -2377.695          51.000    26469367.383 8 106581135.337 8     -1821.963          51.000
E21  25653383.844 5 134809440.133 5     -1835.434          33.000
E26  23952794.758 8 125872813.389 8      1915.945          50.000    23952800.094 8  96448042.524 8      1468.170          51.000
> 2020 05 11 09 35  0.0000000  0 17        .000000000000
G02  23032041.320 6 121034205.924 6       804.953          36.000
G06  23500077.633 5 123493727.349 5      -504.180          35.000    23500080.141 5  96228884.662 5      -392.867          33.000
G12  20364089.633 8 107014011.615 8     -1110.719          51.000    20364088.609 8  83387545.357 8      -865.495          51.000
G24  21992575.031 8 115571766.569 8     -2848.617          51.000    21992576.312 8  90055910.047 8     -2219.702          51.000
G25  20320876.500 5 106786919.329 5       828.895          31.000    20320880.969 5  83210612.897 5       645.892          32.000
G29  22248954.586 8 116919030.587 8      3167.785          49.000    22248952.398 8  91105755.915 8      2468.407          49.000
R09  19529743.977 6 104287728.037 6       939.000          41.000    19529744.500 6  81112721.389 6       730.333          36.000
R16  21729254.117 4 116073751.304 4     -2707.375          29.000
R19  19777134.203 6 105794347.106 6       700.168          36.000    19777136.508 7  82284506.711 7       544.575          46.000
C11  22942700.023 8 119468711.928 8      2392.875          48.000    22942702.094 8  92380732.402 8      1850.356          51.000
C12  22379169.953 7 116534192.800 7      -800.000          42.000    22379169.828 5  90111665.009 5      -618.620          34.000
C24  24141880.758 5 125713071.828 5     -2395.688          31.000
C25  21749369.828 8 113254655.456 8       202.094          50.000
E01  23650382.500 8 124283588.024 8        92.703          51.000    23650383.609 8  95230282.366 8        70.993          51.000
E04  26482955.688 8 139168872.331 8     -2382.281          50.000    26482957.219 8 106635854.412 8     -1825.417          51.000
E21  25663868.047 5 134864539.326 5     -1836.570          35.000
E26  23941885.445 8 125815481.671 8      1906.914          51.000    23941890.516 8  96404113.040 8      1461.121          51.000
> 2020 05 11 09 35 30.0000000  0 15        .000000000000
G02  23027489.703 5 121010292.503 5       789.910          30.000
G06  23503008.805 6 123509135.085 6      -523.453          36.000    23503016.891 5  96240890.674 5      -407.886          35.000
G12  20370459.000 8 107047482.860 8     -1121.121          51.000    20370457.914 8  83413626.843 8      -873.604          51.000
G24  22008864.648 8 115657366.673 8     -2858.457          51.000    22008866.328 8  90122611.385 8     -2227.372          51.000
G25  20316173.031 5 106762209.980 5       818.410          33.000    20316178.406 5  83191352.676 5       637.722          33.000
G29  22230899.250 8 116824148.695 8      3157.281          49.000    22230896.602 8  91031822.027 8      2460.222          49.000
R09  19524501.562 6 104259727.241 6       927.184          39.000    19524499.891 6  81090943.072 6       721.146          36.000
R19  19773286.773 6 105773767.145 6       671.809          37.000    19773289.438 7  82268500.064 7       522.518          45.000
C11  22928947.672 8 119397099.754 8      2380.844          49.000    22928949.594 8  92325357.328 8      1841.004          51.000
C12  22383824.422 6 116558429.797 6      -816.219          41.000    22383823.789 5  90130406.624 5      -631.566          34.000
C25  21748235.148 8 113248745.538 8       191.676          50.000
E01  23649867.109 8 124280880.115 8        87.422          51.000    23649868.367 8  95228207.465 8        67.001          51.000
E04  26496573.688 8 139240434.590 8     -2388.867          48.000    26496575.273 8 106690687.816 8     -1830.479          51.000
E21  25674358.758 5 134919678.791 5     -1839.746          34.000    25674374.734 5 103380057.898 5     -1409.592          35.000
E26  23931031.156 8 125758439.387 8      1895.441          51.000    23931036.008 8  96360405.332 8      1452.390          51.000
> 2020 05 11 09 36  0.0000000  0 15        .000000000000
G02  23023016.031 5 120986770.590 5       772.027          33.000
G12  20376871.297 8 107081179.767 8     -1132.379          51.000    20376870.203 8  83439884.166 8      -882.373          51.000
G24  22025194.758 8 115743180.914 8     -2869.430          51.000    22025196.867 8  90189479.601 8     -2235.919          51.000
G29  22212888.461 8 116729500.102 8      3145.625          50.000    22212886.328 8  90958069.918 8      2451.136          51.000
G32  22147603.570 5 116386451.246 5      -276.559          35.000    22147609.766 5  90690744.965 5      -215.500          35.000
R09  19519311.516 6 104232008.285 6       913.992          39.000    19519308.297 6  81069383.896 6       710.886          37.000
R19  19769581.781 6 105753945.903 6       642.625          37.000    19769583.703 7  82253083.529 7       499.819          46.000
C11  22915250.016 8 119325770.406 8      2367.551          50.000    22915251.422 8  92270200.954 8      1830.746          51.000
C12  22388555.984 6 116583070.108 6      -833.445          40.000    22388556.422 6  90149460.109 6      -644.760          37.000
C24  24169538.820 6 125857115.869 6     -2409.348          36.000
C25  21747145.305 8 113243068.501 8       180.051          50.000
E01  23649366.445 8 124278249.698 8        81.051          51.000    23649367.938 8  95226191.944 8        62.113          51.000
E04  26510213.852 7 139312116.445 7     -2396.625          47.000    26510215.977 8 106745612.862 8     -1836.369          51.000
E21  25684854.023 6 134974834.940 6     -1844.371          38.000    25684862.320 5 103422320.205 5     -1413.049          34.000
E26  23920227.133 8 125701660.425 8      1882.836          51.000    23920231.633 8  96316899.393 8      1442.675          51.000
> 2020 05 11 09 36 30.0000000  0 16        .000000000000
G02  23018655.023 6 120963844.787 6       756.270          36.000
G06  23509196.211 6 123541655.605 6      -562.891          37.000    23509192.297 5  96266217.695 5      -438.619          34.000
G12  20383364.406 8 107115301.135 8     -1142.406          51.000    20383363.156 8  83466472.242 8      -890.187          51.000
G24  22041602.914 8 115829407.712 8     -2879.027          49.000    22041605.570 8  90256669.296 8     -2243.398          49.000
G29  22194960.469 8 116635286.020 8      3135.270          50.000    22194959.336 8  90884656.378 8      2443.067          50.000
G32  22149237.133 5 116395030.281 5      -295.805          35.000    22149242.414 5  90697429.872 5      -230.494          35.000
R09  19514211.508 6 104204775.351 6       901.473          38.000    19514208.234 6  81048202.703 6       701.145          36.000
R19  19766056.555 6 105735087.357 6       614.918          38.000    19766058.445 7  82238415.791 7       478.270          46.000
C11  22901645.164 8 119254923.122 8      2355.438          51.000    22901645.703 8  92215417.351 8      1821.413          51.000
C12  22393402.914 6 116608310.205 6      -849.508          39.000    22393404.531 6  90168977.382 6      -656.763          39.000
C24  24183438.859 5 125929490.467 5     -2415.410          34.000
C25  21746138.320 8 113237822.657 8       169.645          51.000
E01  23648918.500 8 124275896.356 8        75.777          51.000    23648920.234 8  95224388.736 8        58.078          51.000
E04  26523914.391 7 139384115.348 7     -2403.152          47.000    26523916.742 8 106800780.822 8     -1841.442          51.000
E21  25695391.320 5 135030206.990 5     -1847.219          34.000    25695393.305 4 103464700.216 4     -1415.749          29.000
E26  23909511.234 8 125645345.620 8      1871.418          51.000    23909515.398 8  96273749.116 8      1433.980          51.000
> 2020 05 11 09 37  0.0000000  0 16        .000000000000
G02  23014379.469 5 120941379.018 5       745.312          33.000
G06  23512462.500 5 123558810.884 5      -576.375          32.000    23512461.742 5  96279585.471 5      -449.117          33.000
G12  20389912.438 8 107149710.918 8     -1147.859          51.000    20389911.062 8  83493285.049 8      -894.436          51.000
G24  22058063.234 8 115915910.027 8     -2884.219          48.000    22058066.398 8  90324073.667 8     -2247.443          48.000
G25  20302440.641 6 106690031.637 6       788.289          37.000    20302444.898 6  83135099.115 6       614.254          37.000
G29  22177089.484 8 116541373.045 8      3129.348          49.000    22177089.578 8  90811477.448 8      2438.453          49.000
R09  19509176.398 6 104177892.419 6       894.062          36.000    19509173.680 6  81027293.776 6       695.379          37.000
R18  21755350.062 5 116131463.796 5     -3171.812          35.000    21755349.805 4  90324525.683 4     -2466.965          28.000
R19  19762685.477 6 105717053.965 6       591.160          39.000    19762687.156 7  82224389.819 7       459.791          46.000
C11  22888107.422 8 119184425.571 8      2347.914          51.000    22888106.938 8  92160904.200 8      1815.565          51.000
C12  22398339.797 6 116634015.006 6      -860.785          40.000    22398340.750 5  90188854.040 5      -665.490          35.000
C24  24197372.055 5 126002040.020 5     -2417.250          32.000
C25  21745188.570 8 113232874.819 8       163.773          51.000
E01  23648497.617 8 124273685.189 8        75.184          51.000    23648499.492 8  95222694.458 8        57.566          51.000
E04  26537649.570 8 139456294.117 8     -2405.172          48.000    26537651.180 8 106856086.576 8     -1842.900          50.000
E26  23898857.711 8 125589361.238 8      1864.383          50.000    23898861.336 8  96230852.027 8      1428.568          51.000
> 2020 05 11 09 37 30.0000000  0 17        .000000000000
G06  23515799.852 6 123576348.089 6      -602.957          37.000    23515800.961 5  96293271.786 5      -469.837          33.000
G12  20396481.695 8 107184231.833 8     -1164.441          51.000    20396480.148 8  83520184.450 8      -907.357          51.000
G24  22074542.000 7 116002509.928 7     -2900.199          46.000    22074545.805 7  90391554.093 7     -2259.899          46.000
G25  20297957.328 5 106666475.109 5       770.406          33.000    20297961.516 5  83116743.479 5       600.323          33.000
G29  22159242.172 8 116447586.973 8      3112.203          48.000    22159243.000 8  90738397.381 8      2425.093          48.000
G32  22152799.445 5 116413731.274 5      -336.648          33.000    22152798.273 5  90711997.380 5      -262.330          32.000
R09  19504174.328 6 104151181.838 6       875.371          38.000    19504171.539 6  81006518.890 6       680.847          36.000
R18  21773207.922 4 116226865.013 4     -3196.012          28.000    21773210.969 4  90398682.614 4     -2485.784          27.000
R19  19759435.195 6 105699667.045 6       556.805          39.000    19759436.656 7  82210866.659 7       433.070          46.000
C11  22874603.281 8 119114104.535 8      2329.301          51.000    22874602.133 8  92106527.558 8      1801.136          51.000
C12  22403331.430 6 116660008.562 6      -883.219          37.000    22403330.297 5  90208953.855 5      -682.970          35.000
C24  24211302.555 4 126074606.352 4     -2429.902          29.000
C25  21744262.500 8 113228051.010 8       146.961          51.000
E01  23648070.305 8 124271440.086 8        63.395          51.000    23648072.273 8  95220974.172 8        48.617          51.000
E04  26551385.164 7 139528474.392 7     -2417.918          47.000    26551385.547 8 106911393.501 8     -1852.663          49.000
E21  25716481.305 5 135141021.732 5     -1855.754          32.000    25716486.883 5 103549625.892 5     -1422.055          32.000
E26  23888233.711 8 125533532.360 8      1846.480          50.000    23888236.383 8  96188074.063 8      1414.794          51.000
> 2020 05 11 09 38  0.0000000  0 15        .000000000000
G02  23006110.883 6 120897893.212 6       702.168          36.000
G12  20403178.320 8 107219422.327 8     -1179.387          51.000    20403176.641 8  83547605.596 8      -919.003          51.000
G24  22091145.516 7 116089765.270 7     -2914.656          46.000    22091149.898 7  90459545.265 7     -2271.161          46.000
G25  20293607.008 5 106643618.379 5       754.820          35.000    20293608.961 5  83098933.077 5       588.169          34.000
G29  22141525.883 8 116354489.271 8      3096.488          49.000    22141526.242 8  90665853.696 8      2412.848          50.000
G32  22154795.219 5 116424209.648 5      -360.816          31.000    22154796.078 5  90720162.326 5      -281.162          33.000
R09  19499310.609 6 104125213.776 6       858.133          37.000    19499307.414 5  80986321.479 5       667.437          35.000
R19  19756412.594 6 105683496.563 6       523.559          40.000    19756413.836 7  82198289.614 7       407.212          46.000
C11  22861239.797 8 119044516.051 8      2312.055          51.000    22861238.273 8  92052717.371 8      1787.894          51.000
C12  22408485.391 6 116686844.097 6      -904.043          39.000    22408483.945 7  90229704.884 7      -698.970          42.000
C24  24225336.328 6 126147709.378 6     -2441.137          36.000
C25  21743466.656 8 113223906.286 8       131.586          51.000
E01  23647743.055 8 124269720.665 8        53.383          51.000    23647745.109 8  95219656.692 8        40.883          51.000
E04  26565226.773 7 139601213.662 7     -2429.055          45.000    26565226.453 8 106967128.757 8     -1861.272          49.000
E26  23877745.727 8 125478419.919 8      1829.926          48.000    23877748.328 8  96145845.023 8      1402.181          51.000
> 2020 05 11 09 38 30.0000000  0 15        .000000000000
G12  20409937.789 8 107254943.175 8     -1180.719          51.000    20409936.070 8  83575284.165 8      -920.041          51.000
G24  22107809.180 7 116177336.326 7     -2915.430          47.000    22107814.023 7  90527782.501 7     -2271.760          46.000
G25  20289326.742 5 106621123.232 5       752.828          35.000    20289327.438 6  83081404.221 6       586.616          36.000
G29  22123876.641 8 116261743.247 8      3094.367          49.000    22123876.047 8  90593584.089 8      2411.198          49.000
G32  22156906.406 5 116435295.302 5      -370.953          31.000    22156905.531 5  90728800.378 5      -289.048          30.000
R09  19494521.781 6 104099645.432 6       854.246          39.000    19494517.273 5  80966435.002 5       664.414          34.000
R19  19753552.820 6 105668197.986 6       504.180          40.000    19753553.883 7  82186390.722 7       392.137          46.000
C11  22847952.820 8 118975326.245 8      2308.375          50.000    22847951.156 8  91999215.456 8      1785.039          51.000
C12  22413736.898 6 116714185.131 6      -911.043          36.000    22413734.461 7  90250846.715 7      -704.543          42.000
C24  24239416.711 6 126221030.043 6     -2438.988          40.000
C25  21742736.859 8 113220105.931 8       129.719          51.000
E01  23647451.461 8 124268188.658 8        56.797          51.000    23647453.586 8  95218482.804 8        43.523          51.000
E04  26579109.289 7 139674171.251 7     -2426.832          44.000    26579109.414 8 107023031.324 8     -1859.443          49.000
E21                                                                  25737768.281 5 103635317.997 5     -1423.468          32.000
E26  23867329.016 7 125423686.692 7      1826.902          47.000    23867333.031 8  96103906.600 8      1399.849          51.000
> 2020 05 11 09 39  0.0000000  0 15        .000000000000
G02  22998214.219 5 120856437.053 5       675.035          31.000
G12  20416697.727 8 107290466.601 8     -1195.000          51.000    20416696.070 8  83602964.737 8      -931.172          51.000
G24  22124470.789 7 116264894.552 7     -2929.215          47.000    22124475.883 7  90596009.708 7     -2282.505          47.000
G25  20285052.734 5 106598662.043 5       737.117          35.000    20285054.422 5  83063902.040 5       574.383          34.000
G29  22106232.430 8 116169023.496 8      3079.293          49.000    22106231.070 8  90521334.949 8      2399.449          50.000
R09  19489746.227 6 104074145.855 6       837.918          38.000    19489742.094 6  80946602.022 6       651.711          36.000
R19  19750793.703 6 105653438.956 6       471.863          40.000    19750794.883 7  82174911.495 7       367.005          46.000
C11  22834679.891 8 118906212.353 8      2291.746          48.000    22834678.633 8  91945772.240 8      1771.975          51.000
C12  22419020.344 5 116741705.777 5      -931.910          31.000    22419018.672 6  90272127.439 6      -720.192          39.000
C24  24253477.539 6 126294243.649 6     -2449.422          41.000
C25  21742010.992 8 113216326.419 8       114.797          51.000
E01  23647133.344 8 124266517.026 8        47.059          51.000    23647135.391 8  95217201.941 8        36.070          51.000
E04  26592970.680 7 139747017.980 7     -2437.137          44.000    26592971.711 8 107078848.979 8     -1867.602          48.000
E21                                                                  25748376.961 5 103678031.547 5     -1429.616          35.000
E26  23856923.117 8 125369006.817 8      1810.730          49.000    23856927.703 8  96062009.076 8      1387.437          50.000
> 2020 05 11 09 39 30.0000000  0 15        .000000000000
G02  22994405.320 5 120836425.629 5       660.547          33.000
G12  20423543.828 8 107326442.910 8     -1202.992          51.000    20423542.195 8  83630998.202 8      -937.397          51.000
G24  22141216.352 8 116352890.370 8     -2936.629          48.000    22141221.469 7  90664577.852 7     -2288.282          47.000
G25  20280871.117 5 106576687.155 5       728.543          34.000    20280872.211 5  83046778.807 5       567.696          34.000
G29  22088679.867 8 116076783.863 8      3070.457          50.000    22088677.672 8  90449459.910 8      2392.564          50.000
R09  19485069.500 5 104049176.029 5       827.391          34.000    19485067.156 6  80927181.054 6       643.523          37.000
R19  19748221.766 6 105639680.017 6       445.848          40.000    19748222.859 7  82164210.107 7       346.773          45.000
C11  22821506.875 7 118837623.943 7      2281.285          45.000    22821506.914 8  91892735.338 8      1763.962          51.000
C12  22424426.820 5 116769853.052 5      -945.445          31.000    22424424.195 7  90293892.662 7      -730.667          42.000
C24  24267604.297 6 126367797.634 6     -2453.859          41.000
C25  21741375.359 8 113213016.413 8       106.309          51.000
E01  23646874.711 8 124265158.078 8        43.832          51.000    23646876.594 8  95216160.670 8        33.607          51.000
E04  26606897.336 7 139820203.994 7     -2441.387          47.000    26606898.688 8 107134926.546 8     -1870.661          48.000
E21  25759041.734 5 135364564.677 5     -1866.754          35.000
E26  23846614.672 8 125314833.818 8      1801.215          50.000    23846618.617 8  96020499.894 8      1380.083          50.000
> 2020 05 11 09 40  0.0000000  0 15        .000000000000
G12  20430443.625 8 107362701.718 8     -1211.023          51.000    20430442.047 8  83659251.797 8      -943.655          51.000
G24  22158012.758 8 116441151.833 8     -2944.273          48.000    22158016.734 8  90733352.970 8     -2294.239          48.000
G25  20276749.789 5 106555028.501 5       718.883          35.000    20276748.695 5  83029901.943 5       560.168          35.000
G29  22071187.008 8 115984856.208 8      3061.250          51.000    22071184.164 8  90377827.999 8      2385.390          51.000
G32  22163772.211 5 116471412.380 5      -428.602          31.000    22163760.227 5  90756897.328 5      -333.981          30.000
R09  19480460.023 6 104024564.492 6       816.676          37.000    19480460.570 6  80908038.750 6       635.192          37.000
R16  21883739.344 5 116898985.797 5     -2790.844          30.000
R19  19745804.133 6 105626748.242 6       419.535          41.000    19745805.211 7  82154152.077 7       326.305          44.000
C11  22808402.367 7 118769394.002 7      2270.445          46.000    22808403.875 8  91839975.600 8      1755.776          50.000
C12  22429920.188 4 116798479.866 4      -958.719          28.000    22429917.594 7  90316011.174 7      -741.348          44.000
C24  24281763.633 6 126441523.032 6     -2457.977          41.000
C25  21740797.773 8 113210008.121 8        97.422          51.000
E01  23646643.297 8 124263941.945 8        40.418          51.000    23646644.922 8  95215228.822 8        31.012          51.000
E04  26620856.164 8 139893557.081 8     -2445.516          48.000    26620857.555 7 107191132.139 7     -1873.882          47.000
E26  23836370.812 8 125260998.951 8      1791.094          50.000    23836374.516 8  95979249.824 8      1372.405          51.000
> 2020 05 11 09 40 30.0000000  0 14        .000000000000
G12  20437402.180 8 107399269.339 8     -1222.320          51.000    20437400.656 8  83687746.033 8      -952.457          51.000
G24  22174864.344 8 116529704.685 8     -2954.828          50.000    22174866.992 8  90802355.095 8     -2302.467          50.000
G25  20272693.602 6 106533713.369 6       706.328          36.000    20272692.250 6  83013292.712 6       550.383          37.000
G29  22053759.125 8 115893269.882 8      3048.902          51.000    22053756.367 8  90306462.075 8      2375.771          51.000
G32  22166292.414 4 116484677.124 4      -450.168          28.000    22166288.070 4  90767253.378 4      -350.786          26.000
R09  19475923.859 6 104000340.562 6       802.336          38.000    19475925.406 6  80889197.893 6       624.039          38.000
R19  19743546.375 6 105614671.332 6       389.945          40.000    19743547.500 7  82144758.952 7       303.294          44.000
C11  22795373.594 8 118701550.907 8      2256.691          48.000    22795375.227 8  91787515.025 8      1745.014          50.000
C12  22435499.781 4 116827533.979 4      -976.336          27.000    22435503.406 7  90338502.742 7      -754.723          44.000
C24  24295961.195 7 126515446.059 7     -2465.645          42.000
C25  21740283.219 8 113207329.114 8        85.469          51.000
E01  23646444.242 8 124262896.016 8        33.676          51.000    23646445.734 8  95214427.388 8        25.848          51.000
E04  26634851.523 8 139967102.452 8     -2452.910          48.000    26634853.086 7 107247485.050 7     -1879.500          46.000
E26  23826196.539 8 125207530.667 8      1777.855          51.000    23826200.250 8  95938280.668 8      1362.193          51.000
> 2020 05 11 09 41  0.0000000  0 13        .000000000000
G12  20444435.586 8 107436230.598 8     -1238.309          51.000    20444434.242 8  83716547.004 8      -964.916          51.000
G24  22191787.336 8 116618633.172 8     -2970.332          51.000    22191788.430 8  90871649.931 8     -2314.547          51.000
G25  20268718.961 5 106512827.430 5       688.980          35.000    20268719.336 6  82997017.998 6       536.874          36.000
G29  22036412.469 8 115802112.147 8      3031.695          50.000    22036410.453 8  90235430.104 8      2362.360          50.000
R09  19471477.227 6 103976592.571 6       784.219          37.000    19471478.875 6  80870727.244 6       609.948          38.000
R19  19741464.727 6 105603537.042 6       355.609          41.000    19741465.727 7  82136098.971 7       276.585          44.000
C11  22782436.703 8 118634181.077 8      2237.996          51.000    22782437.938 8  91735420.446 8      1730.585          51.000
C12  22441197.031 5 116857188.627 5      -997.891          31.000    22441198.289 7  90361432.090 7      -771.505          45.000
C24  24310210.789 6 126589651.333 6     -2478.164          36.000
C25  21739848.195 8 113205065.109 8        68.707          51.000
E01  23646293.891 8 124262106.280 8        22.227          51.000    23646295.461 8  95213822.267 8        17.025          51.000
E04  26648899.297 7 140040923.759 7     -2465.195          47.000    26648901.352 7 107304049.393 7     -1888.844          47.000
E26  23816108.539 8 125154516.155 8      1759.652          51.000    23816112.133 8  95897659.191 8      1348.338          51.000
> 2020 05 11 09 41 30.0000000  0 13        .000000000000
G12  20451515.711 8 107473437.240 8     -1246.727          51.000    20451514.484 8  83745539.184 8      -971.475          51.000
G24  22208753.477 8 116707788.320 8     -2978.082          51.000    22208753.570 8  90941121.427 8     -2320.583          51.000
G25  20264797.328 5 106492223.491 5       679.777          31.000    20264800.555 5  82980962.977 5       529.700          30.000
G29  22019119.172 8 115711237.694 8      3021.953          48.000    22019118.508 7  90164618.853 7      2354.769          47.000
R09  19467091.953 6 103953172.441 6       772.539          40.000    19467094.086 6  80852511.555 6       600.867          39.000
R19  19739531.234 6 105593195.495 6       328.934          41.000    19739532.625 7  82128055.584 7       255.837          44.000
C11  22769563.516 8 118567140.187 8      2226.766          51.000    22769564.102 8  91683580.221 8      1721.831          51.000
C12  22446973.812 5 116887260.224 5     -1011.812          35.000    22446973.094 7  90384685.351 7      -782.346          43.000
C24  24324485.344 5 126663992.406 5     -2482.668          34.000
C25  21739464.891 8 113203070.888 8        59.547          51.000
E01  23646164.289 8 124261425.679 8        18.352          51.000    23646166.023 8  95213300.758 8        14.050          51.000
E04  26662971.344 7 140114871.709 7     -2469.566          47.000    26662973.977 7 107360710.804 7     -1892.292          47.000
E26  23806079.156 8 125101809.483 8      1749.199          51.000    23806082.547 8  95857273.591 8      1340.293          51.000
> 2020 05 11 09 42  0.0000000  0 15        .000000000000
G12  20458631.555 8 107510831.382 8     -1254.664          51.000    20458630.172 8  83774677.469 8      -977.660          51.000
G24  22225751.391 8 116797111.422 8     -2985.352          51.000    22225751.234 8  91010723.830 8     -2326.248          51.000
G25  20260919.031 5 106471848.292 5       670.570          35.000    20260923.242 5  82965083.101 5       522.522          34.000
G29  22001869.086 8 115620591.270 8      3012.488          48.000    22001869.883 7  90093985.282 7      2347.393          47.000
G32  22174519.930 5 116527887.574 5      -509.086          34.000    22174523.820 5  90800964.207 5      -396.693          33.000
R09  19462757.070 6 103930023.603 6       761.844          36.000    19462759.703 6  80834506.881 6       592.542          39.000
R18  21938783.898 5 117110666.616 5     -3349.773          34.000    21938795.375 5  91086103.347 5     -2605.376          34.000
R19  19737735.305 6 105583588.375 6       302.715          40.000    19737736.391 7  82120583.381 7       235.448          45.000
C11  22756742.828 8 118500373.017 8      2215.859          51.000    22756742.797 8  91631951.625 8      1713.500          51.000
C12  22452818.234 5 116917692.719 5     -1025.488          35.000    22452816.672 7  90408217.629 7      -792.809          42.000
C24  24338776.562 5 126738411.903 5     -2487.055          33.000
C25  21739122.742 8 113201290.426 8        50.652          51.000
E01  23646044.688 8 124260797.243 8        14.918          51.000    23646046.531 8  95212819.223 8        11.449          51.000
E04  26677056.406 7 140188887.096 7     -2473.441          47.000    26677059.484 7 107417423.868 7     -1895.216          47.000
E26  23796097.680 8 125049354.738 8      1739.184          51.000    23796100.844 8  95817081.015 8      1332.621          51.000
> 2020 05 11 09 42 30.0000000  0 16        .000000000000
G02  22973531.250 5 120726700.434 5       561.016          35.000
G12  20465827.898 8 107548648.446 8     -1264.934          51.000    20465826.195 8  83804145.314 8      -985.663          51.000
G24  22242825.805 8 116886837.244 8     -2994.840          51.000    22242826.688 8  91080640.036 8     -2333.641          51.000
G25  20257128.312 5 106451930.458 5       658.605          33.000    20257134.055 5  82949562.601 5       513.193          33.000
G29  21984708.352 8 115530410.843 8      3000.855          49.000    21984709.469 8  90023714.814 8      2338.329          49.000
G32  22177487.508 6 116543487.878 6      -528.461          36.000    22177494.102 5  90813120.316 5      -411.782          35.000
R09  19458517.734 6 103907387.541 6       748.957          36.000    19458519.984 6  80816901.103 6       582.531          38.000
R18  21957664.891 6 117211441.201 6     -3366.516          36.000    21957671.445 5  91164483.580 5     -2618.401          32.000
R19  19736121.273 6 105574956.394 6       274.133          41.000    19736122.773 7  82113869.631 7       213.214          46.000
C11  22744019.461 8 118434115.187 8      2202.730          51.000    22744019.094 8  91580716.890 8      1703.291          51.000
C12  22458776.312 6 116948718.913 6     -1041.539          37.000    22458775.273 7  90432209.078 7      -805.475          43.000
C24  24353124.758 4 126813111.516 4     -2493.297          29.000
C25  21738866.938 8 113199958.582 8        39.574          51.000
E01  23645979.992 8 124260457.541 8         9.234          51.000    23645981.953 8  95212558.928 8         7.052          51.000
E04  26691198.750 7 140263204.154 7     -2479.359          47.000    26691201.859 7 107474368.060 7     -1899.823          47.000
E26  23786208.898 8 124997389.529 8      1726.805          51.000    23786212.297 8  95777263.555 8      1323.103          51.000
> 2020 05 11 09 43  0.0000000  0 16        .000000000000
G02  22970378.367 5 120710152.633 5       543.480          32.000
G12  20473106.625 8 107586898.164 8     -1276.496          51.000    20473104.711 8  83833950.284 8      -994.672          51.000
G24  22259978.586 8 116976974.725 8     -3005.691          51.000    22259980.117 8  91150877.022 8     -2342.097          51.000
G25  20253427.023 4 106432484.322 4       645.082          29.000    20253435.688 4  82934409.850 4       502.661          29.000
G29  21967639.266 8 115440709.345 8      2987.812          51.000    21967639.930 8  89953817.559 8      2328.166          51.000
R09  19454376.398 5 103885276.660 5       734.238          34.000    19454379.320 6  80799703.702 6       571.074          38.000
R18  21976662.984 5 117312845.313 5     -3384.730          35.000    21976666.188 5  91243353.383 5     -2632.571          30.000
R19  19734692.117 6 105567310.392 6       244.367          41.000    19734693.742 7  82107922.730 7       190.060          46.000
C11  22731395.484 8 118368378.574 8      2188.113          51.000    22731395.086 8  91529885.171 8      1692.070          51.000
C12  22464850.812 6 116980348.103 6     -1058.473          40.000    22464849.688 7  90456666.760 7      -818.605          44.000
C24  24367537.375 6 126888160.230 6     -2501.406          37.000
C25  21738699.398 8 113199086.554 8        27.039          51.000
E01  23645972.258 8 124260417.405 8         2.016          51.000    23645974.328 8  95212528.167 8         1.571          51.000
E04  26705400.102 8 140337831.487 8     -2486.934          48.000    26705402.336 7 107531549.972 7     -1905.650          45.000
E21  25834176.922 5 135759515.954 5     -1893.516          35.000
E26  23776415.375 8 124945925.776 8      1712.801          51.000    23776418.734 8  95737830.319 8      1312.424          51.000
> 2020 05 11 09 43 30.0000000  0 16        .000000000000
G06  23564975.453 6 123834739.574 6      -830.852          36.000    23564992.812 5  96494688.455 5      -647.417          32.000
G12  20480396.969 8 107625208.909 8     -1282.969          51.000    20480395.062 8  83863802.805 8      -999.716          51.000
G24  22277138.789 8 117067151.606 8     -3011.332          51.000    22277140.688 8  91221144.691 8     -2346.492          51.000
G25  20249746.117 5 106413133.593 5       638.367          34.000    20249755.078 5  82919337.040 5       497.429          33.000
G29  21950590.945 8 115351117.370 8      2979.656          51.000    21950591.383 8  89884005.672 8      2321.813          51.000
R09  19450262.859 6 103863316.105 6       724.359          36.000    19450267.391 6  80782623.255 6       563.391          39.000
R18  21995705.609 5 117414498.442 5     -3397.480          31.000    21995709.492 4  91322416.846 4     -2642.485          26.000
R19  19733376.734 6 105560272.960 6       219.395          41.000    19733378.297 7  82102449.170 7       170.640          46.000
C11  22718800.922 8 118302797.660 8      2178.625          50.000    22718800.875 8  91479173.868 8      1684.609          51.000
C12  22470970.172 6 117012211.685 6     -1071.043          40.000    22470968.852 7  90481305.705 7      -827.984          42.000
C24  24381943.773 6 126963168.465 6     -2504.570          37.000
C25  21738549.742 8 113198307.878 8        19.586          51.000
E01  23645951.039 8 124260306.585 8         -.008          51.000    23645953.219 8  95212443.237 8         -.024          51.000
E04  26719589.539 8 140412396.497 8     -2489.344          48.000    26719590.023 7 107588684.127 7     -1907.431          44.000
E21                                                                  25844972.727 5 104066998.813 5     -1450.950          31.000
E26  23766647.320 8 124894594.290 8      1703.918          51.000    23766650.133 8  95698498.403 8      1305.579          51.000
> 2020 05 11 09 44  0.0000000  0 16        .000000000000
G02  22964342.242 5 120678441.681 5       510.656          35.000
G06  23569786.805 5 123860020.893 5      -852.379          32.000    23569800.672 5  96514408.306 5      -664.200          30.000
G12  20487763.727 8 107663921.242 8     -1295.184          51.000    20487761.836 8  83893968.241 8     -1009.234          51.000
G24  22294371.195 8 117157707.948 8     -3022.945          51.000    22294372.984 8  91291708.044 8     -2355.545          51.000
G25  20246149.883 5 106394231.692 5       624.574          34.000    20246157.570 5  82904608.238 5       486.669          35.000
G29  21933628.367 8 115261978.440 8      2965.688          51.000    21933628.891 8  89814546.804 8      2310.928          51.000
R09  19446242.719 6 103841853.811 6       709.129          36.000    19446248.602 6  80765930.335 6       551.542          40.000
R18  22014858.398 5 117516743.237 5     -3415.641          32.000
R19  19732239.836 6 105554191.806 6       188.746          41.000    19732241.516 7  82097719.385 7       146.803          46.000
C11  22706301.648 8 118237712.006 8      2163.137          49.000    22706301.547 8  91428845.513 8      1672.611          51.000
C12  22477198.805 6 117044646.484 6     -1088.680          41.000    22477197.875 6  90506386.402 6      -841.891          40.000
C24  24396404.883 5 127038468.874 5     -2512.906          33.000
C25  21738483.227 8 113197961.414 8         6.289          51.000
E01  23645981.383 8 124260466.591 8        -7.926          51.000    23645983.664 8  95212565.827 8        -6.106          51.000
E04  26733831.508 7 140487238.432 7     -2497.543          47.000    26733830.445 7 107646030.498 7     -1913.555          43.000
E26  23756969.633 8 124843737.617 8      1689.238          51.000    23756972.539 8  95659530.315 8      1294.330          51.000
> 2020 05 11 09 44 30.0000000  0 15        .000000000000
G12  20495190.859 8 107702950.932 8     -1305.012          51.000    20495189.023 8  83924380.962 8     -1016.892          51.000
G24  22311659.219 8 117248558.538 8     -3031.914          50.000    22311660.625 8  91362500.672 8     -2362.530          50.000
G25  20242621.633 5 106375688.969 5       613.648          30.000    20242627.164 5  82890159.403 5       478.171          30.000
G29  21916736.023 8 115173210.943 8      2953.992          50.000    21916737.047 8  89745377.357 8      2301.812          50.000
R09  19442301.766 6 103820806.843 6       695.992          38.000    19442307.117 6  80749560.461 6       541.327          40.000
R18  22034104.961 5 117619490.918 5     -3432.031          31.000
R19  19731265.914 6 105548981.756 6       160.449          41.000    19731267.797 7  82093667.120 7       124.794          46.000
C11  22693882.102 8 118173040.514 8      2150.172          50.000    22693881.570 8  91378837.410 8      1662.676          51.000
C12  22483520.906 6 117077568.717 6     -1104.148          41.000    22483519.812 6  90531844.010 6      -853.731          38.000
C24  24410906.156 5 127113992.242 5     -2519.504          30.000
C25  21738484.086 8 113197965.393 8        -4.629          51.000
E01  23646047.617 8 124260814.468 8       -13.324          51.000    23646049.852 8  95212832.370 8       -10.206          51.000
E04  26748109.680 7 140562272.058 7     -2502.938          47.000    26748108.219 7 107703523.763 7     -1917.850          45.000
E21  25866671.484 5 135930272.915 5     -1902.645          35.000
E26  23747366.672 8 124793273.829 8      1676.914          51.000    23747370.109 8  95620863.282 8      1284.914          51.000
> 2020 05 11 09 45  0.0000000  0 14        .000000000000
G12  20502669.953 8 107742253.732 8     -1320.574          51.000    20502668.164 8  83955006.495 8     -1029.019          51.000
G24  22328994.258 7 117339658.419 7     -3046.777          47.000    22328995.094 7  91433487.620 7     -2374.112          47.000
G29  21899906.328 8 115084773.089 8      2936.602          50.000    21899907.711 8  89676464.742 8      2288.261          50.000
R09  19438431.039 6 103800132.214 6       677.152          40.000    19438435.234 6  80733480.198 6       526.674          41.000
R18  22053436.266 4 117722739.155 4     -3453.422          28.000    22053440.406 4  91562150.131 4     -2685.986          24.000
R19  19730446.359 6 105544598.104 6       126.125          41.000    19730448.070 7  82090257.617 7        98.097          45.000
R20  21776637.164 6 116449461.377 6      4164.043          37.000    21776640.773 7  90571820.359 7      3238.700          44.000
C11  22681534.078 8 118108741.243 8      2131.160          51.000    22681533.062 8  91329117.136 8      1647.948          51.000
C12  22489928.148 6 117110933.592 6     -1125.312          41.000    22489926.094 6  90557643.838 6      -870.103          37.000
C24  24425446.672 5 127189680.571 5     -2530.953          31.000
C25  21738543.859 8 113198277.056 8       -21.367          51.000
E01  23646141.367 8 124261306.627 8       -24.777          51.000    23646143.523 8  95213209.481 8       -18.970          51.000
E04  26762415.453 7 140637451.499 7     -2514.387          45.000    26762414.867 7 107761128.740 7     -1926.539          46.000
E26  23737830.312 8 124743160.318 8      1658.602          51.000    23737833.805 8  95582464.643 8      1270.915          51.000
> 2020 05 11 09 45 30.0000000  0 17        .000000000000
G02  22956037.398 5 120634790.128 5       472.789          34.000
G06  23584879.398 5 123939350.649 5      -898.121          32.000
G12  20510211.828 8 107781886.748 8     -1313.531          51.000    20510210.055 8  83985889.338 8     -1023.531          51.000
G24  22346387.133 7 117431063.980 7     -3039.020          46.000    22346389.195 7  91504712.707 7     -2368.067          46.000
G25  20235756.336 6 106339628.166 6       601.914          36.000    20235761.422 6  82862038.238 6       469.024          36.000
G29  21883151.195 8 114996724.893 8      2941.438          51.000    21883152.594 8  89607855.750 8      2292.029          51.000
R09  19434641.430 6 103779890.751 6       680.621          40.000    19434643.984 6  80717736.830 6       529.372          40.000
R19  19729792.367 6 105541099.948 6       114.953          41.000    19729794.164 7  82087536.827 7        89.408          45.000
R20  21753286.039 6 116324583.044 6      4169.293          39.000    21753289.078 7  90474692.784 7      3242.783          43.000
C11  22669268.867 8 118044873.417 8      2134.547          51.000    22669267.492 8  91279730.478 8      1650.573          51.000
C12  22496431.320 7 117144797.414 7     -1124.129          43.000    22496429.547 6  90583829.556 6      -869.199          37.000
C24  24440025.062 6 127265626.691 6     -2520.789          36.000
C25  21738673.961 8 113198954.857 8       -15.852          51.000
E01  23646273.727 8 124262001.652 8       -13.559          51.000    23646275.852 8  95213742.031 8       -10.350          51.000
E04  26776759.820 7 140712833.032 7     -2503.082          45.000    26776760.578 7 107818888.577 7     -1917.820          47.000
E21  25888442.961 5 136044668.366 5     -1898.539          35.000    25888447.523 5 104242032.371 5     -1454.916          32.000
E26  23728372.062 8 124693456.735 8      1662.984          51.000    23728375.211 8  95544380.107 8      1274.259          51.000
> 2020 05 11 09 46  0.0000000  0 17        .000000000000
G02  22953444.680 5 120621184.918 5       428.477          33.000
G06  23590117.180 6 123966862.464 6      -943.770          36.000    23590120.516 5  96597586.346 5      -735.411          35.000
G12  20517793.539 8 107821729.238 8     -1350.168          51.000    20517791.820 8  84016935.413 8     -1052.079          51.000
G24  22363815.750 7 117522653.770 7     -3074.664          47.000    22363818.828 7  91576081.392 7     -2395.842          47.000
G25  20232408.352 6 106322029.501 6       563.867          38.000    20232408.242 6  82848324.971 6       439.377          37.000
G29  21866448.164 8 114908947.929 8      2902.785          51.000    21866449.242 8  89539458.127 8      2261.911          51.000
R09  19430910.328 6 103759961.743 6       639.879          40.000    19430911.773 7  80702236.547 7       497.684          42.000
R19  19729281.219 6 105538365.136 6        59.414          40.000    19729283.102 7  82085409.770 7        46.211          45.000
R20  21729983.469 6 116199975.397 6      4130.230          40.000    21729985.508 6  90377775.756 6      3212.405          40.000
C11  22657063.578 8 117981319.524 8      2094.793          50.000    22657062.531 8  91230586.582 8      1619.890          51.000
C12  22503007.695 7 117179040.061 7     -1165.969          44.000    22503005.969 5  90610308.140 5      -901.673          35.000
C24  24454619.656 6 127341626.640 6     -2553.844          38.000
C25  21738851.883 8 113199880.639 8       -53.395          51.000
E01  23646421.953 8 124262779.928 8       -45.867          51.000    23646424.023 8  95214338.368 8       -35.118          51.000
E04  26791119.742 7 140788294.716 7     -2535.297          46.000    26791121.516 7 107876709.839 7     -1942.669          47.000
E21                                                                  25899349.906 5 104285950.800 5     -1478.301          31.000
E26  23718969.211 8 124644044.380 8      1623.688          51.000    23718972.164 8  95506518.714 8      1244.112          51.000
> 2020 05 11 09 46 30.0000000  0 16        .000000000000
G06  23595490.867 5 123995093.068 5      -948.465          33.000    23595491.141 5  96619584.099 5      -739.073          30.000
G12  20525459.570 8 107862014.594 8     -1345.219          51.000    20525457.883 8  84048326.584 8     -1048.222          51.000
G24  22381324.086 8 117614660.404 8     -3068.727          48.000    22381328.016 8  91647774.845 8     -2391.216          48.000
G25  20229151.336 5 106304918.965 5       566.816          34.000    20229152.023 5  82834992.123 5       441.678          34.000
G29  21849841.820 8 114821678.532 8      2905.484          51.000    21849842.242 8  89471456.020 8      2264.014          51.000
R09  19427282.258 7 103740584.859 7       641.945          42.000    19427283.250 7  80687165.600 7       499.294          42.000
R19  19728957.141 6 105536631.513 6        45.883          40.000    19728958.672 7  82084061.388 7        35.687          44.000
R20  21706776.219 6 116075880.695 6      4133.008          40.000    21706773.602 5  90281257.721 5      3214.565          35.000
C11  22644963.117 8 117918312.925 8      2096.031          49.000    22644962.961 8  91181865.907 8      1620.660          51.000
C12  22509700.680 7 117213891.999 7     -1167.078          42.000    22509698.805 6  90637257.780 6      -901.991          36.000
C24  24469277.453 6 127417961.009 6     -2544.891          36.000
C25  21739122.336 8 113201287.016 8       -50.020          51.000
E01  23646630.602 8 124263875.731 8       -36.875          51.000    23646632.555 8  95215178.008 8       -28.264          51.000
E04  26805539.500 7 140864068.517 7     -2526.102          47.000    26805541.602 7 107934770.268 7     -1935.620          47.000
E21  25910299.922 5 136159556.568 5     -1917.449          35.000
E26  23709666.438 8 124595158.563 8      1625.715          50.000    23709669.352 8  95469060.764 8      1245.672          51.000
> 2020 05 11 09 47  0.0000000  0 15        .000000000000
G12  20533168.445 8 107902524.888 8     -1355.332          51.000    20533166.812 8  84079893.034 8     -1056.103          51.000
G24  22398870.406 8 117706865.418 8     -3077.863          49.000    22398874.508 8  91719622.840 8     -2398.338          49.000
G25  20225946.383 6 106288079.760 6       555.418          40.000    20225948.680 6  82821870.669 6       432.790          39.000
G29  21833290.953 8 114734701.227 8      2893.148          51.000    21833290.555 8  89403681.522 8      2254.401          51.000
R09  19423715.945 6 103721541.009 6       628.055          41.000    19423717.000 6  80672353.719 6       488.484          41.000
R19  19728778.953 6 105535678.017 6        17.363          41.000    19728780.570 7  82083319.780 7        13.505          45.000
R20  21683625.305 6 115952082.171 6      4120.602          41.000    21683620.227 6  90184970.133 6      3204.918          37.000
C11  22632926.898 8 117855640.095 8      2082.270          49.000    22632927.562 8  91133403.295 8      1610.224          51.000
C12  22516468.922 7 117249136.821 7     -1182.734          42.000    22516467.789 6  90664511.428 6      -914.088          40.000
C24  24483958.812 6 127494414.254 6     -2551.641          38.000
C25  21739444.055 8 113202959.672 8       -61.375          51.000
E01  23646858.438 8 124265072.401 8       -42.738          51.000    23646860.180 8  95216094.931 8       -32.736          51.000
E04  26819977.195 8 140939935.466 8     -2531.535          48.000    26819979.297 8 107992902.073 8     -1939.691          48.000
E21  25921255.938 5 136217140.344 5     -1920.883          34.000
E26  23700422.336 8 124546583.551 8      1612.875          49.000    23700426.000 8  95431840.983 8      1235.803          51.000
> 2020 05 11 09 47 30.0000000  0 16        .000000000000
G06  23606521.180 5 124053086.187 5      -984.652          31.000
G12  20540920.719 8 107943263.568 8     -1363.445          51.000    20540919.305 8  84111637.462 8     -1062.425          51.000
G24  22416454.977 8 117799270.469 8     -3085.324          48.000    22416458.305 8  91791626.738 8     -2404.152          48.000
G25  20222794.281 6 106271516.386 6       545.297          37.000    20222797.008 6  82808964.080 6       424.904          37.000
G29  21816796.547 8 114648021.954 8      2882.641          51.000    21816795.211 8  89336139.252 8      2246.213          51.000
R09  19420213.242 6 103702836.196 6       615.828          41.000    19420213.656 6  80657805.545 6       478.977          41.000
R18  22151434.906 6 118245831.920 6     -3524.734          36.000    22151433.383 5  91968973.056 5     -2741.460          30.000
R19  19728747.406 6 105535508.434 6        -9.195          41.000    19728748.852 7  82083187.872 7        -7.152          45.000
R20  21660531.992 6 115828588.584 6      4109.609          41.000    21660530.828 7  90088919.657 7      3196.363          44.000
C11  22620956.055 8 117793306.557 8      2070.414          49.000    22620957.289 8  91085203.046 8      1601.012          51.000
C12  22523313.641 6 117284777.356 6     -1195.945          40.000    22523312.992 6  90692071.051 6      -924.989          39.000
C24  24498664.586 6 127570989.952 6     -2556.105          40.000
C25  21739817.891 8 113204903.519 8       -70.949          51.000
E01  23647106.320 8 124266374.560 8       -46.863          51.000    23647107.852 8  95217092.681 8       -35.905          51.000
E04  26834433.078 7 141015897.846 7     -2535.289          47.000    26834435.156 8 108051106.974 8     -1942.645          49.000
E26  23691238.570 8 124498324.936 8      1601.543          49.000    23691242.898 8  95394863.605 8      1227.210          51.000
> 2020 05 11 09 48  0.0000000  0 16        .000000000000
G06  23612178.469 5 124082836.496 5     -1009.297          32.000    23612178.469 5  96687911.056 5      -786.471          32.000
G12  20548718.992 8 107984244.110 8     -1378.566          51.000    20548717.875 8  84143570.358 8     -1074.211          51.000
G24  22434079.891 8 117891889.420 8     -3099.309          48.000    22434081.859 7  91863797.321 7     -2415.046          47.000
G25  20219697.781 5 106255242.773 5       528.973          35.000    20219699.422 5  82796283.327 5       412.190          34.000
G29  21800361.406 8 114561656.958 8      2865.188          50.000    21800359.383 8  89268841.886 8      2232.614          49.000
R09  19416777.023 7 103684485.874 7       597.180          42.000    19416776.680 6  80643533.085 6       464.473          41.000
R18  22171273.391 5 118351728.850 5     -3545.359          35.000    22171271.250 4  92051337.280 4     -2757.505          29.000
R19  19728864.883 6 105536136.991 6       -42.879          41.000    19728866.586 7  82083676.767 7       -33.350          45.000
R20  21637499.062 6 115705418.077 6      4091.773          39.000    21637500.234 7  89993120.398 7      3182.490          46.000
C11  22609053.781 8 117731327.760 8      2051.570          50.000    22609055.117 8  91037277.104 8      1586.552          51.000
C12  22530236.570 6 117320826.181 6     -1216.715          41.000    22530236.109 5  90719946.311 5      -940.947          35.000
C24  24513396.438 6 127647701.547 6     -2567.809          40.000
C25  21740246.375 8 113207133.224 8       -87.527          51.000
E01  23647377.000 8 124267796.545 8       -57.777          51.000    23647378.414 8  95218182.252 8       -44.322          51.000
E04  26848909.156 7 141091967.761 7     -2545.781          46.000    26848911.328 8 108109394.248 8     -1950.705          50.000
E26  23682117.703 8 124450398.017 8      1583.562          48.000    23682122.727 8  95358140.369 8      1213.406          51.000
> 2020 05 11 09 48 30.0000000  0 17        .000000000000
G06  23618006.867 6 124113460.394 6     -1024.496          36.000    23618009.008 5  96711783.841 5      -798.312          35.000
G12  20556630.891 8 108025821.722 8     -1384.902          51.000    20556629.992 8  84175968.495 8     -1079.145          51.000
G24  22451812.375 7 117985076.040 7     -3104.688          45.000    22451813.727 7  91936410.276 7     -2419.237          45.000
G25  20216723.508 6 106239614.836 6       521.355          36.000    20216725.664 5  82784105.780 5       406.254          35.000
G29  21784053.992 8 114475963.672 8      2856.137          49.000    21784051.867 8  89202067.955 8      2225.564          50.000
R09  19413474.766 7 103666853.535 7       586.871          43.000    19413473.617 6  80629819.045 6       456.458          40.000
R18  22191253.805 5 118458385.467 5     -3557.082          30.000    22191252.875 4  92134292.309 4     -2766.622          24.000
R19  19729199.312 6 105537925.055 6       -67.809          41.000    19729200.656 7  82085067.480 7       -52.740          45.000
R20  21614593.945 5 115582936.746 5      4082.422          35.000    21614596.945 8  89897857.118 8      3175.217          48.000
C05  39683734.352 5 206643617.326 5        33.770          35.000
C11  22597287.773 8 117670057.633 8      2041.406          49.000    22597288.727 8  90989899.167 8      1578.439          51.000
C12  22537305.422 6 117357634.514 6     -1228.867          38.000    22537304.570 6  90748408.804 6      -949.966          39.000
C24  24528222.141 6 127724901.177 6     -2570.379          36.000
C25  21740797.273 8 113210002.069 8       -95.441          51.000
E01  23647738.188 8 124269694.564 8       -60.258          51.000    23647739.578 8  95219636.575 8       -46.213          51.000
E04  26863472.258 7 141168499.003 7     -2547.895          44.000    26863474.914 8 108168035.009 8     -1952.280          50.000
E26  23673128.195 8 124403159.859 8      1574.039          50.000    23673133.258 8  95321944.896 8      1206.064          51.000
> 2020 05 11 09 49  0.0000000  0 18        .000000000000
G06  23623915.391 5 124144506.436 5     -1037.680          34.000    23623919.820 5  96735975.536 5      -808.582          33.000
G12  20564570.750 8 108067546.026 8     -1389.383          51.000    20564570.000 8  84208480.934 8     -1082.636          51.000
G24  22469566.906 7 118078379.682 7     -3108.180          44.000    22469568.711 7  92009114.437 7     -2421.958          44.000
G25  20213787.211 6 106224183.697 6       514.711          39.000    20213790.125 6  82772081.541 6       401.077          38.000
G29  21767789.664 8 114390494.659 8      2849.035          51.000    21767788.227 8  89135468.756 8      2220.027          51.000
G32  22226061.906 5 116798728.993 5      -773.090          33.000
R09  19410221.531 7 103649484.036 7       578.516          43.000    19410219.836 6  80616309.452 6       449.957          40.000
R19  19729664.758 7 105540415.145 7       -90.855          42.000    19729666.047 7  82087004.231 7       -70.665          45.000
R20  21591729.961 5 115460692.186 5      4074.711          33.000    21591737.383 8  89802777.910 8      3169.214          49.000
C05  39683541.273 5 206642611.740 5        39.680          35.000
C11  22585572.445 8 117609052.583 8      2032.863          48.000    22585572.812 8  90942726.179 8      1571.866          51.000
C12  22544432.602 5 117394755.725 5     -1239.367          30.000    22544433.422 6  90777113.409 6      -957.968          40.000
C24  24543055.320 5 127802143.483 5     -2571.453          35.000
C25  21741385.625 8 113213065.745 8      -101.656          51.000
E01  23648104.469 8 124271619.873 8       -60.918          51.000    23648105.906 8  95221111.797 8       -46.621          51.000
E04  26878036.602 7 141245040.496 7     -2547.816          42.000    26878039.938 8 108226683.619 8     -1952.121          50.000
E21  25965290.102 5 136448511.131 5     -1930.258          34.000
E26  23664185.391 8 124356162.604 8      1566.309          51.000    23664189.969 8  95285934.008 8      1200.159          51.000
> 2020 05 11 09 49 30.0000000  0 19        .000000000000
G06  23629904.312 5 124175981.119 5     -1058.707          31.000    23629907.539 5  96760501.255 5      -824.967          30.000
G12  20572539.820 8 108109423.578 8     -1400.840          51.000    20572539.180 8  84241112.791 8     -1091.564          51.000
G24  22487345.086 7 118171805.840 7     -3118.461          46.000    22487346.969 7  92081914.038 7     -2429.967          46.000
G25  20210889.906 6 106208956.875 6       501.645          39.000    20210892.742 6  82760216.425 6       390.889          39.000
G29  21751570.070 8 114305259.218 8      2834.832          51.000    21751569.570 8  89069051.551 8      2208.960          51.000
G32  22230540.625 6 116822252.050 6      -793.469          40.000    22230542.781 5  91030363.076 5      -618.278          34.000
R09  19407019.523 7 103632386.567 7       562.965          43.000    19407018.484 7  80603011.451 7       437.862          42.000
R18  22231368.266 5 118672552.469 5     -3582.645          30.000
R19  19730262.977 6 105543614.389 6      -120.879          41.000    19730263.977 7  82089492.546 7       -94.017          45.000
R20  21568915.703 6 115338695.708 6      4059.715          36.000    21568923.945 8  89707891.716 8      3157.559          49.000
C05  39683322.836 5 206641474.266 5        38.238          34.000
C11  22573909.438 8 117548321.298 8      2017.352          49.000    22573909.117 8  90895764.886 8      1559.944          49.000
C12  22551623.578 6 117432195.949 6     -1255.691          37.000    22551623.180 6  90806064.575 6      -971.161          39.000
C24  24557897.945 6 127879435.129 6     -2579.566          38.000
C25  21742013.086 8 113216332.298 8      -114.652          51.000
E01  23648477.383 8 124273580.199 8       -68.445          51.000    23648478.922 8  95222613.867 8       -52.421          51.000
E04  26892603.562 6 141321597.590 6     -2554.582          41.000    26892607.227 8 108285344.241 8     -1957.350          49.000
E21  25976331.406 5 136506539.999 5     -1935.301          34.000
E26  23655290.219 8 124309414.899 8      1551.637          51.000    23655294.250 8  95250114.369 8      1188.910          51.000
> 2020 05 11 09 50  0.0000000  0 17        .000000000000
G06  23636007.711 5 124208054.936 5     -1078.777          33.000    23636007.148 5  96785496.995 5      -840.612          32.000
G12  20580570.641 8 108151625.390 8     -1412.008          51.000    20580569.984 8  84273997.316 8     -1100.266          51.000
G24  22505179.453 8 118265524.264 8     -3128.832          48.000    22505180.672 7  92154941.339 7     -2438.054          47.000
G25  20208064.172 6 106194105.734 6       488.961          38.000    20208065.898 6  82748644.020 6       381.005          38.000
G29  21735428.055 8 114220430.600 8      2820.871          51.000    21735428.336 8  89002951.346 8      2198.081          51.000
G32  22235133.000 6 116846372.589 6      -813.688          38.000    22235138.164 6  91049158.305 6      -634.036          37.000
R09  19403900.695 7 103615737.023 7       547.625          42.000    19403901.672 7  80590061.789 7       425.934          43.000
R19  19731025.977 6 105547696.889 6      -150.820          40.000    19731027.086 7  82092667.813 7      -117.305          45.000
R20  21546182.844 6 115217126.174 6      4045.141          40.000    21546190.164 8  89613337.644 8      3146.220          48.000
C05  39683110.656 5 206640369.845 5        36.105          35.000
C11  22562331.898 8 117488034.937 8      2002.145          49.000    22562330.758 8  90849147.649 8      1548.200          48.000
C12  22558907.727 6 117470123.465 6     -1272.188          36.000    22558907.352 6  90835392.571 6      -983.730          41.000
C24  24572783.414 6 127956945.400 6     -2587.289          40.000
C25  21742712.195 8 113219972.235 8      -127.500          51.000
E01  23648889.617 8 124275747.249 8       -75.555          51.000    23648891.305 8  95224274.326 8       -57.955          51.000
E04  26907206.703 6 141398339.726 6     -2561.082          41.000    26907209.328 8 108344146.657 8     -1962.379          48.000
E26  23646475.211 8 124263089.352 8      1537.242          51.000    23646478.375 8  95214618.193 8      1177.905          51.000
> 2020 05 11 09 50 30.0000000  0 16        .000000000000
G06  23642251.164 5 124240862.756 5     -1091.324          33.000    23642250.219 5  96811061.682 5      -850.373          33.000
G12  20588688.875 8 108194286.425 8     -1415.309          51.000    20588688.148 8  84307239.674 8     -1102.838          51.000
G24  22523095.039 8 118359669.294 8     -3130.820          49.000    22523094.648 8  92228301.007 8     -2439.603          49.000
G25  20205335.703 6 106179766.048 6       483.754          39.000    20205336.891 6  82737470.292 6       376.954          39.000
G29  21719389.469 8 114136146.056 8      2814.762          51.000    21719390.336 8  88937275.082 8      2193.321          51.000
R09  19400891.859 7 103599674.752 7       540.223          42.000    19400893.898 7  80577568.859 7       420.173          43.000
R19  19731979.602 6 105552799.532 6      -172.340          39.000    19731981.102 7  82096636.550 7      -134.042          46.000
R20  21523556.508 7 115096125.470 7      4038.656          43.000    21523562.258 7  89519226.022 7      3141.177          46.000
C05  39682930.297 5 206639430.921 5        42.809          35.000    39682925.781 6 159786697.513 6        33.093          36.000
C11  22550866.227 8 117428329.392 8      1994.707          51.000    22550864.242 8  90802979.546 8      1542.543          49.000
C12  22566310.578 6 117508671.433 6     -1280.859          38.000    22566310.148 6  90865200.329 6      -990.445          40.000
C24  24587737.859 5 128034808.298 5     -2587.301          34.000
C25  21743508.773 8 113224120.771 8      -132.523          51.000
E01  23649367.047 8 124278257.147 8       -74.922          51.000    23649368.906 8  95226197.481 8       -57.408          51.000
E04  26921871.352 7 141475400.708 7     -2559.613          44.000    26921872.438 8 108403193.348 8     -1961.220          48.000
E26  23637766.648 8 124217322.973 8      1530.590          51.000    23637769.008 8  95179550.468 8      1172.823          51.000
> 2020 05 11 09 51  0.0000000  0 16        .000000000000
G02  22932970.836 5 120513584.080 5       273.898          32.000
G12  20596865.953 8 108237256.522 8     -1433.531          51.000    20596865.000 8  84340722.859 8     -1117.037          51.000
G24  22541063.219 8 118454090.047 8     -3148.012          51.000    22541062.461 8  92301875.536 8     -2452.996          51.000
G25  20202676.242 6 106165788.470 6       463.734          41.000    20202677.289 7  82726578.681 7       361.351          42.000
G29  21703426.070 8 114052258.042 8      2793.578          51.000    21703427.273 8  88871907.792 8      2176.814          51.000
R09  19397965.188 7 103584049.153 7       517.766          42.000    19397967.258 7  80565415.603 7       402.707          43.000
R19  19733095.492 6 105558770.103 6      -209.473          38.000    19733097.203 7  82101280.307 7      -162.923          45.000
R20  21501008.680 7 114975545.534 7      4016.434          42.000    21501012.141 7  89425441.680 7      3123.896          42.000
C05  39682753.602 5 206638510.431 5        34.422          35.000    39682748.984 6 159785985.753 6        26.448          36.000
C11  22539484.297 8 117369057.793 8      1972.441          51.000    22539481.570 8  90757147.053 8      1525.259          49.000
C12  22573802.727 6 117547690.098 6     -1304.273          36.000    22573802.570 6  90895372.050 6     -1008.568          40.000
C24  24602730.508 5 128112875.131 5     -2601.430          35.000
C25  21744374.398 8 113228630.364 8      -152.426          51.000
E01  23649881.312 8 124280960.675 8       -89.293          51.000    23649883.414 8  95228269.008 8       -68.419          51.000
E04  26936568.156 7 141552628.989 7     -2573.016          46.000    26936568.297 8 108462368.232 8     -1971.579          48.000
E26  23629135.969 8 124171967.383 8      1509.023          51.000    23629138.250 8  95144797.509 8      1156.277          51.000
> 2020 05 11 09 51 30.0000000  0 16        .000000000000
G02  22931453.195 6 120505583.904 6       257.770          36.000
G12  20605071.680 8 108280377.542 8     -1442.469          51.000    20605070.477 8  84374323.627 8     -1124.002          51.000
G24  22559053.820 8 118548627.791 8     -3155.703          51.000    22559053.633 8  92375541.283 8     -2458.989          51.000
G25  20200056.094 7 106152016.282 7       452.934          42.000    20200057.133 7  82715847.120 7       352.938          42.000
G29  21687508.359 8 113968611.515 8      2781.484          50.000    21687509.531 8  88806728.672 8      2167.390          50.000
R09  19395091.094 7 103568702.622 7       504.184          44.000    19395093.602 7  80553479.408 7       392.143          44.000
R19  19734343.773 6 105565448.190 6      -237.328          36.000    19734345.727 7  82106474.357 7      -184.589          45.000
R20  21478510.070 7 114855230.849 7      4003.703          42.000    21478510.219 6  89331863.703 6      3113.997          40.000
C05  39682550.539 5 206637453.105 5        34.961          35.000    39682546.234 5 159785169.119 5        27.354          35.000
C11  22528156.383 8 117310066.134 8      1959.168          51.000    22528153.250 8  90711530.997 8      1514.883          51.000
C12  22581356.109 6 117587022.700 6     -1318.574          40.000    22581356.078 7  90925786.579 7     -1019.844          42.000
C24  24617730.945 6 128190989.908 6     -2607.145          37.000
C25  21745279.758 8 113233346.359 8      -163.234          51.000
E01  23650402.766 8 124283701.448 8       -94.590          51.000    23650405.062 8  95230369.077 8       -72.490          51.000
E04  26951266.742 7 141629865.794 7     -2577.242          46.000    26951266.953 8 108521549.650 8     -1974.848          48.000
E26  23620553.523 8 124126867.019 8      1496.480          51.000    23620556.227 8  95110240.112 8      1146.648          51.000
> 2020 05 11 09 52  0.0000000  0 16        .000000000000
G12  20613331.844 8 108323785.181 8     -1451.738          51.000    20613330.461 8  84408147.752 8     -1131.225          51.000
G24  22577092.180 8 118643417.318 8     -3163.816          51.000    22577092.961 8  92449403.238 8     -2465.311          51.000
G25  20197500.156 6 106138585.753 6       441.992          41.000    20197501.672 6  82705381.785 6       344.413          41.000
G29  21671662.719 8 113885344.241 8      2769.199          50.000    21671663.039 8  88741845.084 8      2157.818          50.000
R09  19392295.633 7 103553774.941 7       490.449          44.000    19392298.641 7  80541868.986 7       381.461          45.000
R18  22333184.547 5 119215996.894 5     -3656.613          33.000
R19  19735749.797 6 105572971.408 6      -264.910          37.000    19735751.906 7  82112325.726 7      -206.041          44.000
R20  21456087.375 6 114735324.364 6      3990.297          40.000    21456086.289 7  89238603.189 7      3103.564          42.000
C05  39682347.297 5 206636393.836 5        35.230          35.000    39682342.719 5 159784350.082 5        27.158          35.000
C11  22516908.047 8 117251490.745 8      1945.570          51.000    22516905.250 8  90666236.808 8      1504.432          51.000
C12  22588995.180 6 117626802.767 6     -1333.391          38.000    22588995.703 6  90956547.141 6     -1031.138          38.000
C24  24632766.688 6 128269287.094 6     -2612.875          36.000
C25  21746250.938 8 113238404.426 8      -174.277          51.000
E01  23650957.367 8 124286616.017 8      -100.055          51.000    23650959.766 8  95232602.312 8       -76.638          51.000
E04  26965992.492 7 141707245.316 7     -2581.535          47.000    26965993.602 8 108580840.427 8     -1978.083          50.000
E26  23612045.617 8 124082159.279 8      1483.691          51.000    23612048.812 8  95075983.538 8      1136.860          51.000
> 2020 05 11 09 52 30.0000000  0 16        .000000000000
G12  20621651.852 8 108367507.408 8     -1463.102          50.000    20621650.375 8  84442216.997 8     -1140.079          50.000
G24  22595183.094 8 118738485.051 8     -3174.023          49.000    22595184.781 8  92523481.971 8     -2473.265          49.000
G25  20195014.266 6 106125525.515 6       428.625          41.000    20195016.211 6  82695204.979 6       333.994          41.000
G29  21655895.055 8 113802486.499 8      2754.582          49.000    21655893.297 8  88677280.643 8      2146.431          49.000
R09  19389584.523 7 103539296.751 7       474.602          45.000    19389587.789 7  80530608.161 7       369.135          46.000
R18  22353782.664 6 119325938.742 6     -3672.551          38.000
R19  19737319.352 6 105581368.091 6      -295.027          38.000    19737321.438 7  82118856.464 7      -229.469          44.000
R20  21433745.969 6 114615859.243 6      3974.055          37.000    21433746.750 7  89145685.869 7      3090.931          45.000
C05  39682149.086 5 206635361.979 5        34.383          34.000    39682144.367 5 159783551.432 5        25.895          35.000
C11  22505744.609 8 117193361.228 8      1929.781          49.000    22505742.781 8  90621287.400 8      1492.232          51.000
C12  22596725.297 6 117667056.938 6     -1350.051          40.000    22596724.703 4  90987674.117 4     -1043.688          29.000
C25  21747293.336 8 113243833.450 8      -187.598          51.000
E01  23651550.648 8 124289733.277 8      -107.711          51.000    23651552.992 8  95234990.862 8       -82.532          51.000
E04  26980750.219 7 141784794.190 7     -2588.129          46.000    26980752.805 8 108640260.956 8     -1983.109          51.000
E21  26043127.641 5 136857561.784 5     -1961.910          32.000
E26  23603617.891 8 124037873.850 8      1468.773          51.000    23603621.828 8  95042050.545 8      1125.388          51.000
> 2020 05 11 09 53  0.0000000  0 15        .000000000000
G12  20630027.055 8 108411519.754 8     -1470.867          49.000    20630025.602 8  84476512.312 8     -1146.130          49.000
G24  22613321.773 7 118833806.142 7     -3180.523          46.000    22613324.141 7  92597758.159 7     -2478.330          46.000
G25  20192594.914 7 106112812.057 7       419.078          43.000    20192596.586 7  82685298.377 7       326.554          43.000
G29  21640201.547 8 113720016.351 8      2743.648          51.000    21640198.633 8  88613018.250 8      2137.911          51.000
R09  19386953.430 7 103525245.520 7       462.398          45.000    19386956.836 7  80519679.407 7       359.640          46.000
R18  22374457.727 6 119436298.581 6     -3684.836          36.000
R19  19739047.797 6 105590613.406 6      -321.383          38.000    19739049.875 7  82126047.292 7      -249.964          43.000
R20  21411481.031 5 114496815.471 5      3962.145          34.000    21411486.000 7  89053096.197 7      3081.665          46.000
C05  39681951.469 5 206634333.255 5        35.797          35.000    39681946.680 6 159782755.183 6        27.466          36.000
C11  22494661.672 7 117135655.487 7      1917.562          47.000    22494661.289 8  90576665.659 8      1482.847          51.000
C12  22604542.070 6 117707760.544 6     -1363.094          41.000    22604541.016 5  91019148.682 5     -1054.206          33.000
C25  21748402.734 8 113249610.745 8      -197.211          51.000
E01  23652178.180 8 124293029.986 8      -111.672          51.000    23652180.422 8  95237516.905 8       -85.555          51.000
E04  26995534.883 7 141862486.744 7     -2590.918          46.000    26995539.086 8 108699791.568 8     -1985.282          51.000
E26  23595266.023 8 123993988.292 8      1457.414          51.000    23595270.922 8  95008423.945 8      1116.702          51.000
> 2020 05 11 09 53 30.0000000  0 18        .000000000000
G02  22926340.805 5 120478733.131 5       194.840          31.000
G12  20638453.359 8 108455800.476 8     -1475.527          49.000    20638451.914 8  84511016.745 8     -1149.765          49.000
G24  22631503.773 7 118929357.720 7     -3183.922          45.000    22631507.445 7  92672213.903 7     -2480.978          45.000
G25  20190237.523 7 106100424.368 7       412.438          43.000    20190239.352 7  82675645.591 7       321.377          43.000
G29  21624578.461 8 113637914.494 8      2735.402          51.000    21624576.203 8  88549042.830 8      2131.485          51.000
G32  22270377.102 5 117031656.546 5      -940.570          32.000    22270369.727 5  91193439.642 5      -732.912          30.000
R09  19384398.992 7 103511601.332 7       453.023          47.000    19384401.984 7  80509067.257 7       352.352          46.000
R18  22395204.867 5 119547050.560 5     -3693.953          32.000
R19  19740930.844 6 105600685.065 6      -344.613          39.000    19740932.141 7  82133880.791 7      -268.033          43.000
R20  21389294.078 6 114378175.397 6      3952.418          37.000    21389300.609 7  88960820.537 7      3074.103          47.000
C05  39681750.406 5 206633286.763 5        39.656          35.000    39681745.602 5 159781945.190 5        30.607          35.000
C11  22483656.117 7 117078353.655 7      1908.160          47.000    22483656.984 8  90532356.261 8      1475.513          51.000
C12  22612440.461 6 117748890.864 6     -1373.395          41.000    22612439.406 4  91050953.237 4     -1061.673          29.000
C24  24678102.461 5 128505341.298 5     -2625.797          33.000
C25  21749575.188 8 113255716.046 8      -204.145          51.000
E01  23652835.922 8 124296485.364 8      -113.027          51.000    23652838.102 8  95240164.531 8       -86.566          51.000
E04  27010341.859 7 141940299.788 7     -2590.984          45.000    27010347.648 8 108759414.523 8     -1985.225          51.000
E26  23586986.883 8 123950482.680 8      1448.793          51.000    23586992.523 8  94975088.462 8      1110.054          51.000
> 2020 05 11 09 54  0.0000000  0 16        .000000000000
G02  22925323.586 5 120473402.873 5       163.891          35.000
G12  20646947.570 8 108500437.938 8     -1498.961          48.000    20646946.258 8  84545799.159 8     -1168.025          48.000
G24  22649746.703 7 119025227.860 7     -3206.012          46.000    22649750.859 7  92746917.890 7     -2498.191          46.000
G25  20187958.891 6 106088451.732 6       387.062          41.000    20187961.250 6  82666316.262 6       301.607          41.000
G29  21609042.805 8 113556271.921 8      2708.598          51.000    21609041.758 8  88485425.267 8      2110.596          51.000
R09  19381938.016 8 103498456.504 8       424.734          48.000    19381940.570 7  80498843.508 7       330.349          46.000
R19  19742985.258 6 105611673.304 6      -386.770          39.000    19742986.203 7  82142427.221 7      -300.818          43.000
R20  21367201.266 6 114260033.944 6      3924.430          38.000    21367208.289 7  88868932.771 7      3052.334          47.000
C05  39681562.797 5 206632309.893 5        26.488          35.000    39681558.055 6 159781189.824 6        20.434          36.000
C11  22472746.508 8 117021545.700 8      1880.289          48.000    22472747.203 8  90488428.752 8      1454.022          51.000
C12  22620438.016 7 117790535.022 7     -1401.707          42.000
C24  24693294.656 5 128584464.117 5     -2646.500          30.000
C25  21750827.703 8 113262238.463 8      -229.379          51.000
E01  23653540.828 8 124300189.102 8      -132.691          51.000    23653543.078 8  95243002.462 8      -101.649          51.000
E04  27025187.938 7 142018320.705 7     -2609.227          46.000    27025195.016 8 108819196.760 8     -1999.212          51.000
E26  23578797.758 8 123907447.388 8      1421.605          51.000    23578803.641 8  94942113.356 8      1089.282          51.000
> 2020 05 11 09 54 30.0000000  0 15        .000000000000
G12  20655495.242 8 108545356.334 8     -1499.488          48.000    20655494.172 8  84580800.504 8     -1168.432          48.000
G24  22668035.898 7 119121339.749 7     -3205.254          47.000    22668038.648 7  92821810.193 7     -2497.603          47.000
G25  20185744.984 7 106076819.385 7       384.508          43.000    20185747.250 7  82657252.109 7       299.616          43.000
G29  21593580.305 8 113475015.466 8      2704.605          51.000    21593580.672 8  88422108.540 8      2107.485          51.000
G32  22281400.938 5 117089541.149 5      -982.824          35.000    22281411.102 5  91238627.314 5      -765.831          33.000
R09  19379556.094 7 103485736.251 7       419.336          47.000    19379558.789 7  80488949.963 7       326.147          47.000
R19  19745196.242 6 105623500.600 6      -405.648          40.000    19745197.781 7  82151626.272 7      -315.504          43.000
R20  21345188.477 6 114142319.214 6      3919.223          39.000    21345195.086 7  88777376.886 7      3048.284          45.000
C05  39681374.688 5 206631329.628 5        34.645          35.000    39681369.750 5 159780431.803 5        26.859          35.000
C11  22461918.367 8 116965158.467 8      1875.062          50.000    22461918.156 8  90444826.571 8      1449.884          51.000
C12  22628519.797 7 117832617.203 7     -1407.492          42.000    22628527.305 5  91115686.605 5     -1088.679          30.000
C25  21752146.156 8 113269104.411 8      -232.180          51.000
E01  23654278.781 8 124304066.643 8      -129.656          51.000    23654281.180 8  95245973.559 8       -99.341          51.000
E04  27040058.820 7 142096472.515 7     -2604.746          46.000    27040066.562 8 108879079.314 8     -1995.820          51.000
E26  23570684.344 8 123864808.587 8      1417.230          51.000    23570689.820 8  94909442.069 8      1085.921          51.000
> 2020 05 11 09 55  0.0000000  0 18        .000000000000
G02  22923565.391 6 120464149.030 6       136.242          36.000
G06  23703111.758 6 124560675.131 6     -1268.848          36.000    23703116.688 5  97060281.777 5      -988.712          35.000
G12  20664080.938 8 108590474.562 8     -1511.398          48.000    20664080.047 8  84615957.565 8     -1177.713          48.000
G24  22686355.984 8 119217611.642 8     -3215.906          48.000    22686357.883 8  92896827.158 8     -2505.901          48.000
G25  20183580.789 7 106065446.865 7       370.547          43.000    20183582.781 7  82648390.429 7       288.735          43.000
G29  21578175.547 8 113394066.489 8      2688.949          49.000    21578177.469 8  88359031.369 8      2095.282          49.000
G32  22287064.672 5 117119282.156 5     -1003.168          33.000    22287072.391 5  91261802.184 5      -781.686          34.000
R09  19377238.328 8 103473360.262 8       402.582          48.000    19377241.195 7  80479324.197 7       313.119          47.000
R18  22457910.625 4 119881850.592 4     -3741.082          27.000
R19  19747548.844 6 105636084.024 6      -436.414          40.000    19747550.055 7  82161413.361 7      -339.436          43.000
R20  21323240.594 6 114024953.478 6      3902.082          39.000    21323246.344 7  88686092.478 7      3034.953          43.000
C05  39681170.461 5 206630267.126 5        32.738          35.000    39681165.594 5 159779610.425 5        25.602          35.000
C11  22451156.258 8 116909113.561 8      1858.301          51.000    22451155.250 8  90401489.063 8      1437.089          51.000
C12  22636669.891 6 117875056.100 6     -1424.609          41.000    22636669.898 4  91148492.885 4     -1101.710          29.000
C25  21753515.586 8 113276234.776 8      -246.238          51.000
E01  23655034.531 8 124308037.854 8      -137.984          51.000    23655037.117 8  95249016.427 8      -105.692          51.000
E04  27054939.227 7 142174672.779 7     -2611.465          47.000    27054946.820 8 108938998.984 8     -2001.061          50.000
E26  23562631.320 8 123822486.958 8      1401.383          51.000    23562635.930 8  94877013.810 8      1073.787          51.000
> 2020 05 11 09 55 30.0000000  0 18        .000000000000
G06  23710412.203 6 124599035.163 6     -1283.438          37.000    23710417.039 6  97090172.632 6     -1000.087          37.000
G12  20672735.180 7 108635952.837 7     -1516.602          47.000    20672734.312 8  84651395.198 8     -1181.764          48.000
G24  22704736.883 7 119314202.083 7     -3219.562          47.000    22704739.289 7  92972092.417 7     -2508.750          47.000
G25  20181496.805 7 106054494.937 7       363.551          44.000    20181498.820 7  82639856.436 7       283.286          44.000
G29  21562860.164 8 113313586.688 8      2680.273          49.000    21562862.430 8  88296319.800 8      2088.525          50.000
G32  22292854.750 5 117149746.600 5     -1017.590          30.000
R09  19375015.578 7 103461493.524 7       392.527          47.000    19375018.664 7  80470094.494 7       305.299          47.000
R19  19750072.812 6 105649586.041 6      -459.797          40.000    19750074.203 7  82171914.952 7      -357.623          43.000
R20  21301389.211 6 113908103.773 6      3891.785          37.000    21301393.164 7  88595209.478 7      3026.950          42.000
C05  39680980.852 5 206629279.612 5        37.316          35.000    39680975.969 6 159778846.864 6        28.448          36.000
C11  22440490.633 8 116853571.314 8      1848.406          51.000    22440489.391 8  90358540.278 8      1429.302          51.000
C12  22644918.820 7 117918009.353 7     -1435.031          42.000    22644917.094 5  91181707.024 5     -1110.005          35.000
C24  24739056.242 4 128822755.493 4     -2653.492          27.000
C25  21754966.594 8 113283789.352 8      -253.488          51.000
E01  23655838.695 8 124312263.793 8      -139.695          51.000    23655841.430 8  95252254.474 8      -106.982          51.000
E04  27069859.438 8 142253080.208 8     -2611.594          48.000    27069866.289 8 108999077.363 8     -2001.163          48.000
E21  26110664.469 5 137212465.892 5     -1979.109          34.000    26110662.133 5 105136816.472 5     -1516.386          34.000
E26  23554669.500 8 123780644.275 8      1392.191          51.000    23554672.914 8  94844952.539 8      1066.732          51.000
> 2020 05 11 09 56  0.0000000  0 19        .000000000000
G02  22922190.633 5 120456924.554 5       102.973          33.000
G06  23717805.602 5 124637884.522 5     -1306.461          35.000    23717809.852 5  97120444.833 5     -1018.022          35.000
G12  20681430.992 8 108681649.143 8     -1529.711          48.000    20681429.961 8  84687002.707 8     -1191.983          48.000
G24  22723150.820 7 119410968.194 7     -3231.480          45.000    22723154.281 7  93047494.571 7     -2518.037          45.000
G25  20179466.031 7 106043822.443 7       348.273          44.000    20179468.164 7  82631540.192 7       271.382          44.000
G29  21547608.359 8 113233436.582 8      2663.289          51.000    21547609.117 8  88233865.200 8      2075.293          51.000
R09  19372861.539 8 103449993.749 8       374.391          48.000    19372864.875 7  80461150.197 7       291.193          47.000
R18  22500098.961 4 120107055.209 4     -3766.367          27.000
R19  19752741.680 6 105663861.811 6      -491.758          38.000    19752743.164 7  82183018.335 7      -382.475          44.000
R20  21279607.594 6 113791630.453 6      3873.184          36.000    21279611.102 7  88504619.181 7      3012.479          43.000
C05  39680779.164 5 206628228.338 5        33.320          35.000    39680774.047 5 159778032.928 5        25.759          35.000
C11  22429894.555 8 116798393.053 8      1830.391          51.000    22429893.734 8  90315872.963 8      1415.350          51.000
C12  22653239.312 6 117961335.472 6     -1453.180          41.000    22653237.188 6  91215209.508 6     -1123.528          37.000
C24  24754373.984 4 128902519.327 4     -2663.383          29.000
C25  21756472.422 8 113291628.865 8      -268.855          51.000
E01  23656664.477 8 124316603.585 8      -149.344          51.000    23656667.320 8  95255579.763 8      -114.450          51.000
E04  27084792.133 8 142331551.546 8     -2619.559          49.000    27084797.992 7 109059204.695 7     -2007.206          47.000
E21                                                                  26121979.898 5 105182387.799 5     -1522.450          31.000
E26  23546771.961 8 123739140.313 8      1375.027          51.000    23546774.617 8  94813150.839 8      1053.565          51.000
> 2020 05 11 09 56 30.0000000  0 16        .000000000000
G06  23725304.320 5 124677315.970 5     -1322.359          33.000    23725308.820 5  97151152.758 5     -1030.404          34.000
G12  20690181.547 8 108727632.889 8     -1537.199          48.000    20690180.211 8  84722834.190 8     -1197.821          48.000
G24  22741611.047 7 119507979.004 7     -3237.414          44.000    22741615.562 7  93123087.426 7     -2522.660          44.000
G25  20177501.852 7 106033500.275 7       338.484          43.000    20177503.984 7  82623496.957 7       263.754          43.000
G29  21532433.469 8 113153689.022 8      2651.918          51.000    21532432.336 8  88171724.334 8      2066.433          51.000
G32  22304697.203 6 117211976.124 6     -1055.660          36.000    22304712.156 5  91334016.663 5      -822.577          34.000
R09  19370790.562 8 103438934.643 8       361.699          49.000    19370793.406 7  80452548.644 7       281.322          47.000
R19  19755568.109 6 105678982.302 6      -517.637          39.000    19755570.055 7  82194778.723 7      -402.606          43.000
R20  21257910.516 6 113675610.016 6      3859.969          37.000    21257915.297 7  88414381.097 7      3002.198          45.000
C05  39680578.570 5 206627184.424 5        34.836          35.000    39680573.375 6 159777224.931 6        26.995          36.000
C11  22419381.641 8 116743650.136 8      1817.816          51.000    22419381.516 8  90273542.314 8      1405.720          51.000
C12  22661644.148 6 118005103.037 6     -1466.035          41.000    22661641.711 6  91249053.326 6     -1133.190          38.000
C25  21758046.469 8 113299824.122 8      -278.711          51.000
E01  23657525.477 8 124321128.481 8      -153.559          51.000    23657528.297 8  95259046.884 8      -117.626          51.000
E04  27099750.297 8 142410155.612 8     -2622.000          49.000    27099755.000 7 109119433.738 7     -2009.029          45.000
E26  23538952.508 8 123698047.103 8      1363.293          51.000    23538954.602 8  94781663.862 8      1044.610          51.000
> 2020 05 11 09 57  0.0000000  0 17        .000000000000
G06  23732908.398 5 124717275.368 5     -1343.379          32.000
G12  20698986.953 8 108773904.937 8     -1548.941          49.000    20698985.266 8  84758890.323 8     -1206.967          49.000
G24  22760117.852 7 119605234.238 7     -3247.812          44.000    22760122.836 7  93198870.734 7     -2530.763          43.000
G25  20175604.477 7 106023529.420 7       324.734          44.000    20175606.578 7  82615727.471 7       253.037          45.000
G29  21517335.578 8 113074346.154 8      2636.266          51.000    21517334.484 8  88109898.785 8      2054.236          51.000
G32  22310777.500 6 117243933.865 6     -1076.312          36.000    22310787.438 5  91358918.821 5      -838.676          34.000
R09  19368802.742 8 103428318.448 8       344.621          49.000    19368804.492 7  80444291.608 7       268.039          47.000
R19  19758552.641 6 105694947.388 6      -548.004          38.000    19758554.047 7  82207195.994 7      -426.225          42.000
R20  21236299.398 6 113560047.159 6      3842.867          39.000    21236305.289 7  88324498.875 7      2988.897          46.000
C05                                                                  39680374.219 5 159776422.649 5        25.361          35.000
C11  22408953.055 8 116689344.694 8      1801.195          51.000    22408952.789 8  90231549.900 8      1392.753          51.000
C12  22670133.859 6 118049311.380 6     -1482.672          39.000    22670131.555 6  91283238.039 6     -1146.574          40.000
C24  24785117.562 6 129062647.361 6     -2675.613          37.000
C25  21759689.070 8 113308376.664 8      -292.738          51.000
E01  23658421.930 8 124325839.743 8      -161.926          51.000    23658424.703 8  95262656.802 8      -124.079          51.000
E04  27114733.594 8 142488891.354 8     -2628.551          49.000    27114737.055 7 109179763.665 7     -2013.995          45.000
E26  23531211.195 8 123657366.598 8      1347.301          51.000    23531213.367 8  94750493.113 8      1032.380          51.000
> 2020 05 11 09 57 30.0000000  0 17        .000000000000
G06  23740626.734 5 124757834.699 5     -1360.820          35.000
G12  20707853.859 8 108820500.392 8     -1557.418          49.000    20707851.969 8  84795198.430 8     -1213.572          49.000
G24  22778677.766 7 119702768.156 7     -3254.625          45.000    22778682.891 7  93274871.167 7     -2536.071          45.000
G25  20173780.797 7 106013946.404 7       314.090          43.000    20173782.836 7  82608260.136 7       244.742          43.000
G29  21502321.539 8 112995446.302 8      2623.738          51.000    21502321.523 8  88048418.389 8      2044.468          51.000
G32  22316971.281 6 117276479.026 6     -1093.699          38.000    22316976.156 6  91384278.604 6      -852.233          36.000
R09  19366904.984 8 103418183.659 8       330.930          50.000    19366906.578 8  80436408.988 8       257.390          48.000
R19  19761701.688 6 105711792.610 6      -575.125          37.000    19761702.875 7  82220297.827 7      -447.319          42.000
R20  21214782.227 6 113444982.988 6      3828.309          39.000    21214788.297 7  88235004.540 7      2977.576          47.000
C05                                                                  39680183.406 5 159775654.963 5        25.850          35.000
C11  22398615.531 8 116635513.879 8      1787.594          51.000    22398615.000 8  90189924.489 8      1382.272          51.000
C12  22678715.086 6 118093994.940 6     -1496.180          39.000    22678713.266 6  91317790.196 6     -1157.168          39.000
C24  24800542.211 6 129142998.501 6     -2681.297          38.000
C25  21761407.336 8 113317323.102 8      -303.672          51.000
E01  23659360.758 8 124330774.116 8      -167.012          51.000    23659363.531 8  95266437.677 8      -128.036          51.000
E04  27129748.328 8 142567793.064 8     -2631.727          50.000    27129750.938 7 109240220.786 7     -2016.578          45.000
E26  23523555.156 8 123617136.168 8      1334.645          51.000    23523557.914 8  94719667.225 8      1022.632          51.000
> 2020 05 11 09 58  0.0000000  0 17        .000000000000
G06  23748457.414 6 124798979.735 6     -1384.129          39.000    23748460.336 5  97245927.516 5     -1078.545          35.000
G12  20716780.461 8 108867409.925 8     -1571.441          48.000    20716778.383 8  84831751.311 8     -1224.500          48.000
G24  22797288.992 7 119800570.375 7     -3267.289          45.000    22797293.703 7  93351080.677 7     -2545.940          45.000
G25  20172029.234 7 106004742.278 7       297.926          43.000    20172031.086 7  82601088.056 7       232.150          42.000
G29  21487389.758 8 112916981.938 8      2605.562          51.000    21487390.859 8  87987277.298 8      2030.305          51.000
R09  19365095.922 8 103408522.592 8       311.426          50.000    19365097.609 7  80428894.804 7       242.220          47.000
R16  22479555.867 5 120081717.128 5     -3100.426          32.000
R19  19765013.156 6 105729507.973 6      -607.828          38.000    19765014.719 7  82234076.453 7      -472.752          42.000
R20  21193357.555 6 113330412.138 6      3808.184          39.000    21193363.367 7  88145893.956 7      2961.921          46.000
C05  39680004.062 5 206624193.436 5        28.609          35.000    39679999.266 6 159774913.098 6        22.225          36.000
C11  22388367.398 8 116582150.062 8      1768.340          51.000    22388367.055 8  90148660.224 8      1367.371          51.000
C12  22687385.297 6 118139143.240 6     -1515.352          39.000    22687383.891 6  91352701.639 6     -1171.639          40.000
C24  24816010.180 6 129223561.340 6     -2691.473          39.000
C25  21763199.562 8 113326655.238 8      -320.113          51.000
E01  23660340.516 8 124335923.148 8      -177.891          51.000    23660343.070 8  95270383.022 8      -136.324          51.000
E04  27144792.492 8 142646849.899 8     -2640.469          50.000    27144794.781 7 109300796.738 7     -2023.180          46.000
E26  23515983.312 8 123577348.037 8      1316.242          51.000    23515986.648 8  94689180.207 8      1008.528          51.000
> 2020 05 11 09 58 30.0000000  0 19        .000000000000
G02  22920480.195 5 120447946.300 5        27.090          32.000
G06  23756376.719 6 124840591.570 6     -1386.426          37.000    23756379.617 6  97278352.292 6     -1080.332          36.000
G12  20725744.648 8 108914517.279 8     -1565.016          48.000    20725742.242 8  84868458.314 8     -1219.496          48.000
G24  22815929.188 7 119898523.849 7     -3259.117          46.000    22815933.453 7  93427408.057 7     -2539.572          46.000
G25  20170327.805 7 105995801.497 7       302.301          43.000    20170329.359 7  82594121.208 7       235.559          43.000
G29  21472519.461 8 112838839.086 8      2607.887          51.000    21472520.516 8  87926386.740 8      2032.120          51.000
G32  22329672.633 5 117343177.830 5     -1118.344          35.000
R09  19363353.750 8 103399219.126 8       312.801          50.000    19363355.016 7  80421658.772 7       243.289          47.000
R19  19768465.398 6 105747974.444 6      -619.773          37.000    19768466.438 6  82248439.260 6      -482.046          40.000
R20  21172004.352 6 113216221.406 6      3808.645          38.000    21172008.820 7  88057078.981 7      2962.279          45.000
C05  39679804.484 5 206623154.204 5        43.941          35.000    39679799.734 6 159774110.481 6        34.163          36.000
C11  22378187.273 8 116529139.739 8      1769.492          51.000    22378187.102 8  90107669.329 8      1368.335          51.000
C12  22696122.672 6 118184640.185 6     -1513.898          38.000    22696121.133 6  91387882.761 6     -1170.817          41.000
C24  24831498.609 6 129304220.726 6     -2681.750          39.000
C25  21765043.828 8 113336259.075 8      -316.203          51.000
E01  23661339.250 8 124341171.502 8      -168.086          51.000    23661341.477 8  95274404.478 8      -128.766          51.000
E04  27159843.734 8 142725944.223 8     -2628.461          49.000    27159846.180 7 109361401.430 7     -2014.096          47.000
E21  26178924.516 5 137571171.078 5     -1992.816          34.000    26178926.938 5 105411686.062 5     -1527.194          34.000
E26  23508473.406 8 123537887.511 8      1318.445          51.000    23508477.953 8  94658944.226 8      1010.234          51.000
> 2020 05 11 09 59  0.0000000  0 18        .000000000000
G06  23764383.281 5 124882676.470 5     -1421.551          33.000    23764385.555 5  97311136.369 5     -1107.708          34.000
G12  20734745.383 7 108961817.022 7     -1591.309          47.000    20734743.203 7  84905315.246 7     -1239.981          47.000
G24  22834596.859 7 119996621.618 7     -3283.766          46.000    22834600.562 7  93503847.871 7     -2558.778          46.000
G25  20168675.648 7 105987119.614 7       273.688          44.000    20168677.266 7  82587356.098 7       213.260          44.000
G29  21457710.266 8 112761014.756 8      2577.414          51.000    21457710.203 8  87865744.431 8      2008.375          51.000
G32  22336148.266 6 117377213.378 6     -1153.734          36.000    22336151.805 5  91462806.311 5      -899.014          30.000
R09  19361677.945 8 103390270.415 8       280.793          50.000    19361679.438 8  80414698.655 8       218.395          48.000
R19  19772056.570 6 105767185.651 6      -664.375          38.000    19772057.297 6  82263381.320 6      -516.736          40.000
R20  21150721.023 6 113102409.724 6      3775.754          37.000    21150724.992 7  87968558.804 7      2936.697          45.000
C05  39679588.711 5 206622029.575 5        28.207          35.000    39679584.070 6 159773241.660 6        21.304          36.000
C11  22368074.711 8 116476479.623 8      1738.152          51.000    22368074.500 8  90066949.216 8      1344.080          51.000
C12  22704925.422 6 118230479.426 6     -1544.996          36.000    22704924.164 6  91423328.550 6     -1194.613          40.000
C24  24847004.641 6 129384971.595 6     -2704.516          37.000
C25  21766939.266 8 113346130.669 8      -344.828          51.000
E01  23662356.117 8 124346515.049 8      -191.113          51.000    23662358.250 8  95278498.876 8      -146.464          51.000
E04  27174900.734 8 142805069.513 8     -2649.383          48.000    27174903.711 8 109422029.846 8     -2030.079          48.000
E21                                                                  26190352.344 5 105457700.651 5     -1543.000          32.000
E26  23501025.422 8 123498751.086 8      1287.715          51.000    23501030.844 8  94628956.578 8       986.667          51.000
> 2020 05 11 09 59 30.0000000  0 19        .000000000000
G02  22920484.078 6 120447950.306 6       -14.621          38.000
G12  20743845.758 7 109009640.234 7     -1591.543          47.000    20743843.930 7  84942580.045 7     -1240.166          46.000
G24  22853355.180 8 120095194.632 8     -3282.383          48.000    22853358.047 8  93580657.995 8     -2557.701          48.000
G25  20167136.000 7 105979028.579 7       271.031          44.000    20167137.898 7  82581051.365 7       211.190          44.000
G29  21443025.125 8 112683842.341 8      2572.773          51.000    21443023.727 8  87805610.155 8      2004.762          51.000
G32  22342770.727 5 117412032.697 5     -1161.895          31.000
R09  19360131.922 8 103382014.908 8       275.047          51.000    19360133.312 8  80408277.693 8       213.925          48.000
R18  22649951.742 4 120906979.519 4     -3850.230          29.000
R19  19775850.250 6 105787478.245 6      -682.980          37.000    19775850.938 6  82279164.444 6      -531.207          40.000
R20  21129572.375 6 112989318.879 6      3769.090          37.000    21129576.078 7  87880599.258 7      2931.514          45.000
C05  39679419.984 5 206621151.607 5        36.395          35.000    39679415.305 6 159772561.958 6        28.333          36.000
C11  22358092.750 8 116424499.684 8      1732.496          50.000    22358092.461 8  90026755.040 8      1339.664          51.000
C12  22713857.031 6 118276988.492 6     -1550.473          38.000    22713855.555 6  91459292.247 6     -1198.782          40.000
C24  24862591.898 6 129466142.155 6     -2701.551          38.000
C25  21768949.398 8 113356599.545 8      -347.770          51.000
E01  23663454.445 8 124352286.076 8      -188.262          51.000    23663456.398 8  95282920.820 8      -144.214          51.000
E04  27190026.344 8 142884555.663 8     -2644.367          48.000    27190029.891 7 109482934.767 7     -2026.123          47.000
E21                                                                  26201840.781 5 105503986.365 5     -1538.756          34.000
E26  23493702.906 8 123460271.676 8      1282.922          51.000    23493708.484 8  94599472.351 8       983.048          51.000
