     3.02           OBSERVATION DATA    M (MIXED)           RINEX VERSION / TYPE
SAVERINEX           SC600               20200501 195932 LCL PGM / RUN BY / DATE
       G = GPS       R = GLONASS       C = COMPASS          COMMENT
       S = SBAS      J = QZSS          E = GALILEO          COMMENT
BEAN                                                        MARKER NAME
1                                                           MARKER NUMBER
GEODETIC                                                    MARKER TYPE
Unige DICCA         GTER                                    OBSERVER / AGENCY
SC60291900056       SC600               2.12(191226)        REC # / TYPE / VERS
                    HEMA45          NONE                    ANT # / TYPE
  4509407.8091   693652.4678  4442337.6214                  APPROX POSITION XYZ
        0.0000        0.0000        0.0000                  ANTENNA: DELTA H/E/N
G    8 C1C L1C D1C S1C C2Y L2Y D2Y S2Y                      SYS / # / OBS TYPES
R    8 C1C L1C D1C S1C C2P L2P D2P S2P                      SYS / # / OBS TYPES
C    8 C1I L1I D1I S1I C7I L7I D7I S7I                      SYS / # / OBS TYPES
E    8 C1C L1C D1C S1C C7Q L7Q D7Q S7Q                      SYS / # / OBS TYPES
DBHZ                                                        COMMENT
     30.000                                                 INTERVAL
  2020    05    01    17    00    0.0000000     GPS         TIME OF FIRST OBS
  2020    05    01    17    59   30.0000000     GPS         TIME OF LAST OBS
     0                                                      RCV CLOCK OFFS APPL
G L1C  0.00000                                              SYS / PHASE SHIFT
G L2Y  0.00000                                              SYS / PHASE SHIFT
R L1C  0.00000                                              SYS / PHASE SHIFT
R L2P  0.25000                                              SYS / PHASE SHIFT
C L1I  0.00000                                              SYS / PHASE SHIFT
C L7I  0.00000                                              SYS / PHASE SHIFT
E L1C  0.50000                                              SYS / PHASE SHIFT
E L7Q -0.25000                                              SYS / PHASE SHIFT
 12 R03  5 R04  6 R05  1 R06 -4 R09 -2 R10 -7 R11  0 R16 -1 GLONASS SLOT / FRQ #
    R18 -3 R19  3 R20  2 R21  4                             GLONASS SLOT / FRQ #
 C1C   71.950 C2C   71.950 C2P   71.950                     GLONASS COD/PHS/BIS
    18                                                      LEAP SECONDS
*** Above antenna height is from mark to ANTENNA BOTTOM.    COMMENT
    17     4        0.0000        ANT MEASURE TYPE/HEIGT    COMMENT
    0.0000    0.0000    0.0458    0.0405    0.0000          COMMENT
                    BASE STATION                            COMMENT
                                                            END OF HEADER
> 2020 05 01 17 00  0.0000000  0 17        .000000000000
G10  20945477.391 8 110069239.262 8       445.637          51.000    20945479.883 8  85768260.210 8       347.249          51.000
G16  21725071.453 8 114166024.826 8     -2720.051          50.000    21725070.273 7  88960540.449 7     -2119.523          44.000
G21  24485847.070 4 128673994.648 4     -2602.516          29.000
G27  20296702.828 8 106659882.706 8       306.504          51.000    20296703.914 8  83111590.435 8       238.834          51.000
R04  22582245.062 5 120926901.147 5     -2739.305          32.000
R05  20609682.523 7 110170611.416 7       978.633          42.000    20609690.250 4  85688218.359 4       761.168          29.000
R06  22439941.562 6 119743790.472 6      4244.840          37.000
R10  23153086.312 6 123418984.874 6     -4193.309          37.000
R11  21261167.180 5 113613223.394 5     -1417.172          30.000    21261170.727 5  88365833.359 5     -1102.242          32.000
R20  20560595.477 5 109946755.514 5     -1607.973          31.000    20560600.156 6  85514149.916 6     -1250.645          41.000
C05  39613943.977 5 206280201.012 5        -7.062          34.000    39613946.367 6 159508946.035 6        -5.340          37.000
C19  22694435.266 8 118175936.251 8       978.754          49.000
C20  24953183.867 5 129937787.950 5     -1890.133          32.000
C22  24807919.273 6 129181386.430 6      3266.797          39.000
C26  25369609.172 7 132106201.789 7     -2814.109          46.000
E12  22205292.219 8 116689632.675 8     -1109.277          48.000    22205291.766 8  89411489.899 8      -849.945          51.000
E24  24066607.367 8 126470873.198 8     -2764.750          48.000    24066622.242 7  96906289.251 7     -2118.529          46.000
> 2020 05 01 17 00 30.0000000  0 16        .000000000000
G10  20943001.453 8 110056227.235 8       422.797          51.000    20943003.453 8  85758120.962 8       329.452          51.000
G16  21740652.227 8 114247899.805 8     -2737.180          51.000    21740650.812 7  89024339.094 7     -2132.870          45.000
G27  20295005.023 8 106650960.592 8       289.227          51.000    20295005.969 8  83104638.137 8       225.371          51.000
R04  22597661.477 5 121009451.642 5     -2762.516          33.000
R05  20604279.797 6 110141729.663 6       947.855          41.000    20604283.289 5  85665780.697 5       737.218          32.000
R06  22416109.617 5 119616618.153 5      4234.352          35.000
R10  23176710.648 6 123544917.044 6     -4201.203          37.000
R20  20569652.453 5 109995183.452 5     -1620.191          31.000    20569655.781 6  85551816.167 6     -1260.149          40.000
R21  20406701.625 5 109200379.163 5      1682.605          32.000
C05  39613998.242 5 206280484.638 5       -11.008          35.000    39614000.867 6 159509165.315 6        -8.168          36.000
C19  22688857.453 8 118146891.600 8       958.559          49.000
C20  24964125.148 4 129994767.723 4     -1907.992          28.000
C22  24789126.633 6 129083529.080 6      3258.168          40.000
C26  25385844.188 7 132190744.557 7     -2821.035          45.000
E12  22211651.648 8 116723051.481 8     -1117.457          48.000    22211651.258 8  89437096.516 8      -856.221          51.000
E24  24082424.711 8 126553990.621 8     -2775.211          48.000    24082438.352 7  96969976.572 7     -2126.490          45.000
> 2020 05 01 17 01  0.0000000  0 14        .000000000000
G10  20940668.383 8 110043966.896 8       403.445          51.000    20940670.047 8  85748567.471 8       314.373          51.000
G16  21756343.398 8 114330355.148 8     -2750.891          51.000    21756342.188 7  89088589.976 7     -2143.551          45.000
G27  20293418.938 8 106642625.259 8       275.414          51.000    20293419.773 8  83098143.074 8       214.608          51.000
R04  22613224.234 5 121092786.875 5     -2783.254          33.000
R05  20599062.148 6 110113837.989 6       920.602          40.000    20599069.773 6  85644087.259 6       716.026          36.000
R06  22392350.969 5 119489838.833 5      4226.453          30.000
R10  23200391.500 5 123671145.972 5     -4204.973          34.000
R11  21277416.508 5 113700053.486 5     -1470.285          33.000
C05  39614086.852 5 206280945.404 5       -11.148          35.000    39614089.602 6 159509522.421 6        -8.603          37.000
C19  22683408.547 8 118118517.479 8       942.000          49.000
C22  24770396.836 6 128985998.711 6      3252.586          41.000
C26  25402132.000 7 132275565.260 7     -2824.652          44.000
E12  22218069.766 8 116756778.924 8     -1121.895          48.000    22218069.570 8  89462939.632 8      -859.729          51.000
E24  24098314.312 8 126637486.989 8     -2782.172          49.000    24098327.367 7  97033954.240 7     -2131.701          45.000
> 2020 05 01 17 01 30.0000000  0 14        .000000000000
G10  20938424.109 8 110032173.616 8       383.070          51.000    20938425.414 8  85739377.920 8       298.496          51.000
G16  21772090.250 8 114413103.761 8     -2765.363          51.000    21772089.180 7  89153069.383 7     -2154.832          46.000
G27  20291890.508 8 106634592.848 8       260.426          51.000    20291891.258 8  83091884.060 8       202.929          51.000
R04  22628879.523 5 121176613.397 5     -2804.656          32.000
R05  20593976.141 5 110086648.066 5       892.406          32.000    20593983.586 6  85622939.577 6       694.097          36.000
R11  21285744.445 5 113744547.916 5     -1496.641          32.000
C05  39614155.539 5 206281302.252 5       -12.266          35.000    39614158.328 6 159509800.143 6        -9.596          36.000
C19  22678034.352 8 118090532.639 8       924.055          50.000
C22  24751676.258 7 128888515.448 7      3246.238          42.000
C26  25418418.719 7 132360379.211 7     -2829.086          44.000
C29  24666922.117 5 128447148.752 5     -2462.238          31.000
E04  27463046.977 7 144319282.047 7      2924.711          43.000
E12  22224492.398 8 116790529.965 8     -1127.633          48.000    22224492.273 8  89488800.810 8      -864.027          50.000
E24  24114221.359 8 126721075.624 8     -2790.070          49.000    24114235.273 7  97098002.611 7     -2137.756          46.000
> 2020 05 01 17 02  0.0000000  0 14        .000000000000
G10  20936293.148 8 110020975.087 8       364.074          51.000    20936294.297 8  85730651.813 8       283.694          51.000
G16  21787916.602 8 114496270.566 8     -2778.500          51.000    21787915.656 7  89217874.664 7     -2165.065          45.000
G27  20290444.125 8 106626991.780 8       246.816          51.000    20290444.867 8  83085961.151 8       192.324          51.000
R04  22644650.992 5 121261057.413 5     -2824.574          32.000
R05  20589065.859 5 110060351.808 5       865.449          32.000    20589051.008 5  85602450.120 5       673.124          34.000
R11  21294212.648 5 113789810.541 5     -1520.551          33.000
C05  39614228.477 5 206281682.529 5       -12.680          35.000    39614231.312 6 159510094.182 6        -9.445          37.000
C19  22672759.758 8 118063064.380 8       907.656          50.000
C22  24732989.102 6 128791208.067 6      3241.473          41.000
C26  25434728.477 7 132445310.266 7     -2832.219          44.000
C29  24681119.148 4 128521077.998 4     -2466.129          28.000
E04  27446356.578 7 144231565.336 7      2923.875          44.000
E12  22230943.711 7 116824431.815 7     -1131.879          47.000    22230943.414 8  89514777.555 8      -867.269          50.000
E24  24130169.555 8 126804882.121 8     -2796.387          48.000    24130185.234 7  97162217.932 7     -2142.737          47.000
> 2020 05 01 17 02 30.0000000  0 16        .000000000000
G10  20934255.438 8 110010266.428 8       349.676          51.000    20934256.711 8  85722307.438 8       272.475          51.000
G16  21803801.883 8 114579748.426 8     -2786.965          50.000    21803801.344 7  89282922.313 7     -2171.661          44.000
G27  20289059.977 8 106619718.026 8       237.777          51.000    20289060.805 8  83080293.286 8       185.281          51.000
R04  22660517.211 4 121346008.629 4     -2839.223          29.000
R05  20584258.164 6 110034723.536 6       842.785          36.000    20584257.391 5  85582516.756 5       655.497          33.000
R06  22321245.523 5 119110488.338 5      4208.168          32.000
R11  21302806.828 6 113835723.654 6     -1540.332          37.000
R21  20369364.102 5 109000585.011 5      1653.883          30.000
C05  39614285.797 5 206281981.258 5        -7.484          35.000    39614288.719 6 159510325.208 6        -5.954          37.000
C19  22667564.492 8 118036009.596 8       895.758          50.000
C22  24714316.156 6 128693974.918 6      3240.578          40.000
C26  25451040.867 7 132530251.959 7     -2830.598          45.000
C29  24695329.359 5 128595059.398 5     -2465.316          34.000
E04  27429654.539 7 144143790.864 7      2927.535          45.000
E12  22237403.672 7 116858379.290 7     -1131.535          47.000    22237403.273 8  89540789.263 8      -866.925          49.000
E24  24146138.531 7 126888799.698 7     -2798.273          47.000    24146155.938 7  97226518.375 7     -2144.126          47.000
> 2020 05 01 17 03  0.0000000  0 16        .000000000000
G10  20932324.680 8 110000119.839 8       319.777          51.000    20932325.742 8  85714401.027 8       249.177          51.000
G16  21819759.297 8 114663607.176 8     -2810.566          49.000    21819759.312 7  89348266.773 7     -2190.055          43.000
G21  24575149.641 5 129143264.132 5     -2612.695          33.000
G26  23879045.289 5 125485231.422 5     -3671.199          34.000    23879051.648 5  97780718.172 5     -2860.675          35.000
G27  20287752.016 8 106612844.527 8       213.344          51.000    20287752.984 8  83074937.309 8       166.242          51.000
R04  22676493.852 5 121431574.957 5     -2869.805          33.000
R05  20579604.141 6 110009897.614 6       804.945          40.000    20579616.508 4  85563207.821 4       626.072          27.000
R06  22297622.211 6 118984414.433 6      4189.805          37.000
C05  39614341.211 5 206282269.994 5       -18.590          35.000    39614344.148 6 159510548.487 6       -14.414          37.000
C19  22662462.250 8 118009440.623 8       868.547          50.000
C22  24695672.562 6 128596889.840 6      3224.617          39.000
C26  25467368.922 7 132615273.234 7     -2844.367          45.000
C29  24709555.492 5 128669139.788 5     -2480.289          35.000
E04  27412955.242 7 144056032.636 7      2915.891          45.000
E12  22243886.008 7 116892444.234 7     -1146.320          46.000    22243885.656 8  89566890.975 8      -878.439          48.000
E24  24162141.500 7 126972898.506 7     -2815.355          46.000    24162160.336 7  97290957.703 7     -2157.211          46.000
> 2020 05 01 17 03 30.0000000  0 17        .000000000000
G10  20930527.648 8 109990676.348 8       310.223          51.000    20930528.844 8  85707042.495 8       241.732          51.000
G16  21835815.234 8 114747984.699 8     -2814.074          48.000    21835815.711 7  89414015.483 7     -2192.785          43.000
G21  24590043.070 5 129221534.098 5     -2603.488          32.000
G26  23899985.633 5 125595270.662 5     -3664.410          34.000    23899995.508 5  97866472.909 5     -2855.388          34.000
G27  20286547.320 8 106606513.143 8       209.266          51.000    20286548.195 8  83070003.763 8       163.064          51.000
R04  22692600.336 5 121517820.156 5     -2879.637          34.000
R05  20575134.047 7 109986019.401 7       787.703          43.000    20575153.953 4  85544636.568 4       612.658          28.000
R06  22274066.117 6 118858704.913 6      4191.578          39.000
C05  39614421.602 5 206282688.301 5        -9.113          35.000    39614424.438 6 159510871.956 6        -6.920          36.000
C19  22657480.273 8 117983498.013 8       861.512          50.000
C20  25031491.875 5 130345548.358 5     -1985.637          30.000
C22  24677083.477 6 128500094.922 6      3228.914          37.000
C26  25483738.648 7 132700511.304 7     -2837.746          46.000
C29  24723832.086 5 128743470.837 5     -2474.770          30.000
E04  27396286.164 7 143968433.643 7      2924.414          44.000
E12  22250417.445 7 116926767.349 7     -1141.234          46.000    22250417.266 7  89593190.481 7      -874.371          47.000
E24  24178205.234 7 127057317.575 7     -2811.938          45.000    24178224.211 7  97355642.443 7     -2154.823          44.000
> 2020 05 01 17 04  0.0000000  0 18        .000000000000
G10  20928813.625 8 109981669.264 8       291.477          51.000    20928815.320 8  85700024.027 8       227.125          51.000
G16  21851919.047 8 114832612.329 8     -2826.625          49.000    21851919.445 7  89479959.067 7     -2202.568          42.000
G26  23920917.133 5 125705263.134 5     -3666.633          34.000    23920924.188 5  97952174.048 5     -2857.116          34.000
G27  20285395.211 8 106600458.056 8       195.840          51.000    20285395.852 8  83065285.524 8       152.602          51.000
R04  22708786.719 5 121604507.089 5     -2898.590          33.000
R05  20570792.266 6 109962818.783 6       760.629          41.000    20570801.070 5  85526588.466 5       591.600          31.000
R06  22250527.508 6 118733093.573 6      4184.129          40.000
R10  23342731.758 4 124429895.198 4     -4221.590          29.000
R11  21329420.188 5 113977968.248 5     -1613.469          31.000    21329415.492 4  88649503.813 4     -1254.926          27.000
C05  39614476.148 5 206282972.044 5        -8.891          35.000    39614478.859 6 159511091.376 6        -6.700          37.000
C19  22652567.938 8 117957918.328 8       845.168          49.000
C20  25042976.992 5 130405333.227 5     -1999.203          33.000
C22  24658498.398 6 128403328.149 6      3223.562          39.000
C26  25500098.938 7 132785699.419 7     -2840.102          47.000
C29  24738106.938 4 128817803.196 4     -2478.961          29.000
E04  27379596.930 7 143880729.218 7      2923.949          44.000
E12  22256947.188 7 116961081.620 7     -1144.906          45.000    22256947.219 7  89619483.234 7      -877.398          46.000
E24  24194279.297 7 127141788.370 7     -2817.887          44.000    24194295.750 7  97420366.764 7     -2159.148          43.000
> 2020 05 01 17 04 30.0000000  0 16        .000000000000
G10  20927223.016 8 109973310.745 8       267.207          51.000    20927224.922 8  85693510.906 8       208.213          51.000
G16  21868110.703 8 114917699.718 8     -2844.562          49.000    21868110.531 7  89546260.890 7     -2216.545          43.000
G26  23941876.250 5 125815407.551 5     -3674.953          35.000    23941884.508 5  98037996.899 5     -2863.603          35.000
G27  20284336.117 8 106594892.250 8       176.652          51.000    20284336.719 8  83060948.534 8       137.651          51.000
R05  20566619.148 6 109940512.876 6       727.785          39.000    20566634.211 5  85509239.565 5       566.061          35.000
R06  22227048.547 6 118607800.101 6      4170.496          41.000
R10  23366518.758 4 124556695.972 4     -4230.641          28.000
R11  21338566.203 5 114026853.464 5     -1643.758          34.000    21338566.523 4  88687525.461 4     -1278.497          29.000
C05  39614545.102 5 206283331.421 5       -14.035          35.000    39614547.930 6 159511369.293 6       -10.856          37.000
C19  22647765.703 8 117932912.596 8       823.371          49.000
C20  25054549.484 5 130465587.330 5     -2016.285          30.000
C22  24639961.445 7 128306801.924 7      3212.957          43.000
C26  25516489.258 7 132871045.266 7     -2848.215          46.000
E04  27362927.875 7 143793133.424 7      2917.414          42.000
E12  22263515.602 7 116995598.951 7     -1154.707          44.000    22263515.688 7  89645931.559 7      -884.605          45.000
E24  24210403.930 7 127226521.093 7     -2829.371          44.000    24210416.078 7  97485291.780 7     -2167.702          42.000
> 2020 05 01 17 05  0.0000000  0 17        .000000000000
G10  20925755.945 8 109965601.782 8       248.520          51.000    20925758.148 8  85687503.938 8       193.652          51.000
G16  21884389.742 8 115003245.609 8     -2856.934          50.000    21884389.117 7  89612920.008 7     -2226.182          43.000
G26  23962865.781 5 125925700.164 5     -3676.492          35.000    23962873.320 5  98123939.143 5     -2864.805          35.000
G27  20283370.484 8 106589817.587 8       163.273          51.000    20283371.094 8  83056994.249 8       127.226          51.000
R05  20562615.523 6 109919103.968 6       701.113          38.000    20562625.977 6  85492588.172 6       545.310          36.000
R06  22203629.391 6 118482829.540 6      4162.449          40.000
R10  23390336.180 4 124683653.312 4     -4233.414          28.000
R11  21347866.062 6 114076537.633 6     -1667.047          36.000
C05  39614628.859 5 206283767.463 5       -13.734          35.000    39614631.680 6 159511705.446 6       -10.285          37.000
C19  22643074.062 8 117908482.659 8       807.012          48.000
C22  24621472.367 7 128210519.720 7      3207.598          45.000
C24  25182430.547 6 131131544.337 6     -1233.918          37.000
C26  25532909.453 7 132956547.342 7     -2850.289          44.000
C29  24766766.781 5 128967058.026 5     -2491.375          30.000
E04  27346279.281 7 143705649.213 7      2916.668          42.000
E12  22270122.773 7 117030320.030 7     -1158.438          45.000    22270122.906 7  89672536.032 7      -887.577          45.000
E24  24226578.641 7 127311514.802 7     -2834.941          45.000    24226587.367 6  97550416.795 6     -2172.306          41.000
> 2020 05 01 17 05 30.0000000  0 17        .000000000000
G10  20924374.523 8 109958343.547 8       230.785          51.000    20924377.109 8  85681848.190 8       179.833          51.000
G16  21900717.617 8 115089048.194 8     -2867.910          50.000    21900716.852 7  89679779.153 7     -2234.735          45.000
G26  23983844.906 5 126035944.955 5     -3677.156          35.000    23983852.273 5  98209844.045 5     -2865.317          35.000
G27  20282460.664 8 106585036.100 8       150.824          51.000    20282461.203 8  83053268.419 8       117.525          51.000
R05  20558742.188 6 109898391.177 6       675.285          38.000    20558753.117 6  85476478.311 6       525.222          36.000
R06  22180233.109 6 118357985.001 6      4155.406          38.000
R11  21357276.930 4 114126816.254 4     -1690.008          29.000
C05  39614689.492 5 206284083.123 5       -12.500          35.000    39614692.359 6 159511949.571 6        -9.340          37.000
C19  22638455.164 7 117884432.317 7       791.660          47.000
C20  25077914.922 5 130587283.952 5     -2040.984          30.000
C22  24602992.703 7 128114286.846 7      3203.398          45.000
C24  25189565.812 5 131168687.412 5     -1246.711          33.000
C26  25549320.992 6 133042006.213 6     -2851.680          41.000
C29  24781114.367 4 129041767.993 4     -2494.645          27.000
E04  27329614.344 7 143618079.881 7      2916.602          42.000
E12  22276730.922 7 117065045.882 7     -1161.082          44.000    22276730.844 7  89699144.158 7      -889.684          44.000
E24  24242764.555 7 127396568.806 7     -2839.609          43.000    24242771.766 6  97615588.015 6     -2175.838          41.000
> 2020 05 01 17 06  0.0000000  0 16        .000000000000
G10  20923092.633 8 109951608.459 8       214.199          51.000    20923095.461 8  85676600.076 8       166.908          51.000
G16  21917107.773 8 115175177.971 8     -2878.027          50.000    21917106.836 7  89746893.227 7     -2242.619          44.000
G26  24004828.539 6 126146211.631 6     -3676.930          37.000    24004832.578 6  98295766.174 6     -2865.137          37.000
G27  20281620.625 8 106580621.121 8       139.523          51.000    20281620.961 8  83049828.178 8       108.720          51.000
R04  22774649.641 5 121957196.806 5     -2975.164          32.000
R05  20555013.734 6 109878449.125 6       650.359          38.000    20555021.758 6  85460967.928 6       505.835          36.000
R06  22156872.484 5 118233344.246 5      4149.539          34.000
R11  21366811.969 5 114177760.218 5     -1710.770          33.000
C05  39614740.867 5 206284351.269 5        -9.027          35.000    39614743.633 6 159512156.207 6        -7.506          37.000
C19  22633922.906 7 117860834.118 7       777.520          46.000
C22  24584536.359 7 128018177.525 7      3200.160          44.000
C24  25196775.086 5 131206196.897 5     -1257.484          30.000
C26  25565736.961 6 133127491.104 6     -2851.695          38.000
E04  27312947.133 7 143530499.894 7      2917.922          43.000
E12  22283353.844 7 117099848.701 7     -1162.840          45.000    22283353.125 7  89725811.259 7      -891.160          44.000
E24  24258974.703 7 127481753.706 7     -2843.238          43.000    24258982.227 6  97680859.497 6     -2178.540          40.000
> 2020 05 01 17 06 30.0000000  0 16        .000000000000
G10  20921926.758 8 109945482.866 8       194.035          51.000    20921929.672 8  85671826.874 8       151.196          51.000
G16  21933576.203 8 115261719.071 8     -2891.395          49.000    21933574.883 7  89814327.816 7     -2253.035          45.000
G20  21692529.633 6 113994999.809 6     -2079.223          36.000
G26  24025832.070 5 126256584.237 5     -3680.469          35.000    24025835.594 6  98381770.698 6     -2867.904          36.000
G27  20280866.867 8 106576659.907 8       124.602          51.000    20280867.055 8  83046741.524 8        97.092          51.000
R04  22791374.102 5 122046750.977 5     -2994.980          35.000
R06  22133567.375 6 118108999.009 6      4139.777          36.000
C05  39614799.367 5 206284655.642 5       -10.352          35.000    39614802.031 6 159512391.528 6        -8.331          37.000
C19  22629494.086 7 117837774.422 7       759.715          47.000
C22  24566120.008 6 127922279.708 6      3193.211          41.000
C24  25204071.125 5 131244157.298 5     -1272.926          32.000
C26  25582172.273 6 133213085.287 6     -2855.090          37.000
C29  24809864.070 5 129191455.373 5     -2500.832          33.000
E04  27296295.070 7 143442997.641 7      2915.590          43.000
E12  22290007.812 7 117134814.658 7     -1168.113          44.000    22290006.703 7  89752603.354 7      -895.108          44.000
E24  24275225.531 7 127567153.916 7     -2850.168          43.000    24275233.734 6  97746295.972 6     -2183.775          39.000
> 2020 05 01 17 07  0.0000000  0 17        .000000000000
G10  20920906.133 8 109940120.002 8       167.777          51.000    20920909.125 8  85667648.010 8       130.736          51.000
G16  21950151.367 8 115348822.282 8     -2911.047          48.000    21950150.141 7  89882200.422 7     -2268.348          46.000
G26  24046884.430 5 126367213.577 5     -3690.254          35.000    24046887.586 5  98467975.227 5     -2875.532          35.000
G27  20280228.750 8 106573306.658 8       103.324          51.000    20280228.875 8  83044128.594 8        80.512          51.000
R04  22808238.680 6 122137057.891 6     -3020.859          37.000    22808237.117 4  94995497.414 4     -2349.557          28.000
R05  20548079.844 6 109841265.134 6       586.781          40.000    20548070.195 5  85432063.907 5       456.379          31.000
R06  22110349.961 6 117985109.766 6      4123.824          40.000
R11  21386335.062 5 114282082.716 5     -1766.379          32.000
C05  39614894.156 5 206285149.206 5       -17.992          35.000    39614896.836 6 159512773.177 6       -13.511          37.000
C19  22625198.617 8 117815405.963 8       735.805          48.000
C20  25113529.055 5 130772732.021 5     -2086.098          33.000
C22  24547770.977 6 127826747.786 6      3180.094          37.000
C26  25598659.250 6 133298938.096 6     -2864.566          40.000
C29  24824314.906 5 129266701.678 5     -2511.148          30.000
E04  27279687.766 7 143355728.476 7      2906.922          42.000    27279685.492 6 109843983.922 6      2227.325          37.000
E12  22296721.906 7 117170096.845 7     -1179.527          44.000    22296720.562 7  89779637.749 7      -903.722          44.000
E24  24291545.969 7 127652920.880 7     -2863.254          42.000    24291554.891 6  97812013.502 6     -2193.967          38.000
> 2020 05 01 17 07 30.0000000  0 18        .000000000000
G10  20919977.203 8 109935238.652 8       153.469          51.000    20919980.141 8  85663844.364 8       119.586          51.000
G16  21966779.023 7 115436203.440 7     -2918.586          47.000    21966778.602 7  89950289.612 7     -2274.223          46.000
G21  24709054.328 5 129846933.039 5     -2605.961          34.000
G26  24067931.039 5 126477815.975 5     -3687.543          35.000    24067932.703 5  98554158.855 5     -2873.407          34.000
G27  20279652.961 8 106570281.074 8        94.012          51.000    20279653.047 8  83041770.994 8        73.256          51.000
R04  22825189.961 5 122227827.412 5     -3034.277          33.000    22825187.281 4  95066095.941 4     -2359.993          29.000
R05  20544829.172 5 109823932.256 5       563.402          30.000    20544830.625 5  85418582.933 5       438.220          33.000
R06  22087166.180 7 117861395.432 7      4119.480          42.000
R10  23509553.656 5 125319149.442 5     -4243.879          30.000
R11  21396276.844 4 114335233.961 4     -1785.340          28.000
C05  39614971.852 6 206285553.371 6       -13.242          36.000    39614974.445 6 159513085.709 6        -9.998          37.000
C19  22620982.664 8 117793450.932 8       723.656          49.000
C20  25125556.680 5 130835354.920 5     -2093.586          35.000
C22  24529438.992 6 127731305.467 6      3178.582          40.000
C26  25615143.125 6 133384768.772 6     -2861.910          41.000
E04  27263071.914 7 143268413.288 7      2909.863          43.000    27263070.977 6 109777080.138 6      2229.803          39.000
E12  22303442.484 7 117205413.973 7     -1179.191          44.000    22303441.258 7  89806698.919 7      -903.369          44.000
E24  24307882.461 6 127738771.586 6     -2864.531          40.000    24307892.078 6  97877795.181 6     -2194.945          37.000
> 2020 05 01 17 08  0.0000000  0 16        .000000000000
G10  20919152.406 8 109930903.940 8       135.852          51.000    20919154.922 8  85660466.673 8       105.858          51.000
G16  21983471.383 7 115523925.621 7     -2929.336          47.000    21983471.969 7  90018644.557 7     -2282.599          45.000
G21  24723925.797 5 129925090.332 5     -2603.684          34.000
G26  24088984.727 5 126588454.255 5     -3687.566          32.000    24088984.523 5  98640370.408 5     -2873.437          33.000
G27  20279152.086 8 106567649.215 8        81.734          51.000    20279152.203 8  83039720.201 8        63.689          51.000
R05  20541730.656 6 109807399.171 6       538.191          39.000    20541738.344 4  85405723.794 4       418.578          25.000
R06  22064028.672 7 117737926.443 7      4111.965          44.000
C05  39615044.695 5 206285932.911 5       -11.672          35.000    39615047.289 6 159513379.225 6        -9.267          37.000
C19  22616858.695 8 117771974.656 8       708.324          49.000
C20  25137652.766 6 130898334.100 6     -2105.230          37.000
C22  24511140.812 7 127636019.641 7      3174.105          44.000
C24  25226466.711 4 131360822.662 4     -1315.074          27.000
C26  25631634.617 6 133470639.428 6     -2862.742          38.000
E04  27246459.977 7 143181119.310 7      2909.965          43.000    27246460.289 6 109710192.632 6      2229.845          41.000
E12  22310182.008 7 117240831.026 7     -1181.613          44.000    22310181.055 7  89833836.695 7      -905.497          44.000
E24  24324247.578 7 127824769.369 7     -2868.586          42.000    24324257.961 6  97943689.553 6     -2197.729          36.000
> 2020 05 01 17 08 30.0000000  0 16        .000000000000
G10  20918433.750 8 109927126.327 8       116.074          51.000    20918435.820 8  85657523.100 8        90.450          51.000
G16  22000230.672 8 115611997.393 8     -2942.098          48.000    22000231.961 7  90087271.910 7     -2292.544          45.000
G21  24738793.750 5 130003223.441 5     -2604.969          31.000
G26  24110046.961 5 126699136.530 5     -3690.480          33.000    24110046.156 5  98726616.237 5     -2875.699          33.000
G27  20278728.305 8 106565422.560 8        66.988          51.000    20278728.422 8  83037985.141 8        52.199          51.000
R05  20538789.156 6 109791677.384 6       510.379          38.000    20538796.891 5  85393491.792 5       396.964          31.000
R06  22040940.219 7 117614717.987 7      4102.258          45.000
R11  21416577.461 5 114443705.908 5     -1831.047          31.000    21416587.391 4  89011800.101 4     -1424.148          28.000
C05  39615114.742 5 206286298.307 5       -12.195          35.000    39615117.453 6 159513661.765 6        -9.442          37.000
C19  22612828.586 8 117750988.359 8       690.859          49.000
C20  25149818.953 6 130961678.309 6     -2117.934          37.000
C22  24492876.227 7 127540903.290 7      3167.074          47.000
C26  25648135.000 5 133556558.129 5     -2865.613          32.000
E04  27229854.336 7 143093859.238 7      2907.453          42.000    27229855.305 7 109643331.131 7      2227.789          42.000
E12  22316942.562 7 117276358.453 7     -1186.551          43.000    22316941.680 7  89861059.030 7      -909.265          44.000
E24  24340642.883 7 127910922.994 7     -2874.988          43.000    24340654.719 5  98009703.297 5     -2202.994          35.000
> 2020 05 01 17 09  0.0000000  0 15        .000000000000
G10  20917816.258 8 109923880.193 8        97.566          51.000    20917818.008 8  85654993.653 8        76.026          51.000
G16  22017051.602 8 115700390.287 8     -2953.578          49.000    22017052.805 7  90156149.467 7     -2301.489          46.000
G21  24753651.602 5 130081306.274 5     -2603.422          32.000
G26  24131111.922 5 126809834.799 5     -3692.152          30.000    24131111.398 5  98812874.503 5     -2877.011          31.000
G27  20278376.930 8 106563576.416 8        53.379          51.000    20278377.008 8  83036546.587 8        41.594          51.000
R04  22876623.031 4 122503286.073 4     -3087.609          28.000
R05  20535994.312 6 109776741.944 6       483.055          36.000    20535998.703 4  85381867.139 4       375.706          29.000
R06  22017896.508 7 117491748.914 7      4093.188          45.000
C05  39615177.219 5 206286623.408 5       -11.805          35.000    39615180.023 6 159513913.939 6        -9.204          37.000
C19  22608888.203 8 117730467.516 8       674.441          50.000
C20  25162049.273 6 131025360.451 6     -2130.195          36.000
C22  24474639.664 8 127445933.479 8      3161.457          49.000
E04  27213250.711 7 143006609.574 7      2906.359          43.000    27213251.742 6 109576477.600 6      2226.930          41.000
E12  22323719.391 7 117311970.543 7     -1190.219          43.000    22323718.727 7  89888346.226 7      -912.123          44.000
E24  24357062.711 7 127997205.019 7     -2879.863          44.000    24357076.070 6  98075815.401 6     -2206.906          36.000
> 2020 05 01 17 09 30.0000000  0 16        .000000000000
G10  20917317.539 8 109921258.564 8        78.062          51.000    20917319.070 8  85652950.857 8        60.828          51.000
G16  22033951.133 8 115789195.060 8     -2965.879          50.000    22033951.578 7  90225347.939 7     -2311.074          45.000
G21  24768517.945 5 130159432.057 5     -2604.004          34.000
G26  24152197.539 5 126920652.892 5     -3694.031          33.000    24152197.156 5  98899208.009 5     -2878.469          33.000
G27  20278115.734 8 106562204.847 8        38.715          51.000    20278115.836 8  83035477.858 8        30.167          51.000
R04  22893980.422 4 122596210.710 4     -3106.246          29.000    22893977.102 4  95352596.573 4     -2415.969          26.000
R05  20533365.609 6 109762688.714 6       454.699          39.000    20533372.672 5  85370936.870 5       353.652          33.000
R06  21994915.500 7 117369118.356 7      4083.125          43.000
R11  21437389.656 5 114554896.142 5     -1877.582          32.000    21437391.305 5  89098269.890 5     -1460.342          33.000
C05  39615250.086 5 206287002.678 5       -12.758          35.000    39615252.867 6 159514207.224 6        -9.494          37.000
C19  22605054.992 8 117710505.211 8       657.086          49.000
C20  25174362.008 5 131089471.081 5     -2142.824          34.000
C22  24456449.250 8 127351204.965 8      3154.664          51.000
E04  27196667.398 7 142919465.685 7      2904.199          45.000    27196667.828 7 109509705.071 7      2225.307          42.000
E12  22330530.070 7 117347760.365 7     -1194.777          43.000    22330529.430 7  89915769.590 7      -915.607          43.000
E24  24373524.578 7 128083706.829 7     -2886.082          44.000    24373537.789 6  98142095.912 6     -2211.333          36.000
> 2020 05 01 17 10  0.0000000  0 17        .000000000000
G10  20916931.781 8 109919230.831 8        54.188          51.000    20916932.820 8  85651370.805 8        42.224          51.000
G16  22050922.664 8 115878378.792 8     -2982.598          49.000    22050922.242 7  90294841.707 7     -2324.102          44.000
G21  24783387.477 5 130237569.490 5     -2608.547          35.000
G26  24173297.086 5 127031531.719 5     -3700.332          32.000    24173296.039 5  98985607.022 5     -2883.379          33.000
G27  20277939.125 8 106561278.254 8        19.965          51.000    20277939.430 8  83034755.836 8        15.557          51.000
R05  20530897.164 6 109749487.475 6       422.234          38.000    20530902.445 5  85360669.127 5       328.395          34.000
R06  21971991.766 7 117246799.584 7      4068.461          42.000
R11  21448007.680 6 114611659.384 6     -1905.238          38.000    21448003.672 5  89142366.166 5     -1481.852          32.000
C05  39615327.336 5 206287405.046 5       -17.469          35.000    39615330.000 6 159514518.348 6       -13.173          38.000
C19  22601323.031 8 117691071.871 8       635.477          48.000
C20  25186750.148 4 131154017.285 4     -2160.449          28.000
C22  24438299.594 8 127256689.958 8      3143.480          51.000
C24  25257394.789 5 131521887.852 5     -1373.957          30.000
C26  25697707.875 4 133814699.017 4     -2875.406          28.000
E04  27180098.969 7 142832399.123 7      2897.395          45.000    27180099.016 7 109442991.796 7      2220.156          44.000
E12  22337368.516 7 117383697.271 7     -1203.828          43.000    22337367.914 7  89943305.659 7      -922.342          43.000
E24  24390022.180 7 128170396.018 7     -2896.289          42.000    24390034.273 6  98208519.994 6     -2219.297          39.000
> 2020 05 01 17 10 30.0000000  0 15        .000000000000
G10  20916656.766 8 109917785.314 8        40.387          51.000    20916657.828 8  85650244.442 8        31.470          51.000
G16  22067963.555 8 115967927.956 8     -2989.223          49.000    22067962.531 7  90364620.252 7     -2329.267          44.000
G20  21790209.594 6 114508275.271 6     -2194.043          38.000
G21  24798257.086 6 130315706.982 6     -2602.621          37.000
G26  24194407.633 5 127142470.572 5     -3697.031          31.000    24194406.398 5  99072052.756 5     -2880.813          31.000
G27  20277845.148 8 106560786.015 8        11.047          51.000    20277845.805 8  83034372.255 8         8.608          51.000
R05  20528585.992 5 109737127.476 5       399.887          34.000    20528590.797 6  85351055.764 6       311.023          37.000
R06  21949125.430 6 117124785.231 6      4063.824          41.000
R11  21458744.820 6 114669055.287 6     -1922.980          37.000    21458745.875 4  89187018.052 4     -1495.648          25.000
C05  39615406.836 5 206287819.108 5       -12.023          35.000    39615409.477 6 159514838.554 6        -9.361          37.000
C19  22597690.391 7 117672156.838 7       623.602          46.000
C22  24420188.984 8 127162379.490 8      3142.078          51.000
E04  27163543.453 7 142745400.435 7      2900.598          45.000    27163543.867 7 109376330.535 7      2222.476          46.000
E12  22344232.680 7 117419769.628 7     -1202.945          42.000    22344232.188 7  89970945.513 7      -921.731          43.000
E24  24406552.719 6 128257259.255 6     -2896.504          38.000    24406564.188 6  98275077.445 6     -2219.462          41.000
> 2020 05 01 17 11  0.0000000  0 15        .000000000000
G10  20916480.922 8 109916861.141 8        20.223          51.000    20916482.047 8  85649524.325 8        15.758          51.000
G16  22085061.836 8 116057778.783 8     -3001.910          50.000    22085060.633 7  90434633.872 7     -2339.151          44.000
G20  21802774.812 6 114574308.271 6     -2209.266          38.000
G21  24813115.289 5 130393783.761 5     -2603.477          34.000
G26  24215517.484 5 127253404.268 5     -3699.078          32.000    24215517.289 5  99158496.055 5     -2882.402          32.000
G27  20277822.555 8 106560668.249 8        -4.180          51.000    20277823.555 8  83034280.489 8        -3.257          51.000
R05  20526421.219 5 109725547.613 5       371.402          31.000    20526424.461 6  85342049.241 6       288.878          37.000
R06  21926306.477 7 117003018.693 7      4052.852          43.000
R11  21469598.344 5 114727086.567 5     -1947.273          32.000    21469618.820 4  89232205.038 4     -1514.555          26.000
C05  39615477.289 5 206288184.984 5       -12.902          35.000    39615479.742 6 159515121.469 6       -10.249          37.000
C19  22594145.219 7 117653700.658 7       605.500          45.000
C22  24402106.414 8 127068215.844 8      3134.379          51.000
E04  27146990.047 7 142658411.083 7      2897.445          45.000    27146990.969 7 109309676.425 7      2220.192          47.000
E12  22351110.922 6 117455916.613 6     -1208.152          41.000    22351110.227 7  89998642.577 7      -925.658          42.000
E24  24423104.734 5 128344280.988 5     -2902.996          31.000    24423115.602 7  98341720.364 7     -2224.416          42.000
> 2020 05 01 17 11 30.0000000  0 17        .000000000000
G10  20916416.492 8 109916522.966 8         1.602          51.000    20916417.555 8  85649260.835 8         1.248          51.000
G16  22102229.555 8 116147993.971 8     -3013.148          51.000    22102228.117 7  90504931.396 7     -2347.911          44.000
G21  24827974.000 5 130471864.348 5     -2602.906          32.000
G26  24236639.133 5 127364399.362 5     -3701.160          33.000    24236638.188 4  99244985.698 4     -2884.018          28.000
G27  20277883.805 8 106560990.703 8       -18.078          51.000    20277885.109 8  83034531.752 8       -14.087          51.000
R05  20524414.602 5 109714815.132 5       344.074          33.000    20524416.836 6  85333701.591 6       267.607          40.000
R06  21903547.516 7 116881569.575 7      4042.867          44.000
R11  21480583.602 5 114785815.441 5     -1969.320          30.000
C05  39615550.680 5 206288567.990 5       -13.098          35.000    39615553.047 6 159515416.865 6       -10.095          37.000
C19  22590701.641 8 117635768.290 8       589.059          48.000
C20  25224338.141 5 131349708.172 5     -2193.184          34.000
C22  24384064.711 8 126974265.665 8      3128.117          51.000
C24  25281413.062 5 131646959.886 5     -1409.676          32.000
C29  24955187.984 4 129948212.768 4     -2542.695          27.000
E04  27130451.250 7 142571497.977 7      2895.977          46.000    27130452.891 8 109243080.741 8      2218.944          48.000
E12  22358015.680 6 117492202.995 6     -1211.629          40.000    22358014.484 6  90026446.430 6      -928.394          41.000
E24                                                                  24439700.047 7  98408497.011 7     -2227.995          42.000
> 2020 05 01 17 12  0.0000000  0 17        .000000000000
G10  20916462.180 8 109916763.215 8       -16.363          51.000    20916463.133 8  85649448.069 8       -12.751          51.000
G16  22119464.758 8 116238563.950 8     -3023.902          51.000    22119463.031 7  90575505.374 7     -2356.291          45.000
G20  21828129.023 5 114707593.773 5     -2235.441          30.000
G21  24842831.836 5 130549941.207 5     -2600.043          31.000
G26  24257770.070 5 127475443.986 5     -3701.246          32.000    24257767.508 4  99331513.819 4     -2884.082          28.000
G27  20278027.648 8 106561746.827 8       -31.215          51.000    20278029.195 8  83035120.918 8       -24.323          51.000
R05  20522569.273 4 109704888.578 4       316.496          28.000    20522566.609 6  85326018.168 6       246.164          40.000
R06  21880847.844 7 116760435.498 7      4033.645          45.000
C05  39615625.875 5 206288958.959 5       -11.812          35.000    39615628.125 6 159515719.179 6        -9.267          37.000
C19  22587357.648 8 117618353.023 8       573.066          48.000
C20  25237005.305 5 131415678.936 5     -2204.465          35.000
C22  24366062.836 8 126880524.049 8      3122.273          50.000
C24  25289574.117 4 131689443.715 4     -1422.285          29.000
C29  24969852.656 4 130024554.754 4     -2544.617          29.000
E04  27113925.906 7 142484655.906 7      2894.883          47.000    27113928.164 8 109176539.465 8      2218.118          48.000
E12  22364945.781 6 117528621.296 6     -1214.805          40.000    22364944.312 7  90054351.366 7      -930.860          42.000
E24  24456294.789 5 128518705.499 5     -2912.660          33.000    24456315.859 7  98475400.335 7     -2231.240          43.000
> 2020 05 01 17 12 30.0000000  0 17        .000000000000
G10  20916614.922 8 109917566.142 8       -35.723          51.000    20916615.445 8  85650073.753 8       -27.833          51.000
G16  22136763.812 8 116329470.301 8     -3035.422          51.000    22136762.141 7  90646341.458 7     -2365.264          46.000
G20  21840924.102 5 114774864.955 5     -2249.043          35.000
G21  24857685.680 5 130627998.855 5     -2601.332          33.000
G26  24278907.469 5 127586520.187 5     -3702.680          32.000    24278903.727 4  99418066.540 4     -2885.208          29.000
G27  20278251.320 8 106562921.980 8       -45.715          51.000    20278252.797 8  83036036.613 8       -35.622          51.000
R05  20520874.188 5 109695802.255 5       288.934          35.000    20520872.086 6  85318963.576 6       224.723          41.000
R06  21858204.625 7 116639605.042 7      4023.121          43.000
R11  21502964.906 5 114905318.409 5     -2013.582          33.000
C05  39615699.742 5 206289343.620 5       -12.266          35.000    39615702.047 6 159516016.590 6        -9.252          37.000
C19  22584109.531 8 117601440.086 8       555.707          49.000
C20  25249740.250 6 131482007.372 6     -2216.504          36.000
C22  24348097.828 8 126786978.132 8      3115.371          48.000
C24  25297809.742 4 131732313.965 4     -1434.613          28.000
E04  27097411.250 7 142397871.476 7      2892.375          46.000    27097414.211 8 109110042.362 8      2216.131          48.000
E12  22371897.961 6 117565155.863 6     -1219.316          39.000    22371896.953 7  90082345.399 7      -934.254          42.000
E24  24472942.344 5 128606175.923 5     -2917.473          34.000    24472959.891 7  98542417.019 7     -2235.421          44.000
> 2020 05 01 17 13  0.0000000  0 14        .000000000000
G10  20916871.656 8 109918915.449 8       -55.609          51.000    20916871.781 8  85651125.185 8       -43.329          51.000
G16  22154123.219 8 116420694.766 8     -3047.773          51.000    22154121.984 7  90717425.430 7     -2374.888          47.000
G20  21853803.516 6 114842540.402 6     -2263.613          36.000
G21  24872533.156 5 130706020.959 5     -2601.555          34.000
G27  20278551.820 8 106564500.979 8       -61.016          51.000    20278553.219 8  83037266.998 8       -47.545          51.000
R05  20519326.117 6 109687544.767 6       260.090          39.000    20519324.812 6  85312541.116 6       202.286          40.000
R06  21835616.039 7 116519066.862 7      4011.406          44.000
C05  39615769.336 6 206289706.277 6       -13.418          36.000    39615771.727 6 159516296.052 6       -10.131          37.000
C19  22580955.656 8 117585014.347 8       537.805          51.000
C20  25262540.070 6 131548675.882 6     -2228.938          36.000
C22  24330166.305 7 126693614.478 7      3107.527          46.000
E04  27080904.500 7 142311130.773 7      2888.949          45.000    27080908.398 7 109043578.783 7      2213.616          47.000
E12  22378869.250 6 117601790.647 6     -1224.488          39.000    22378868.688 6  90110416.217 6      -938.148          41.000
E24  24489613.945 5 128693768.505 5     -2923.316          34.000    24489628.219 7  98609533.399 7     -2240.034          44.000
> 2020 05 01 17 13 30.0000000  0 16        .000000000000
G10  20917251.125 8 109920910.166 8       -76.387          51.000    20917251.656 8  85652679.538 8       -59.522          51.000
G11  22830674.539 6 119976012.847 6      3051.875          36.000
G16  22171561.492 8 116512334.414 8     -3060.812          51.000    22171560.977 7  90788832.927 7     -2385.049          46.000
G21  24887392.469 5 130784106.237 5     -2603.195          32.000
G27  20278948.180 8 106566583.895 8       -77.027          51.000    20278949.742 8  83038890.037 8       -60.021          51.000
R05  20517950.859 5 109680198.647 5       231.664          31.000    20517952.805 6  85306827.483 6       180.198          40.000
R06  21813101.898 7 116398925.577 7      3998.844          44.000
R11  21525835.172 5 115027536.945 5     -2060.797          34.000
C05                                                                  39615855.969 6 159516635.634 6       -11.720          37.000
C19  22577914.008 8 117569174.693 8       518.996          49.000
C20  25275424.602 5 131615781.021 5     -2243.246          34.000
C22  24312289.180 8 126600533.772 8      3098.770          48.000
C24  25314497.180 5 131819231.014 5     -1463.566          35.000
E04  27064425.523 7 142224535.153 7      2884.844          44.000    27064429.711 7 108977226.373 7      2210.483          47.000
E12  22385878.727 6 117638624.833 6     -1230.191          41.000    22385877.945 7  90138639.783 7      -942.707          42.000
E24  24506327.906 5 128781615.696 5     -2930.594          35.000    24506339.914 7  98676824.093 7     -2245.197          44.000
> 2020 05 01 17 14  0.0000000  0 18        .000000000000
G10  20917731.234 8 109923434.220 8       -93.098          51.000    20917732.383 8  85654646.348 8       -72.544          51.000
G11  22813253.336 5 119884462.108 5      3050.070          31.000
G16  22189056.273 8 116604270.659 8     -3069.621          50.000    22189056.273 7  90860471.551 7     -2391.913          47.000
G21  24902241.609 4 130862138.887 4     -2600.977          29.000
G27  20279418.641 8 106569055.820 8       -89.121          51.000    20279420.352 8  83040816.190 8       -69.445          51.000
R04  23054599.539 5 123456300.622 5     -3261.895          32.000    23054603.484 4  96021592.079 4     -2537.029          27.000
R05  20516724.047 6 109673646.699 6       205.141          40.000    20516727.117 6  85301731.398 6       159.548          38.000
R06  21790640.945 7 116279068.345 7      3990.168          44.000
R11  21537455.719 6 115089644.591 6     -2080.703          36.000    21537445.906 4  89514124.024 4     -1618.331          25.000
R21  20168884.727 5 107927738.064 5      1457.344          31.000
C05  39615930.664 5 206290546.457 5       -12.672          35.000    39615933.008 6 159516945.742 6        -9.989          37.000
C19  22574963.148 8 117553807.017 8       504.141          49.000
C20  25288371.914 5 131683206.261 5     -2252.812          34.000
C22  24294446.531 8 126507623.675 8      3094.047          50.000
C24  25322963.430 5 131863285.397 5     -1473.758          31.000
E04  27047952.852 7 142137971.047 7      2884.762          44.000    27047956.750 7 108910898.083 7      2210.363          46.000
E12  22392904.188 7 117675542.491 7     -1232.184          42.000    22392903.102 7  90166927.337 7      -944.075          42.000
E24  24523062.094 6 128869545.695 6     -2932.992          36.000    24523072.781 7  98744198.998 7     -2247.403          44.000
> 2020 05 01 17 14 30.0000000  0 14        .000000000000
G10  20918309.391 8 109926473.850 8      -111.645          51.000    20918310.867 8  85657014.896 8       -86.996          51.000
G16  22206604.500 8 116696487.546 8     -3080.188          50.000    22206604.805 7  90932328.850 7     -2400.146          47.000
G27  20279960.836 8 106571904.103 8      -102.961          51.000    20279962.281 8  83043035.630 8       -80.229          51.000
R04  23072913.156 5 123554380.354 5     -3278.465          35.000
R05  20515642.273 6 109667849.501 6       177.461          36.000    20515647.438 6  85297241.809 6       138.028          36.000
R06  21768230.992 7 116159485.813 7      3979.984          42.000
C05  39615997.898 6 206290896.259 6       -12.414          36.000    39616000.102 6 159517216.255 6        -9.793          37.000
C19  22572100.031 7 117538898.579 7       487.605          47.000
C20  25301378.969 5 131750936.534 5     -2264.668          32.000
C22  24276635.289 8 126414873.389 8      3087.309          50.000
E04  27031483.938 7 142051427.156 7      2882.828          43.000    27031487.477 7 108844585.301 7      2208.860          45.000
E11  23151302.156 5 121660913.146 5       992.480          31.000
E12  22399943.016 6 117712530.174 6     -1235.508          41.000    22399941.727 6  90195268.562 6      -947.041          41.000
E24  24539814.336 6 128957570.333 6     -2937.281          38.000    24539823.617 7  98811646.429 7     -2250.734          42.000
> 2020 05 01 17 15  0.0000000  0 17        .000000000000
G10  20919020.352 8 109930211.412 8      -133.035          51.000    20919022.570 8  85659927.278 8      -103.664          51.000
G11  22778483.859 6 119701764.508 6      3039.410          36.000
G16  22224240.492 8 116789165.351 8     -3093.699          50.000    22224240.734 7  91004545.289 7     -2410.675          46.000
G21  24931936.648 5 131018216.391 5     -2602.145          31.000
G27  20280609.531 8 106575312.263 8      -119.727          51.000    20280610.680 8  83045691.341 8       -93.293          51.000
R04  23091345.359 4 123653091.009 4     -3297.645          28.000
R05  20514751.898 6 109663045.692 6       147.246          40.000    20514751.086 5  85293505.335 5       114.519          34.000
R06  21745907.594 6 116040368.561 6      3965.984          40.000
C05  39616090.039 5 206291375.963 5       -14.973          35.000    39616092.125 6 159517587.173 6       -11.677          37.000
C19  22569359.953 7 117524630.957 7       468.105          46.000
C20  25314479.781 5 131819151.013 5     -2279.410          32.000
C22  24258889.844 8 126322466.299 8      3077.680          49.000
C24  25340097.320 5 131952544.547 5     -1501.996          31.000
E04  27015054.000 7 141965088.260 7      2877.863          43.000    27015057.164 7 108778429.586 7      2205.008          45.000
E11  23145666.883 5 121631292.110 5       986.406          34.000
E12  22407029.961 6 117749770.514 6     -1242.406          41.000    22407028.375 7  90223803.301 7      -951.830          42.000
E24  24556618.695 6 129045870.432 6     -2944.637          40.000    24556627.367 7  98879304.913 7     -2256.127          42.000
> 2020 05 01 17 15 30.0000000  0 17        .000000000000
G10  20919818.953 8 109934407.807 8      -149.797          51.000    20919821.578 8  85663197.194 8      -116.725          51.000
G11  22761135.117 5 119610573.092 5      3036.883          35.000
G16  22241918.391 8 116882062.970 8     -3102.340          49.000    22241918.117 7  91076933.008 7     -2417.411          44.000
G21  24946772.438 5 131096176.852 5     -2599.691          32.000
G27  20281319.414 8 106579042.376 8      -131.965          51.000    20281320.539 8  83048597.916 8      -102.830          51.000
R05  20513982.508 6 109658994.619 6       121.484          36.000    20513986.492 5  85290332.727 5        94.488          33.000
R06  21723627.039 6 115921478.269 6      3957.031          39.000
R11  21573053.312 5 115279854.629 5     -2146.770          32.000
C05  39616161.820 6 206291750.186 6       -12.914          36.000    39616163.789 6 159517875.807 6       -10.086          37.000
C19  22566697.453 7 117510768.177 7       453.242          44.000
C20  25327627.523 5 131887611.319 5     -2287.852          32.000
C22  24241164.461 7 126230168.316 7      3072.535          47.000
C24  25348761.836 5 131997676.065 5     -1512.984          31.000
E04  26998618.008 7 141878717.744 7      2877.391          44.000    26998621.266 7 108712249.663 7      2204.604          44.000
E11  23140038.070 5 121601715.982 5       983.422          34.000
E12  22414119.391 7 117787024.664 7     -1244.273          42.000    22414118.148 7  90252348.681 7      -953.452          42.000
E24  24573428.984 6 129134205.500 6     -2947.395          41.000    24573438.703 6  98946990.160 6     -2258.229          41.000
> 2020 05 01 17 16  0.0000000  0 16        .000000000000
G10  20920722.930 8 109939157.530 8      -168.184          51.000    20920725.320 8  85666898.283 8      -131.052          51.000
G16  22259655.617 8 116975272.417 8     -3112.832          49.000    22259654.742 7  91149563.704 7     -2425.583          44.000
G21  24961603.203 5 131174109.518 5     -2598.137          33.000
G27  20282108.773 8 106583190.130 8      -145.867          51.000    20282109.961 8  83051829.929 8      -113.663          51.000
R05  20513377.719 6 109655737.487 6        94.098          38.000    20513376.727 5  85287799.232 5        73.184          34.000
R06  21701408.453 6 115802915.702 6      3946.027          41.000
R11  21585157.852 6 115344547.288 6     -2167.617          39.000    21585179.047 4  89712466.157 4     -1685.924          28.000
C05  39616231.180 6 206292111.074 6       -12.738          36.000    39616233.062 6 159518154.864 6        -9.675          38.000
C19  22564130.398 7 117497404.681 7       436.410          43.000
C20  25340839.156 5 131956409.688 5     -2299.914          34.000
C22  24223477.586 7 126138075.820 7      3065.715          46.000
C24  25357509.406 5 132043221.061 5     -1524.988          31.000
E04  26982194.602 7 141792412.703 7      2875.129          45.000    26982198.172 7 108646119.887 7      2202.937          44.000
E11  23134433.867 5 121572269.707 5       979.449          33.000
E12  22421229.469 7 117824387.473 7     -1248.008          42.000    22421229.133 7  90280977.290 7      -956.083          43.000
E24  24590263.227 6 129222668.521 6     -2951.523          41.000    24590274.789 6  99014773.464 6     -2261.515          40.000
> 2020 05 01 17 16 30.0000000  0 16        .000000000000
G10  20921743.680 8 109944520.553 8      -187.926          51.000    20921746.062 8  85671077.270 8      -146.436          51.000
G16  22277462.914 8 117068851.959 8     -3124.379          48.000    22277461.898 7  91222482.800 7     -2434.584          43.000
G21  24976439.406 5 131252074.348 5     -2598.465          33.000
G27  20282989.242 8 106587816.630 8      -161.133          51.000    20282990.359 8  83055434.996 8      -125.558          51.000
R05  20512928.391 6 109653363.752 6        65.719          40.000    20512930.961 6  85285953.048 6        51.109          36.000
R06  21679263.281 6 115684746.813 6      3933.434          41.000
R11  21597396.945 5 115409937.138 5     -2189.707          34.000    21597417.922 3  89763324.741 3     -1703.112          23.000
C05  39616309.586 6 206292519.509 6       -13.324          36.000    39616311.539 6 159518470.684 6       -10.258          37.000
C19  22561671.516 7 117484600.791 7       418.559          46.000
C20  25354127.820 5 132025604.015 5     -2312.355          34.000
C22  24205842.984 7 126046251.061 7      3057.375          47.000
C24  25366339.828 5 132089191.719 5     -1538.340          30.000
C29  25102772.469 5 130716689.546 5     -2580.637          31.000
E04  26965795.344 7 141706235.577 7      2871.527          45.000    26965799.289 7 108580088.101 7      2200.243          44.000
E12  22428371.688 7 117861919.175 7     -1252.805          42.000    22428372.141 7  90309735.353 7      -959.938          43.000
E24  24607132.578 6 129311318.008 6     -2956.969          40.000    24607146.188 6  99082699.622 6     -2265.762          38.000
> 2020 05 01 17 17  0.0000000  0 15        .000000000000
G10  20922868.727 8 109950431.580 8      -206.625          51.000    20922871.102 8  85675683.283 8      -161.006          51.000
G16  22295327.359 7 117162734.335 7     -3134.910          47.000    22295326.883 7  91295637.886 7     -2442.787          43.000
G21  24991269.188 5 131330006.388 5     -2598.211          33.000
G27  20283948.609 8 106592857.807 8      -175.344          51.000    20283949.273 8  83059363.194 8      -136.628          51.000
R04  23165919.906 5 124052448.399 5     -3360.559          30.000    23165919.562 4  96485236.234 4     -2613.768          28.000
R06  21657180.203 7 115566910.033 7      3921.723          42.000
R11  21609758.578 5 115475997.011 5     -2212.469          30.000
C05  39616384.938 6 206292911.485 6       -13.336          36.000    39616386.820 6 159518773.794 6       -10.364          38.000
C19  22559308.203 7 117472292.737 7       401.441          47.000
C20  25367479.922 5 132095128.288 5     -2323.625          33.000
C22  24188248.688 7 125954632.089 7      3050.043          47.000
C29  25117667.578 5 130794164.137 5     -2584.844          33.000
E04  26949407.852 7 141620123.633 7      2868.871          43.000    26949412.352 7 108514106.280 7      2198.247          43.000
E12  22435533.688 7 117899554.898 7     -1256.730          42.000    22435534.242 7  90338573.105 7      -962.907          43.000
E24  24624024.602 6 129400087.248 6     -2961.398          41.000    24624040.555 5  99150717.538 5     -2269.198          35.000
> 2020 05 01 17 17 30.0000000  0 15        .000000000000
G10  20924108.195 8 109956944.817 8      -225.941          51.000    20924110.461 8  85680758.541 8      -176.058          51.000
G16  22313259.211 7 117256971.224 7     -3145.707          46.000    22313259.695 7  91369069.228 7     -2451.197          44.000
G21  25006102.953 5 131407960.210 5     -2597.996          30.000
G27  20284997.391 8 106598369.070 8      -190.340          51.000    20284997.719 8  83063657.702 8      -148.317          51.000
R04  23184799.633 5 124153535.007 5     -3376.840          31.000    23184796.688 4  96563858.985 4     -2626.431          25.000
R05  20512515.375 5 109651077.893 5         9.508          35.000    20512511.766 6  85284197.402 6         7.392          37.000
R06  21635171.094 7 115449465.552 7      3909.480          45.000
R11  21622229.570 6 115542672.177 6     -2233.230          39.000    21622243.273 4  89866530.445 4     -1736.954          29.000
C05  39616467.328 6 206293341.109 6       -13.949          36.000    39616469.258 6 159519106.025 6       -10.575          38.000
C19  22557050.570 8 117460535.026 8       383.996          48.000
C20  25380905.586 5 132165034.746 5     -2335.008          32.000
C22  24170704.820 7 125863275.455 7      3041.996          47.000
E04  26933043.391 7 141534133.627 7      2865.566          44.000    26933047.539 7 108448217.899 7      2195.640          42.000
E12  22442725.555 6 117937349.169 6     -1261.305          41.000    22442725.828 7  90367532.352 7      -966.278          43.000
E24  24640949.562 6 129489028.969 6     -2966.355          41.000    24640968.281 5  99218966.575 5     -2273.056          31.000
> 2020 05 01 17 18  0.0000000  0 14        .000000000000
G10  20925448.617 8 109963988.694 8      -244.230          51.000    20925450.688 8  85686247.284 8      -190.306          51.000
G16  22331244.945 7 117351489.315 7     -3155.965          46.000    22331246.203 7  91442719.669 7     -2459.196          44.000
G27  20286122.211 8 106604280.058 8      -204.422          51.000    20286122.609 8  83068263.677 8      -159.290          51.000
R04  23203758.523 5 124255062.101 5     -3392.469          31.000
R05  20512530.875 5 109651207.231 5       -17.918          32.000    20512534.164 6  85284302.363 6       -13.939          37.000
R06  21613223.367 7 115332345.766 7      3898.078          45.000
R11  21634825.172 6 115609973.249 6     -2253.855          36.000    21634838.484 5  89918875.729 5     -1752.996          32.000
C05  39616543.742 6 206293738.232 6       -13.230          36.000    39616545.555 6 159519413.107 6       -10.285          37.000
C19  22554885.312 8 117449257.758 8       367.277          49.000
C20  25394390.500 4 132235253.282 4     -2346.805          28.000
C22  24153198.312 7 125772113.152 7      3034.855          47.000
E04  26916689.094 7 141448196.659 7      2862.977          43.000    26916691.891 6 108382370.162 6      2193.745          41.000
E12  22449933.891 6 117975230.906 6     -1264.742          41.000    22449934.320 7  90396558.608 7      -969.145          43.000
E24  24657893.602 6 129578070.334 6     -2970.379          41.000    24657915.180 5  99287205.887 5     -2276.091          32.000
> 2020 05 01 17 18 30.0000000  0 13        .000000000000
G10  20926916.734 8 109971704.292 8      -269.035          51.000    20926918.758 8  85692259.458 8      -209.638          51.000
G11  22657596.055 5 119066472.778 5      3004.113          35.000
G16  22349311.148 7 117446427.407 7     -3172.277          46.000    22349312.719 7  91516697.373 7     -2471.904          44.000
G27  20287350.141 8 106610733.088 8      -224.738          51.000    20287350.844 8  83073292.020 8      -175.121          51.000
R04  23222826.242 5 124357170.111 5     -3413.781          33.000    23222826.109 4  96722245.754 4     -2655.166          26.000
R05  20512728.109 5 109652272.381 5       -51.781          32.000    20512733.359 6  85285130.902 6       -40.268          37.000
R06  21591363.992 7 115215698.686 7      3879.469          44.000
C05  39616640.578 6 206294243.204 6       -19.434          36.000    39616642.492 6 159519803.578 6       -14.798          38.000
C19  22552839.102 8 117438601.569 8       344.207          49.000
C22  24135756.195 7 125681287.814 7      3021.141          46.000
E04  26900372.617 7 141362456.319 7      2854.105          45.000    26900373.617 7 108316673.114 7      2186.819          42.000
E12  22457185.891 6 118013341.575 6     -1274.852          41.000    22457186.359 7  90425760.262 7      -976.679          43.000
E24  24674883.438 7 129667350.969 7     -2980.395          42.000    24674904.953 5  99355615.669 5     -2283.859          34.000
> 2020 05 01 17 19  0.0000000  0 14        .000000000000
G10  20928470.609 8 109979870.276 8      -280.102          51.000    20928472.383 8  85698622.553 8      -218.261          51.000
G11  22640426.055 5 118976245.205 5      3006.469          32.000
G16  22367415.172 7 117541562.414 7     -3175.031          47.000    22367416.648 7  91590828.509 7     -2474.050          44.000
G21  25050587.508 5 131641700.249 5     -2594.508          31.000
G27  20288639.281 8 106617508.034 8      -231.551          51.000    20288640.250 8  83078571.197 8      -180.429          51.000
R05  20513062.305 6 109654059.053 6       -72.324          39.000    20513065.367 6  85286520.546 6       -56.255          38.000
R06  21569551.867 7 115099304.846 7      3875.309          44.000
C05  39616716.227 6 206294637.268 6       -11.309          36.000    39616718.227 6 159520108.324 6        -8.959          38.000
C19  22550870.281 8 117428348.001 8       334.668          50.000
C22  24118337.516 7 125590583.014 7      3021.105          47.000
C24  25411592.805 5 132324803.351 5     -1598.551          30.000
E04  26884052.273 7 141276693.989 7      2858.629          46.000    26884052.883 7 108250959.209 7      2190.489          43.000
E12  22464439.359 7 118051460.299 7     -1271.152          42.000    22464439.523 7  90454968.107 7      -973.940          42.000
E24  24691876.383 7 129756648.281 7     -2977.219          42.000    24691896.719 5  99424038.224 5     -2281.269          35.000
> 2020 05 01 17 19 30.0000000  0 15        .000000000000
G10  20930133.523 8 109988609.492 8      -296.969          51.000    20930135.297 8  85705432.342 8      -231.404          51.000
G11  22623284.969 5 118886163.361 5      3003.570          32.000
G16  22385579.805 8 117637014.688 8     -3183.242          48.000    22385580.984 7  91665206.882 7     -2480.448          43.000
G27  20290013.320 8 106624729.023 8      -244.305          51.000    20290014.172 8  83084197.963 8      -190.367          51.000
R05  20513556.070 6 109656692.617 6       -97.977          37.000    20513561.648 6  85288568.946 6       -76.198          39.000
R06  21547811.922 7 114983293.680 7      3864.668          44.000
R11  21673330.328 4 115815705.437 4     -2313.555          28.000    21673353.883 4  90078979.465 4     -1799.431          28.000
C05  39616794.250 6 206295042.971 6        -9.793          36.000    39616796.195 6 159520422.024 6        -7.545          37.000
C19  22549002.227 8 117418619.762 8       319.348          48.000
C20  25435254.867 5 132448033.799 5     -2376.797          31.000
C22  24100966.070 7 125500123.364 7      3015.086          47.000
C24  25420861.617 4 132372999.070 4     -1608.754          29.000
E04  26867751.977 7 141191035.107 7      2857.426          47.000    26867753.977 7 108185324.564 7      2189.387          45.000
E12  22471718.117 7 118089710.404 7     -1273.395          42.000    22471717.828 7  90484276.637 7      -975.631          42.000
E24  24708895.469 7 129846083.712 7     -2979.836          42.000    24708913.250 5  99492566.643 5     -2283.317          34.000
> 2020 05 01 17 20  0.0000000  0 15        .000000000000
G10  20931894.609 8 109997864.731 8      -323.145          51.000    20931896.484 8  85712644.226 8      -251.801          51.000
G16  22403793.703 8 117732725.678 8     -3200.625          48.000    22403794.844 7  91739786.848 7     -2493.994          44.000
G27  20291461.578 8 106632340.108 8      -266.262          51.000    20291462.203 8  83090128.695 8      -207.474          51.000
G32  24675382.320 7 129670019.896 7      3006.734          42.000    24675387.672 7 101041580.503 7      2342.913          42.000
R05  20514196.719 6 109660115.451 6      -133.469          40.000    20514199.789 5  85291231.110 5      -103.812          35.000
R06  21526133.797 7 114867612.094 7      3844.359          44.000
R11  21686383.805 4 115885460.109 4     -2341.219          29.000    21686406.180 5  90133228.646 5     -1820.945          31.000
C05  39616863.633 6 206295405.125 6       -16.988          36.000    39616865.531 6 159520701.304 6       -13.327          37.000
C19  22547223.961 8 117409360.993 8       294.816          48.000
C20  25448992.383 5 132519564.300 5     -2395.387          34.000
C22  24083631.438 7 125409855.111 7      2999.848          47.000
C24  25430160.172 5 132421507.821 5     -1628.086          31.000
E04  26851461.367 8 141105425.181 8      2846.793          49.000    26851464.812 7 108119727.391 7      2181.303          47.000
E12  22479011.281 6 118128035.205 6     -1284.777          40.000    22479010.602 7  90513642.386 7      -984.503          42.000
E24  24725929.617 7 129935598.784 7     -2991.055          42.000    24725943.516 5  99561156.100 5     -2291.727          35.000
> 2020 05 01 17 20 30.0000000  0 17        .000000000000
G10  20933815.062 8 110007956.904 8      -341.250          51.000    20933816.797 8  85720508.263 8      -265.909          51.000
G11  22589114.875 5 118706586.093 5      2987.816          33.000
G16  22422117.266 8 117829013.762 8     -3210.047          49.000    22422118.344 7  91814816.480 7     -2501.335          44.000
G20  22056169.359 4 115905951.861 4     -2461.230          29.000
G27  20293045.320 8 106640663.491 8      -280.172          51.000    20293046.219 8  83096614.456 8      -218.313          51.000
G32  24658240.781 6 129579949.938 6      3006.039          38.000    24658246.148 6 100971396.204 6      2342.371          38.000
R05  20515046.688 6 109664654.461 6      -160.816          41.000    20515049.562 5  85294761.472 5      -125.082          35.000
R06  21504579.062 7 114752591.393 7      3832.215          42.000
R11  21699614.406 5 115956164.751 5     -2361.547          35.000    21699628.586 5  90188173.979 5     -1836.759          30.000
C05  39616985.742 5 206296039.572 5       -16.938          35.000    39616987.547 6 159521192.683 6       -13.073          37.000
C19  22545597.266 7 117400890.686 7       278.234          46.000
C20  25462845.117 6 132591701.518 6     -2406.078          36.000
C22  24066394.312 7 125320099.184 7      2992.410          46.000
C24  25439595.367 5 132470660.402 5     -1639.980          35.000
E04  26835241.789 8 141020187.861 8      2844.035          49.000    26835246.273 8 108054415.724 8      2179.324          48.000
E12  22486379.555 6 118166756.152 6     -1288.254          40.000    22486378.672 7  90543311.659 7      -987.086          42.000
E24  24743039.422 6 130025513.139 6     -2994.777          40.000    24743049.602 6  99630051.462 6     -2294.460          36.000
> 2020 05 01 17 21  0.0000000  0 17        .000000000000
G10  20935789.789 8 110018334.172 8      -354.180          51.000    20935791.703 8  85728594.466 8      -275.984          51.000
G11  22572056.766 6 118616946.621 6      2988.062          36.000
G16  22440445.227 8 117925325.412 8     -3214.336          50.000    22440445.938 7  91889864.487 7     -2504.677          44.000
G20  22070234.469 6 115979868.261 6     -2468.418          36.000
G27  20294659.852 8 106649148.636 8      -289.129          51.000    20294661.242 8  83103226.245 8      -225.295          51.000
G32  24641056.109 6 129489644.450 6      3010.285          37.000    24641059.344 6 100901028.369 6      2345.680          37.000
R05  20516000.141 6 109669748.944 6      -182.695          41.000    20516002.359 5  85298723.914 5      -142.096          31.000
R06  21483043.391 6 114637675.527 6      3825.117          40.000
R11  21712911.289 6 116027179.979 6     -2376.309          41.000
C05  39617055.547 6 206296404.175 6       -10.785          36.000    39617057.305 6 159521473.850 6        -8.524          37.000
C19  22544016.977 7 117392662.835 7       266.547          43.000
C20  25476709.797 6 132663897.305 6     -2411.172          36.000
C22  24049151.273 7 125230311.729 7      2989.848          47.000
C24  25449053.828 5 132519901.546 5     -1646.137          35.000
E04  26818988.703 8 140934774.013 8      2846.598          50.000    26818993.711 8 107988968.805 8      2181.081          50.000
E12  22493718.125 6 118205321.920 6     -1286.371          40.000    22493717.242 6  90572862.063 6      -985.742          41.000
E24  24760119.836 6 130115273.609 6     -2992.855          39.000    24760127.047 6  99698828.914 6     -2293.098          38.000
> 2020 05 01 17 21 30.0000000  0 16        .000000000000
G10  20937884.312 8 110029340.349 8      -375.758          51.000    20937886.219 8  85737170.721 8      -292.798          51.000
G16  22458842.586 8 118022002.202 8     -3227.020          50.000    22458842.984 7  91965197.033 7     -2514.561          45.000
G20  22084382.266 6 116054206.414 6     -2483.609          36.000
G27  20296370.992 8 106658140.590 8      -306.539          51.000    20296372.648 8  83110232.962 8      -238.862          51.000
G32  24623893.617 7 129399450.839 7      3006.090          42.000    24623895.648 7 100830747.758 7      2342.411          42.000
R05  20517123.750 6 109675749.373 6      -213.465          36.000    20517125.711 4  85303390.870 4      -166.025          27.000
R06  21461593.531 6 114523219.571 6      3808.727          41.000
R11  21726330.594 6 116098878.352 6     -2399.738          39.000    21726351.320 4  90299175.718 4     -1866.466          29.000
C05  39617138.750 6 206296837.445 6       -14.133          36.000    39617140.453 6 159521808.847 6       -10.777          38.000
C19  22542549.172 7 117385019.159 7       246.559          43.000
C20  25490650.648 6 132736491.133 6     -2424.652          37.000
C22  24031968.773 8 125140836.358 8      2978.676          48.000
C24  25458595.594 5 132569570.782 5     -1661.570          31.000
E04  26802767.852 8 140849530.205 8      2840.105          50.000    26802772.797 8 107923652.167 8      2176.245          50.000
E12  22501093.000 6 118244076.976 6     -1293.500          41.000    22501092.109 6  90602557.462 6      -991.022          41.000
E24  24777235.766 6 130205222.853 6     -2999.973          37.000    24777241.039 6  99767750.991 6     -2298.567          38.000
> 2020 05 01 17 22  0.0000000  0 15        .000000000000
G10  20940065.578 8 110040802.500 8      -391.297          51.000    20940067.438 8  85746102.277 8      -304.907          51.000
G16  22477275.992 8 118118869.826 8     -3233.676          49.000    22477276.062 7  92040678.266 7     -2519.747          44.000
G27  20298145.898 8 106667467.746 8      -317.992          51.000    20298147.688 8  83117500.855 8      -247.789          51.000
G32  24606720.289 7 129309199.985 7      3007.824          44.000    24606722.852 7 100760422.531 7      2343.762          44.000
R05  20518382.156 7 109682480.014 7      -238.164          42.000
R06  21440198.391 7 114409052.307 7      3799.059          43.000
R11  21739842.266 6 116171081.016 6     -2416.824          39.000    21739864.836 4  90355333.407 4     -1879.746          28.000
C05  39617202.461 6 206297169.553 6       -11.203          36.000    39617204.203 6 159522065.691 6        -8.693          38.000
C19  22541159.836 6 117377789.132 6       232.449          41.000
C20  25504634.633 5 132809310.378 5     -2433.117          35.000
C22  24014814.031 8 125051504.686 8      2973.656          48.000
C24  25468186.352 4 132619525.304 4     -1669.832          28.000
E04  26786546.750 8 140764286.201 8      2839.871          50.000    26786551.109 8 107858335.387 8      2176.014          49.000
E12  22508471.211 6 118282848.884 6     -1294.238          41.000    22508470.422 6  90632265.811 6      -991.791          41.000
E24  24794354.242 6 130295186.574 6     -3000.512          36.000    24794358.648 6  99836684.236 6     -2299.129          38.000
> 2020 05 01 17 22 30.0000000  0 15        .000000000000
G10  20942366.602 8 110052893.928 8      -413.832          51.000    20942368.375 8  85755524.184 8      -322.463          51.000
G16  22495778.086 8 118216099.351 8     -3247.254          49.000    22495777.938 7  92116441.487 7     -2530.328          43.000
G27  20300017.891 8 106677304.762 8      -336.668          51.000    20300019.562 8  83125166.050 8      -262.336          51.000
G32  24589569.695 7 129219068.832 7      3002.152          45.000    24589573.234 7 100690190.577 7      2339.343          45.000
R05  20519811.672 5 109690117.887 5      -269.934          35.000    20519824.406 5  85314596.167 5      -209.939          32.000
R06  21418891.352 7 114295355.270 7      3781.664          43.000
R11  21753480.891 6 116243961.495 6     -2440.742          38.000    21753500.680 5  90412018.266 5     -1898.352          30.000
C05  39617279.992 6 206297573.195 6       -14.773          36.000    39617281.719 6 159522377.795 6       -11.460          38.000
C19  22539883.211 7 117371145.257 7       211.449          44.000
C20  25518693.633 4 132882525.339 4     -2446.988          29.000
C22  23997720.234 7 124962491.477 7      2961.586          47.000
C29  25282807.547 5 131654174.830 5     -2627.020          31.000
E04  26770359.156 8 140679218.151 8      2832.430          51.000    26770361.953 8 107793153.453 8      2170.252          48.000
E12  22515885.844 6 118321811.654 6     -1302.078          40.000    22515885.141 6  90662120.377 6      -997.765          41.000
E24  24811509.148 6 130385336.951 6     -3008.148          36.000    24811513.258 6  99905760.516 6     -2305.154          38.000
> 2020 05 01 17 23  0.0000000  0 15        .000000000000
G10  20944796.570 8 110065662.695 8      -434.188          51.000    20944798.375 8  85765473.882 8      -338.325          51.000
G11  22504098.070 5 118259837.956 5      2963.625          34.000
G16  22514357.633 8 118313736.833 8     -3258.543          49.000    22514357.031 7  92192522.599 7     -2539.124          42.000
G27  20301996.305 8 106687700.993 8      -353.180          51.000    20301997.578 8  83133266.999 8      -275.205          51.000
G32  24572451.430 7 129129109.222 7      2998.500          44.000    24572455.797 7 100620092.266 7      2336.497          44.000
R05  20521419.711 4 109698711.951 4      -299.562          27.000    20521422.148 5  85321280.384 5      -232.993          30.000
R06  21397682.828 7 114182182.505 7      3766.453          43.000
R11  21767253.742 6 116317565.556 6     -2462.652          36.000    21767270.102 4  90469265.839 4     -1915.399          29.000
C05  39617380.594 6 206298096.736 6       -16.871          36.000    39617382.141 6 159522782.656 6       -12.849          37.000
C19  22538729.219 7 117365136.224 7       192.348          45.000
C22  23980696.781 7 124873847.410 7      2951.453          46.000
C29  25297972.688 4 131733124.366 4     -2632.566          29.000
E04  26754214.898 8 140594376.884 8      2827.059          51.000    26754214.781 7 107728145.294 7      2166.035          46.000
E12  22523345.984 6 118361013.954 6     -1307.977          41.000    22523345.562 6  90692158.464 6     -1002.201          41.000
E24  24828709.180 6 130475720.887 6     -3013.941          37.000    24828713.094 6  99975015.717 6     -2309.369          38.000
> 2020 05 01 17 23 30.0000000  0 17        .000000000000
G10  20947309.445 8 110078867.634 8      -446.148          51.000    20947311.273 8  85775763.455 8      -347.648          51.000
G11  22487175.281 5 118170912.885 5      2965.156          34.000
G16  22532968.242 7 118411539.281 7     -3261.508          47.000    22532967.188 7  92268732.249 7     -2541.435          42.000
G20  22141648.625 5 116355148.041 5     -2528.508          33.000
G27  20304035.500 8 106698416.636 8      -361.230          51.000    20304036.422 8  83141616.835 8      -281.478          51.000
G32  24555320.203 7 129039083.818 7      3003.023          42.000    24555325.359 7 100549942.673 7      2340.021          42.000
R05  20523160.734 5 109708048.892 5      -321.656          30.000    20523160.406 5  85328473.344 5      -250.180          32.000
R06  21376527.641 7 114069293.915 7      3759.285          44.000
R11  21781112.281 5 116391644.821 5     -2475.727          34.000    21781130.461 4  90526883.130 4     -1925.565          26.000
C05  39617458.469 6 206298502.129 6       -10.074          36.000    39617459.906 6 159523096.126 6        -8.023          37.000
C19  22537651.305 7 117359523.891 7       181.809          45.000
C20  25547020.773 5 133030044.287 5     -2463.719          30.000
C22  23963698.727 7 124785336.548 7      2949.363          47.000
C29  25313136.703 5 131812133.685 5     -2630.414          33.000
E04  26738068.375 8 140509524.111 8      2829.848          51.000    26738065.719 7 107663128.327 7      2168.280          46.000
E12  22530805.859 7 118400215.308 7     -1305.367          42.000    22530805.727 6  90722195.863 6     -1000.321          41.000
E24  24845907.836 6 130566096.017 6     -3010.992          39.000    24845911.391 6 100044264.185 6     -2307.130          37.000
> 2020 05 01 17 24  0.0000000  0 15        .000000000000
G10  20949925.234 8 110092613.706 8      -470.660          51.000    20949926.977 8  85786474.688 8      -366.748          51.000
G11  22470274.609 5 118082108.618 5      2954.395          34.000
G16  22551629.898 8 118509609.871 8     -3276.766          48.000    22551628.531 7  92345150.839 7     -2553.327          43.000
G27  20306155.688 8 106709558.009 8      -381.934          51.000    20306156.594 8  83150298.406 8      -297.614          51.000
G32  24538196.406 6 128949101.294 6      2995.180          41.000    24538202.391 6 100479826.496 6      2333.909          41.000
R06  21355446.906 7 113956801.201 7      3739.707          43.000
R11  21795078.789 6 116466303.127 6     -2501.543          38.000    21795089.344 4  90584922.921 4     -1945.638          28.000
C05  39617533.664 6 206298894.100 6       -16.285          36.000    39617535.125 6 159523399.232 6       -12.535          38.000
C19  22536669.805 7 117354413.227 7       158.617          46.000
C20  25561267.289 5 133104208.040 5     -2480.926          34.000
C22  23946747.133 8 124697065.875 8      2934.863          48.000
C24  25507282.633 5 132823137.790 5     -1722.277          30.000
E04  26721939.930 8 140424767.574 8      2820.125          50.000    26721936.438 7 107598185.100 7      2160.935          47.000
E12  22538285.664 7 118439521.334 7     -1315.324          42.000    22538285.195 6  90752313.453 6     -1007.816          40.000
E24  24863124.602 6 130656566.223 6     -3020.863          40.000    24863128.070 6 100113585.478 6     -2314.520          37.000
> 2020 05 01 17 24 30.0000000  0 17        .000000000000
G10  20952659.469 8 110106982.692 8      -488.621          51.000    20952661.297 8  85797671.315 8      -380.744          51.000
G11  22453423.039 5 117993539.208 5      2949.211          33.000
G16  22570358.391 8 118608028.777 8     -3285.645          49.000    22570356.727 7  92421840.854 7     -2560.242          44.000
G27  20308372.758 8 106721208.300 8      -396.023          51.000    20308373.945 8  83159376.533 8      -308.590          51.000
G32  24521097.352 7 128859247.390 7      2993.652          42.000    24521103.680 6 100409810.539 6      2332.719          41.000
R05  20527115.148 5 109729190.855 5      -381.887          34.000    20527117.609 5  85344933.933 5      -297.023          34.000
R06  21334456.664 7 113844792.663 7      3726.219          43.000
R11  21809174.086 6 116541620.997 6     -2520.531          39.000    21809188.414 5  90643503.499 5     -1960.416          34.000
C05                                                                  39617623.648 6 159523755.353 6       -12.109          38.000
C19  22535800.508 7 117349886.230 7       141.875          46.000
C20  25575583.742 6 133178757.004 6     -2490.734          36.000
C22  23929858.117 8 124609119.497 8      2926.891          50.000
C24  25517231.586 5 132874908.172 5     -1732.691          30.000
E04  26705845.656 8 140340192.012 8      2816.984          50.000    26705843.039 8 107533380.529 8      2158.489          48.000
E11  23043563.195 5 121094738.960 5       894.305          32.000
E12  22545800.992 7 118479014.626 7     -1318.953          42.000    22545800.031 6  90782574.526 6     -1010.429          40.000
E24  24880374.516 6 130747212.088 6     -3023.613          41.000    24880378.242 6 100183041.436 6     -2317.052          37.000
> 2020 05 01 17 25  0.0000000  0 17        .000000000000
G10  20955490.781 8 110121861.740 8      -506.824          51.000    20955492.305 8  85809265.386 8      -394.928          51.000
G11  22436590.344 5 117905078.379 5      2943.973          33.000
G16  22589131.734 8 118706680.747 8     -3294.664          51.000    22589129.656 7  92498712.473 7     -2567.271          44.000
G20  22185333.570 5 116584714.309 5     -2568.051          34.000
G27  20310665.492 8 106733255.784 8      -410.609          51.000    20310666.742 8  83168764.171 8      -319.955          51.000
G32  24504002.148 7 128769412.921 7      2991.742          44.000    24504008.289 7 100339809.746 7      2331.231          44.000
R06  21313536.102 7 113733159.089 7      3712.223          42.000
R11  21823371.328 6 116617480.326 6     -2540.102          38.000    21823385.773 5  90702505.185 5     -1975.638          35.000
C05  39617702.484 6 206299772.729 6       -15.238          36.000    39617703.930 6 159524078.652 6       -11.934          38.000
C19  22535022.180 7 117345831.824 7       124.758          46.000
C20  25589952.008 6 133253577.661 6     -2500.891          38.000
C22  23913010.781 8 124521388.626 8      2918.340          50.000
C29  25358746.219 5 132049669.142 5     -2646.156          34.000
E04  26689764.133 7 140255687.351 7      2813.176          47.000    26689763.664 8 107468630.270 8      2155.568          49.000
E11  23038464.469 5 121067945.913 5       889.242          33.000
E12  22553330.477 7 118518582.947 7     -1322.617          42.000    22553329.609 6  90812893.100 6     -1013.461          40.000
E24  24897635.836 7 130837919.645 7     -3027.086          42.000    24897640.352 6 100252544.592 6     -2319.327          37.000
> 2020 05 01 17 25 30.0000000  0 16        .000000000000
G10  20958429.289 8 110137304.247 8      -525.367          51.000    20958430.656 8  85821298.522 8      -409.377          51.000
G16  22607959.531 8 118805617.718 8     -3303.922          51.000    22607957.031 7  92575806.178 7     -2574.485          44.000
G27  20313044.281 8 106745755.394 8      -425.441          51.000    20313045.203 8  83178504.135 8      -331.513          51.000
G32  24486922.117 7 128679655.255 7      2989.438          45.000    24486926.945 7 100269868.815 7      2329.435          45.000
R05  20531688.672 5 109753665.082 5      -436.871          34.000    20531695.836 5  85363970.068 5      -339.789          34.000
R06  21292697.094 7 113621959.656 7      3698.117          43.000
R11  21837678.523 5 116693932.690 5     -2559.680          35.000    21837689.711 5  90761968.138 5     -1990.862          33.000
C05  39617784.977 6 206300202.181 6       -15.566          36.000    39617786.453 6 159524410.741 6       -12.058          37.000
C19  22534344.852 7 117342303.929 7       107.770          44.000
C20  25604382.562 6 133328721.720 6     -2511.543          40.000
C22  23896215.242 8 124433929.297 8      2909.508          50.000
C24  25537321.258 4 132979541.057 4     -1754.832          29.000
C29  25373982.203 5 132129071.139 5     -2650.344          32.000
E04  26673706.461 7 140171309.949 7      2809.125          46.000    26673708.641 8 107403977.492 8      2152.455          51.000
E12  22560884.469 6 118558280.499 6     -1326.375          41.000    22560884.117 6  90843310.688 6     -1016.496          40.000
E24  24914918.539 7 130928741.204 7     -3030.531          42.000    24914924.414 6 100322135.119 6     -2322.206          38.000
> 2020 05 01 17 26  0.0000000  0 16        .000000000000
G10  20961491.289 8 110153395.453 8      -548.633          51.000    20961492.820 8  85833837.132 8      -427.506          51.000
G11  22403030.523 5 117728697.211 5      2928.566          33.000
G16  22626857.297 8 118904922.863 8     -3317.750          51.000    22626854.406 7  92653186.758 7     -2585.260          44.000
G27  20315525.492 8 106758793.743 8      -445.043          51.000    20315525.984 8  83188663.885 8      -346.787          51.000
G32  24469873.969 7 128590063.520 7      2982.031          46.000    24469877.156 7 100200057.188 7      2323.667          46.000
R05  20534233.242 5 109767251.224 5      -470.086          33.000    20534240.664 5  85374537.408 5      -365.619          35.000
R06  21271956.945 7 113511286.112 7      3678.617          44.000
R11  21852111.461 5 116771061.311 5     -2584.004          32.000    21852117.539 4  90821968.110 4     -2009.778          26.000
C05  39617886.078 6 206300728.381 6       -20.695          36.000    39617887.531 6 159524817.642 6       -16.103          37.000
C19  22533784.711 7 117339387.921 7        85.570          43.000
C20  25618891.055 6 133404272.550 6     -2526.691          39.000
C22  23879488.070 8 124346829.092 8      2895.867          48.000
C29  25389261.648 4 132208678.183 4     -2658.691          28.000
E04  26657689.922 7 140087147.908 7      2800.297          45.000    26657694.086 8 107339489.720 8      2145.619          51.000
E12  22568479.359 6 118598193.342 6     -1335.516          41.000    22568479.375 6  90873893.224 6     -1023.383          39.000
E24  24932238.797 7 131019760.933 7     -3038.699          42.000    24932245.672 6 100391877.477 6     -2328.560          38.000
> 2020 05 01 17 26 30.0000000  0 14        .000000000000
G10  20964639.680 8 110169940.880 8      -570.781          51.000    20964641.234 8  85846729.691 8      -444.765          51.000
G16  22645787.641 8 119004400.307 8     -3330.453          51.000    22645784.492 7  92730701.598 7     -2595.161          45.000
G27  20318072.477 8 106772177.746 8      -463.590          51.000    20318072.773 8  83199092.986 8      -361.236          51.000
G32  24452821.266 8 128500447.107 8      2975.848          48.000    24452822.492 7 100130226.360 7      2318.845          46.000
R06  21251279.547 7 113400946.402 7      3660.492          45.000
R11  21866632.797 4 116848658.964 4     -2605.797          26.000    21866631.898 4  90882289.059 4     -2026.737          28.000
C05  39617968.867 6 206301159.598 6       -24.680          36.000    39617970.148 6 159525151.084 6       -18.891          37.000
C19  22533305.453 6 117336892.063 6        64.324          38.000
C20  25633440.336 6 133480036.296 6     -2540.465          38.000
C22  23862792.594 7 124259898.463 7      2883.180          46.000
C24  25557668.086 5 133085479.882 5     -1787.473          31.000
E04  26641678.203 7 140003009.750 7      2792.379          45.000    26641683.867 8 107275020.253 8      2139.690          51.000
E12  22576078.547 6 118638127.778 6     -1343.227          40.000    22576077.945 6  90904492.309 6     -1029.223          39.000
E24  24949559.242 6 131110783.341 6     -3046.000          41.000    24949567.211 6 100461621.894 6     -2334.265          37.000
> 2020 05 01 17 27  0.0000000  0 14        .000000000000
G10  20967902.133 8 110187085.634 8      -577.820          51.000    20967903.781 8  85860089.251 8      -450.250          51.000
G16  22664777.656 8 119104192.884 8     -3328.004          51.000    22664774.594 7  92808461.991 7     -2593.250          44.000
G27  20320713.141 8 106786053.934 8      -467.152          51.000    20320713.375 8  83209905.590 8      -364.012          51.000
G32  24435792.383 8 128410955.089 8      2984.590          49.000    24435791.164 7 100060492.461 7      2325.661          43.000
R05  20539756.664 6 109796752.753 6      -517.164          36.000    20539759.391 5  85397481.745 5      -402.239          35.000
R06  21230693.141 7 113291092.995 7      3657.281          45.000
C05  39618061.188 6 206301640.570 6       -13.418          36.000    39618062.414 6 159525523.009 6       -10.279          38.000
C19  22532933.836 6 117334960.998 6        58.293          36.000
C20  25648057.914 6 133556155.695 6     -2539.523          37.000
C22  23846159.148 8 124173284.270 8      2885.562          49.000
C24  25567948.820 6 133139004.982 6     -1787.051          36.000
E04  26625699.453 7 139919043.526 7      2799.641          46.000    26625706.062 8 107210682.522 8      2145.215          51.000
E12  22583709.938 6 118678229.724 6     -1335.598          41.000    22583708.828 6  90935219.749 6     -1023.530          39.000
E24  24966907.508 6 131201952.487 6     -3037.676          40.000    24966916.375 6 100531478.733 6     -2327.923          37.000
> 2020 05 01 17 27 30.0000000  0 14        .000000000000
G10  20971259.406 8 110204728.063 8      -597.344          51.000    20971261.305 8  85873836.613 8      -465.463          51.000
G16  22683807.633 8 119204197.535 8     -3337.965          51.000    22683805.195 7  92886387.660 7     -2601.015          44.000
G27  20323428.320 8 106800322.045 8      -483.133          51.000    20323428.492 8  83221023.595 8      -376.467          51.000
G32  24418768.266 8 128321489.745 8      2980.734          49.000    24418765.031 7  99990779.343 7      2322.653          44.000
R06  21210179.586 7 113181627.624 7      3641.340          46.000
R11  21896018.109 6 117005613.888 6     -2634.270          39.000
C05  39618143.984 6 206302071.570 6       -14.684          36.000    39618145.156 6 159525856.283 6       -11.336          37.000
C19  22532651.812 6 117333495.090 6        40.043          36.000
C20  25662724.281 6 133632528.851 6     -2550.945          37.000
C22  23829569.094 8 124086888.903 8      2875.199          51.000
C24  25578282.727 5 133192813.712 5     -1799.160          35.000
E04  26609734.812 7 139835150.544 7      2794.160          46.000    26609741.805 8 107146400.914 8      2141.019          51.000
E12  22591353.820 7 118718398.378 7     -1341.066          42.000    22591353.117 6  90965998.308 6     -1027.570          39.000
E24  24984264.172 6 131293165.695 6     -3042.387          39.000    24984273.852 6 100601369.340 6     -2331.018          37.000
> 2020 05 01 17 28  0.0000000  0 15        .000000000000
G10  20974722.422 8 110222926.338 8      -616.777          51.000    20974724.336 8  85888017.095 8      -480.609          51.000
G16  22702888.336 8 119304470.861 8     -3347.852          49.000    22702886.984 7  92964522.693 7     -2608.716          44.000
G27  20326229.383 8 106815041.651 8      -499.207          51.000    20326229.336 8  83232493.420 8      -388.992          51.000
G32  24401760.930 8 128232113.295 8      2976.699          49.000    24401756.969 7  99921135.464 7      2319.509          45.000
R06  21189750.680 7 113072614.811 7      3625.262          46.000
R11  21910867.352 6 117084923.324 6     -2654.000          41.000
C05  39618228.430 6 206302511.213 6       -15.793          36.000    39618229.492 6 159526196.229 6       -11.928          38.000
C19  22532470.148 6 117332552.552 6        21.797          37.000
C20  25677450.523 6 133709212.309 6     -2561.492          37.000
C22  23813032.781 8 124000773.143 8      2864.848          51.000
C24  25588681.938 5 133246962.536 5     -1811.020          34.000
C29  25450560.688 5 132527769.572 5     -2667.445          30.000
E04  26593796.086 7 139751391.958 7      2788.734          46.000    26593802.609 8 107082222.280 8      2136.873          51.000
E12  22599021.562 6 118758692.766 6     -1346.129          40.000    22599021.602 6  90996873.204 6     -1031.399          38.000
E24  25001640.398 6 131384480.157 6     -3046.473          38.000    25001650.109 6 100671337.521 6     -2334.430          37.000
> 2020 05 01 17 28 30.0000000  0 14        .000000000000
G10  20978293.742 8 110241693.181 8      -634.074          51.000    20978295.555 8  85902640.613 8      -494.084          51.000
G16  22722021.906 8 119405023.455 8     -3355.266          48.000    22722022.039 7  93042875.350 7     -2614.493          45.000
G27  20329118.984 8 106830226.936 8      -512.922          51.000    20329118.594 8  83244326.109 8      -399.679          51.000
G32  24384773.477 7 128142842.402 7      2974.957          47.000    24384770.445 7  99851573.830 7      2318.151          46.000
R06  21169410.453 8 112964072.877 8      3611.168          48.000
R11  21925818.719 6 117164812.836 6     -2671.750          39.000
C05  39618317.164 6 206302973.157 6       -14.879          36.000    39618318.164 6 159526553.443 6       -11.321          37.000
C19  22532392.883 7 117332147.024 7         5.574          42.000
C20  25692239.117 6 133786217.707 6     -2570.816          36.000
C22  23796553.102 8 123914952.830 8      2856.730          51.000
C24  25599149.758 5 133301463.082 5     -1821.570          34.000
E04  26577886.250 7 139667783.553 7      2785.340          47.000    26577892.078 8 107018158.733 8      2134.257          51.000
E12  22606716.086 6 118799126.618 6     -1349.152          40.000    22606715.102 6  91027854.947 6     -1033.652          37.000
E24  25019038.828 6 131475907.626 6     -3048.309          40.000    25019047.180 6 100741392.293 6     -2335.717          36.000
> 2020 05 01 17 29  0.0000000  0 15        .000000000000
G10  20981958.766 8 110260953.107 8      -641.496          51.000    20981960.734 8  85917648.365 8      -499.864          51.000
G11  22303045.156 5 117203267.755 5      2913.805          35.000
G16  22741194.125 8 119505778.217 8     -3353.090          48.000    22741195.273 7  93121385.538 7     -2612.800          43.000
G27  20332083.055 8 106845803.846 8      -517.039          51.000    20332082.703 8  83256463.945 8      -402.888          51.000
G32  24367792.391 7 128053605.678 7      2982.809          44.000    24367790.492 7  99782038.806 7      2324.269          44.000
R06  21149144.898 8 112855930.321 8      3606.906          48.000
R11  21940861.781 5 117245202.712 5     -2679.352          31.000
C05  39618395.961 6 206303383.625 6        -4.238          36.000    39618396.961 6 159526870.843 6        -3.181          38.000
C19  22532404.305 7 117332204.683 7         -.926          44.000
C20  25707074.914 6 133863469.177 6     -2570.129          36.000
C22  23780115.852 8 123829356.344 8      2858.227          51.000
C24  25609670.305 4 133356239.384 4     -1821.582          29.000
E04  26561991.062 7 139584252.804 7      2791.734          46.000    26561996.484 8 106954154.698 8      2139.166          50.000
E12  22614422.914 6 118839625.262 6     -1342.387          41.000    22614420.516 6  91058886.362 6     -1028.558          37.000
E24  25036444.680 6 131567371.675 6     -3040.645          40.000    25036451.508 6 100811475.081 6     -2329.910          37.000
> 2020 05 01 17 29 30.0000000  0 13        .000000000000
G10  20985718.406 8 110280710.305 8      -672.234          51.000    20985720.195 8  85933043.587 8      -523.819          51.000
G16  22760405.531 8 119606737.745 8     -3374.312          48.000    22760407.172 6  93200055.290 6     -2629.334          41.000
G27  20335122.805 8 106861777.999 8      -544.648          51.000    20335122.578 8  83268911.332 8      -424.401          51.000
G32  24350818.883 6 127964411.316 6      2966.934          41.000    24350818.188 6  99712536.788 6      2311.896          41.000
R06  21128956.070 7 112748197.021 7      3578.746          47.000
C05  39618465.891 6 206303747.777 6       -16.855          36.000    39618467.008 6 159527152.435 6       -12.898          37.000
C19  22532506.430 7 117332730.593 7       -30.824          45.000
C20  25721958.469 6 133940969.774 6     -2592.832          36.000
C22  23763722.328 8 123743991.042 8      2836.156          51.000
C24  25620242.844 5 133411396.172 5     -1844.672          30.000
E04  26546111.812 7 139500806.995 7      2774.621          46.000    26546116.812 8 106890215.758 8      2126.044          48.000
E12  22622142.891 6 118880193.838 6     -1358.879          39.000    22622139.734 6  91089971.373 6     -1041.234          37.000
E24  25053858.258 6 131658875.537 6     -3056.207          40.000    25053864.109 6 100881588.361 6     -2341.661          37.000
> 2020 05 01 17 30  0.0000000  0 15        .000000000000
G10  20989637.352 8 110301304.671 8      -688.750          51.000    20989638.891 8  85949091.135 8      -536.688          51.000
G16  22779720.547 8 119708239.972 8     -3380.703          49.000    22779721.805 6  93279147.898 6     -2634.317          40.000
G27  20338303.125 8 106878490.713 8      -557.727          51.000    20338303.008 8  83281934.222 8      -434.592          51.000
G32  24333918.156 6 127875603.347 6      2965.766          39.000    24333919.062 6  99643335.799 6      2310.989          39.000
R06  21108909.227 7 112641223.081 7      3565.020          46.000
R11  21971273.375 5 117407817.054 5     -2726.395          31.000    21971308.820 4  91317295.246 4     -2120.529          29.000
C05  39618591.797 6 206304403.529 6       -14.941          36.000    39618592.945 6 159527659.523 6       -11.850          37.000
C19  22532762.258 7 117334062.417 7       -46.258          45.000
C20  25736954.070 5 134019055.288 5     -2600.871          35.000
C22  23747437.719 8 123659196.952 8      2828.590          48.000
C24  25630923.180 4 133467065.245 4     -1854.359          29.000
C29  25512202.680 4 132848738.348 4     -2681.863          27.000
E04  26530314.336 8 139417789.089 8      2771.902          48.000    26530318.258 7 106826604.690 7      2123.868          46.000
E12  22629940.617 6 118921173.226 6     -1360.863          38.000    22629938.789 6  91121371.124 6     -1043.096          39.000
E24  25071343.656 6 131750758.139 6     -3057.297          41.000    25071348.922 6 100951991.881 6     -2342.891          36.000
> 2020 05 01 17 30 30.0000000  0 15        .000000000000
G10  20993619.039 8 110322229.063 8      -706.293          51.000    20993620.836 8  85965395.883 8      -550.358          51.000
G16  22799042.445 8 119809776.505 8     -3388.512          49.000    22799042.336 6  93358267.220 6     -2640.399          39.000
G27  20341527.797 8 106895436.381 8      -572.062          51.000    20341527.906 8  83295138.630 8      -445.760          51.000
G32  24316993.586 6 127786678.853 6      2962.703          36.000    24316997.586 6  99574043.981 6      2308.600          36.000
R06  21088908.875 7 112534498.756 7      3549.809          44.000
R11  21986637.172 5 117489878.873 5     -2743.945          35.000    21986661.703 4  91381121.180 4     -2134.183          28.000
C05  39618677.367 6 206304849.538 6       -14.793          36.000    39618678.602 6 159528004.402 6       -11.324          38.000
C19  22533076.891 7 117335698.692 7       -63.016          46.000
C20  25751965.203 5 134097222.274 5     -2610.113          33.000
C22  23731165.664 7 123574474.841 7      2819.512          46.000
C24  25641633.211 5 133522845.704 5     -1865.344          30.000
C29  25527658.953 5 132929216.001 5     -2684.059          31.000
E04  26514502.336 8 139334695.118 8      2767.695          48.000    26514504.609 7 106762935.324 7      2120.800          44.000
E12  22637720.297 6 118962057.325 6     -1364.570          40.000    22637719.367 6  91152697.852 6     -1045.613          38.000
E24  25088804.109 6 131842511.563 6     -3059.711          41.000    25088808.508 5 101022296.404 5     -2344.334          35.000
> 2020 05 01 17 31  0.0000000  0 15        .000000000000
G10  20997697.227 8 110343660.014 8      -707.266          51.000    20997698.914 8  85982095.317 8      -551.119          51.000
G16  22818404.398 8 119911521.907 8     -3379.523          48.000    22818402.844 6  93437549.282 6     -2633.398          39.000
G27  20344830.508 8 106912792.932 8      -569.879          51.000    20344830.875 8  83308663.215 8      -444.061          51.000
G32  24300082.516 6 127697818.199 6      2976.227          39.000    24300088.219 6  99504801.964 6      2319.138          39.000
R05  20568024.953 5 109947840.702 5      -722.035          32.000    20568026.258 5  85514987.354 5      -561.577          30.000
R06  21068989.273 6 112428208.391 6      3551.570          41.000
R11  22002092.555 5 117572442.767 5     -2744.469          34.000
C05  39618756.625 6 206305261.667 6         1.953          36.000    39618757.719 6 159528323.080 6         1.758          37.000
C19  22533483.211 7 117337815.081 7       -63.297          45.000
C20  25767025.453 4 134175644.584 4     -2602.832          28.000
C22  23714941.945 8 123490002.724 8      2826.863          48.000
C29  25543131.906 5 133009773.858 5     -2670.363          31.000
E04  26498709.859 8 139251704.570 8      2780.105          49.000    26498710.547 7 106699345.225 7      2130.226          42.000
E12  22645515.883 6 119003023.524 6     -1351.473          40.000    22645514.484 6  91184087.558 6     -1035.472          38.000
E24  25106272.969 6 131934311.370 6     -3045.258          41.000    25106276.477 5 101092636.490 5     -2333.759          33.000
> 2020 05 01 17 31 30.0000000  0 13        .000000000000
G10  21001888.023 8 110365683.100 8      -735.297          51.000    21001889.695 8  85999256.184 8      -572.956          51.000
G16  22837822.188 8 120013560.091 8     -3397.332          48.000    22837820.109 6  93517059.517 6     -2647.272          39.000
G27  20348227.961 8 106930647.449 8      -594.719          51.000    20348228.531 8  83322575.813 8      -463.417          51.000
G32  24283202.211 7 127609111.192 7      2963.004          42.000    24283208.398 7  99435679.692 7      2308.837          43.000
R05  20572252.812 6 109970440.762 6      -759.207          37.000    20572254.367 5  85532565.254 5      -590.500          30.000
R06  21049167.312 6 112322444.492 6      3525.359          40.000
R11  22017648.312 4 117655636.095 4     -2772.492          29.000
C05  39618845.773 6 206305725.846 6        -7.875          36.000    39618846.938 6 159528682.038 6        -5.963          37.000
C19  22533998.453 7 117340497.380 7       -90.094          44.000
C22  23698784.797 8 123405868.657 8      2807.531          50.000
E04  26482954.078 8 139168906.237 8      2765.539          50.000    26482953.578 7 106635902.414 7      2119.028          43.000
E12  22653343.578 6 119044158.535 6     -1365.211          39.000    22653342.195 6  91215606.612 6     -1046.161          39.000
E24  25123766.250 6 132026242.265 6     -3057.711          41.000    25123769.859 5 101163011.017 5     -2342.820          32.000
> 2020 05 01 17 32  0.0000000  0 14        .000000000000
G10  21006179.758 8 110388236.173 8      -766.367          51.000    21006181.680 8  86016830.011 8      -597.169          51.000
G11  22204191.656 5 116683814.479 5      2862.895          30.000
G16  22857283.648 8 120115827.661 8     -3418.559          49.000    22857281.633 6  93596748.499 6     -2663.812          41.000
G27  20351708.664 8 106948939.239 8      -622.895          51.000    20351709.422 8  83336829.169 8      -485.372          51.000
G32  24266340.602 7 127520499.862 7      2946.309          46.000    24266346.930 7  99366631.983 7      2295.831          46.000
R05  20576631.789 5 109993851.140 5      -799.645          34.000    20576633.305 5  85550773.377 5      -621.937          33.000
R06  21029433.859 7 112217149.662 7      3495.879          42.000
R11  22033309.914 5 117739306.666 5     -2803.723          34.000    22033317.312 5  91575016.223 5     -2180.682          33.000
C05  39618933.344 6 206306181.817 6       -20.699          36.000    39618934.492 6 159529034.622 6       -15.970          37.000
C19  22534610.695 7 117343684.965 7      -120.297          42.000
C22  23682682.133 8 123322014.376 8      2784.578          51.000
E04  26467223.898 8 139086241.101 8      2747.473          51.000    26467222.250 7 106572561.665 7      2105.374          43.000
E12  22661191.906 6 119085401.259 6     -1382.168          41.000    22661190.664 6  91247208.161 6     -1059.201          39.000
E24  25141271.719 6 132118241.329 6     -3073.539          40.000    25141277.148 5 101233503.765 5     -2354.963          32.000
> 2020 05 01 17 32 30.0000000  0 15        .000000000000
G10  21010571.922 8 110411317.125 8      -784.824          51.000    21010573.633 8  86034815.160 8      -611.551          51.000
G16  22876788.078 8 120218320.926 8     -3426.828          49.000    22876786.164 7  93676613.337 7     -2670.256          42.000
G27  20355272.398 8 106967667.688 8      -638.336          51.000    20355273.297 8  83351422.755 8      -497.405          51.000
G32  24249497.758 7 127431986.252 7      2942.008          46.000    24249503.773 7  99297660.418 7      2292.474          46.000
R05  20581160.977 6 110018070.199 6      -827.531          37.000    20581162.109 5  85569610.384 5      -643.638          31.000
R06  21009790.547 7 112112326.426 7      3479.258          45.000
R11  22049068.062 6 117823491.821 6     -2821.508          38.000    22049070.852 5  91640493.606 5     -2194.506          35.000
C05  39619019.156 6 206306628.540 6       -21.781          36.000    39619020.266 6 159529380.069 6       -16.610          38.000
C19  22535318.820 6 117347376.528 6      -138.191          36.000
C22  23666633.617 8 123238441.005 8      2774.473          51.000
C24  25685090.523 5 133749019.461 5     -1912.719          31.000
C29  25589691.523 5 133252250.841 5     -2705.266          30.000
E04  26451519.516 8 139003710.130 8      2742.047          51.000    26451515.945 7 106509323.723 7      2100.974          43.000
E12  22669060.367 6 119126750.570 6     -1386.855          40.000    22669059.352 6  91278891.393 6     -1062.566          40.000
E24  25158788.852 6 132210305.553 6     -3076.688          38.000    25158797.039 5 101304049.472 5     -2357.522          31.000
> 2020 05 01 17 33  0.0000000  0 14        .000000000000
G01  24150620.602 6 126912407.147 6      3139.004          37.000
G10  21015072.984 8 110434970.730 8      -791.484          51.000    21015074.828 8  86053246.551 8      -616.741          51.000
G16  22896343.594 8 120321082.762 8     -3423.289          49.000    22896341.836 6  93756687.441 6     -2667.501          41.000
G27  20358928.117 8 106986879.076 8      -641.855          51.000    20358929.203 8  83366392.662 8      -500.150          51.000
G32  24232682.672 8 127343619.317 8      2949.684          48.000    24232688.328 8  99228803.157 8      2298.458          48.000
R05  20585851.070 5 110043142.855 5      -843.367          35.000    20585853.617 5  85589111.349 5      -655.949          33.000
R06  20990245.836 7 112008026.150 7      3474.559          46.000
R11  22064930.984 6 117908235.043 6     -2827.543          37.000    22064930.594 6  91706404.879 6     -2199.206          36.000
C05  39619111.875 6 206307111.572 6       -10.367          36.000    39619112.961 6 159529753.595 6        -7.929          38.000
C19  22536132.773 5 117351617.474 5      -143.902          33.000
C22  23650648.117 8 123155196.261 8      2775.793          51.000
E04  26435849.852 8 138921361.333 8      2748.441          51.000    26435845.438 7 106446225.364 7      2105.940          46.000
E12  22676958.000 6 119168252.505 6     -1379.809          38.000    22676956.539 6  91310691.534 6     -1057.142          40.000
E24  25176326.164 6 132302478.929 6     -3067.730          36.000    25176337.039 4 101374675.784 4     -2350.440          29.000
> 2020 05 01 17 33 30.0000000  0 15        .000000000000
G01  24132747.305 6 126818484.229 6      3130.938          37.000
G10  21019676.422 8 110459162.214 8      -813.133          51.000    21019678.477 8  86072097.058 8      -633.613          51.000
G16  22915942.961 7 120424076.859 7     -3434.836          46.000    22915941.594 7  93836942.537 7     -2676.496          42.000
G27  20362669.500 8 107006540.101 8      -660.680          51.000    20362670.797 8  83381712.931 8      -514.815          51.000
G32  24215889.570 7 127255368.564 7      2941.926          47.000    24215894.719 7  99160036.426 7      2292.413          46.000
R05  20590694.469 5 110069034.191 5      -874.660          35.000    20590698.883 4  85609249.113 4      -680.291          29.000
R06  20970793.273 7 111904218.377 7      3454.328          45.000
R11  22080891.938 5 117993497.220 5     -2848.285          32.000    22080886.180 6  91772719.849 6     -2215.333          37.000
C05  39619205.250 5 206307598.693 5       -14.098          35.000    39619206.297 6 159530129.499 6       -10.986          38.000
C19  22537044.766 4 117356374.329 4      -165.445          29.000
C22  23634719.680 8 123072248.942 8      2762.086          51.000
E04  26420208.781 8 138839163.097 8      2739.629          51.000    26420205.078 8 106383242.391 8      2099.169          48.000
E11  22956099.992 5 120635117.087 5       809.219          31.000
E12  22684878.094 6 119209873.187 6     -1387.223          40.000    22684877.164 6  91342582.676 6     -1062.850          40.000
E24  25193878.344 5 132394725.924 5     -3073.699          33.000
> 2020 05 01 17 34  0.0000000  0 14        .000000000000
G10  21024358.750 8 110483768.802 8      -819.453          51.000    21024360.664 8  86091271.023 8      -638.532          51.000
G16  22935561.898 6 120527178.941 6     -3430.926          41.000    22935561.758 6  93917281.774 6     -2673.449          40.000
G27  20366473.406 8 107026529.497 8      -664.238          51.000    20366474.633 8  83397289.084 8      -517.588          51.000
G32  24199095.641 7 127167115.421 7      2949.543          46.000    24199100.125 7  99091267.823 7      2298.345          46.000
R05  20595666.539 6 110095618.856 6      -889.691          36.000    20595668.227 5  85629951.005 5      -691.976          30.000
R06  20951410.164 7 111800784.664 7      3449.148          44.000
C05  39619276.023 6 206307966.354 6        -2.691          36.000    39619277.094 6 159530414.577 6        -2.377          37.000
C19  22538032.109 5 117361454.173 5      -171.090          30.000
C20  25858580.430 5 134652401.605 5     -2664.172          32.000
C22  23618824.984 8 122989480.721 8      2763.488          51.000
C29  25636426.461 5 133495593.354 5     -2697.551          30.000
E04  26404573.188 8 138756995.847 8      2745.859          51.000    26404570.984 8 106320283.133 8      2103.961          50.000
E12  22692797.688 6 119251491.043 6     -1379.480          41.000    22692798.016 6  91374471.677 6     -1056.951          40.000
E24  25211422.242 5 132486919.043 5     -3065.492          32.000
> 2020 05 01 17 34 30.0000000  0 13        .000000000000
G10  21029190.969 8 110509162.601 8      -862.770          51.000    21029193.133 8  86111058.394 8      -672.288          51.000
G16  22955269.469 6 120630759.629 6     -3463.949          36.000    22955272.383 5  93997994.108 5     -2699.175          35.000
G27  20370410.750 8 107047220.886 8      -704.523          51.000    20370411.836 8  83413412.234 8      -548.979          51.000
G32  24182372.758 7 127079236.281 7      2919.770          47.000    24182376.656 7  99022790.633 7      2275.148          47.000
R05  20600840.445 6 110123275.549 6      -943.277          36.000    20600844.742 5  85651461.809 5      -733.660          30.000
R06  20932168.586 7 111698107.074 7      3406.578          45.000
R11  22113070.922 5 118165538.201 5     -2896.633          32.000    22113078.914 5  91906568.345 5     -2252.937          33.000
C05  39619395.359 6 206308587.641 6       -28.012          36.000    39619396.445 6 159530894.967 6       -21.588          38.000
C19  22539167.172 5 117367370.612 5      -213.273          30.000
C20  25874055.531 5 134732998.029 5     -2698.000          31.000
C22  23603036.156 8 122907263.633 8      2728.141          51.000
E04  26389014.227 8 138675234.859 8      2715.445          50.000    26389013.945 8 106257635.170 8      2080.690          51.000
E12  22700787.938 6 119293479.333 6     -1408.832          41.000    22700789.016 6  91406644.520 6     -1079.507          40.000
> 2020 05 01 17 35  0.0000000  0 14        .000000000000
G10  21034097.852 8 110534949.016 8      -863.117          51.000    21034100.242 8  86131151.709 8      -672.556          51.000
G16  22974995.242 6 120734422.837 6     -3453.789          41.000    22974997.703 6  94078770.572 6     -2691.270          36.000
G27  20374406.852 8 107068221.177 8      -702.227          51.000    20374407.844 8  83429776.098 8      -547.190          51.000
G32  24165646.734 8 126991340.781 8      2933.059          48.000    24165650.375 8  98954300.701 8      2285.503          49.000
R05  20606137.297 6 110151593.349 6      -952.438          37.000    20606140.227 4  85673484.812 4      -740.794          26.000
R06  20912994.852 7 111595791.364 7      3407.652          46.000
R11  22129314.242 5 118252321.450 5     -2895.570          35.000    22129313.320 4  91974052.853 4     -2252.116          28.000
C05  39619488.312 6 206309071.730 6       -10.668          36.000    39619489.508 6 159531269.320 6        -8.285          37.000
C19  22540375.945 4 117373661.751 4      -214.531          28.000
C20  25889556.578 5 134813729.528 5     -2690.098          33.000
C22  23587278.617 8 122825209.921 8      2735.316          51.000
C24  25740788.516 4 134039055.424 4     -1953.859          29.000
E04  26373457.664 7 138593488.883 7      2727.586          47.000    26373459.328 8 106194998.670 8      2089.977          51.000
E12  22708773.945 6 119335444.656 6     -1395.453          40.000    22708775.742 6  91438799.744 6     -1069.192          40.000
> 2020 05 01 17 35 30.0000000  0 15        .000000000000
G10  21039098.273 8 110561226.678 8      -881.859          51.000    21039100.398 8  86151627.807 8      -687.163          51.000
G11  22090344.195 5 116085541.300 5      2831.883          34.000
G16  22994756.695 7 120838265.525 7     -3462.234          44.000    22994757.125 5  94159686.856 5     -2697.851          35.000
G27  20378480.820 8 107089630.541 8      -718.258          51.000    20378482.008 8  83446458.708 8      -559.678          51.000
G32  24148937.000 8 126903531.843 8      2927.668          48.000    24148940.695 8  98885878.228 8      2281.303          48.000
R05  20611582.664 5 110180690.935 5      -980.082          34.000    20611587.148 4  85696125.214 4      -762.286          26.000
R06  20893907.836 7 111493942.033 7      3389.418          45.000
R11  22145641.828 6 118339564.726 6     -2913.574          38.000    22145635.781 4  92041881.620 4     -2266.119          27.000
C05  39619574.000 5 206309518.591 5       -12.031          35.000    39619575.078 6 159531614.104 6        -9.167          38.000
C19  22541676.477 6 117380425.763 6      -230.668          36.000
C20  25905103.672 5 134894693.051 5     -2700.168          33.000
C22  23571571.695 8 122743420.714 8      2724.055          50.000
C24  25752091.125 4 134097919.201 4     -1963.629          29.000
E04  26357922.086 7 138511859.766 7      2721.234          44.000    26357926.781 8 106132451.698 8      2085.084          51.000
E12  22716774.383 6 119377486.823 6     -1400.352          39.000    22716776.617 6  91471013.833 6     -1073.203          40.000
> 2020 05 01 17 36  0.0000000  0 13        .000000000000
G10  21044198.883 8 110588030.186 8      -888.223          51.000    21044201.055 8  86172513.656 8      -692.122          51.000
G16  23014559.094 7 120942320.795 7     -3458.117          45.000    23014558.188 5  94240768.771 5     -2694.643          35.000
G27  20382639.555 8 107111485.076 8      -721.809          51.000    20382640.875 8  83463488.208 8      -562.448          51.000
G32  24132251.102 7 126815848.397 7      2934.629          47.000    24132255.109 7  98817553.539 7      2286.727          47.000
R05  20617177.219 6 110210593.810 6      -995.793          36.000    20617190.555 4  85719383.091 4      -774.503          26.000
R06  20874915.945 7 111392600.125 7      3383.797          45.000
R11  22162061.578 6 118427300.097 6     -2918.590          41.000    22162057.891 4  92110119.615 4     -2270.017          29.000
C05  39619659.156 5 206309961.903 5         -.852          35.000    39619660.047 6 159531952.911 6         -.668          38.000
C19  22543074.648 6 117387698.415 6      -237.039          41.000
C20  25920702.398 5 134975921.921 5     -2697.832          34.000
C22  23555921.992 8 122661933.574 8      2725.055          48.000
E04  26342415.945 7 138430385.370 7      2727.129          43.000    26342423.453 8 106070023.255 8      2089.735          51.000
E12  22724796.156 6 119419641.642 6     -1393.203          39.000    22724798.008 6  91503314.226 6     -1067.364          40.000
> 2020 05 01 17 36 30.0000000  0 14        .000000000000
G10  21049402.812 8 110615376.605 8      -932.105          51.000    21049404.820 8  86193822.572 8      -726.316          51.000
G16  23034405.141 7 121046604.352 7     -3491.484          45.000    23034403.164 6  94322028.585 6     -2720.640          38.000
G27  20386886.539 8 107133803.399 8      -763.297          51.000    20386887.883 8  83480879.103 8      -594.777          51.000
G32  24115593.047 7 126728311.818 7      2903.801          46.000    24115597.688 7  98749343.297 7      2262.705          47.000
R05  20622923.156 5 110241319.477 5     -1049.672          33.000
R06  20856023.914 7 111291788.262 7      3339.855          45.000
R11  22178576.453 6 118515542.394 6     -2961.602          40.000    22178574.969 5  92178752.419 5     -2303.471          35.000
C05  39619747.406 6 206310420.785 6       -27.367          36.000    39619748.125 6 159532307.731 6       -20.836          37.000
C19  22544572.930 6 117395497.140 6      -279.969          40.000
C20  25936355.398 5 135057432.265 5     -2733.234          33.000
C22  23540333.977 7 122580768.821 7      2688.641          47.000
C24  25774879.586 5 134216593.820 5     -1998.324          32.000
E04  26326944.750 7 138349085.946 7      2695.422          45.000    26326953.250 8 106007728.916 8      2065.275          51.000
E12  22732842.336 6 119461927.325 6     -1423.293          37.000    22732843.906 6  91535714.935 6     -1090.671          41.000
> 2020 05 01 17 37  0.0000000  0 16        .000000000000
G10  21054695.758 8 110643190.405 8      -924.598          51.000    21054697.000 8  86215495.654 8      -720.466          51.000
G16  23054279.695 7 121151039.298 7     -3473.383          45.000    23054277.250 6  94403406.384 6     -2706.535          37.000
G20  22555483.867 5 118529867.712 5     -2813.520          32.000
G27  20391207.789 8 107156511.521 8      -753.180          51.000    20391209.172 8  83498573.738 8      -586.893          51.000
G32  24098949.750 7 126640850.985 7      2924.371          47.000    24098954.406 7  98681192.073 7      2278.731          47.000
R05  20628810.789 5 110272791.004 5     -1051.273          32.000    20628827.336 4  85767776.649 4      -817.648          26.000
R06  20837217.891 7 111191435.311 7      3347.777          46.000
R11  22195173.016 6 118604211.613 6     -2952.078          36.000    22195172.508 6  92247717.243 6     -2296.067          38.000
R21  19847214.383 6 106206485.025 6      1040.695          38.000
C05  39619824.414 6 206310821.711 6        -1.996          36.000    39619825.141 6 159532617.762 6        -1.550          38.000
C19  22546157.406 6 117403748.060 6      -272.578          41.000
C20  25952048.008 5 135139148.410 5     -2716.781          32.000
C22  23524793.938 7 122499855.014 7      2703.016          47.000
C24  25786352.070 5 134276297.107 5     -1984.121          30.000
E04  26311494.102 7 138267889.328 7      2715.020          47.000    26311502.391 8 105945513.352 8      2080.414          51.000
E12  22740899.000 6 119504269.773 6     -1402.305          39.000    22740900.617 6  91568159.066 6     -1074.230          41.000
> 2020 05 01 17 37 30.0000000  0 14        .000000000000
G10  21060106.062 8 110671621.758 8      -953.961          51.000    21060107.578 8  86237649.980 8      -743.343          51.000
G16  23074211.023 7 121255774.095 7     -3492.105          43.000    23074208.695 6  94485017.866 6     -2721.121          37.000
G20  22571655.398 5 118614857.619 5     -2834.727          33.000
G27  20395632.258 8 107179761.202 8      -780.051          51.000    20395633.812 8  83516690.356 8      -607.832          51.000
G32  24082350.359 8 126553620.462 8      2907.801          48.000    24082354.453 8  98613220.311 8      2265.819          48.000
R06  20818527.547 7 111091698.945 7      3318.191          47.000
R21  19841478.430 4 106175864.953 4      1017.383          29.000
C05  39619919.195 6 206311314.929 6       -14.203          36.000    39619919.836 6 159532999.169 6       -10.853          37.000
C19  22547858.477 7 117412601.067 7      -301.090          44.000
C20  25967809.211 5 135221218.410 5     -2737.109          32.000
C22  23509332.406 8 122419344.320 8      2680.949          49.000
C24  25797888.562 5 134336381.979 5     -2005.148          32.000
E04  26296092.398 7 138186949.011 7      2697.648          47.000    26296099.609 8 105883494.221 8      2067.119          48.000
E12  22748996.180 6 119546820.218 6     -1418.023          39.000    22748997.117 6  91600762.672 6     -1086.457          41.000
> 2020 05 01 17 38  0.0000000  0 15        .000000000000
G10  21065614.422 8 110700568.585 8      -970.578          51.000    21065616.242 8  86260205.964 8      -756.295          51.000
G11  22010038.094 5 115663530.255 5      2800.652          33.000
G16  23094178.961 7 121360705.540 7     -3498.008          42.000    23094177.414 6  94566782.618 6     -2725.717          37.000
G27  20400140.734 8 107203451.833 8      -794.191          51.000    20400142.398 8  83535150.574 8      -618.850          51.000
G32  24065776.133 7 126466522.493 7      2903.887          46.000    24065779.062 7  98545351.844 7      2262.769          46.000
R06  20799934.375 7 110992480.818 7      3301.426          46.000
R11  22228652.484 5 118783199.551 5     -2994.703          32.000    22228663.273 6  92386961.300 6     -2329.214          40.000
R21  19835804.906 5 106145540.515 5      1008.957          32.000
C05  39620012.547 6 206311800.567 6       -13.305          36.000    39620013.086 6 159533374.709 6       -10.228          37.000
C19  22549655.047 7 117421955.738 7      -317.293          42.000
C20  25983619.164 5 135303540.378 5     -2745.387          31.000
C22  23493930.359 8 122339138.898 8      2671.270          49.000
E04  26280720.609 7 138106166.206 7      2693.059          47.000    26280725.031 7 105821595.810 7      2063.426          45.000
E11  22915732.625 5 120422986.447 5       765.840          33.000
E12  22757114.547 6 119589478.012 6     -1421.074          37.000    22757114.398 7  91633448.473 7     -1088.707          42.000
> 2020 05 01 17 38 30.0000000  0 17        .000000000000
G10  21071232.656 8 110730092.583 8      -996.363          51.000    21071234.242 8  86283211.657 8      -776.387          51.000
G11  21994087.070 6 115579736.915 6      2785.602          37.000
G16  23114194.656 6 121465893.478 6     -3513.246          40.000    23114194.992 6  94648747.271 6     -2737.594          40.000
G27  20404745.188 8 107227646.663 8      -817.605          51.000    20404746.820 8  83554003.680 8      -637.098          51.000
G32  24049239.273 7 126379623.153 7      2890.625          46.000    24049241.430 7  98477638.146 7      2252.438          46.000
R05  20647438.273 6 110372381.725 6     -1150.898          37.000
R06  20781450.641 7 110893849.070 7      3275.293          45.000
R11  22245545.602 5 118873445.017 5     -3019.297          34.000    22245554.312 6  92457152.194 6     -2348.345          40.000
R21  19830222.992 5 106115483.135 5       989.824          35.000    19830221.367 4  82534273.444 4       769.860          27.000
C05  39620116.312 6 206312341.042 6       -21.496          36.000    39620116.914 6 159533792.642 6       -16.686          38.000
C19  22551559.680 7 117431874.050 7      -342.570          42.000
C20  25999489.398 4 135386174.507 4     -2761.902          29.000
C22  23478599.844 8 122259303.266 8      2652.336          50.000
C24  25821141.070 4 134457493.015 4     -2031.891          29.000
C29  25777727.188 5 134231382.653 5     -2746.074          30.000
E04  26265390.688 7 138025605.938 7      2679.152          47.000    26265392.227 7 105759867.897 7      2052.782          44.000
E12  22765264.570 6 119632306.015 6     -1433.219          38.000    22765264.672 7  91666264.702 7     -1097.971          42.000
> 2020 05 01 17 39  0.0000000  0 15        .000000000000
G01  23937747.047 5 125793691.251 5      3081.883          33.000
G10  21076946.539 8 110760119.532 8     -1007.598          51.000    21076948.289 8  86306609.310 8      -785.141          51.000
G11  21978178.578 5 115496127.879 5      2785.266          32.000
G16  23134245.133 6 121571262.608 6     -3513.770          41.000    23134246.469 6  94730853.082 6     -2738.002          37.000
G27  20409431.656 8 107252273.129 8      -826.441          51.000    20409433.039 8  83573193.125 8      -643.980          51.000
G32  24032726.836 7 126292852.739 7      2891.777          45.000    24032729.094 7  98410024.895 7      2253.336          45.000
R06  20763063.523 7 110795734.235 7      3263.438          44.000
R11  22262517.695 6 118964141.887 6     -3029.305          37.000    22262526.039 6  92527694.202 6     -2356.123          40.000
C05  39620216.812 6 206312864.303 6       -15.762          36.000    39620217.406 6 159534197.261 6       -11.801          38.000
C19  22553558.641 7 117442283.614 7      -353.664          42.000
C20  26015404.836 4 135469040.765 4     -2764.449          29.000
C22  23463326.555 8 122179767.431 8      2647.750          49.000
C24  25832848.703 4 134518462.547 4     -2034.914          29.000
E04  26250089.117 7 137945197.447 7      2679.332          47.000    26250089.844 7 105698256.269 7      2052.899          45.000
E12  22773432.953 6 119675231.426 6     -1430.652          37.000    22773432.977 7  91699155.646 7     -1096.424          42.000
> 2020 05 01 17 39 30.0000000  0 15        .000000000000
G10  21082756.219 8 110790649.253 8     -1025.352          51.000    21082758.023 8  86330398.687 8      -798.975          51.000
G11  21962296.734 6 115412630.652 6      2778.828          37.000
G16  23154330.094 6 121676811.224 6     -3520.668          41.000    23154331.469 6  94813098.749 6     -2743.375          38.000
G27  20414200.422 8 107277332.482 8      -841.992          51.000    20414201.602 8  83592719.887 8      -656.098          51.000
G32  24016239.961 7 126206215.397 7      2886.195          46.000    24016242.930 7  98342515.339 7      2248.986          46.000
R05  20660604.375 6 110442735.747 6     -1198.141          38.000    20660600.805 4  85899922.975 4      -931.896          26.000
R06  20744773.938 7 110698140.579 7      3245.062          44.000
R11  22279573.742 6 119055287.012 6     -3045.102          39.000    22279582.492 6  92598584.820 6     -2368.412          41.000
C05  39620314.203 6 206313371.538 6       -16.180          36.000    39620314.680 6 159534589.479 6       -12.294          38.000
C19  22555651.336 6 117453184.906 6      -370.996          37.000
C20  26031366.773 4 135552158.127 4     -2774.320          28.000
C22  23448110.281 7 122100534.494 7      2636.691          47.000
C24  25844608.227 4 134579696.180 4     -2044.668          29.000
E04  26234817.258 8 137864943.772 8      2673.090          49.000    26234818.414 7 105636763.234 7      2048.170          47.000
E12  22781619.750 6 119718255.402 6     -1435.215          36.000    22781620.000 7  91732122.036 7     -1099.584          42.000
> 2020 05 01 17 40  0.0000000  0 13        .000000000000
G10  21088659.164 8 110821668.670 8     -1041.879          51.000    21088660.656 8  86354569.673 8      -811.851          51.000
G16  23174446.469 6 121782525.148 6     -3526.129          41.000    23174447.375 5  94895473.138 5     -2747.636          32.000
G27  20419049.320 8 107302813.287 8      -856.059          51.000    20419050.672 8  83612575.060 8      -667.059          51.000
G32  23999777.031 7 126119702.551 7      2882.031          47.000    23999780.594 7  98275102.812 7      2245.742          46.000
R06  20726580.891 7 110601060.741 7      3227.707          44.000
R11  22296711.141 6 119146864.240 6     -3059.590          37.000    22296719.766 6  92669811.512 6     -2379.684          40.000
C05  39620406.406 6 206313852.213 6       -15.402          36.000    39620406.836 6 159534960.417 6       -11.871          38.000
C19  22557836.039 6 117464565.882 6      -386.770          36.000
C22  23432950.078 8 122021594.979 8      2626.641          49.000
C24  25856416.602 5 134641180.209 5     -2052.922          31.000
C29  25825192.352 5 134478561.235 5     -2748.758          30.000
E04  26219573.570 8 137784835.308 8      2668.059          50.000    26219575.367 8 105575381.486 8      2044.419          49.000
E12  22789823.375 5 119761366.302 5     -1438.188          34.000    22789824.141 7  91765155.000 7     -1101.913          43.000
> 2020 05 01 17 40 30.0000000  0 15        .000000000000
G10  21094664.164 8 110853224.599 8     -1060.633          51.000    21094665.742 8  86379158.733 8      -826.467          51.000
G16  23194602.938 6 121888449.775 6     -3534.227          38.000    23194602.484 5  94978011.784 5     -2753.946          34.000
G27  20423987.531 8 107328763.932 8      -872.766          51.000    20423989.125 8  83632796.336 8      -680.077          51.000
G32  23983347.773 7 126033365.505 7      2875.027          46.000    23983351.555 7  98207827.272 7      2240.284          46.000
R05  20674348.867 6 110516237.727 6     -1252.344          36.000    20674362.312 5  85957124.207 5      -974.045          32.000
R06  20708494.008 7 110504547.571 7      3207.781          43.000
R11  22313938.508 6 119238918.294 6     -3076.176          36.000    22313946.133 6  92741409.037 6     -2392.584          40.000
R21  19808376.516 5 105998600.014 5       953.270          31.000
C05  39620502.398 6 206314353.232 6       -16.824          36.000    39620502.836 6 159535347.056 6       -12.982          38.000
C19  22560121.922 5 117476474.090 5      -405.652          34.000
C22  23417856.805 8 121942998.629 8      2614.258          50.000
C24  25868281.500 5 134702960.304 5     -2064.746          31.000
C29  25841043.852 5 134561102.752 5     -2754.180          30.000
E04  26204366.875 8 137704922.233 8      2660.668          50.000    26204368.898 8 105514149.448 8      2038.673          49.000
E12  22798053.320 6 119804612.249 6     -1443.730          37.000    22798054.523 7  91798291.442 7     -1106.008          43.000
> 2020 05 01 17 41  0.0000000  0 15        .000000000000
G10  21100767.992 8 110885299.611 8     -1077.363          51.000    21100769.984 8  86404152.259 8      -839.504          51.000
G11  21914872.477 6 115163436.829 6      2759.473          36.000
G16  23214795.977 5 121994566.156 5     -3539.758          35.000    23214794.914 5  95060699.809 5     -2758.253          34.000
G27  20429012.078 8 107355168.456 8      -887.207          51.000    20429013.758 8  83653371.293 8      -691.330          51.000
G32  23966949.578 7 125947191.229 7      2870.207          47.000    23966953.320 7  98140678.565 7      2236.528          47.000
R05  20681453.594 6 110554194.885 6     -1278.098          39.000    20681449.453 4  85986606.269 4      -994.076          29.000
R06  20690511.648 7 110408589.072 7      3189.883          45.000
R11  22331251.328 6 119331428.334 6     -3091.082          37.000    22331257.109 6  92813361.195 6     -2404.175          39.000
R21  19803056.250 4 105970159.071 4       943.797          29.000    19803061.273 4  82421234.733 4       734.067          29.000
C05  39620599.234 6 206314856.577 6       -16.500          36.000    39620599.719 6 159535737.082 6       -12.871          38.000
C22  23402826.828 8 121864731.543 8      2603.809          51.000
C24  25880200.719 5 134765018.070 5     -2073.562          31.000
C29  25856918.742 4 134643760.926 4     -2756.473          29.000
E04  26189194.719 8 137625190.517 8      2655.016          50.000    26189196.969 8 105453056.345 8      2034.437          50.000
E12  22806306.039 6 119847977.046 6     -1447.141          39.000    22806307.203 7  91831519.045 7     -1108.803          43.000
> 2020 05 01 17 41 30.0000000  0 15        .000000000000
G10  21106966.000 8 110917869.854 8     -1093.211          50.000    21106967.797 8  86429531.711 8      -851.853          50.000
G11  21899135.875 5 115080744.704 5      2754.227          34.000
G16  23235021.344 6 122100849.227 6     -3544.902          38.000    23235020.258 5  95143517.781 5     -2762.252          32.000
G27  20434118.820 8 107382004.752 8      -901.191          51.000    20434120.594 8  83674282.693 8      -702.227          51.000
G32  23950578.930 8 125861160.528 8      2865.812          49.000    23950582.047 8  98073641.721 8      2233.101          49.000
R05  20688700.375 5 110592922.951 5     -1303.203          35.000    20688705.531 5  86016728.113 5     -1013.596          33.000
R06  20672629.750 7 110313165.934 7      3172.461          45.000
R11  22348643.992 6 119424367.445 6     -3104.492          39.000    22348648.945 6  92885647.201 6     -2414.608          40.000
C05  39620692.727 6 206315343.306 6       -15.352          36.000    39620693.141 6 159536113.446 6       -11.958          37.000
C19  22564983.328 5 117501818.515 5      -438.234          32.000
C22  23387856.172 8 121786773.665 8      2594.066          51.000
C24  25892170.539 5 134827328.960 5     -2080.000          32.000
C29  25872811.812 5 134726528.351 5     -2759.758          31.000
E04  26174052.992 8 137545619.815 8      2650.250          49.000    26174056.156 8 105392086.605 8      2030.735          51.000
E12  22814576.805 5 119891438.447 5     -1449.340          35.000    22814577.781 7  91864820.678 7     -1110.782          42.000
> 2020 05 01 17 42  0.0000000  0 14        .000000000000
G10  21113261.234 8 110950951.283 8     -1107.344          50.000    21113262.633 8  86455309.425 8      -862.865          50.000
G16  23255281.586 6 122207314.147 6     -3547.660          38.000    23255280.000 5  95226477.368 5     -2764.414          32.000
G27  20439311.039 8 107409290.174 8      -913.125          51.000    20439312.859 8  83695544.049 8      -711.529          51.000
G32  23934239.508 8 125775293.705 8      2863.387          49.000    23934242.156 8  98006732.573 8      2231.213          49.000
R05  20696092.352 6 110632437.665 6     -1326.555          37.000    20696094.195 5  86047461.812 5     -1031.768          32.000
R06  20654851.875 7 110218299.914 7      3156.578          44.000
R11  22366118.836 7 119517748.850 7     -3116.074          42.000    22366123.367 6  92958277.113 6     -2423.613          39.000
C05  39620786.000 6 206315829.465 6       -12.383          36.000    39620786.586 6 159536489.361 6        -9.593          37.000
C19  22567566.141 5 117515229.667 5      -451.355          34.000
C22  23372948.453 8 121709144.120 8      2586.074          51.000
C24  25904188.906 5 134889907.928 5     -2086.035          31.000
C29  25888723.930 5 134809373.676 5     -2758.871          30.000
E04  26158945.078 8 137466229.356 8      2647.242          49.000    26158949.406 8 105331254.985 8      2028.400          51.000
E12  22822868.641 6 119934983.924 6     -1450.320          36.000    22822869.680 7  91898209.588 7     -1111.467          42.000
> 2020 05 01 17 42 30.0000000  0 16        .000000000000
G01  23815272.703 5 125150099.236 5      3047.730          34.000
G10  21119666.477 8 110984611.517 8     -1129.512          48.000    21119668.289 7  86481538.201 7      -880.136          47.000
G16  23275588.719 6 122314026.451 6     -3558.906          39.000    23275586.344 5  95309629.819 5     -2773.168          30.000
G20  22736370.422 5 119480432.834 5     -2930.660          31.000
G27  20444601.969 8 107437094.048 8      -933.219          51.000    20444603.688 8  83717209.379 8      -727.183          51.000
G32  23917944.805 8 125689663.010 8      2852.648          49.000    23917947.469 8  97940007.438 8      2222.846          49.000
R05  20703644.383 6 110672807.571 6     -1357.625          38.000    20703643.383 5  86078860.601 5     -1055.934          33.000
R06  20637191.641 6 110124064.581 6      3132.688          41.000
R11  22383688.305 7 119611638.370 7     -3135.621          44.000    22383692.703 6  93031302.267 6     -2438.816          39.000
C05  39620892.438 6 206316383.637 6       -17.602          37.000    39620893.016 6 159536917.900 6       -13.608          37.000
C19  22570255.352 6 117529213.297 6      -473.664          36.000
C22  23358117.273 8 121631913.457 8      2569.906          51.000
C24  25916267.969 5 134952821.249 5     -2100.250          33.000
C29  25904666.914 4 134892397.661 4     -2768.086          28.000
E04  26143885.312 8 137387090.303 8      2635.938          50.000    26143890.086 8 105270615.997 8      2019.759          50.000
E12  22831195.891 6 119978742.314 6     -1459.363          39.000    22831196.039 7  91931738.752 7     -1118.321          42.000
> 2020 05 01 17 43  0.0000000  0 16        .000000000000
G10  21126156.078 7 111018715.422 7     -1144.031          47.000    21126158.039 7  86508112.698 7      -891.453          47.000
G16  23295916.836 6 122420850.063 6     -3562.285          38.000    23295914.328 4  95392868.927 4     -2775.804          27.000
G20  22753132.242 5 119568510.431 5     -2939.324          34.000
G27  20449966.195 8 107465282.772 8      -945.820          51.000    20449967.797 8  83739174.598 8      -737.006          51.000
G32  23901670.094 8 125604137.890 8      2849.219          49.000    23901672.672 8  97873364.547 8      2220.170          49.000
R05  20711328.750 5 110713894.398 5     -1381.379          33.000    20711331.383 5  86110817.132 5     -1074.397          35.000
R06  20619625.219 7 110030329.125 7      3116.336          42.000
R11  22401326.820 7 119705896.086 7     -3147.852          43.000    22401331.469 6  93104613.769 6     -2448.332          39.000
R21  19782357.391 5 105859405.708 5       903.699          35.000    19782348.656 4  82335060.128 4       702.877          28.000
C05  39620986.523 6 206316873.562 6       -14.953          36.000    39620987.094 6 159537296.749 6       -11.650          38.000
C19  22573024.375 5 117543636.379 5      -487.672          30.000
C22  23343337.391 8 121554951.255 8      2561.062          51.000
C24  25928386.273 5 135015934.114 5     -2106.473          34.000
C29  25920614.609 5 134975437.930 5     -2768.027          30.000
E04  26128848.695 8 137308070.932 8      2632.227          51.000    26128853.164 8 105210068.744 8      2016.907          48.000
E12  22839533.312 6 120022550.058 6     -1460.797          39.000    22839532.359 7  91965305.730 7     -1119.333          42.000
> 2020 05 01 17 43 30.0000000  0 15        .000000000000
G10  21132739.562 7 111053312.951 7     -1162.211          46.000    21132741.414 7  86535071.812 7      -905.619          46.000
G16  23316275.445 5 122527833.230 5     -3569.867          35.000    23316273.000 4  95476232.400 4     -2781.721          27.000
G20  22769935.789 5 119656825.941 5     -2947.945          34.000
G27  20455413.414 8 107493907.917 8      -962.223          51.000    20455414.805 8  83761479.877 8      -749.784          51.000
G32  23885425.742 8 125518772.818 8      2841.906          50.000    23885428.484 8  97806846.359 8      2214.475          50.000
R05  20719158.180 6 110755748.805 6     -1408.758          39.000    20719162.023 5  86143370.535 5     -1095.701          35.000
R06  20602163.641 7 109937149.438 7      3095.898          46.000
R11  22419042.508 7 119800569.579 7     -3163.387          42.000    22419047.477 6  93178248.645 6     -2460.415          39.000
C05  39621078.039 6 206317350.151 6       -16.531          36.000    39621078.508 6 159537665.286 6       -12.979          38.000
C19  22575884.109 5 117558549.079 5      -505.949          35.000
C22  23328618.938 8 121478310.439 8      2548.574          50.000
C24  25940555.055 5 135079295.241 5     -2116.988          35.000
C29  25936577.508 4 135058560.560 4     -2772.309          28.000
E04  26113845.219 8 137229224.757 8      2624.516          51.000    26113848.547 8 105149654.186 8      2011.001          48.000
E12  22847889.531 5 120066458.594 5     -1465.484          34.000    22847888.188 7  91998949.937 7     -1123.362          42.000
> 2020 05 01 17 44  0.0000000  0 13        .000000000000
G10  21139427.766 7 111088461.066 7     -1179.328          46.000    21139430.273 7  86562459.946 7      -918.957          46.000
G16  23336674.695 5 122635031.932 5     -3575.152          35.000    23336683.852 5  95559818.973 5     -2785.833          30.000
G27  20460954.797 8 107523027.962 8      -977.730          51.000    20460956.133 8  83784170.799 8      -761.868          51.000
G32  23869223.352 8 125433629.266 8      2835.645          50.000    23869226.773 8  97740500.810 8      2209.596          50.000
R05  20727142.188 5 110798427.876 5     -1435.039          34.000    20727144.828 5  86176565.344 5     -1116.141          34.000
R06  20584818.781 8 109844588.223 8      3076.270          48.000
R11  22436846.422 6 119895714.025 6     -3177.883          41.000    22436852.062 6  93252249.796 6     -2471.690          40.000
C05  39621178.164 6 206317871.373 6       -17.160          36.000    39621178.633 6 159538068.316 6       -13.152          38.000
C19  22578851.500 5 117574008.887 5      -522.969          31.000
C22  23313974.141 8 121402050.846 8      2536.895          51.000
C24  25952783.547 6 135142960.167 6     -2125.836          37.000
E04  26098885.688 8 137150612.072 8      2617.750          51.000    26098888.664 8 105089418.598 8      2005.782          48.000
E12  22856273.977 6 120110526.523 6     -1470.316          37.000    22856273.273 6  92032716.164 6     -1126.669          41.000
> 2020 05 01 17 44 30.0000000  0 13        .000000000000
G10  21146207.938 7 111124092.354 7     -1196.293          44.000    21146210.680 7  86590224.594 7      -932.176          44.000
G16  23357102.531 6 122742377.768 6     -3580.891          37.000
G27  20466577.750 8 107552577.127 8      -992.758          51.000    20466579.203 8  83807196.110 8      -773.578          51.000
G32  23853051.102 8 125348644.506 8      2829.480          48.000    23853054.953 8  97674278.989 8      2204.793          48.000
R05  20735266.711 6 110841862.537 6     -1460.898          39.000    20735271.711 6  86210347.919 6     -1136.254          36.000
R06  20567577.906 7 109752582.791 7      3056.965          47.000
R11  22454725.969 7 119991258.027 7     -3192.082          42.000    22454731.008 6  93326561.767 6     -2482.730          39.000
C05  39621274.398 6 206318372.000 6       -17.039          36.000    39621274.688 6 159538455.432 6       -13.148          37.000
C19  22581912.867 5 117589950.013 5      -539.789          35.000
C22  23299390.242 8 121326109.211 8      2525.484          51.000
C24  25965057.570 6 135206861.431 6     -2134.539          37.000
E04  26083958.188 8 137072169.075 8      2611.379          51.000    26083961.234 7 105029313.027 7      2000.906          46.000
E12  22864678.094 6 120154687.653 6     -1474.062          39.000    22864676.391 6  92066553.926 6     -1129.518          41.000
> 2020 05 01 17 45  0.0000000  0 15        .000000000000
G08  20622579.758 5 108372397.865 5      1233.574          32.000    20622581.883 5  84446018.332 5       961.230          31.000
G10  21153085.805 7 111160236.344 7     -1213.457          45.000    21153088.211 7  86618388.718 7      -945.551          46.000
G16  23377564.531 6 122849898.806 6     -3586.711          38.000
G27  20472288.086 8 107582586.518 8     -1007.988          51.000    20472289.805 8  83830580.033 8      -785.445          51.000
G32  23836915.453 8 125263852.633 8      2822.949          49.000    23836919.703 8  97608207.462 8      2199.704          49.000
R05  20743538.953 6 110886082.240 6     -1487.145          38.000    20743543.836 5  86244741.072 5     -1156.665          34.000
R06  20550446.727 7 109661168.036 7      3037.168          46.000
R11  22472685.430 7 120087228.463 7     -3205.953          42.000    22472690.852 6  93401205.379 6     -2493.522          41.000
R21  19762604.422 5 105753661.259 5       859.141          34.000    19762604.789 5  82252850.531 5       668.214          31.000
C05  39621372.508 6 206318882.836 6       -17.246          36.000    39621372.742 6 159538850.464 6       -13.463          38.000
C19  22585099.984 4 117606556.875 4      -557.887          28.000
C22  23284873.273 8 121250518.274 8      2513.832          49.000
C24  25977381.258 6 135271027.287 6     -2143.016          36.000
E04  26069069.242 8 136993928.784 8      2604.430          50.000    26069071.641 7 104969362.708 7      1995.596          45.000
E12  22873105.719 6 120198973.227 6     -1478.359          38.000    22873104.195 6  92100487.009 6     -1132.808          41.000
> 2020 05 01 17 45 30.0000000  0 16        .000000000000
G08  20615565.156 5 108335543.108 5      1221.219          34.000    20615564.523 5  84417300.325 5       951.602          33.000
G10  21160056.719 7 111196868.604 7     -1230.621          45.000    21160059.477 7  86646933.334 7      -958.926          46.000
G11  21774638.000 5 114426506.821 5      2698.316          33.000
G16  23398055.539 6 122957569.603 6     -3592.930          38.000
G27  20478081.641 8 107613033.305 8     -1023.543          51.000    20478083.773 8  83854304.798 8      -797.566          51.000
G32  23820812.766 8 125179233.866 8      2816.219          49.000    23820817.188 8  97542270.820 8      2194.456          49.000
R05  20751953.430 7 110931061.597 7     -1513.363          42.000    20751956.250 5  86279724.906 5     -1177.063          34.000
R06  20533422.758 7 109570324.877 7      3017.199          47.000
R11  22490720.125 7 120183598.040 7     -3220.391          44.000    22490725.211 6  93476159.498 6     -2504.745          40.000
R21  19757816.750 5 105728088.578 5       847.477          35.000    19757815.914 5  82232939.478 5       659.151          30.000
C05  39621468.281 6 206319381.289 6       -17.832          36.000    39621468.445 6 159539235.892 6       -13.568          38.000
C19  22588338.445 5 117623497.381 5      -574.039          34.000
C22  23270419.219 7 121175257.359 7      2501.730          47.000
C24  25989750.703 4 135335449.803 4     -2151.367          29.000
E04  26054214.562 8 136915870.238 8      2597.523          49.000    26054215.789 7 104909551.646 7      1990.340          46.000
E12  22881552.070 6 120243360.303 6     -1482.516          38.000    22881550.953 6  92134497.895 6     -1136.133          40.000
> 2020 05 01 17 46  0.0000000  0 14        .000000000000
G10  21167129.297 8 111234034.242 8     -1246.309          48.000    21167132.055 8  86675893.559 8      -971.153          48.000
G11  21759252.102 5 114345639.623 5      2691.848          34.000
G16  23418583.688 5 123065434.240 5     -3597.324          35.000
G27  20483967.383 8 107643964.193 8     -1037.703          51.000    20483969.930 8  83878406.787 8      -808.600          51.000
G32  23804752.766 8 125094837.919 8      2810.871          50.000    23804757.258 8  97476507.825 8      2190.292          50.000
R05  20760518.875 6 110976846.052 6     -1538.121          37.000    20760522.219 5  86315335.087 5     -1196.310          35.000
R06  20516515.891 7 109480104.364 7      2998.297          47.000
R11  22508838.070 7 120280409.670 7     -3232.945          45.000    22508842.484 6  93551457.367 6     -2514.513          41.000
R21  19753092.906 5 105702819.115 5       838.379          31.000    19753093.594 4  82213285.427 4       652.072          29.000
C05  39621570.547 6 206319914.608 6       -17.418          37.000    39621570.695 6 159539647.496 6       -12.919          38.000
C19  22591680.367 5 117640971.230 5      -590.406          30.000
C22  23256037.180 7 121100374.596 7      2491.016          45.000
E04  26039403.680 7 136838042.147 7      2591.727          47.000    26039404.602 7 104849917.174 7      1985.919          47.000
E12  22890027.234 6 120287895.676 6     -1485.680          37.000    22890025.836 6  92168622.359 6     -1138.312          40.000
> 2020 05 01 17 46 30.0000000  0 13        .000000000000
G10  21174298.906 8 111271709.618 8     -1264.137          48.000    21174301.438 8  86705250.945 8      -985.042          48.000
G16  23439143.336 5 123173467.503 5     -3603.754          32.000    23439147.031 4  95979388.385 4     -2808.120          27.000
G27  20489941.125 8 107675357.087 8     -1053.941          51.000    20489943.719 8  83902868.776 8      -821.253          51.000
G32  23788731.805 8 125010645.785 8      2803.121          50.000    23788735.922 8  97410903.644 8      2184.253          50.000
R05  20769229.508 7 111023410.553 7     -1564.832          42.000    20769231.914 5  86351551.875 5     -1217.095          34.000
R06  20499722.391 7 109390487.830 7      2977.348          47.000
R11  22527033.844 7 120377636.459 7     -3247.633          46.000    22527037.047 6  93627078.161 6     -2525.940          41.000
R21  19748429.438 5 105677884.408 5       825.492          35.000    19748431.148 4  82193882.830 4       642.049          26.000
C05  39621675.062 6 206320458.948 6       -18.090          37.000    39621675.242 6 159540068.442 6       -13.886          38.000
C19  22595128.516 6 117658955.940 6      -608.055          38.000
C22  23241725.031 7 121025849.983 7      2478.328          47.000
E04  26024633.023 7 136760424.285 7      2583.945          47.000    26024633.930 7 104790443.775 7      1979.897          47.000
E12  22898526.000 6 120332557.050 6     -1490.375          37.000    22898524.797 6  92202843.441 6     -1142.104          39.000
> 2020 05 01 17 47  0.0000000  0 12        .000000000000
G10  21181559.492 8 111309862.990 8     -1283.406          48.000    21181561.961 8  86734980.865 8     -1000.057          48.000
G27  20495997.281 8 107707182.010 8     -1071.754          51.000    20495999.852 8  83927667.416 8      -835.133          51.000
G32  23772744.328 8 124926630.538 8      2793.941          49.000    23772748.000 8  97345437.276 8      2177.100          49.000
R05  20778080.469 6 111070722.704 6     -1593.332          39.000    20778084.164 6  86388350.247 6     -1239.255          36.000
R06  20483036.711 7 109301448.715 7      2954.645          45.000
R11  22545299.336 7 120475243.410 7     -3263.504          44.000    22545302.828 7  93702994.638 7     -2538.284          42.000
R21  19743824.664 6 105653255.456 6       812.129          38.000
C05  39621776.344 6 206320985.634 6       -20.594          36.000    39621776.484 6 159540475.742 6       -16.302          38.000
C19  22598671.125 6 117677421.103 6      -627.152          39.000
C22  23227477.812 8 120951655.736 8      2464.055          50.000
E04  26009897.844 8 136682988.646 8      2574.441          49.000    26009897.945 8 104731109.983 8      1972.621          48.000
E12  22907042.656 5 120377314.644 5     -1497.535          33.000    22907041.281 6  92237138.189 6     -1147.297          39.000
> 2020 05 01 17 47 30.0000000  0 12        .000000000000
G10  21188920.984 8 111348547.104 8     -1295.809          49.000    21188923.086 8  86765124.295 8     -1009.721          49.000
G27  20502146.023 8 107739493.124 8     -1082.703          51.000    20502148.445 8  83952844.891 8      -843.665          51.000
G32  23756800.602 7 124842849.377 7      2791.055          46.000    23756804.789 7  97280153.315 7      2174.848          46.000
R05  20787080.547 6 111118834.869 6     -1614.605          40.000    20787084.961 5  86425770.852 5     -1255.804          33.000
R06  20466469.062 7 109213045.639 7      2938.715          44.000
R11  22563645.211 7 120573281.207 7     -3272.531          46.000    22563650.344 7  93779246.203 7     -2545.302          43.000
R21  19739288.531 5 105628988.510 5       805.062          34.000
C05  39621884.445 6 206321549.450 6       -16.848          37.000    39621884.586 6 159540910.953 6       -13.318          38.000
C19  22602318.719 6 117696419.689 6      -639.855          41.000
C22  23213305.055 8 120877847.490 8      2456.297          51.000
E04  25995208.617 8 136605791.302 8      2571.660          50.000    25995208.078 8 104671958.815 8      1970.481          50.000
E12  22915588.562 5 120422228.585 5     -1497.496          35.000    22915587.117 6  92271548.085 6     -1147.076          38.000
> 2020 05 01 17 48  0.0000000  0 12        .000000000000
G10  21196365.883 8 111387669.938 8     -1311.664          49.000    21196367.969 8  86795609.628 8     -1022.076          49.000
G27  20508370.109 8 107772200.155 8     -1097.242          51.000    20508372.594 8  83978330.863 8      -854.997          51.000
G32  23740884.594 7 124759215.164 7      2784.785          45.000    23740889.797 7  97214983.844 7      2169.962          45.000
R05  20796213.328 6 111167653.057 6     -1639.469          39.000    20796214.688 5  86463740.457 5     -1275.142          33.000
R06  20450003.930 7 109125190.346 7      2918.930          44.000
R11  22582054.367 7 120671653.574 7     -3285.035          46.000    22582059.766 7  93855757.995 7     -2555.030          42.000
R21  19734804.094 5 105604992.649 5       794.945          35.000    19734822.289 4  82137203.346 4       618.291          29.000
C05  39621982.273 6 206322058.895 6       -16.441          37.000    39621982.391 6 159541304.873 6       -12.581          38.000
C19  22606053.141 7 117715861.450 7      -655.914          43.000
C22  23199189.000 8 120804337.675 8      2444.984          51.000
E04  25980547.734 8 136528743.920 8      2565.312          51.000    25980547.531 8 104612922.584 8      1965.662          51.000
E12  22924145.844 5 120467196.458 5     -1500.840          35.000    22924144.375 6  92306004.014 6     -1149.743          36.000
> 2020 05 01 17 48 30.0000000  0 14        .000000000000
G10  21203903.484 8 111427280.270 8     -1328.512          49.000    21203905.617 8  86826474.818 8     -1035.204          49.000
G11  21682922.148 5 113944524.054 5      2657.398          32.000
G16  23521648.586 5 123607068.465 5     -3622.453          32.000
G27  20514679.086 8 107805353.345 8     -1112.605          51.000    20514681.555 8  84004164.491 8      -866.965          51.000
G32  23725007.477 7 124675781.218 7      2777.664          47.000    23725013.234 7  97149970.403 7      2164.414          46.000
R05  20805486.578 6 111217225.869 6     -1665.230          38.000    20805490.047 5  86502297.159 5     -1295.176          33.000
R06  20433652.188 7 109037937.985 7      2898.074          44.000
R11  22600535.086 7 120770407.103 7     -3298.234          47.000    22600540.156 7  93932566.257 7     -2565.296          42.000
R21  19730381.320 4 105581320.554 4       783.820          29.000    19730392.680 4  82118791.654 4       609.635          29.000
C05  39622079.555 6 206322564.886 6       -16.746          37.000    39622079.477 6 159541696.163 6       -13.100          38.000
C19  22609882.391 7 117735795.535 7      -672.840          45.000
C22  23185139.227 8 120731178.054 8      2432.707          49.000
E04  25965925.477 8 136451898.833 8      2558.043          51.000    25965925.586 8 104554041.329 8      1960.044          51.000
E12  22932722.617 5 120512270.778 5     -1505.184          30.000    22932721.992 6  92340544.522 6     -1152.703          36.000
> 2020 05 01 17 49  0.0000000  0 15        .000000000000
G08  20568661.422 6 108089050.024 6      1126.789          36.000    20568663.578 5  84225237.666 5       878.017          35.000
G10  21211531.102 8 111467363.367 8     -1344.699          49.000    21211533.016 8  86857708.424 8     -1047.818          49.000
G11  21667770.047 5 113864898.610 5      2650.035          35.000
G16  23542340.445 5 123715787.441 5     -3626.742          32.000
G27  20521070.312 8 107838939.636 8     -1127.418          51.000    20521072.883 8  84030335.616 8      -878.508          51.000
G32  23709167.000 8 124592537.561 8      2771.102          48.000    23709172.617 8  97085105.272 8      2159.300          48.000
R05  20814898.094 6 111267537.858 6     -1690.023          41.000    20814901.102 5  86541428.673 5     -1314.469          30.000
R06  20417411.234 7 108951278.726 7      2878.059          45.000
R11  22619083.672 7 120869524.261 7     -3310.617          47.000    22619088.516 7  94009657.297 7     -2574.928          42.000
R21  19726017.672 5 105557894.871 5       773.391          32.000    19726022.734 4  82100622.161 4       601.529          29.000
C05  39622173.516 6 206323054.583 6       -16.500          37.000    39622173.445 6 159542074.833 6       -12.843          38.000
C19  22613804.383 7 117756208.090 7      -689.133          43.000
C22  23171154.242 8 120658357.537 8      2420.938          49.000
E04  25951339.141 8 136375244.939 8      2551.227          51.000    25951340.164 8 104495306.568 8      1954.824          51.000
E12                                                                  22941318.719 5  92375159.643 5     -1155.891          35.000
> 2020 05 01 17 49 30.0000000  0 14        .000000000000
G08  20562272.961 6 108055479.374 6      1112.684          36.000    20562277.242 6  84199078.698 6       867.029          36.000
G10  21219258.883 8 111507972.854 8     -1361.180          49.000    21219260.930 8  86889352.194 8     -1060.659          49.000
G16  23563065.633 5 123824685.254 5     -3632.375          32.000
G27  20527554.336 8 107873014.277 8     -1142.844          51.000    20527556.945 8  84056887.263 8      -890.528          51.000
G32  23693374.086 8 124509542.540 8      2763.469          48.000    23693379.141 8  97020433.911 8      2153.355          48.000
R05  20824459.438 6 111318642.771 6     -1715.684          36.000    20824460.320 5  86581176.846 5     -1334.418          33.000
R06  20401293.766 7 108865272.303 7      2857.070          47.000
R11  22637709.781 8 120969056.663 8     -3323.422          48.000    22637713.898 6  94087071.338 6     -2584.884          41.000
R21  19721723.055 6 105534903.306 6       761.172          36.000    19721725.359 5  82082739.853 5       592.029          30.000
C05  39622274.977 6 206323582.804 6       -17.199          36.000    39622274.859 6 159542483.314 6       -13.408          38.000
C19  22617829.109 7 117777153.215 7      -706.082          45.000
C22  23157245.680 8 120585932.788 8      2408.715          50.000
E04  25936799.359 8 136298839.408 8      2543.816          50.000    25936802.078 8 104436762.109 8      1949.164          51.000
E12  22949946.383 5 120602780.807 5     -1512.539          32.000    22949943.227 5  92409911.713 5     -1158.973          32.000
> 2020 05 01 17 50  0.0000000  0 14        .000000000000
G08  20555963.180 5 108022320.632 5      1095.102          35.000    20555966.789 5  84173240.713 5       853.329          35.000
G10  21227078.797 8 111549066.379 8     -1380.793          49.000    21227080.852 8  86921373.167 8     -1075.940          48.000
G16  23583814.133 5 123933718.357 5     -3639.645          33.000
G27  20534123.445 8 107907536.416 8     -1161.031          51.000    20534126.109 8  84083787.624 8      -904.700          51.000
G32  23677621.117 8 124426758.532 8      2753.051          48.000    23677625.375 7  96955926.948 7      2145.237          47.000
R05  20834158.500 6 111370496.582 6     -1743.863          40.000    20834161.758 5  86621507.658 5     -1356.341          31.000
R06  20385292.406 8 108779881.413 8      2833.137          48.000
R11  22656406.047 8 121068967.498 8     -3339.031          48.000    22656409.766 7  94164761.225 7     -2597.024          43.000
R21  19717487.438 6 105512240.605 6       747.129          36.000    19717489.453 4  82065113.358 4       581.103          29.000
C05  39622376.070 6 206324109.249 6       -20.418          36.000    39622375.875 6 159542890.402 6       -15.631          38.000
C19  22621947.203 7 117798589.704 7      -725.422          44.000
C22  23143406.227 8 120513865.359 8      2393.371          51.000
E04  25922299.062 7 136222643.556 7      2533.438          47.000    25922303.531 8 104378378.293 8      1941.193          51.000
E12  22958594.156 5 120648226.045 5     -1519.355          35.000    22958587.312 5  92444716.651 5     -1164.310          30.000
> 2020 05 01 17 50 30.0000000  0 14        .000000000000
G08  20549736.812 5 107989598.414 5      1084.125          34.000    20549737.625 5  84147742.841 5       844.770          33.000
G10  21234994.789 8 111590665.250 8     -1394.430          49.000    21234996.758 7  86953787.894 7     -1086.566          47.000
G16  23604591.633 5 124042906.978 5     -3641.305          34.000
G27  20540782.172 8 107942529.043 8     -1173.559          51.000    20540784.859 8  84111054.598 8      -914.458          51.000
G32  23661912.633 7 124344211.606 7      2748.203          45.000    23661916.719 7  96891604.732 7      2141.460          45.000
R05  20844003.531 6 111423120.455 6     -1766.398          36.000    20844004.773 4  86662451.270 4     -1373.862          29.000
R06  20369411.531 8 108695132.482 8      2814.781          49.000
R11  22675174.375 8 121169257.702 8     -3348.863          48.000    22675177.695 7  94242766.119 7     -2604.671          43.000
R21  19713317.859 5 105489931.402 5       738.801          33.000    19713317.844 4  82047761.683 4       574.623          25.000
C05  39622481.375 6 206324656.752 6       -17.941          36.000    39622481.039 6 159543313.795 6       -13.904          38.000
C19  22626163.938 7 117820539.515 7      -739.559          46.000
C22  23129640.430 8 120442179.914 8      2383.707          51.000
E04  25907842.266 7 136146682.206 7      2528.699          45.000    25907848.758 8 104320174.198 8      1937.527          51.000
E12  22967265.945 5 120693798.267 5     -1521.012          32.000
> 2020 05 01 17 51  0.0000000  0 14        .000000000000
G08  20543586.469 6 107957275.961 6      1069.887          39.000    20543585.828 6  84122556.589 6       833.681          39.000
G10  21242999.273 7 111632729.492 7     -1410.520          47.000    21243001.516 7  86986565.251 7     -1099.103          47.000
G16  23625390.984 5 124152210.292 5     -3645.805          34.000
G27  20547523.336 8 107977953.794 8     -1188.672          51.000    20547525.820 8  84138658.282 8      -926.241          51.000
G32  23646242.281 7 124261866.594 7      2740.633          45.000    23646246.398 7  96827439.825 7      2135.558          45.000
R05  20853984.461 6 111476472.514 6     -1791.293          36.000    20853985.180 5  86703926.225 5     -1393.234          31.000
R06  20353644.062 8 108610990.584 8      2793.855          49.000
R11  22694006.750 8 121269892.995 8     -3360.992          48.000    22694008.938 7  94321037.963 7     -2614.108          42.000
R21  19709208.227 6 105467938.017 6       727.129          38.000
C05  39622583.258 6 206325188.469 6       -18.250          36.000    39622582.906 6 159543724.141 6       -13.731          38.000
C19  22630470.984 7 117842963.922 7      -755.941          43.000
C22  23115940.922 8 120370840.414 8      2371.492          51.000
E04  25893424.008 7 136070919.077 7      2521.488          46.000    25893431.062 8 104262121.958 8      1932.085          51.000
E12                                                                  22975958.352 4  92514665.550 4     -1168.764          29.000
> 2020 05 01 17 51 30.0000000  0 14        .000000000000
G08  20537517.992 6 107925384.480 6      1057.551          38.000    20537517.336 6  84097706.113 6       824.069          38.000
G10  21251097.562 7 111675286.830 7     -1425.168          47.000    21251099.602 7  87019726.811 7     -1110.520          47.000
G16  23646216.766 5 124261654.714 5     -3648.953          34.000
G27  20554352.367 8 108013839.936 8     -1202.246          51.000    20554354.688 8  84166621.493 8      -936.815          51.000
G32  23630617.000 7 124179755.874 7      2734.758          46.000    23630621.031 7  96763457.487 7      2130.983          46.000
R05  20864106.281 5 111530580.253 5     -1814.645          34.000    20864112.641 5  86746010.160 5     -1411.384          32.000
R06  20337996.094 7 108527489.097 7      2774.258          47.000
R11  22712908.539 8 121370898.608 8     -3371.504          48.000    22712911.766 7  94399597.815 7     -2622.284          43.000
R21  19705163.211 5 105446291.265 5       717.004          34.000
C05  39622687.633 6 206325731.535 6       -16.875          37.000    39622687.125 6 159544144.121 6       -12.877          38.000
C19  22634874.641 7 117865891.038 7      -770.883          44.000
C22  23102313.320 8 120299877.772 8      2360.652          50.000
E04  25879050.508 7 135995385.527 7      2515.508          47.000    25879056.914 8 104204245.631 8      1927.485          50.000
E12  22984674.047 5 120785276.739 5     -1527.047          33.000
> 2020 05 01 17 52  0.0000000  0 15        .000000000000
G08  20531515.219 5 107893840.952 5      1041.066          35.000    20531515.234 6  84073126.703 6       811.218          36.000
G10  21259273.203 7 111718251.004 7     -1443.816          45.000    21259274.945 7  87053205.436 7     -1125.049          45.000
G22  24269646.055 5 127537839.614 5      3544.438          35.000
G27  20561253.109 8 108050102.873 8     -1219.766          51.000    20561255.289 8  84194878.315 8      -950.470          51.000
G32  23615021.188 7 124097798.031 7      2724.375          47.000    23615024.867 7  96699594.304 7      2122.893          47.000
R05  20874352.164 6 111585355.148 6     -1842.109          37.000    20874356.797 5  86788612.864 5     -1432.755          30.000
R06  20322451.844 7 108444545.669 7      2750.500          44.000
R11  22731863.141 8 121472184.083 8     -3385.820          48.000    22731867.141 7  94478375.350 7     -2633.419          44.000
R21  19701167.203 5 105424906.979 5       703.223          33.000
C05  39622778.203 6 206326203.278 6       -19.227          37.000    39622777.648 6 159544508.930 6       -15.015          38.000
C19  22639359.070 7 117889236.497 7      -789.852          44.000
C22  23088742.094 8 120229210.128 8      2345.832          49.000
C24  26154807.492 5 136194983.185 5     -2255.293          33.000
E04  25864705.344 8 135919998.977 8      2505.523          48.000    25864709.836 7 104146481.942 7      1919.769          47.000
E12  22993394.836 5 120831113.676 5     -1533.289          33.000    22993395.930 5  92584876.939 5     -1174.987          35.000
> 2020 05 01 17 52 30.0000000  0 16        .000000000000
G08  20525609.312 6 107862808.577 6      1028.539          38.000    20525609.906 6  84048945.601 6       801.459          38.000
G10  21267556.969 7 111761782.256 7     -1457.602          45.000    21267558.703 7  87087125.900 7     -1135.793          45.000
G20  23080704.938 4 121289922.601 4     -3095.047          29.000
G22  24249419.070 6 127431553.178 6      3541.965          36.000    24249414.406 5  99297298.047 5      2759.973          32.000
G27  20568256.336 8 108086904.371 8     -1232.801          51.000    20568258.273 8  84223554.796 8      -960.624          51.000
G32  23599485.906 7 124016158.001 7      2718.707          47.000    23599489.039 7  96635978.786 7      2118.479          47.000
R05  20884754.227 5 111640959.395 5     -1864.699          30.000    20884753.906 4  86831877.515 4     -1450.325          27.000
R06  20307043.438 7 108362328.093 7      2731.477          43.000
R11  22750899.961 8 121573909.586 8     -3395.188          48.000    22750903.445 7  94557495.119 7     -2640.704          44.000
R21  19697251.219 5 105403950.744 5       694.133          33.000
C05  39622885.820 6 206326764.180 6       -17.301          37.000    39622885.359 6 159544942.665 6       -13.420          38.000
C19  22643952.586 6 117913159.619 6      -804.074          41.000
C22  23075258.453 8 120158999.691 8      2335.574          49.000
C24  26167816.297 5 136262727.899 5     -2260.195          34.000
E04  25850419.336 8 135844923.231 8      2500.238          48.000    25850420.688 7 104088956.376 7      1915.746          46.000
E12                                                                  23002155.438 5  92620157.127 5     -1176.318          35.000
> 2020 05 01 17 53  0.0000000  0 16        .000000000000
G08  20519779.570 6 107832177.478 6      1014.543          37.000    20519780.898 6  84025077.146 6       790.547          37.000
G10  21275927.242 7 111805767.303 7     -1473.867          45.000    21275927.977 7  87121399.985 7     -1148.468          45.000
G20  23098418.539 5 121382988.879 5     -3103.184          33.000
G22  24229217.391 6 127325391.521 6      3536.680          37.000
G27  20575340.609 8 108124132.787 8     -1248.141          51.000    20575342.703 8  84252563.953 8      -972.577          51.000
G32  23583990.555 7 123934727.421 7      2710.836          47.000    23583992.594 7  96572526.466 7      2112.343          47.000
R05  20895289.641 5 111697276.419 5     -1889.320          34.000    20895289.445 4  86875673.656 4     -1469.468          29.000
R06  20291751.047 7 108280726.480 7      2709.840          43.000
R11  22769997.148 7 121675957.340 7     -3406.805          47.000    22770000.328 7  94636865.555 7     -2649.740          45.000
R21  19693393.914 4 105383310.387 4       683.105          27.000
C05  39622989.406 6 206327303.869 6       -17.527          36.000    39622989.078 6 159545359.994 6       -13.644          38.000
C19  22648637.367 7 117937549.153 7      -820.703          42.000
C22  23061841.852 8 120089137.792 8      2322.859          50.000
C24  26180861.383 5 136330667.136 5     -2267.992          34.000
E04  25836171.102 7 135770048.751 7      2492.430          47.000    25836170.422 7 104031585.065 7      1909.649          46.000
E12                                                                  23010932.492 5  92655508.070 5     -1179.782          34.000
> 2020 05 01 17 53 30.0000000  0 16        .000000000000
G08  20514031.672 6 107801972.825 6      1000.648          39.000    20514032.500 6  84001541.051 6       779.726          39.000
G10  21284387.961 7 111850227.931 7     -1489.711          47.000    21284388.008 7  87156044.614 7     -1160.814          47.000
G20  23116153.562 6 121476188.827 6     -3109.625          36.000
G22  24209044.898 6 127219380.246 6      3531.582          36.000
G27  20582510.430 8 108161811.440 8     -1263.254          51.000    20582512.688 8  84281923.946 8      -984.354          51.000
G32  23568539.789 7 123853532.777 7      2702.781          44.000    23568541.352 7  96509258.002 7      2106.066          45.000
R06  20276579.742 7 108199768.749 7      2688.055          44.000
R11  22789157.656 7 121778346.826 7     -3418.305          47.000    22789161.094 7  94716501.727 7     -2658.684          45.000
R21  19689602.562 6 105363029.839 6       671.520          36.000    19689600.336 4  81949022.667 4       522.296          27.000
C05  39623093.383 6 206327844.593 6       -17.672          36.000    39623093.086 6 159545778.917 6       -13.786          38.000
C19  22653414.828 6 117962427.365 6      -837.477          40.000
C22  23048497.430 8 120019649.550 8      2310.328          51.000
C24  26193949.148 4 136398821.933 4     -2275.254          29.000
E04  25821966.258 8 135695400.890 8      2484.910          48.000    25821964.602 7 103974387.393 7      1904.007          46.000
E11  22794261.172 5 119784650.143 5       609.262          32.000
E12                                                                  23019733.625 6  92690947.646 6     -1182.218          36.000
> 2020 05 01 17 54  0.0000000  0 15        .000000000000
G08  20508370.547 6 107772222.491 6       985.273          37.000    20508370.984 6  83978359.015 6       767.746          38.000
G10  21292943.852 7 111895188.960 7     -1505.504          46.000    21292944.203 7  87191079.184 7     -1173.117          46.000
G20  23133935.430 6 121569634.517 6     -3117.594          36.000
G22  24188906.578 5 127113547.619 5      3525.574          35.000
G27  20589771.000 8 108199966.880 8     -1278.387          51.000    20589773.438 8  84311655.452 8      -996.145          51.000
G32  23553139.477 7 123772603.788 7      2694.547          45.000    23553140.938 7  96446196.517 7      2099.647          45.000
R06  20261535.086 7 108119484.777 7      2666.012          46.000
R11  22808386.609 7 121881100.399 7     -3429.809          47.000    22808389.656 7  94796421.110 7     -2667.629          43.000
R21  19685880.781 5 105343099.987 5       659.840          33.000    19685877.594 4  81933521.672 4       513.212          27.000
C05  39623202.875 6 206328414.829 6       -17.984          36.000    39623202.688 6 159546219.851 6       -13.855          38.000
C19  22658291.258 7 117987819.718 7      -853.766          42.000
C22  23035230.422 8 119950563.116 8      2297.496          51.000
E04  25807809.812 7 135621008.181 7      2476.793          47.000    25807807.930 8 103917385.221 8      1897.853          48.000
E11  22790805.430 5 119766489.230 5       603.914          34.000
E12                                                                  23028562.727 6  92726496.393 6     -1185.762          38.000
> 2020 05 01 17 54 30.0000000  0 15        .000000000000
G08  20502788.922 6 107742889.255 6       969.398          40.000    20502789.945 6  83955501.908 6       755.375          40.000
G10  21301587.156 7 111940609.427 7     -1522.969          45.000    21301587.531 7  87226471.760 7     -1186.729          45.000
G16  23771655.289 5 124920883.110 5     -3675.543          35.000    23771652.172 5  97340940.706 5     -2864.059          33.000
G20  23151755.680 6 121663284.586 6     -3126.641          37.000
G22  24168794.977 5 127007859.826 5      3519.387          32.000
G27  20597115.070 8 108238559.650 8     -1295.121          51.000    20597117.406 8  84341727.736 8     -1009.188          51.000
G32  23537782.969 7 123691904.251 7      2684.809          45.000    23537784.625 7  96383313.795 7      2092.059          45.000
R06  20246609.922 7 108039838.316 7      2642.688          47.000
R11  22827675.164 7 121984173.691 7     -3442.617          46.000    22827678.570 7  94876589.193 7     -2677.591          43.000
R21  19682219.742 5 105323500.794 5       646.457          33.000    19682217.703 4  81918277.924 4       502.803          29.000
C05  39623310.461 6 206328974.785 6       -20.066          37.000    39623310.242 6 159546652.859 6       -15.465          38.000
C19  22663258.750 7 118013686.387 7      -871.371          42.000
C22  23022033.516 8 119881841.374 8      2283.199          51.000
E04  25793693.953 7 135546833.281 7      2467.312          46.000    25793693.953 8 103860549.963 8      1890.484          50.000
E12                                                                  23037410.930 6  92762124.232 6     -1190.090          37.000
> 2020 05 01 17 55  0.0000000  0 15        .000000000000
G08  20497288.062 6 107713981.254 6       956.305          41.000    20497289.648 6  83932976.210 6       745.176          40.000
G10  21310318.812 7 111986494.344 7     -1537.168          44.000    21310319.078 7  87262226.256 7     -1197.793          44.000
G16  23792641.477 6 125031164.004 6     -3677.820          37.000
G20  23169616.008 6 121757143.527 6     -3132.379          36.000
G27  20604543.680 8 108277596.432 8     -1308.613          51.000    20604545.828 8  84372145.972 8     -1019.702          51.000
G32  23522472.031 7 123611444.090 7      2678.102          44.000    23522474.242 7  96320617.575 7      2086.832          44.000
R05  20938811.312 5 111929945.535 5     -1986.855          30.000
R06  20231805.820 7 107960839.915 7      2622.492          47.000
R11  22847024.156 7 122087569.423 7     -3451.836          47.000    22847028.633 7  94957008.033 7     -2684.764          44.000
R21  19678619.344 5 105304240.543 5       636.301          34.000    19678620.180 4  81903297.802 4       494.901          26.000
C05  39623417.211 6 206329531.207 6       -18.266          36.000    39623417.078 6 159547083.135 6       -14.179          38.000
C19  22668318.328 7 118040033.211 7      -886.273          43.000
C22  23008908.500 8 119813492.902 8      2272.086          51.000
E04  25779620.812 7 135472884.981 7      2461.141          46.000    25779623.766 8 103803888.322 8      1885.848          51.000
E12                                                                  23046279.945 6  92797836.472 6     -1191.757          38.000
> 2020 05 01 17 55 30.0000000  0 16        .000000000000
G08  20491866.297 7 107685489.165 7       940.562          42.000    20491867.438 7  83910774.599 7       732.906          43.000
G10  21319136.320 7 112032831.232 7     -1554.449          43.000    21319137.281 7  87298332.951 7     -1211.259          43.000
G14  24708259.484 6 129842778.577 6      2994.699          40.000    24708261.859 5 101176203.063 5      2333.532          32.000
G16  23813645.766 6 125141537.408 6     -3683.070          37.000
G20  23187513.492 5 121851198.688 5     -3140.887          33.000
G27  20612054.750 8 108317066.249 8     -1325.234          51.000    20612056.695 8  84402901.654 8     -1032.650          51.000
G32  23507204.711 7 123531215.553 7      2668.188          43.000    23507208.273 7  96258101.844 7      2079.107          43.000
R06  20217120.984 7 107882481.675 7      2598.879          45.000
R11  22866430.664 7 122191271.914 7     -3464.102          47.000    22866435.828 7  95037665.459 7     -2694.304          43.000
R21  19675074.805 5 105285290.427 5       623.387          34.000    19675078.727 4  81888573.611 4       484.865          25.000
C05  39623521.320 6 206330073.632 6       -19.672          37.000    39623521.234 6 159547502.600 6       -15.637          38.000
C19  22673468.023 7 118066848.580 7      -903.891          44.000
C22  22995853.266 8 119745508.852 8      2257.789          51.000
C24  26246730.547 5 136673600.737 5     -2304.750          31.000
E04  25765589.312 7 135399154.452 7      2451.691          47.000    25765595.125 8 103747393.554 8      1878.572          51.000
E12                                                                  23055168.898 6  92833624.961 6     -1196.076          38.000
> 2020 05 01 17 56  0.0000000  0 17        .000000000000
G08  20486530.312 7 107657448.721 7       927.762          43.000    20486531.430 7  83888924.912 7       722.934          43.000
G10  21328046.016 7 112079652.490 7     -1568.371          45.000    21328047.328 7  87334817.023 7     -1222.107          45.000
G14  24691157.992 6 129752908.199 6      2995.348          39.000    24691157.461 5 101106174.366 5      2334.046          34.000
G16  23834672.875 6 125252034.130 6     -3684.727          37.000
G20  23205454.688 5 121945481.517 5     -3146.379          33.000
G27  20619654.633 8 108357003.105 8     -1338.395          51.000    20619656.281 8  84434021.261 8     -1042.908          51.000
G32  23491988.695 7 123451255.950 7      2661.230          44.000    23491993.133 7  96195795.666 7      2073.686          44.000
R06  20202562.961 7 107804802.017 7      2578.586          45.000
R11  22885900.406 7 122295311.624 7     -3472.816          45.000    22885905.555 7  95118585.185 7     -2701.082          42.000
R21  19671601.945 5 105266724.735 5       613.539          31.000    19671618.180 4  81874133.710 4       477.197          27.000
C05  39623629.344 6 206330635.919 6       -17.871          37.000    39623629.219 6 159547937.387 6       -14.311          38.000
C19  22678713.055 7 118094165.279 7      -918.312          43.000
C22  22982873.789 8 119677924.812 8      2246.723          49.000
C24  26260017.797 5 136742806.363 5     -2309.441          31.000
E04  25751607.422 8 135325677.807 8      2445.617          48.000    25751614.617 8 103691093.274 8      1873.891          51.000
E11  22777249.438 5 119695253.306 5       583.734          33.000
E12                                                                  23064083.633 6  92869515.859 6     -1197.890          38.000
> 2020 05 01 17 56 30.0000000  0 16        .000000000000
G08  20481280.352 7 107629861.409 7       913.785          42.000    20481282.086 6  83867428.308 6       712.040          41.000
G10  21337047.469 6 112126956.051 6     -1582.906          40.000    21337048.797 6  87371676.905 6     -1233.433          41.000
G14  24674064.508 6 129663078.382 6      2995.391          39.000    24674060.836 5 101036177.205 5      2334.080          33.000
G16  23855723.023 6 125362651.780 6     -3687.086          37.000
G22  24088628.203 5 126586583.727 5      3499.973          32.000
G27  20627343.289 8 108397406.504 8     -1352.660          51.000    20627344.945 8  84465504.408 8     -1054.024          51.000
G32  23476824.867 7 123371568.017 7      2653.621          45.000    23476828.906 7  96133701.229 7      2067.757          45.000
R06  20188132.977 7 107727803.370 7      2557.301          44.000
R11  22905431.516 7 122399683.534 7     -3482.594          42.000    22905437.086 7  95199763.276 7     -2708.687          42.000
C05  39623741.125 6 206331217.910 6       -17.668          36.000    39623740.984 6 159548387.421 6       -13.753          38.000
C19  22684054.969 7 118121982.124 7      -933.648          43.000
C22  22969970.078 7 119610742.363 7      2234.633          47.000
C24  26273351.055 4 136812229.448 4     -2315.766          28.000
E04  25737674.469 8 135252456.658 8      2438.348          48.000    25737682.000 8 103634988.778 8      1868.377          51.000
E11  22773937.789 5 119677849.694 5       579.223          32.000
E12                                                                  23073021.633 6  92905509.093 6     -1199.997          37.000
> 2020 05 01 17 57  0.0000000  0 16        .000000000000
G08  20476101.195 7 107602645.840 7       898.852          43.000    20476102.883 7  83846221.310 7       700.404          43.000
G10  21346124.500 6 112174657.250 6     -1598.941          37.000    21346126.734 6  87408846.798 6     -1245.922          38.000
G14  24656963.227 6 129573209.318 6      2994.289          40.000    24656958.508 4 100966149.528 4      2333.215          28.000
G16  23876779.750 6 125473304.968 6     -3691.215          37.000
G20  23241448.578 5 122134654.339 5     -3160.258          30.000
G22  24068663.469 5 126481680.407 5      3494.152          30.000
G27  20635104.875 8 108438193.580 8     -1368.223          51.000    20635106.766 8  84497286.513 8     -1066.151          51.000
G32  23461697.703 7 123292072.163 7      2644.438          43.000    23461700.422 7  96071756.495 7      2060.604          43.000
R06  20173815.789 7 107651405.888 7      2534.391          43.000
R11  22925008.008 6 122504299.500 6     -3493.527          41.000    22925013.992 6  95281131.138 6     -2717.191          41.000
C05  39623840.969 6 206331737.812 6       -18.371          37.000    39623840.789 6 159548789.440 6       -14.363          38.000
C19  22689476.594 7 118150216.214 7      -950.500          43.000
C22  22957128.445 8 119543881.278 8      2221.035          48.000
C24  26286710.148 4 136881797.119 4     -2323.887          29.000
E04  25723775.156 8 135179410.264 8      2429.711          49.000    25723781.820 8 103579018.198 8      1861.709          50.000
E12                                                                  23081970.367 6  92941541.364 6     -1203.262          38.000
> 2020 05 01 17 57 30.0000000  0 17        .000000000000
G01  23305736.844 5 122472503.672 5      2897.316          31.000
G08  20471016.633 7 107575925.378 7       882.555          45.000    20471017.688 7  83825400.215 7       687.705          45.000
G10  21355300.344 6 112222876.501 6     -1616.035          39.000    21355302.320 6  87446420.187 6     -1259.251          39.000
G14  24639878.328 6 129483425.770 6      2991.359          41.000    24639874.562 4 100896188.415 4      2330.935          28.000
G16  23897865.969 6 125584113.080 6     -3696.137          37.000
G22  24048743.039 5 126376976.953 5      3487.348          33.000
G27  20642962.609 8 108479485.952 8     -1384.629          51.000    20642964.180 8  84529462.367 8     -1078.932          51.000
G32  23446630.867 7 123212893.268 7      2634.078          43.000    23446632.641 7  96010058.733 7      2052.531          43.000
R06  20159634.898 7 107575736.081 7      2510.363          43.000
R11  22944653.391 6 122609278.542 6     -3505.062          40.000    22944659.000 6  95362781.435 6     -2726.166          41.000
R21  19661579.727 5 105213099.480 5       576.910          31.000    19661595.297 4  81832463.531 4       448.708          25.000
C05  39623952.141 6 206332316.317 6       -20.227          37.000    39623951.852 6 159549236.767 6       -15.719          38.000
C19  22695001.586 7 118178987.213 7      -967.957          43.000
C22  22944373.656 8 119477463.935 8      2206.574          50.000
C24  26300116.930 5 136951609.170 5     -2331.078          32.000
E04  25709932.719 8 135106662.298 8      2420.035          50.000    25709938.008 8 103523276.309 8      1854.235          50.000
E12                                                                  23090953.383 6  92977706.031 6     -1207.459          38.000
> 2020 05 01 17 58  0.0000000  0 15        .000000000000
G08  20465998.906 7 107549556.023 7       876.203          45.000    20466000.016 7  83804852.648 7       682.756          45.000
G14  24622782.289 7 129393584.642 7      2998.559          43.000    24622779.273 5 100826182.415 5      2336.542          32.000
G16  23918953.422 6 125694927.101 6     -3690.676          37.000
G22  24028833.156 6 126272333.088 6      3489.938          36.000    24028827.602 5  98394031.771 5      2719.432          32.000
G27  20650888.719 8 108521137.592 8     -1391.305          51.000    20650890.078 8  84561918.182 8     -1084.134          51.000
G32  23431596.500 6 123133888.675 6      2633.477          41.000    23431598.062 7  95948496.752 7      2052.063          42.000
R06  20145563.883 7 107500649.408 7      2496.242          45.000
R11  22964338.523 6 122714468.204 6     -3506.625          41.000    22964343.914 6  95444595.517 6     -2727.378          41.000
R21  19658364.008 5 105195853.946 5       572.883          33.000    19658370.945 4  81819019.199 4       445.569          25.000
C05  39624046.820 6 206332809.133 6       -12.059          36.000    39624046.484 6 159549617.879 6        -9.497          38.000
C19  22700601.680 7 118208149.622 7      -975.660          42.000
C22  22931677.773 8 119411347.678 8      2201.879          51.000
C24  26313543.266 5 137021525.343 5     -2329.605          32.000
E04  25696119.344 8 135034068.977 8      2420.172          51.000    25696123.609 8 103467652.947 8      1854.399          49.000
E12                                                                  23099939.250 6  93013891.596 6     -1204.145          36.000
> 2020 05 01 17 58 30.0000000  0 16        .000000000000
G08  20461079.148 7 107523701.980 7       855.426          46.000    20461080.117 7  83784706.636 7       666.569          46.000
G10  21373919.281 6 112320668.734 6     -1644.250          38.000    21373896.211 6  87522542.093 6     -1281.237          38.000
G14  24605706.852 7 129303851.799 7      2991.223          43.000    24605704.414 6 100756260.795 6      2330.826          36.000
G16  23940073.070 6 125805925.640 6     -3700.039          37.000
G22  24008967.734 6 126167932.150 6      3478.316          36.000
G27  20658914.133 8 108563311.245 8     -1412.258          51.000    20658915.422 8  84594780.745 8     -1100.461          51.000
G32  23416626.430 7 123055224.304 7      2618.789          42.000    23416628.367 7  95887199.874 7      2040.615          42.000
R06  20131633.961 7 107426313.893 7      2467.551          45.000
R11  22984093.734 7 122820029.532 7     -3522.609          44.000    22984098.273 6  95526698.695 6     -2739.810          40.000
R21  19655222.562 6 105179037.263 6       555.547          36.000    19655241.641 4  81805939.454 4       432.089          25.000
C05  39624156.164 6 206333378.896 6       -17.918          37.000    39624155.648 6 159550057.671 6       -13.940          38.000
C19  22706307.617 6 118237863.949 6      -997.414          38.000
C22  22919071.367 8 119345695.810 8      2182.797          51.000
C24  26327021.117 5 137091706.235 5     -2341.426          32.000
E04  25682366.766 8 134961795.165 8      2405.965          51.000    25682369.906 8 103412274.385 8      1843.514          48.000
E12                                                                  23108961.648 6  93050222.957 6     -1211.799          36.000
> 2020 05 01 17 59  0.0000000  0 17        .000000000000
G08  20456246.211 7 107498303.631 7       838.180          47.000    20456246.750 7  83764915.717 7       653.127          47.000
G14  24588640.734 6 129214169.248 6      2987.785          41.000    24588638.648 6 100686378.370 6      2328.147          36.000
G16  23961211.008 6 125917010.819 6     -3705.223          37.000
G22  23989136.109 5 126063715.339 5      3469.836          33.000
G27  20667027.070 8 108605945.633 8     -1429.504          51.000    20667028.172 8  84628002.330 8     -1113.899          51.000
G32  23401710.523 7 122976842.304 7      2607.219          44.000    23401712.531 7  95826123.039 7      2031.602          43.000
R06  20117834.031 7 107352671.653 7      2442.492          47.000
R11  23003906.070 7 122925896.105 7     -3534.621          46.000    23003909.594 6  95609039.339 6     -2749.153          40.000
R21  19652150.484 5 105162588.685 5       541.488          34.000
C05  39624268.547 6 206333963.220 6       -20.742          37.000    39624267.773 6 159550509.488 6       -15.822          38.000
C19  22712107.656 6 118268068.566 6     -1015.992          39.000
C22  22906542.570 8 119280449.529 8      2167.363          51.000
C24  26340537.336 5 137162088.852 5     -2349.926          32.000
E04  25668663.805 8 134889781.724 8      2395.418          51.000    25668666.109 8 103357095.297 8      1835.429          49.000
E11  22757778.820 6 119592929.919 6       551.391          36.000
E12                                                                  23118009.484 6  93086653.370 6     -1216.306          37.000
E25  25927296.508 7 136248865.847 7     -1950.938          43.000    25927299.445 7 104398489.726 7     -1494.728          43.000
> 2020 05 01 17 59 30.0000000  0 17        .000000000000
G08  20451493.125 7 107473324.415 7       826.805          47.000    20451493.352 8  83745451.397 8       644.260          48.000
G10  21392851.578 6 112420185.349 6     -1673.125          41.000    21392849.531 6  87600139.521 6     -1303.737          40.000
G14  24571577.023 6 129124502.188 6      2990.199          38.000    24571575.422 6 100616508.003 6      2330.028          36.000
G16  23982362.172 6 126028156.351 6     -3704.574          36.000
G22  23969331.297 5 125959646.638 5      3467.934          35.000
G27  20675220.438 8 108649002.684 8     -1441.027          51.000    20675221.609 8  84661553.253 8     -1122.878          51.000
G32  23386841.703 7 122898707.853 7      2601.543          43.000    23386843.625 7  95765239.117 7      2027.179          43.000
R06  20104157.281 7 107279687.229 7      2422.895          47.000
R11  23023767.195 7 123032025.019 7     -3540.789          46.000    23023769.703 6  95691583.999 6     -2753.950          40.000
R21  19649138.297 5 105146470.895 5       533.469          32.000    19649168.992 4  81780659.174 4       414.923          26.000
C05  39624376.625 6 206334525.538 6       -17.035          37.000    39624375.742 6 159550944.375 6       -13.520          38.000
C19  22717995.891 6 118298725.171 6     -1028.414          40.000
C22  22894084.102 8 119215573.063 8      2157.578          51.000
E04  25655003.516 8 134817992.734 8      2390.449          51.000    25655005.391 8 103302088.193 8      1831.589          50.000
E11  22754636.859 6 119576414.636 6       549.523          36.000    22754638.844 5  91623496.116 5       421.072          34.000
E12                                                                  23127073.891 6  93123154.050 6     -1216.989          37.000
E25  25938454.773 7 136307497.502 7     -1958.023          42.000    25938457.633 7 104443415.271 7     -1500.414          43.000
