     3.04           OBSERVATION DATA    M (MIXED)           RINEX VERSION / TYPE
Convert 2.6.2       NovAtel             20200518 125010 UTC PGM / RUN BY / DATE 
Rinex Version 3.04 Observation File                         COMMENT             
                                                            MARKER NAME         
                                                            MARKER NUMBER       
                                                            MARKER TYPE         
                                                            OBSERVER / AGENCY   
                    NovAtel GPSCard                         REC # / TYPE / VERS 
                                                            ANT # / TYPE        
        0.0000        0.0000        0.0000                  APPROX POSITION XYZ 
        0.0000        0.0000        0.0000                  ANTENNA: DELTA H/E/N
G    8 C1C L1C D1C S1C C2W L2W D2W S2W                      SYS / # / OBS TYPES 
R    8 C1C L1C D1C S1C C2P L2P D2P S2P                      SYS / # / OBS TYPES 
E    8 C1C L1C D1C S1C C7Q L7Q D7Q S7Q                      SYS / # / OBS TYPES 
C    8 C2I L2I D2I S2I C7I L7I D7I S7I                      SYS / # / OBS TYPES 
DBHZ                                                        SIGNAL STRENGTH UNIT
    30.000                                                  INTERVAL            
  2020    05    17    04    00    0.0000000     GPS         TIME OF FIRST OBS   
  2020    05    17    04    59   30.0000000     GPS         TIME OF LAST OBS    
G L1C  0.00000  08 G30 G13 G28 G05 G24 G17 G15 G19          SYS / PHASE SHIFT   
G L2W  0.00000  07 G30 G13 G28 G05 G17 G15 G19              SYS / PHASE SHIFT   
R L1C  0.00000  05 R02 R13 R12 R14 R03                      SYS / PHASE SHIFT   
R L2P  0.25000  05 R02 R13 R12 R14 R03                      SYS / PHASE SHIFT   
E L1C  0.50000  05 E01 E19 E21 E04 E31                      SYS / PHASE SHIFT   
E L7Q -0.25000  05 E01 E19 E21 E04 E31                      SYS / PHASE SHIFT   
C L2I  0.00000  05 C24 C25 C14 C05 C26                      SYS / PHASE SHIFT   
C L7I  0.00000  02 C14 C05                                  SYS / PHASE SHIFT   
  5 R02 -4 R13 -2 R12 -1 R14 -7 R03  5                      GLONASS SLOT / FRQ #
 C1C  -71.950 C2C  -71.950 C2P  -71.950                     GLONASS COD/PHS/BIS 
     0     0     0     0GPS                                 LEAP SECONDS        
                                                            END OF HEADER       
> 2020 05 17 04 00  0.0000000  0 15      -0.000000000000
G30  21764408.875 6 114372735.661 6     -2244.219          36.000    21764409.523 5  89121614.259 5     -1748.749          35.000  
G13  20300144.141 7 106677972.619 7       831.266          42.000    20300143.508 6  83125668.339 6       647.737          40.000  
G28  20882695.258 8 109739357.305 8       159.812          49.000    20882694.328 8  85511203.898 8       124.529          49.000  
G05  22048870.242 8 115867590.733 8     -2886.715          48.000    22048870.992 8  90286397.308 8     -2249.389          48.000  
R02  19609509.047 8 104639704.516 8     -2063.852          49.000    19609510.773 7  81386439.339 7     -1605.221          47.000  
R13  19738783.734 6 105403620.098 6      1765.832          41.000    19738785.984 7  81980595.017 7      1373.425          45.000  
R12  19891664.336 6 106257334.597 6     -2276.379          40.000    19891667.625 7  82644588.560 7     -1770.520          42.000  
E01  23774055.867 8 124933495.078 8      1064.254          51.000    23774058.070 8  95728298.981 8       815.474          51.000  
E19  25411137.930 8 133536415.624 8     -2011.363          48.000    25411141.391 8 102320118.192 8     -1541.121          48.000  
E21  24744539.664 8 130033414.008 8     -1713.902          49.000    24744542.016 8  99636021.426 8     -1313.173          48.000  
E04  23618993.445 7 124118653.802 7       751.285          44.000    23618996.141 7  95103903.165 7       575.675          47.000  
C24  21814612.953 8 113594438.942 8      -405.816          51.000                                                                  
C25  23725455.430 8 123544647.359 8      2388.426          50.000                                                                  
C14  22551635.898 8 117432299.556 8     -2240.707          48.000    22551634.227 8  90806093.471 8     -1732.687          51.000  
C05  39804291.375 6 207271389.605 6        12.875          36.000    39804288.773 6 160275375.707 6        10.089          39.000  
> 2020 05 17 04 00 30.0000000  0 16      -0.000000000000
G30  21777239.500 6 114440157.117 6     -2251.449          38.000    21777240.578 6  89174150.433 6     -1754.377          37.000  
G13  20295433.203 7 106653217.430 7       818.594          43.000    20295432.398 6  83106378.593 6       637.865          41.000  
G28  20881835.969 8 109734842.560 8       140.680          49.000    20881835.305 8  85507685.916 8       109.621          49.000  
G05  22065384.383 8 115954373.174 8     -2899.148          49.000    22065385.219 8  90354019.999 8     -2259.077          49.000  
R02  19621169.750 8 104701936.746 8     -2085.527          48.000    19621172.953 7  81434842.175 7     -1622.077          46.000  
R13  19728918.281 6 105350940.067 6      1746.098          39.000    19728921.047 7  81939621.646 7      1358.076          45.000  
R12  19904493.734 7 106325867.050 7     -2292.355          43.000    19904496.852 7  82697891.595 7     -1782.947          42.000  
E01  23768015.773 8 124901752.949 8      1051.516          51.000    23768017.602 8  95703977.078 8       805.707          51.000  
E19  25422643.844 8 133596876.434 8     -2019.699          48.000    25422646.344 7 102366445.259 7     -1547.566          47.000  
E21  24754350.383 8 130084969.211 8     -1723.551          49.000    24754352.594 7  99675524.739 7     -1320.590          47.000  
E04  23614732.383 7 124096260.027 7       741.367          45.000    23614734.531 7  95086744.287 7       568.025          47.000  
C24  21816984.586 8 113606789.984 8      -418.062          51.000                                                                  
C25  23711718.469 8 123473114.829 8      2379.891          50.000                                                                  
C14  22564579.570 8 117499703.113 8     -2253.211          49.000    22564577.383 8  90858214.114 8     -1742.335          51.000  
C26  23900913.805 5 124458336.364 5     -2646.461          33.000                                                                  
C05                                                                  39804213.633 6 160275073.038 6         9.838          39.000  
> 2020 05 17 04 01  0.0000000  0 16      -0.000000000000
G30  21790112.836 6 114507805.558 6     -2257.938          36.000    21790113.812 5  89226863.489 5     -1759.429          32.000  
G13  20290795.375 7 106628846.497 7       806.547          43.000    20290794.234 7  83087388.240 7       628.475          42.000  
G28  20881086.555 8 109730904.508 8       122.129          48.000    20881085.719 8  85504617.277 8        95.165          48.000  
G05  22081969.258 8 116041525.420 8     -2910.664          50.000    22081969.586 8  90421930.842 8     -2268.051          50.000  
R02  19632954.352 8 104764821.031 8     -2106.461          51.000    19632957.039 7  81483752.166 7     -1638.359          47.000  
R13  19719165.141 6 105298861.352 6      1726.355          40.000    19719168.625 7  81899115.978 7      1342.721          45.000  
R12  19917411.812 7 106394870.249 7     -2307.535          42.000    19917414.008 7  82751560.689 7     -1794.753          42.000  
E01  23762048.977 8 124870396.966 8      1039.254          51.000    23762050.609 8  95679951.059 8       796.336          51.000  
E19  25434198.461 7 133657593.671 7     -2027.609          46.000    25434199.289 7 102412968.802 7     -1553.609          46.000  
E21  24764217.461 8 130136820.633 8     -1732.738          48.000    24764219.742 7  99715255.040 7     -1327.737          47.000  
E04  23610528.992 7 124074169.470 7       731.926          46.000    23610530.375 7  95069817.758 7       560.776          47.000  
C24  21819427.742 8 113619510.484 8      -429.656          51.000                                                                  
C25  23698031.406 8 123401840.199 8      2372.066          50.000                                                                  
C14  22577596.203 8 117567482.682 8     -2265.062          51.000    22577593.500 8  90910625.501 8     -1751.481          51.000  
C26  23916168.422 5 124537787.973 5     -2649.965          33.000                                                                  
C05  39804143.680 5 207270621.389 5        12.812          35.000    39804141.023 6 160274780.836 6        10.089          39.000  
> 2020 05 17 04 01 30.0000000  0 16      -0.000000000000
G30  21803024.516 5 114575656.524 5     -2264.441          34.000    21803026.852 5  89279734.327 5     -1764.503          34.000  
G13  20286226.750 7 106604837.749 7       794.617          44.000    20286225.625 6  83068680.100 6       619.179          41.000  
G28  20880442.414 8 109727519.642 8       103.980          48.000    20880441.555 8  85501979.701 8        81.024          48.000  
G05  22098619.727 8 116129021.602 8     -2921.863          51.000    22098619.297 8  90490109.677 8     -2276.777          51.000  
R02  19644857.336 8 104828332.164 8     -2127.098          51.000    19644859.320 8  81533149.672 8     -1654.410          48.000  
R13  19709521.156 6 105247360.867 6      1707.418          41.000    19709524.414 7  81859060.060 7      1327.992          45.000  
R12  19930412.031 7 106464317.650 7     -2321.895          42.000    19930415.172 7  82805575.385 7     -1805.918          43.000  
E01  23756151.273 8 124839404.150 8      1027.465          51.000    23756152.734 8  95656203.305 8       787.270          51.000  
E19  25445796.562 7 133718543.800 7     -2035.059          43.000    25445796.648 7 102459670.812 7     -1559.328          45.000  
E21  24774136.203 8 130188943.649 8     -1741.535          48.000    24774138.547 7  99755193.422 7     -1334.349          46.000  
E04  23606379.070 7 124052360.049 7       722.746          46.000    23606379.930 7  95053106.639 7       553.658          47.000  
C24  21821936.883 8 113632576.495 8      -440.902          51.000                                                                  
C25  23684389.539 8 123330801.128 8      2364.395          49.000                                                                  
C14  22590680.766 8 117635614.109 8     -2276.512          51.000    22590677.945 8  90963309.011 8     -1760.307          51.000  
C26  23931448.227 5 124617351.043 5     -2653.371          33.000                                                                  
C05  39804069.266 6 207270233.201 6        14.223          36.000    39804066.758 6 160274481.419 6        10.587          39.000  
> 2020 05 17 04 02  0.0000000  0 16      -0.000000000000
G30  21815976.516 6 114643720.556 6     -2271.844          38.000    21815979.961 6  89332771.228 6     -1770.268          38.000  
G13  20281729.680 7 106581204.207 7       781.773          46.000    20281728.492 6  83050264.351 6       609.174          41.000  
G28  20879905.906 8 109724699.948 8        84.844          49.000    20879905.070 8  85499782.523 8        66.109          48.000  
G05  22115337.406 8 116216870.763 8     -2933.906          51.000    22115336.086 8  90558563.553 8     -2286.161          51.000  
R02  19656879.586 8 104892480.858 8     -2148.641          51.000    19656881.344 8  81583043.072 8     -1671.165          49.000  
R13  19699987.867 6 105196450.616 6      1687.445          41.000    19699990.594 7  81819463.208 7      1312.458          46.000  
R12  19943497.406 7 106534218.129 7     -2337.164          44.000    19943501.320 6  82859942.398 6     -1817.798          41.000  
E01  23750325.062 8 124808786.458 8      1014.637          51.000    23750326.141 8  95632742.974 8       777.440          51.000  
E19  25457439.859 6 133779738.316 6     -2043.594          40.000    25457440.844 7 102506560.136 7     -1565.892          46.000  
E21  24784108.562 7 130241348.610 7     -1751.250          47.000    24784110.734 7  99795347.857 7     -1341.862          46.000  
E04  23602285.039 7 124030844.571 7       712.578          47.000    23602285.844 7  95036620.736 7       546.011          47.000  
C24  21824514.594 8 113645998.809 8      -453.059          51.000                                                                  
C25  23670794.891 8 123260009.941 8      2355.891          49.000                                                                  
C14  22603835.000 8 117704107.749 8     -2288.805          51.000    22603832.289 8  91016272.638 8     -1769.904          51.000  
C26  23946755.461 5 124697033.788 5     -2657.762          31.000                                                                  
C05                                                                  39803992.969 6 160274183.904 6        10.161          39.000  
> 2020 05 17 04 02 30.0000000  0 16      -0.000000000000
G30  21828967.539 5 114711989.772 5     -2278.438          34.000    21828971.922 5  89385967.985 5     -1775.412          34.000  
G13  20277302.969 7 106557940.675 7       769.340          46.000    20277301.586 6  83032136.920 6       599.486          41.000  
G28  20879475.742 8 109722437.966 8        65.922          49.000    20879474.445 8  85498019.927 8        51.368          48.000  
G05  22132120.414 8 116305063.363 8     -2945.414          51.000    22132118.227 8  90627285.047 8     -2295.128          51.000  
R02  19669019.484 8 104957259.410 8     -2169.684          51.000    19669021.414 8  81633426.370 8     -1687.532          50.000  
R13  19690564.016 7 105146125.235 7      1667.648          42.000    19690566.453 7  81780321.273 7      1297.060          45.000  
R12  19956665.836 7 106604561.459 7     -2352.074          44.000    19956669.391 6  82914653.875 6     -1829.391          40.000  
E01  23744568.875 8 124778537.306 8      1002.156          51.000    23744569.656 8  95609565.041 8       767.836          51.000  
E19  25469129.242 7 133841170.286 7     -2051.750          42.000    25469131.453 7 102553631.352 7     -1572.058          47.000  
E21  24794132.875 7 130294027.341 7     -1760.570          47.000    24794134.828 7  99835712.051 7     -1348.988          45.000  
E04  23598245.734 7 124009617.368 7       702.648          46.000    23598246.547 7  95020355.723 7       538.453          47.000  
C24  21827159.414 8 113659769.856 8      -464.902          51.000                                                                  
C25  23657246.523 8 123189460.562 8      2347.641          49.000                                                                  
C14  22617056.711 8 117772955.607 8     -2300.859          49.000    22617054.648 8  91069510.140 8     -1779.159          51.000  
C26  23962084.297 5 124776849.201 5     -2660.891          30.000                                                                  
C05  39803920.828 5 207269460.528 5        13.441          35.000    39803918.320 6 160273883.121 6        10.040          39.000  
> 2020 05 17 04 03  0.0000000  0 15      -0.000000000000
G13  20272946.797 7 106535047.811 7       757.625          46.000    20272945.164 7  83014298.335 7       590.360          42.000  
G28  20879151.516 8 109720733.456 8        48.254          50.000    20879150.141 8  85496691.746 8        37.600          48.000  
G05  22148968.297 8 116393597.108 8     -2956.121          51.000    22148965.516 8  90696272.358 8     -2303.475          51.000  
R02  19681276.773 8 105022666.195 8     -2189.930          51.000    19681279.047 8  81684298.330 8     -1703.276          50.000  
R13  19681249.641 7 105096384.867 7      1648.902          42.000    19681251.258 7  81741634.333 7      1282.480          44.000  
R12  19969916.969 7 106675344.496 7     -2365.906          44.000    19969920.711 6  82969707.336 6     -1840.150          39.000  
E01  23738882.672 8 124748656.715 8       990.559          51.000    23738883.547 8  95586669.525 8       758.955          51.000  
E19  25480864.930 7 133902839.094 7     -2058.961          45.000    25480866.977 8 102600884.099 8     -1577.724          48.000  
E21  24804208.953 8 130346978.318 8     -1768.891          48.000    24804210.828 7  99876284.858 7     -1355.381          45.000  
E04  23594261.391 7 123988679.406 7       693.859          47.000    23594262.023 8  95004312.347 8       531.551          48.000  
C24  21829870.484 8 113673888.568 8      -475.684          51.000                                                                  
C25  23643744.688 8 123119153.544 8      2340.141          50.000                                                                  
C14  22630345.547 8 117842156.300 8     -2311.887          48.000    22630344.484 8  91123020.531 8     -1787.698          51.000  
C26  23977432.812 5 124856760.173 5     -2665.035          32.000                                                                  
C05  39803845.297 6 207269067.346 6        13.984          36.000    39803842.891 6 160273579.031 6        10.699          39.000  
> 2020 05 17 04 03 30.0000000  0 14      -0.000000000000
G13  20268660.922 7 106512524.978 7       744.102          45.000    20268659.055 7  82996748.055 7       579.820          43.000  
G28  20878933.047 8 109719584.200 8        28.613          51.000    20878931.438 7  85495796.203 7        22.296          47.000  
G05  22165879.930 8 116482467.030 8     -2968.293          51.000    22165877.141 8  90765521.641 8     -2312.956          51.000  
R02  19693651.266 8 105088697.468 8     -2211.871          51.000    19693653.734 8  81735655.995 8     -1720.344          50.000  
R13  19672044.156 6 105047227.531 6      1628.590          41.000    19672045.031 7  81703400.869 7      1266.681          45.000  
R12  19983249.172 7 106746562.242 7     -2381.633          42.000    19983253.445 6  83025098.910 6     -1852.381          37.000  
E01  23733266.086 8 124719142.733 8       977.172          51.000    23733267.164 8  95564054.917 8       748.689          51.000  
E19  25492645.219 7 133964742.114 7     -2067.898          46.000    25492647.430 8 102648316.269 8     -1584.489          48.000  
E21  24814336.156 7 130400197.994 7     -1778.980          47.000    24814338.055 7  99917063.559 7     -1363.167          44.000  
E04  23590332.156 8 123968029.618 8       682.957          48.000    23590332.352 8  94988489.763 8       523.257          48.000  
C24  21832648.039 8 113688351.976 8      -488.297          51.000                                                                  
C25  23630289.250 8 123049087.346 8      2331.133          51.000                                                                  
C14  22643701.352 7 117911706.445 7     -2324.523          47.000    22643701.070 8  91176801.147 8     -1797.599          51.000  
C05  39803768.594 6 207268667.869 6        13.262          36.000    39803766.266 6 160273270.121 6         9.850          39.000  
> 2020 05 17 04 04  0.0000000  0 14      -0.000000000000
G13  20264446.906 7 106490380.436 7       731.961          47.000    20264445.227 7  82979492.568 7       570.359          43.000  
G28  20878821.367 8 109718997.139 8        10.457          50.000    20878819.602 7  85495338.768 7         8.151          47.000  
G05  22182855.961 8 116571677.767 8     -2979.172          51.000    22182853.930 8  90835036.501 8     -2321.433          51.000  
R02  19706144.000 8 105155359.060 8     -2232.363          51.000    19706146.164 8  81787503.885 8     -1736.283          50.000  
R13  19662948.812 6 104998660.890 6      1609.047          40.000    19662950.289 7  81665626.823 7      1251.481          46.000  
R12  19996663.359 7 106818218.603 7     -2395.555          44.000    19996666.352 5  83080831.571 5     -1863.213          35.000  
E01  23727720.617 8 124690002.673 8       965.395          51.000    23727721.594 8  95541726.808 8       739.754          51.000  
E19  25504471.656 7 134026886.447 7     -2075.242          47.000    25504473.906 8 102695933.377 8     -1590.056          49.000  
E21  24824515.828 7 130453692.064 7     -1787.500          47.000    24824517.562 7  99958052.504 7     -1369.617          45.000  
E04  23586459.430 8 123947676.219 8       673.773          49.000    23586459.117 8  94972894.297 8       516.295          49.000  
C24  21835492.719 8 113703166.220 8      -499.492          51.000                                                                  
C25  23616882.039 8 122979269.760 8      2323.281          51.000                                                                  
C14  22657125.695 8 117981611.863 8     -2335.797          48.000    22657125.719 8  91230856.464 8     -1806.166          51.000  
C05  39803692.102 6 207268269.417 6        13.422          36.000    39803689.734 6 160272961.957 6        10.581          39.000  
> 2020 05 17 04 04 30.0000000  0 14      -0.000000000000
G13  20260304.070 7 106468610.161 7       719.098          47.000    20260302.727 7  82962528.695 7       560.336          42.000  
G28  20878815.492 8 109718966.777 8        -8.555          51.000    20878813.711 7  85495315.122 7        -6.666          46.000  
G05  22199894.820 8 116661221.285 8     -2990.508          49.000    22199893.594 8  90904810.687 8     -2330.267          49.000  
R02  19718753.727 8 105222645.038 8     -2253.500          51.000    19718755.734 8  81839837.370 8     -1752.723          50.000  
R13  19653963.086 6 104950680.312 6      1589.219          41.000    19653965.125 7  81628308.582 7      1236.059          44.000  
R12  20010157.773 6 106890305.415 6     -2410.312          41.000    20010161.109 6  83136899.052 6     -1874.685          37.000  
E01  23722245.484 8 124661231.505 8       952.633          51.000    23722246.445 8  95519681.356 8       729.922          51.000  
E19  25516343.102 8 134089266.289 8     -2083.508          48.000    25516345.367 8 102743730.891 8     -1596.374          49.000  
E21  24834746.586 8 130507453.956 8     -1796.816          48.000    24834748.328 7  99999246.663 7     -1376.734          45.000  
E04  23582641.945 8 123927615.124 8       663.449          49.000    23582641.492 8  94957522.815 8       508.408          48.000  
C24  21838403.469 8 113718325.222 8      -511.312          51.000                                                                  
C25  23603521.727 8 122909696.203 8      2314.797          51.000                                                                  
C14  22670617.492 8 118051866.104 8     -2347.938          50.000    22670617.250 8  91285181.484 8     -1815.526          51.000  
C05  39803614.836 6 207267866.775 6        13.137          36.000    39803612.438 6 160272650.585 6        10.264          39.000  
> 2020 05 17 04 05  0.0000000  0 14      -0.000000000000
G13  20256235.539 7 106447230.385 7       706.844          46.000    20256234.391 7  82945869.116 7       550.787          44.000  
G28  20878918.445 8 109719507.820 8       -26.969          50.000    20878916.406 7  85495736.708 7       -21.012          46.000  
G05  22216999.867 8 116751110.391 8     -3001.316          51.000    22216998.203 8  90974854.146 8     -2338.689          51.000  
R02  19731482.812 8 105290568.647 8     -2274.000          51.000    19731484.648 8  81892666.787 8     -1768.670          50.000  
R13  19645090.500 6 104903302.054 6      1569.809          39.000    19645091.938 7  81591458.807 7      1220.963          43.000  
R12  20023735.336 7 106962834.716 7     -2424.379          43.000    20023739.039 6  83193310.735 6     -1885.628          36.000  
E01  23716843.383 8 124632844.443 8       940.508          51.000    23716844.977 8  95497930.237 8       720.655          51.000  
E19  25528262.141 8 134151896.576 8     -2091.207          49.000    25528264.305 8 102791720.303 8     -1602.354          49.000  
E21  24845030.844 8 130561497.400 8     -1805.500          48.000    24845032.930 7 100040656.532 7     -1383.319          45.000  
E04  23578882.883 8 123907862.523 8       653.883          48.000    23578882.719 8  94942387.689 8       501.114          49.000  
C24  21841383.625 8 113733843.091 8      -522.594          51.000                                                                  
C25  23590210.516 8 122840382.336 8      2306.770          50.000                                                                  
C14  22684179.352 8 118122482.837 8     -2359.371          51.000    22684178.375 8  91339786.808 8     -1824.277          51.000  
C05  39803539.633 6 207267475.137 6        12.941          36.000    39803537.156 6 160272347.698 6        10.539          39.000  
> 2020 05 17 04 05 30.0000000  0 14      -0.000000000000
G13  20252238.359 7 106426225.210 7       694.066          46.000    20252237.203 7  82929501.427 7       540.831          44.000  
G28  20879126.820 8 109720603.084 8       -45.516          49.000    20879124.648 7  85496590.181 7       -35.467          46.000  
G05  22234167.367 8 116841325.163 8     -3012.418          51.000    22234164.227 8  91045151.333 8     -2347.343          51.000  
R02  19744327.594 8 105359111.307 8     -2294.816          51.000    19744329.383 8  81945977.702 8     -1784.858          50.000  
R13  19636326.859 6 104856508.070 6      1550.398          39.000    19636328.953 7  81555063.515 7      1205.866          44.000  
R12  20037391.828 7 107035786.378 7     -2438.238          42.000    20037394.641 6  83250050.888 6     -1896.411          36.000  
E01  23711511.133 8 124604824.532 8       928.062          51.000    23711513.375 8  95476460.461 8       711.134          51.000  
E19  25540225.203 8 134214759.941 8     -2099.145          49.000    25540227.234 8 102839888.266 8     -1608.403          48.000  
E21  24855364.961 7 130615803.858 7     -1814.410          47.000    24855367.594 7 100082267.940 7     -1390.185          45.000  
E04  23575179.516 8 123888402.388 8       644.051          48.000    23575179.734 8  94927476.675 8       493.452          50.000  
C24  21844429.117 8 113749701.946 8      -534.113          51.000                                                                  
C25  23576945.273 8 122771311.862 8      2298.512          50.000                                                                  
C14  22697807.406 8 118193443.779 8     -2370.895          51.000    22697805.508 8  91394658.280 8     -1833.348          51.000  
C05  39803463.367 6 207267077.590 6        13.188          36.000    39803460.781 6 160272040.264 6        10.430          39.000  
> 2020 05 17 04 06  0.0000000  0 14      -0.000000000000
G13  20248312.750 7 106405596.235 7       681.680          46.000    20248311.461 7  82913426.893 7       531.179          45.000  
G28  20879440.688 8 109722252.680 8       -63.859          49.000    20879438.148 7  85497875.579 7       -49.761          46.000  
G05  22251396.555 8 116931863.546 8     -3022.879          51.000    22251392.078 8  91115700.672 8     -2355.494          51.000  
R02  19757287.805 8 105428272.053 8     -2315.203          50.000    19757289.906 8  81999769.383 8     -1800.714          50.000  
R13  19627673.719 6 104810300.073 6      1530.715          41.000    19627676.562 7  81519123.949 7      1190.556          45.000  
R12  20051126.852 7 107109157.519 7     -2452.184          44.000    20051129.797 6  83307117.308 6     -1907.257          37.000  
E01  23706249.312 8 124577172.281 8       916.086          51.000    23706251.156 8  95455272.377 8       701.933          51.000  
E19  25552232.180 8 134277856.038 8     -2106.617          49.000    25552233.953 8 102888234.563 8     -1614.090          49.000  
E21  24865748.891 7 130670372.246 7     -1822.762          46.000    24865751.836 7 100124080.088 7     -1396.650          45.000  
E04  23571532.141 8 123869236.191 8       634.430          49.000    23571532.805 8  94912790.858 8       486.143          51.000  
C24  21847540.023 8 113765901.238 8      -545.223          51.000                                                                  
C25  23563727.648 8 122702485.745 8      2290.547          50.000                                                                  
C14  22711501.328 8 118264748.008 8     -2382.027          51.000    22711498.508 8  91449795.193 8     -1841.938          51.000  
C05  39803386.031 6 207266675.639 6        13.738          36.000    39803383.414 6 160271728.627 6        10.992          39.000  
> 2020 05 17 04 06 30.0000000  0 14      -0.000000000000
G13  20244457.984 7 106385339.323 7       668.789          46.000    20244456.633 7  82897642.276 7       521.135          46.000  
G28  20879858.922 8 109724450.940 8       -82.578          48.000    20879856.398 7  85499588.498 7       -64.347          46.000  
G05  22268685.789 8 117022717.710 8     -3033.883          51.000    22268681.172 8  91186496.091 8     -2364.065          51.000  
R02  19770362.125 8 105498043.925 8     -2336.074          50.000    19770365.133 8  82054036.407 8     -1816.947          50.000  
R13  19619129.625 6 104764672.695 6      1511.027          40.000    19619132.609 7  81483635.969 7      1175.244          45.000  
R12  20064939.758 7 107182939.969 7     -2466.617          42.000    20064942.453 6  83364503.584 6     -1918.480          37.000  
E01  23701056.523 8 124549882.648 8       903.441          51.000    23701057.828 8  95434362.135 8       692.236          51.000  
E19  25564282.141 8 134341179.770 8     -2114.773          48.000    25564283.844 8 102936755.274 8     -1620.349          49.000  
E21  24876181.484 8 130725196.055 8     -1831.855          48.000    24876184.375 7 100166087.920 7     -1403.511          44.000  
E04  23567939.977 8 123850359.788 8       624.266          50.000    23567941.062 8  94898327.114 8       478.301          51.000  
C24  21850715.172 8 113782434.960 8      -556.801          51.000                                                                  
C25  23550556.938 8 122633899.433 8      2281.977          50.000                                                                  
C14  22725259.359 8 118336389.087 8     -2393.867          50.000    22725256.375 8  91505192.563 8     -1851.000          51.000  
C05  39803306.609 6 207266262.254 6        13.594          36.000    39803304.008 6 160271408.961 6        10.666          39.000  
> 2020 05 17 04 07  0.0000000  0 15      -0.000000000000
G13  20240676.633 8 106365467.727 8       655.754          48.000    20240675.227 7  82882157.891 7       510.977          46.000  
G28  20880383.656 8 109727209.261 8      -101.512          48.000    20880381.523 7  85501737.866 7       -79.097          47.000  
G05  22286036.609 8 117113896.309 8     -3044.922          51.000    22286032.711 8  91257544.342 8     -2372.667          51.000  
R02  19783553.484 8 105568437.647 8     -2357.066          51.000    19783556.789 8  82108787.091 8     -1833.274          49.000  
R13  19610696.141 6 104719638.078 6      1490.969          41.000    19610699.547 7  81448609.036 7      1159.643          45.000  
R12  20078830.250 6 107257142.316 6     -2480.574          41.000    20078833.383 6  83422216.553 6     -1929.336          37.000  
E01  23695934.898 8 124522967.537 8       890.727          51.000    23695936.172 8  95413738.884 8       682.529          51.000  
E19  25576377.195 7 134404742.277 7     -2122.992          46.000    25576379.094 8 102985458.958 8     -1626.631          49.000  
E21  24886664.680 7 130780285.657 7     -1840.855          47.000    24886667.078 7 100208299.411 7     -1410.610          44.000  
E04  23564405.375 8 123831786.088 8       613.844          50.000    23564406.656 8  94884095.305 8       470.324          51.000  
C24  21853956.430 8 113799313.846 8      -568.617          51.000                                                                  
C25  23537433.961 8 122565565.342 8      2273.441          48.000                                                                  
C14  22739083.039 8 118408377.362 8     -2405.629          49.000    22739081.211 8  91560858.428 8     -1860.158          51.000  
C26  24100961.250 5 125500012.366 5     -2694.820          31.000                                                                  
C05                                                                  39803225.000 6 160271090.362 6        10.451          39.000  
> 2020 05 17 04 07 30.0000000  0 15      -0.000000000000
G13  20236969.641 8 106345987.264 8       643.363          48.000    20236968.352 7  82866978.298 7       501.322          46.000  
G28  20881015.898 8 109730531.937 8      -119.605          50.000    20881013.734 7  85504326.940 7       -93.199          47.000  
G05  22303449.461 8 117205401.810 8     -3055.113          50.000    22303446.562 8  91328847.336 8     -2380.608          50.000  
R02  19796862.211 8 105639456.297 8     -2377.137          51.000    19796865.523 7  82164023.803 7     -1848.888          46.000  
R13  19602375.055 6 104675201.333 6      1471.844          40.000    19602378.078 7  81414047.117 7      1144.768          45.000  
R12  20092800.242 7 107331766.550 7     -2494.078          42.000    20092803.188 6  83480257.555 6     -1939.842          37.000  
E01  23690885.703 8 124496431.645 8       878.691          51.000    23690886.719 8  95393406.197 8       673.262          51.000  
E19  25588517.773 7 134468547.819 7     -2130.312          43.000    25588520.680 8 103034348.892 8     -1632.381          49.000  
E21  24897199.125 7 130835644.217 7     -1849.289          45.000    24897200.828 7 100250716.974 7     -1416.932          43.000  
E04  23560929.508 8 123813520.721 8       604.195          50.000    23560930.930 8  94870099.748 8       462.994          51.000  
C24  21857264.922 8 113816541.535 8      -579.523          51.000                                                                  
C25  23524359.438 8 122497488.583 8      2265.527          49.000                                                                  
C14  22752973.781 8 118480716.046 8     -2416.617          48.000    22752973.406 8  91616795.280 8     -1868.721          51.000  
C26  24116493.625 5 125580898.342 5     -2697.578          32.000                                                                  
C05  39803149.469 5 207265444.271 5        13.730          35.000    39803147.047 6 160270776.380 6        10.714          39.000  
> 2020 05 17 04 08  0.0000000  0 15      -0.000000000000
G13  20233333.883 8 106326881.095 8       630.867          48.000    20233332.641 7  82852090.356 7       491.585          46.000  
G28  20881752.078 8 109734400.549 8      -137.742          50.000    20881750.031 8  85507341.430 8      -107.332          48.000  
G05  22320920.625 8 117297213.913 8     -3065.086          50.000    22320918.625 8  91400389.236 8     -2388.379          50.000  
R02  19810284.516 8 105711080.177 8     -2397.152          51.000    19810286.219 7  82219731.214 7     -1864.455          42.000  
R13  19594162.062 6 104631345.380 6      1452.312          40.000    19594165.062 7  81379936.948 7      1129.577          46.000  
R12  20106845.328 6 107406791.224 6     -2506.781          37.000    20106847.914 6  83538610.069 6     -1949.719          38.000  
E01  23685905.188 8 124470257.104 8       866.801          51.000    23685905.836 8  95373350.354 8       664.178          51.000  
E19  25600700.602 7 134532578.156 7     -2137.676          43.000    25600704.883 8 103083411.127 8     -1638.020          50.000  
E21  24907780.984 7 130891252.366 7     -1857.445          46.000    24907782.516 7 100293325.818 7     -1423.271          43.000  
E04  23557509.297 8 123795546.835 8       594.586          51.000    23557510.766 8  94856327.530 8       455.622          51.000  
C24  21860636.742 8 113834099.295 8      -590.398          51.000                                                                  
C25  23511332.125 8 122429651.968 8      2257.676          51.000                                                                  
C14  22766928.875 8 118553385.969 8     -2427.484          49.000    22766929.062 8  91672988.270 8     -1877.106          51.000  
C26  24132038.367 5 125661875.834 5     -2700.406          30.000                                                                  
C05  39803069.305 6 207265026.706 6        14.234          36.000    39803066.820 6 160270453.469 6        10.995          39.000  
> 2020 05 17 04 08 30.0000000  0 15      -0.000000000000
G13  20229772.094 8 106308163.746 8       617.777          49.000    20229770.711 7  82837505.393 7       481.385          46.000  
G28  20882594.758 8 109738828.124 8      -156.613          51.000    20882592.773 8  85510791.489 8      -122.036          48.000  
G05  22338452.078 8 117389342.693 8     -3075.816          51.000    22338450.656 8  91472177.880 8     -2396.741          51.000  
R02  19823822.484 8 105783320.903 8     -2417.871          51.000    19823822.656 7  82275918.270 7     -1880.573          42.000  
R13  19586060.008 6 104588083.027 6      1432.562          39.000    19586063.266 7  81346288.461 7      1114.215          46.000  
R12  20120966.391 6 107482226.606 6     -2520.922          39.000    20120969.656 6  83597282.077 6     -1960.720          38.000  
E01  23680995.594 8 124444457.323 8       854.094          51.000    23680996.406 8  95353581.677 8       654.463          51.000  
E19  25612929.508 7 134596846.246 7     -2145.797          45.000    25612934.656 8 103132655.536 8     -1644.195          50.000  
E21  24918412.516 7 130947122.089 7     -1866.320          47.000    24918414.180 7 100336135.039 7     -1430.015          44.000  
E04  23554147.375 8 123777878.800 8       584.141          51.000    23554148.609 8  94842789.675 8       447.669          51.000  
C24  21864074.320 8 113851999.424 8      -601.965          51.000                                                                  
C25  23498354.383 8 122362069.320 8      2248.875          51.000                                                                  
C14  22780950.641 8 118626399.029 8     -2439.098          50.000    22780950.484 8  91729446.572 8     -1886.029          51.000  
C26  24147603.523 5 125742926.838 5     -2704.414          30.000                                                                  
C05  39802989.422 5 207264610.827 5        14.496          35.000    39802987.039 6 160270131.846 6        10.943          39.000  
> 2020 05 17 04 09  0.0000000  0 17      -0.000000000000
G30  22001355.781 6 115617880.151 6     -2358.922          37.000    22001365.367 5  90091877.755 5     -1838.125          30.000  
G13  20226280.891 8 106289817.065 8       610.414          49.000    20226279.102 7  82823209.268 7       475.647          46.000  
G28  20883540.203 8 109743795.062 8      -169.594          51.000    20883537.945 8  85514661.800 8      -132.151          49.000  
G05  22356039.789 8 117481766.556 8     -3080.715          51.000    22356038.234 8  91544196.444 8     -2400.558          51.000  
R14  23276259.672 6 124075175.011 6      3813.000          38.000    23276263.695 6  96502931.92426      2965.667          37.000  
R02  19837472.031 8 105856157.607 8     -2432.703          50.000    19837473.594 7  82332568.979 7     -1892.103          46.000  
R13  19578065.469 6 104545395.714 6      1418.387          39.000    19578068.930 7  81313087.205 7      1103.190          45.000  
R12  20135161.297 6 107558050.274 6     -2528.719          38.000    20135164.914 6  83656256.039 6     -1966.779          39.000  
E01  23676153.648 8 124419013.195 8       847.023          51.000    23676154.969 8  95334085.523 8       648.994          51.000  
E19  25625201.086 7 134661332.496 7     -2148.352          46.000    25625205.906 8 103182067.062 8     -1646.245          50.000  
E21  24929090.125 7 131003232.764 7     -1869.480          47.000    24929091.500 7 100379128.893 7     -1432.418          43.000  
E04  23550840.141 8 123760498.499 8       579.316          51.000    23550840.969 8  94829472.302 8       443.871          51.000  
C24  21867573.945 8 113870221.970 8      -607.898          51.000                                                                  
C25  23485421.461 8 122294722.221 8      2245.926          50.000                                                                  
C14  22795034.617 8 118699734.836 8     -2444.949          50.000    22795033.688 8  91786154.444 8     -1890.714          51.000  
C26  24163185.672 5 125824090.983 5     -2701.359          31.000                                                                  
C05  39802906.305 5 207264177.699 5        19.562          35.000    39802903.867 6 160269796.904 6        14.789          39.000  
> 2020 05 17 04 09 30.0000000  0 17      -0.000000000000
G30  22014838.508 5 115688757.14225     -2372.566          35.000                                                                  
G13  20222851.961 8 106271798.036 8       590.352          49.000    20222849.828 7  82809168.462 7       460.014          47.000  
G28  20884579.594 8 109749256.347 8      -195.059          51.000    20884577.430 8  85518917.341 8      -151.991          50.000  
G05  22373674.867 8 117574438.347 8     -3097.953          51.000    22373672.383 8  91616408.168 8     -2413.993          51.000  
R14  23254839.453 6 123960996.174 6      3798.414          38.000    23254842.992 6  96414125.676 6      2954.323          38.000  
R02  19851224.375 8 105929543.619 8     -2460.309          50.000    19851227.156 8  82389647.018 8     -1913.571          49.000  
R13  19570170.836 6 104503238.414 6      1391.359          40.000    19570173.766 7  81280298.233 7      1082.169          45.000  
R12  20149419.000 7 107634214.331 7     -2549.262          42.000    20149424.594 6  83715494.779 6     -1982.760          40.000  
E01  23671370.953 8 124393880.454 8       827.734          51.000    23671372.547 8  95314827.953 8       634.268          51.000  
E19  25637506.211 8 134725992.171 8     -2162.973          48.000    25637510.242 8 103231611.437 8     -1657.350          49.000  
E21  24939804.938 7 131059538.598 7     -1884.867          46.000    24939806.125 7 100422272.305 7     -1444.331          43.000  
E04  23547579.383 8 123743362.639 8       562.320          51.000    23547579.836 8  94816342.223 8       430.872          51.000  
C24  21871126.734 8 113888722.046 8      -626.055          51.000                                                                  
C25  23472524.742 8 122227567.361 8      2230.602          50.000                                                                  
C14  22809171.836 8 118773348.026 8     -2463.059          51.000    22809170.000 8  91843076.803 8     -1904.651          51.000  
C26  24178776.180 4 125905293.270 4     -2712.172          28.000                                                                  
C05  39802811.391 6 207263683.579 6        12.801          36.000    39802809.023 6 160269414.767 6         9.660          39.000  
> 2020 05 17 04 10  0.0000000  0 15      -0.000000000000
G13  20219533.648 8 106254360.451 8       579.098          49.000    20219531.406 7  82795580.709 7       451.242          47.000  
G28  20885760.969 8 109755464.106 8      -211.801          51.000    20885759.102 8  85523754.544 8      -165.040          50.000  
G05  22391404.828 8 117667608.152 8     -3106.355          51.000    22391401.227 8  91689007.940 8     -2420.541          51.000  
R14  23233496.062 6 123847230.930 6      3792.973          38.000    23233497.547 6  96325641.617 6      2950.087          36.000  
R02  19865127.391 8 106003733.814 8     -2478.770          51.000    19865131.180 8  82447350.558 8     -1927.929          50.000  
R13  19562423.836 6 104461868.124 6      1373.547          40.000    19562426.320 7  81248121.337 7      1068.314          46.000  
R12  20163788.898 6 107710972.322 6     -2560.875          40.000    20163793.844 6  83775195.428 6     -1991.792          39.000  
E01  23666695.586 8 124369311.634 8       817.062          51.000    23666696.711 8  95296002.476 8       626.076          51.000  
E19  25649892.492 8 134791077.525 8     -2169.066          48.000    25649895.219 8 103281481.998 8     -1662.061          48.000  
E21  24950604.570 7 131116290.721 7     -1891.586          45.000    24950606.328 7 100465757.674 7     -1449.359          44.000  
E04  23544413.312 8 123726724.794 8       553.809          51.000    23544413.758 8  94803593.731 8       424.365          51.000  
C24  21874780.633 8 113907748.943 8      -635.492          51.000                                                                  
C25  23459713.289 8 122160855.465 8      2223.832          50.000                                                                  
C14  22823409.867 8 118847487.459 8     -2472.574          50.000    22823407.453 8  91900406.092 8     -1911.958          51.000  
C05  39802752.883 6 207263378.702 6        14.918          36.000    39802750.484 6 160269179.006 6        11.279          39.000  
> 2020 05 17 04 10 30.0000000  0 16      -0.000000000000
G30  22041992.445 5 115831450.946 5     -2383.070          32.000    22041997.906 5  90258286.751 5     -1856.935          32.000  
G13  20216260.680 8 106237160.640 8       566.605          50.000    20216258.305 7  82782178.265 7       441.511          47.000  
G28  20887018.570 8 109762073.101 8      -229.516          51.000    20887016.797 8  85528904.412 8      -178.843          50.000  
G05  22409163.227 8 117760928.117 8     -3115.750          51.000    22409159.180 8  91761724.731 8     -2427.861          51.000  
R14  23212164.844 6 123733531.417 6      3786.309          41.000    23212165.992 6  96237208.618 6      2944.907          36.000  
R02  19879115.516 8 106078376.343 8     -2498.234          51.000    19879119.445 8  82505405.886 8     -1943.072          51.000  
R13  19554758.398 6 104420934.289 6      1354.754          40.000    19554760.641 7  81216283.887 7      1053.698          46.000  
R12  20178203.586 6 107787970.614 6     -2573.277          41.000    20178206.109 6  83835082.940 6     -2001.441          39.000  
E01  23662062.023 8 124344962.099 8       805.363          51.000    23662062.680 8  95277345.026 8       617.085          51.000  
E19  25662294.023 8 134856243.280 8     -2176.141          49.000    25662296.109 8 103331414.135 8     -1667.472          48.000  
E21  24961423.430 7 131173143.015 7     -1899.281          45.000    24961425.719 7 100509319.827 7     -1455.363          43.000  
E04  23541276.578 8 123710241.310 8       544.203          51.000    23541277.242 8  94790963.517 8       416.975          51.000  
C24  21878469.914 8 113926960.154 8      -646.055          51.000                                                                  
C25  23446921.844 8 122094245.600 8      2216.000          50.000                                                                  
C14  22837682.422 8 118921810.220 8     -2483.078          48.000    22837680.086 8  91957877.142 8     -1920.116          51.000  
C05  39802665.078 6 207262921.729 6        14.992          36.000    39802662.812 6 160268825.594 6        11.726          39.000  
> 2020 05 17 04 11  0.0000000  0 17      -0.000000000000
G30  22055614.258 5 115903042.452 5     -2391.191          34.000    22055615.453 5  90314072.276 5     -1863.267          31.000  
G13  20213066.312 8 106220374.107 8       551.289          50.000    20213063.883 8  82769097.837 8       429.576          48.000  
G28  20888385.750 8 109769257.525 8      -250.457          51.000    20888384.047 8  85534502.641 8      -195.161          50.000  
G05  22426982.547 8 117854570.778 8     -3128.223          48.000    22426979.312 8  91834692.993 8     -2437.577          48.000  
R14  23190880.656 6 123620076.496 6      3776.461          39.000    23190882.336 6  96148965.874 6      2937.248          38.000  
R02  19893221.461 8 106153646.699 8     -2520.879          51.000    19893225.211 8  82563949.457 8     -1960.687          49.000  
R13  19547207.898 6 104380614.725 6      1332.340          40.000    19547209.633 7  81184924.198 7      1036.265          45.000  
R12  20192695.312 6 107865383.515 6     -2588.914          41.000    20192697.852 6  83895292.952 6     -2013.600          40.000  
E01  23657503.289 8 124321006.296 8       790.535          51.000    23657504.133 8  95258989.283 8       605.696          51.000  
E19  25674743.820 8 134921663.386 8     -2186.367          50.000    25674745.016 7 103381541.178 7     -1675.269          47.000  
E21  24972294.312 7 131230268.527 7     -1910.215          46.000    24972296.570 7 100553091.296 7     -1463.579          43.000  
E04  23538202.625 8 123694087.644 8       531.426          51.000    23538203.430 8  94778586.013 8       407.259          51.000  
C24  21882227.469 8 113946527.518 8      -659.645          51.000                                                                  
C25  23434182.836 8 122027911.210 8      2205.148          49.000                                                                  
C14  22852022.289 7 118996487.718 7     -2496.492          46.000    22852020.820 8  92015622.479 8     -1930.495          51.000  
C26  24225728.922 4 126149725.79924     -2722.480          29.000                                                                  
C05  39802581.305 6 207262485.504 6        12.969          36.000    39802579.078 6 160268488.263 6         9.950          39.000  
> 2020 05 17 04 11 30.0000000  0 15      -0.000000000000
G13  20209952.602 8 106204011.463 8       540.492          50.000    20209950.250 8  82756347.712 8       421.163          48.000  
G28  20889864.094 8 109777025.971 8      -266.508          51.000    20889862.539 8  85540555.963 8      -207.668          50.000  
G05  22444863.336 7 117948542.556 7     -3135.848          43.000    22444862.422 7  91907917.763 7     -2443.515          43.000  
R14  23169644.820 6 123506877.796 6      3771.098          41.000    23169647.891 6  96060922.442 6      2933.076          39.000  
R02  19907446.789 8 106229552.806 8     -2538.688          51.000    19907449.539 7  82622987.487 7     -1974.535          47.000  
R13  19539774.219 6 104340918.972 6      1315.094          39.000    19539775.500 7  81154049.737 7      1022.851          45.000  
R12  20207265.984 6 107943217.580 6     -2599.320          40.000    20207268.828 6  83955830.552 6     -2021.697          39.000  
E01  23653021.117 8 124297453.679 8       780.516          51.000    23653022.086 8  95240942.476 8       598.004          51.000  
E19  25687243.461 8 134987346.842 8     -2191.797          49.000    25687244.461 7 103431870.004 7     -1679.349          47.000  
E21  24983218.453 7 131287675.294 7     -1916.164          45.000    24983220.328 7 100597078.252 7     -1468.221          43.000  
E04  23535193.430 8 123678274.296 8       523.504          51.000    23535194.258 8  94766469.282 8       401.136          51.000  
C24  21886055.266 8 113966459.456 8      -668.316          51.000                                                                  
C25  23421498.383 8 121961862.194 8      2199.008          51.000                                                                  
C14  22866432.047 7 119071527.888 7     -2505.152          46.000    22866431.164 8  92073648.275 8     -1937.279          50.000  
C05  39802503.352 6 207262079.587 6        15.293          36.000    39802501.234 6 160268174.357 6        11.638          39.000  
> 2020 05 17 04 12  0.0000000  0 15      -0.000000000000
G13  20206909.016 8 106188017.380 8       526.699          50.000    20206906.820 8  82743884.778 8       410.415          49.000  
G28  20891442.609 8 109785321.245 8      -285.707          51.000    20891441.086 8  85547019.809 8      -222.629          50.000  
G05  22462794.711 7 118042783.904 7     -3146.320          42.000    22462796.656 7  91981352.654 7     -2451.676          42.000  
R14  23148447.453 6 123393879.770 6      3762.758          41.000    23148451.273 6  95973035.080 6      2926.590          40.000  
R02  19921780.336 8 106306035.507 8     -2559.512          51.000    19921781.961 7  82682473.980 7     -1990.732          47.000  
R13  19532446.648 6 104301789.459 6      1294.195          40.000    19532447.781 7  81123615.652 7      1006.597          45.000  
R12  20221903.656 6 108021412.070 6     -2612.910          40.000    20221906.781 6  84016648.490 6     -2032.264          39.000  
E01  23648604.914 8 124274247.650 8       767.309          51.000    23648605.539 8  95223161.202 8       587.989          51.000  
E19  25699782.000 8 135053236.929 8     -2200.148          48.000    25699783.227 7 103482357.179 7     -1685.766          47.000  
E21  24994184.898 7 131345305.195 7     -1925.188          42.000    24994186.508 7 100641236.208 7     -1475.067          43.000  
E04  23532238.508 8 123662745.640 8       512.531          51.000    23532239.250 8  94754570.700 8       392.686          51.000  
C24  21889942.242 8 113986698.918 8      -680.137          51.000                                                                  
C25  23408859.039 8 121896042.972 8      2189.684          51.000                                                                  
C14  22880900.828 7 119146873.184 7     -2517.219          45.000    22880899.734 8  92131910.047 8     -1946.259          49.000  
C05  39802420.469 6 207261648.014 6        14.277          36.000    39802418.367 6 160267840.594 6        11.273          39.000  
> 2020 05 17 04 12 30.0000000  0 15      -0.000000000000
G13  20203939.570 8 106172412.819 8       513.496          51.000    20203937.578 8  82731725.362 8       400.127          49.000  
G28  20893125.047 8 109794162.585 8      -303.938          51.000    20893123.539 8  85553909.153 8      -236.834          49.000  
G05  22480782.695 7 118137311.967 7     -3155.703          46.000    22480785.109 7  92055010.923 7     -2458.990          46.000  
R14  23127292.391 6 123281104.584 6      3755.402          41.000    23127296.391 6  95885321.010 6      2920.866          41.000  
R02  19936225.133 8 106383112.843 8     -2579.227          51.000    19936226.133 8  82742422.961 8     -2006.066          48.000  
R13  19525228.664 6 104263246.805 6      1274.898          39.000    19525230.664 7  81093638.010 7       991.585          46.000  
R12  20236612.773 7 108099984.535 7     -2625.359          43.000    20236615.617 6  84077760.338 6     -2041.947          38.000  
E01  23644258.523 8 124251408.078 8       755.246          51.000    23644259.219 8  95205660.735 8       578.651          51.000  
E19  25712362.898 7 135119352.763 7     -2207.652          47.000    25712365.227 8 103533017.326 8     -1691.456          48.000  
E21  25005197.234 6 131403176.701 6     -1933.152          41.000    25005198.977 7 100685579.320 7     -1481.167          43.000  
E04  23529341.766 8 123647522.603 8       502.277          51.000    23529342.453 8  94742906.277 8       384.898          51.000  
C24  21893891.562 8 114007264.620 8      -691.020          51.000                                                                  
C25  23396268.000 8 121830473.795 8      2181.344          51.000                                                                  
C14  22895431.945 7 119222541.872 7     -2527.738          46.000    22895430.625 8  92190421.875 8     -1954.536          50.000  
C05  39802336.562 6 207261210.495 6        14.215          36.000    39802334.375 6 160267502.249 6        11.152          39.000  
> 2020 05 17 04 13  0.0000000  0 16      -0.000000000000
G30  22110469.305 5 116191297.233 5     -2413.863          35.000    22110470.312 5  90538669.820 5     -1880.933          34.000  
G13  20201045.039 8 106157201.842 8       501.016          51.000    20201043.266 8  82719872.638 8       390.402          50.000  
G28  20894911.773 8 109803552.536 8      -321.586          51.000    20894910.266 8  85561225.999 8      -250.587          49.000  
G05  22498826.148 8 118232127.297 8     -3164.680          49.000    22498827.852 8  92128892.992 8     -2465.985          49.000  
R14  23106180.180 6 123168557.206 6      3748.578          41.000    23106183.828 6  95797784.109 6      2915.558          40.000  
R02  19950781.320 8 106460786.297 8     -2598.375          51.000    19950782.586 8  82802835.609 8     -2020.959          50.000  
R13  19518121.141 6 104225293.765 6      1255.855          40.000    19518123.664 7  81064118.968 7       976.774          45.000  
R12  20251392.594 6 108178934.732 6     -2637.117          38.000    20251395.047 6  84139166.029 6     -2051.089          37.000  
E01  23639982.344 8 124228937.929 8       743.398          51.000    23639983.453 8  95188443.359 8       569.638          51.000  
E19  25724987.406 7 135185697.165 7     -2214.719          46.000    25724990.766 8 103583852.617 8     -1696.990          48.000  
E21  25016256.008 6 131461291.464 6     -1940.609          40.000    25016257.961 7 100730108.790 7     -1486.994          42.000  
E04  23526503.852 8 123632609.174 8       492.445          51.000    23526504.523 8  94731479.094 8       377.361          51.000  
C24  21897903.898 8 114028158.557 8      -701.422          51.000                                                                  
C25  23383724.727 8 121765158.235 8      2173.527          51.000                                                                  
C14  22910026.211 8 119298535.488 8     -2537.961          48.000    22910024.406 8  92249184.949 8     -1962.486          50.000  
C05  39802251.984 6 207260770.090 6        15.379          36.000    39802249.836 6 160267161.682 6        11.693          39.000  
> 2020 05 17 04 13 30.0000000  0 16      -0.000000000000
G13  20198227.367 8 106142394.828 8       487.035          51.000    20198225.781 8  82708334.693 8       379.505          49.000  
G28  20896804.594 8 109813499.638 8      -340.734          51.000    20896802.984 8  85568976.974 8      -265.507          48.000  
G05  22516925.828 8 118327236.598 8     -3174.969          50.000    22516926.070 8  92203004.126 8     -2474.002          51.000  
R14  23085112.086 6 123056248.856 6      3739.891          41.000    23085115.320 6  95710433.111 6      2908.798          37.000  
R02  19965450.445 8 106539063.418 8     -2619.035          51.000    19965452.227 8  82863717.817 8     -2037.028          51.000  
R13  19511126.008 6 104187940.524 6      1235.215          40.000    19511128.523 7  81035066.455 7       960.726          45.000  
R12  20266243.992 7 108258268.954 7     -2650.766          43.000    20266246.195 6  84200870.376 6     -2061.710          37.000  
E01  23635778.328 8 124206846.411 8       730.223          51.000    23635779.500 8  95171516.089 8       559.516          51.000  
E19  25737657.078 7 135252278.821 7     -2223.066          47.000    25737660.930 8 103634869.727 8     -1703.449          48.000  
E21  25027362.867 6 131519657.205 6     -1949.625          38.000    25027364.859 7 100774830.565 7     -1493.756          42.000  
E04  23523726.742 8 123618015.594 8       481.285          51.000    23523727.383 8  94720296.991 8       368.753          51.000  
C24  21901980.773 8 114049388.861 8      -713.152          51.000                                                                  
C25  23371231.125 8 121700105.927 8      2164.156          51.000                                                                  
C14  22924685.016 8 119374861.740 8     -2549.480          51.000    22924682.500 8  92308205.222 8     -1971.499          51.000  
C26  24304316.422 5 126558954.232 5     -2735.684          33.000                                                                  
C05  39802168.648 6 207260336.135 6        14.234          36.000    39802166.461 6 160266826.064 6        11.369          39.000  
> 2020 05 17 04 14  0.0000000  0 16      -0.000000000000
G13  20195484.555 8 106127981.076 8       473.824          51.000    20195483.023 8  82697103.186 8       369.214          50.000  
G28  20898800.961 8 109823991.324 8      -358.770          51.000    20898799.430 8  85577152.324 8      -279.561          48.000  
G05  22535078.609 8 118422624.888 8     -3184.273          51.000    22535077.047 8  92277332.624 8     -2481.253          51.000  
R14  23064085.883 7 122944169.456 7      3732.125          42.000    23064088.273 6  95623260.172 6      2902.761          36.000  
R02  19980229.781 8 106617930.138 8     -2638.746          51.000    19980232.117 8  82925058.616 8     -2052.358          51.000  
R13  19504240.852 6 104151174.948 6      1215.859          41.000    19504243.797 7  81006471.016 7       945.672          45.000  
R12  20281165.148 6 108337972.078 6     -2662.895          38.000    20281168.094 6  84262861.623 6     -2071.141          39.000  
E01  23631644.180 8 124185121.571 8       717.934          51.000    23631645.453 8  95154869.761 8       550.090          51.000  
E19  25750369.906 7 135319085.317 7     -2230.844          46.000    25750374.180 8 103686059.096 8     -1709.274          49.000  
E21  25038514.312 6 131578260.535 6     -1957.367          38.000    25038517.055 7 100819734.471 7     -1499.957          42.000  
E04  23521008.367 8 123603730.925 8       470.953          51.000    23521008.922 8  94709351.583 8       360.875          51.000  
C24  21906119.742 8 114070942.770 8      -723.992          51.000                                                                  
C25  23358786.820 8 121635305.551 8      2155.738          51.000                                                                  
C14  22939405.266 8 119451507.319 8     -2560.078          51.000    22939402.055 8  92367472.417 8     -1979.775          51.000  
C26  24320075.508 5 126641045.282 5     -2737.430          32.000                                                                  
C05  39802084.250 6 207259896.82126        14.699          36.000    39802082.070 6 160266486.368 6        11.303          39.000  
> 2020 05 17 04 14 30.0000000  0 16      -0.000000000000
G13  20192816.727 8 106113961.178 8       468.641          51.000    20192815.148 8  82686178.578 8       365.175          50.000  
G28  20900900.844 8 109835026.478 8      -369.047          51.000    20900899.289 8  85585751.141 8      -287.569          48.000  
G05  22553283.844 8 118518289.358 8     -3185.516          51.000    22553280.484 8  92351876.316 8     -2482.221          51.000  
R14  23043103.141 7 122832320.229 7      3732.562          43.000    23043103.062 5  95536266.345 5      2903.108          34.000  
R02  19995118.984 8 106697384.361 8     -2650.195          51.000    19995121.773 8  82986856.367 8     -2061.263          50.000  
R13  19497465.672 6 104114995.762 6      1204.242          41.000    19497468.773 7  80978331.667 7       936.633          45.000  
R12  20296153.180 6 108418040.409 6     -2666.930          39.000    20296157.984 6  84325137.036 6     -2074.282          39.000  
E01  23627579.633 8 124163762.887 8       713.812          51.000    23627581.344 8  95138504.005 8       546.903          51.000  
E19  25763124.953 7 135386115.750 7     -2230.152          46.000    25763129.500 8 103737420.062 8     -1708.927          48.000  
E21  25049710.477 6 131637099.738 6     -1957.270          40.000    25049713.828 7 100864819.012 7     -1499.697          42.000  
E04  23518348.922 8 123589755.738 8       468.527          51.000    23518349.312 8  94698643.309 8       359.038          51.000  
C24  21910320.977 8 114092818.845 8      -726.762          51.000                                                                  
C25  23346391.523 8 121570757.178 8      2155.285          51.000                                                                  
C14  22954185.930 8 119528470.291 8     -2562.898          50.000    22954182.398 8  92426985.024 8     -1981.766          51.000  
C26  24335849.562 5 126723216.986 5     -2732.078          32.000                                                                  
C05  39801998.781 6 207259451.864 6        22.430          36.000    39801996.617 6 160266142.260 6        17.456          39.000  
> 2020 05 17 04 15  0.0000000  0 16      -0.000000000000
G13  20190206.977 8 106100246.816 8       445.453          51.000    20190205.461 8  82675492.052 8       347.106          51.000  
G28  20903087.039 8 109846514.937 8      -397.113          51.000    20903085.523 8  85594703.197 8      -309.439          48.000  
G05  22571523.922 8 118614137.974 8     -3204.523          51.000    22571519.430 8  92426563.502 8     -2497.035          51.000  
R14  23022147.594 7 122720612.629 7      3714.609          43.000    23022145.203 6  95449382.698 6      2889.144          36.000  
R02  20010101.125 8 106777333.141 8     -2679.867          51.000    20010104.305 8  83049038.739 8     -2084.344          50.000  
R13  19490783.258 6 104079312.534 6      1174.422          41.000    19490786.180 7  80950578.080 7       913.439          44.000  
R12  20311193.188 6 108498380.429 6     -2689.258          39.000    20311197.852 6  84387623.648 6     -2091.648          40.000  
E01  23623567.781 8 124142680.973 8       691.516          51.000    23623569.953 8  95122350.324 8       529.890          51.000  
E19  25775905.898 7 135453280.310 7     -2247.719          46.000    25775909.664 7 103788883.782 7     -1722.168          47.000  
E21  25060934.617 6 131696083.952 6     -1975.258          40.000    25060937.602 6 100910014.687 6     -1513.366          41.000  
E04  23515731.641 8 123576001.660 8       448.164          51.000    23515731.906 8  94688104.468 8       343.405          51.000  
C24  21914566.875 8 114114927.526 8      -747.332          51.000                                                                  
C25  23334027.500 8 121506372.859 8      2136.938          51.000                                                                  
C14  22969009.422 8 119605660.659 8     -2583.227          49.000    22969006.156 8  92486673.474 8     -1997.545          51.000  
C26  24351625.133 5 126805379.807 5     -2744.875          32.000                                                                  
C05  39801895.234 5 207258912.877 5        13.113          35.000    39801893.156 6 160265725.451 6        10.176          39.000  
> 2020 05 17 04 15 30.0000000  0 16      -0.000000000000
G13  20187696.102 8 106087052.004 8       434.172          51.000    20187694.547 8  82665210.357 8       338.316          51.000  
G28  20905399.852 8 109858668.618 8      -413.301          51.000    20905398.219 8  85604173.596 8      -322.056          48.000  
G05  22589838.531 8 118710380.218 8     -3211.637          51.000    22589834.078 8  92501557.428 8     -2502.578          51.000  
R14  23001259.453 6 122609264.048 6      3708.605          41.000    23001257.359 6  95362778.238 6      2884.469          38.000  
R02  20025216.016 8 106857990.167 8     -2697.320          51.000    20025219.516 8  83111771.939 8     -2097.919          49.000  
R13  19484234.492 7 104044340.734 7      1156.832          42.000    19484236.695 7  80923377.799 7       899.761          44.000  
R12  20326323.695 6 108579204.920 6     -2699.059          39.000    20326328.250 6  84450487.187 6     -2099.268          39.000  
E01  23619649.297 8 124122088.355 8       681.246          51.000    23619651.688 8  95106571.563 8       521.964          51.000  
E19  25788752.898 8 135520790.998 8     -2253.195          48.000    25788754.961 7 103840612.723 7     -1726.550          46.000  
E21  25072226.828 6 131755424.313 6     -1981.094          38.000    25072228.812 6 100955483.279 6     -1517.931          40.000  
E04  23513197.078 8 123562682.306 8       439.633          51.000    23513197.445 8  94677898.717 8       336.898          51.000  
C24  21918897.641 8 114137478.509 8      -756.105          51.000                                                                  
C25  23321734.820 8 121442363.778 8      2130.305          50.000                                                                  
C14  22983916.461 8 119683287.609 8     -2591.918          48.000    22983913.758 8  92546699.526 8     -2004.227          51.000  
C26  24367440.023 6 126887743.130 6     -2746.484          37.000                                                                  
C05  39801814.102 6 207258490.593 6        14.855          36.000    39801812.047 6 160265398.889 6        11.644          39.000  
> 2020 05 17 04 16  0.0000000  0 16      -0.000000000000
G13  20185257.648 8 106074237.749 8       420.785          51.000    20185255.906 8  82655225.211 8       327.885          51.000  
G28  20907812.461 8 109871346.955 8      -431.336          51.000    20907810.648 8  85614052.824 8      -336.106          48.000  
G05  22608200.266 8 118806873.107 8     -3220.613          49.000    22608196.750 8  92576746.656 8     -2509.570          50.000  
R14  22980411.430 6 122498134.626 6      3700.629          38.000    22980411.070 6  95276344.243 6      2878.264          40.000  
R02  20040436.336 8 106939211.972 8     -2716.852          51.000    20040440.602 8  83174944.395 8     -2113.110          49.000  
R13  19477792.570 7 104009939.202 7      1137.109          42.000    19477794.445 7  80896621.037 7       884.419          45.000  
R12  20341517.641 6 108660368.872 6     -2711.152          39.000    20341520.969 6  84513614.695 6     -2108.675          38.000  
E01  23615797.336 8 124101845.063 8       668.949          51.000    23615799.734 8  95091060.457 8       512.560          51.000  
E19  25801639.555 8 135588507.629 8     -2260.660          49.000    25801639.344 7 103892499.475 7     -1732.183          45.000  
E21  25083559.844 6 131814979.522 6     -1988.504          38.000    25083561.367 6 101001116.495 6     -1523.857          41.000  
E04  23510718.781 8 123549658.729 8       429.238          51.000    23510719.469 8  94667919.604 8       328.876          51.000  
C24  21923286.570 8 114160332.170 8      -766.828          51.000                                                                  
C25  23309487.914 8 121378591.765 8      2121.766          51.000                                                                  
C14  22998880.461 8 119761210.906 8     -2602.418          48.000    22998878.359 8  92606954.788 8     -2012.301          51.000  
C26  24383268.180 6 126970167.168 6     -2748.332          39.000                                                                  
C05  39801728.805 6 207258045.474 6        14.883          36.000    39801726.742 6 160265055.452 6        11.702          39.000  
> 2020 05 17 04 16 30.0000000  0 16      -0.000000000000
G13  20182894.703 8 106061820.367 8       407.699          51.000    20182892.781 8  82645549.319 8       317.685          51.000  
G28  20910327.609 8 109884564.586 8      -449.137          51.000    20910325.836 8  85624352.270 8      -349.980          48.000  
G05  22626611.875 8 118903629.929 8     -3229.125          48.000    22626609.461 8  92652141.562 8     -2516.202          49.000  
R14  22959607.016 6 122387241.569 6      3693.047          40.000    22959608.711 6  95190094.081 6      2872.370          40.000  
R02  20055765.102 8 107021011.980 8     -2735.824          49.000    20055769.820 8  83238566.599 8     -2127.864          49.000  
R13  19471459.977 7 103976122.446 7      1117.980          43.000    19471461.836 7  80870319.100 7       869.537          46.000  
R12  20356777.820 6 108741884.787 6     -2722.852          38.000    20356779.984 6  84577015.918 6     -2117.774          38.000  
E01  23612014.820 8 124081966.323 8       656.988          51.000    23612017.031 8  95075828.686 8       503.359          51.000  
E19  25814568.180 8 135656445.064 8     -2267.887          50.000    25814566.508 7 103944555.366 7     -1737.825          44.000  
E21  25094936.703 6 131874763.525 6     -1996.266          40.000    25094938.234 6 101046924.994 6     -1529.496          41.000  
E04  23508299.961 8 123536947.263 8       418.910          51.000    23508300.953 8  94658179.633 8       321.007          51.000  
C24  21927736.367 8 114183502.700 8      -777.215          51.000                                                                  
C25  23297290.070 8 121315072.533 8      2113.457          51.000                                                                  
C14  23013904.227 8 119839444.321 8     -2612.469          48.000    23013902.711 8  92667449.845 8     -2020.236          51.000  
C26  24399112.055 6 127052666.086 6     -2750.816          38.000                                                                  
C05  39801642.250 6 207257595.773 6        15.879          36.000    39801640.219 6 160264706.934 6        11.895          39.000  
> 2020 05 17 04 17  0.0000000  0 16      -0.000000000000
G13  20180608.211 8 106049804.713 8       394.148          51.000    20180606.148 8  82636186.462 8       307.132          51.000  
G28  20912945.961 8 109898324.229 8      -467.344          51.000    20912944.180 8  85635074.058 8      -364.164          49.000  
G05  22645073.500 7 119000651.745 7     -3238.074          46.000    22645072.133 7  92727742.969 7     -2523.176          46.000  
R14  22938849.180 7 122276590.646 7      3684.707          43.000    22938851.492 6  95104032.279 6      2865.887          40.000  
R02  20071202.266 8 107103392.046 8     -2755.266          48.000    20071207.352 8  83302639.974 8     -2142.982          48.000  
R13  19465237.656 7 103942894.484 7      1098.012          42.000    19465239.242 7  80844475.099 7       854.009          45.000  
R12  20372103.492 4 108823753.364 4     -2733.480          28.000    20372106.016 6  84640691.431 6     -2126.044          37.000  
E01  23608302.406 8 124062455.780 8       644.602          51.000    23608304.500 8  95060879.049 8       493.913          51.000  
E19  25827539.312 8 135724606.451 8     -2275.301          50.000    25827536.055 7 103996782.869 7     -1743.533          43.000  
E21  25106357.547 6 131934778.655 6     -2003.961          41.000    25106359.555 6 101092910.580 6     -1535.468          41.000  
E04  23505941.469 8 123524552.610 8       408.191          51.000    23505942.477 8  94648682.418 8       312.764          51.000  
C24  21932247.570 8 114206992.803 8      -787.984          51.000                                                                  
C25  23285141.289 8 121251810.313 8      2104.824          50.000                                                                  
C14  23028988.250 8 119917990.093 8     -2623.000          48.000    23028987.016 8  92728186.412 8     -2028.264          51.000  
C26  24414971.695 5 127135242.472 5     -2753.906          32.000                                                                  
C05  39801555.125 5 207257142.423 5        15.164          35.000    39801553.172 6 160264356.338 6        11.931          38.000  
> 2020 05 17 04 17 30.0000000  0 16      -0.000000000000
G30  22235900.055 6 116850433.95626     -2468.066          37.000                                                                  
G13  20178414.867 8 106038278.680 8       378.426          51.000    20178412.688 8  82627205.126 8       294.877          51.000  
G28  20915683.812 8 109912711.770 8      -487.590          51.000    20915682.211 8  85646285.119 8      -379.940          49.000  
G05  22663601.602 7 119098022.354 7     -3248.953          46.000    22663600.953 7  92803616.183 7     -2531.649          46.000  
R14  22918154.156 7 122166271.615 7      3674.168          43.000    22918156.922 6  95018228.629 6      2857.690          39.000  
R02  20086764.570 8 107186437.896 8     -2776.789          50.000    20086769.523 7  83367231.199 7     -2159.725          47.000  
R13  19459141.633 6 103910343.730 6      1076.289          41.000    19459143.250 7  80819157.838 7       837.114          45.000  
R12  20387511.047 6 108906039.706 6     -2748.199          36.000    20387513.945 6  84704708.542 6     -2137.492          37.000  
E01  23604676.539 8 124043400.046 8       630.129          51.000    23604678.523 8  95046277.898 8       482.850          51.000  
E19  25840569.375 8 135793078.011 8     -2285.020          50.000    25840566.266 7 104049248.008 7     -1750.845          45.000  
E21  25117838.711 6 131995110.124 6     -2013.816          40.000    25117841.062 6 101139138.543 6     -1543.016          41.000  
E04  23503659.797 8 123512562.449 8       395.406          51.000    23503660.633 8  94639495.137 8       302.977          51.000  
C24  21936836.367 8 114230887.405 8      -800.801          51.000                                                                  
C25  23273057.734 8 121188891.503 8      2093.953          49.000                                                                  
C14  23044148.422 8 119996932.527 8     -2635.504          49.000    23044147.391 8  92789229.676 8     -2037.939          51.000  
C05  39801484.156 6 207256772.326 6        13.547          36.000    39801482.055 6 160264070.145 6        10.333          38.000  
> 2020 05 17 04 18  0.0000000  0 16      -0.000000000000
G13  20176281.047 8 106027065.076 8       367.348          51.000    20176278.711 8  82618467.240 8       286.245          51.000  
G28  20918507.109 8 109927548.025 8      -503.203          51.000    20918505.516 8  85657845.836 8      -392.106          49.000  
G05  22682162.125 7 119195560.348 7     -3255.332          46.000    22682161.789 7  92879619.827 7     -2536.623          46.000  
R14  22897487.281 7 122056105.766 7      3668.441          42.000    22897491.188 6  94932544.053 6      2853.230          40.000  
R02  20102418.578 8 107269966.948 8     -2793.582          51.000    20102422.359 7  83432198.210 7     -2172.790          47.000  
R13  19453138.445 7 103878288.642 7      1058.984          42.000    19453140.539 7  80794226.099 7       823.655          46.000  
R12  20402966.766 6 108988599.809 6     -2757.387          39.000    20402970.242 5  84768921.955 5     -2144.635          35.000  
E01  23601103.281 8 124024620.761 8       620.254          51.000    23601104.969 8  95031888.562 8       475.263          51.000  
E19  25853624.109 8 135861681.080 8     -2290.121          48.000    25853622.336 7 104101813.917 7     -1754.691          46.000  
E31  26304416.945 6 138230647.723 6      2746.570          40.000    26304422.133 7 105917003.624 7      2104.498          43.000  
E21  25129345.914 6 132055578.224 6     -2019.129          37.000    25129348.484 6 101185471.258 6     -1546.988          40.000  
E04  23501421.320 8 123500799.483 8       387.188          51.000    23501421.898 8  94630481.948 8       296.667          51.000  
C24  21941468.750 8 114255008.845 8      -808.945          51.000                                                                  
C25  23261006.633 8 121126139.917 8      2087.797          50.000                                                                  
C14  23059350.641 8 120076093.518 8     -2643.391          50.000    23059349.023 8  92850441.945 8     -2044.095          50.000  
C05  39801395.305 6 207256309.060 6        15.668          36.000    39801393.086 6 160263711.870 6        12.445          39.000  
> 2020 05 17 04 18 30.0000000  0 18      -0.000000000000
G24  24040194.914 6 126332072.980 6      3154.773          36.000                                                                  
G13  20174217.266 8 106016219.217 8       353.406          51.000    20174214.773 8  82610015.911 8       275.382          51.000  
G28  20921426.086 8 109942886.917 8      -521.641          51.000    20921424.258 8  85669798.209 8      -406.473          49.000  
G05  22700765.055 8 119293317.833 8     -3264.355          48.000    22700764.453 7  92955794.471 7     -2543.654          47.000  
R14  22876858.195 7 121946149.448 7      3659.605          42.000    22876864.852 6  94847022.402 6      2846.357          41.000  
R02  20118173.336 8 107354031.862 8     -2813.113          51.000    20118176.219 7  83497581.994 7     -2187.978          47.000  
R13  19447238.539 7 103846783.894 7      1039.086          42.000    19447240.812 7  80769722.402 7       808.178          46.000  
R12  20418479.477 6 109071465.446 6     -2769.297          38.000    20418481.484 5  84833372.905 5     -2153.901          32.000  
E01  23597592.781 8 124006171.907 8       607.449          51.000    23597594.172 8  95017752.421 8       465.439          51.000  
E19  25866713.664 7 135930469.073 7     -2297.938          47.000    25866713.148 7 104154521.579 7     -1760.812          47.000  
E31  26288748.055 6 138148314.003 6      2740.402          39.000    26288754.320 7 105853916.716 7      2099.581          44.000  
E21  25140888.664 6 132116235.702 6     -2027.008          39.000    25140891.523 6 101231949.080 6     -1553.166          39.000  
E04  23499236.547 8 123489318.808 8       376.047          51.000    23499237.078 8  94621685.060 8       288.119          51.000  
C24  21946154.938 8 114279409.752 8      -820.043          51.000                                                                  
C25  23248998.445 8 121063609.674 8      2078.551          50.000                                                                  
C14  23074604.883 8 120155525.104 8     -2654.297          50.000    23074602.180 8  92911863.454 8     -2052.420          49.000  
C26  24462626.516 5 127383348.122 5     -2760.859          32.000                                                                  
C05  39801298.742 5 207255806.254 5        15.504          35.000    39801296.594 6 160263323.050 6        12.031          39.000  
> 2020 05 17 04 19  0.0000000  0 17      -0.000000000000
G24  24022189.148 5 126237452.467 5      3153.414          34.000                                                                  
G13  20172230.102 8 106005775.922 8       342.953          51.000    20172227.438 8  82601878.275 8       267.236          51.000  
G28  20924446.992 8 109958761.396 8      -536.520          51.000    20924445.062 8  85682167.923 8      -418.067          49.000  
G05  22719415.742 8 119391325.654 8     -3269.445          48.000    22719414.273 8  93032164.175 8     -2547.621          48.000  
R14  22856275.281 7 121836439.284 7      3654.387          42.000    22856284.305 7  94761692.150 7      2842.298          43.000  
R02  20134034.500 8 107438664.851 8     -2828.914          51.000    20134036.453 7  83563407.622 7     -2200.267          47.000  
R13  19441448.250 7 103815863.706 7      1022.590          42.000    19441450.539 7  80745673.351 7       795.348          46.000  
E01  23594151.492 8 123988087.311 8       598.309          51.000    23594152.641 8  95003895.385 8       458.445          51.000  
E19  25879844.102 7 135999475.654 7     -2302.367          45.000    25879846.180 8 104207396.739 8     -1764.146          49.000  
E31  26273110.234 6 138066153.238 6      2737.262          38.000    26273119.227 7 105790962.302 7      2097.500          45.000  
E21  25152473.477 6 132177115.178 6     -2031.344          41.000    25152475.828 6 101278596.941 6     -1556.557          38.000  
E04  23497112.102 8 123478155.325 8       368.375          51.000    23497112.883 8  94613131.202 8       282.256          51.000  
C24  21950900.875 8 114304122.748 8      -827.438          51.000                                                                  
C25  23237039.344 8 121001334.909 8      2073.113          50.000                                                                  
C14  23089916.852 8 120235259.451 8     -2661.367          49.000    23089913.539 8  92973519.056 8     -2057.836          49.000  
C26  24478536.273 5 127466161.10825     -2760.871          30.000                                                                  
C05  39801201.109 5 207255297.735 5        19.469          35.000    39801198.992 6 160262929.841 6        14.420          39.000  
> 2020 05 17 04 19 30.0000000  0 18      -0.000000000000
G24  24004213.852 4 126142994.84624      3148.402          27.000                                                                  
G13  20170327.633 8 105995777.883 8       327.180          51.000    20170324.852 8  82594087.589 8       254.945          51.000  
G28  20927577.414 8 109975211.536 8      -556.562          51.000    20927575.383 8  85694986.203 8      -433.685          49.000  
G05  22738121.367 7 119489622.798 7     -3280.008          47.000    22738118.570 7  93108759.316 7     -2555.854          47.000  
R14  22835748.695 7 121727018.981 7      3643.938          43.000    22835758.094 7  94676587.422 7      2834.174          45.000  
R02  20150009.000 8 107523906.450 8     -2850.094          51.000    20150010.867 7  83629706.613 7     -2216.740          47.000  
R13  19435775.102 7 103785570.023 7      1000.719          42.000    19435777.609 7  80722111.599 7       778.337          45.000  
R12  20449699.867 6 109238271.468 6     -2790.754          36.000    20449706.758 5  84963121.297 5     -2170.590          35.000  
E01  23590787.383 8 123970408.353 8       583.953          51.000    23590788.156 8  94990349.161 8       447.436          51.000  
E19  25893024.172 7 136068741.583 7     -2311.824          46.000    25893028.367 8 104260470.649 8     -1771.360          49.000  
E31  26257513.852 6 137984207.957 6      2729.371          38.000    26257525.125 7 105728173.051 7      2091.263          45.000  
E21  25164108.227 6 132238256.679 6     -2040.961          40.000    25164109.359 6 101325445.557 6     -1563.869          38.000  
E04  23495056.070 8 123467351.523 8       355.434          51.000    23495057.086 8  94604852.945 8       272.372          51.000  
C24  21955714.438 8 114329187.972 8      -839.988          51.000                                                                  
C25  23225137.336 8 120939357.276 8      2062.320          51.000                                                                  
C14  23105293.711 7 120315336.087 7     -2673.465          47.000    23105291.133 8  93035439.338 8     -2067.329          50.000  
C26  24494473.773 4 127549133.594 4     -2765.641          29.000                                                                  
C05  39801110.312 6 207254825.799 6        16.355          36.000    39801108.250 6 160262564.096 6        12.572          39.000  
> 2020 05 17 04 20  0.0000000  0 17      -0.000000000000
G13  20168526.055 8 105986310.185 8       313.527          51.000    20168523.406 8  82586710.150 8       244.307          51.000  
G28  20930833.297 8 109992320.982 8      -574.430          51.000    20930831.273 8  85708318.225 8      -447.608          50.000  
G05  22756897.281 7 119588289.913 7     -3288.371          47.000    22756893.375 7  93185642.744 7     -2562.368          47.000  
R14  22815293.586 7 121617975.582 7      3635.289          45.000    22815301.789 7  94591775.902 7      2827.451          45.000  
R02  20166111.938 8 107609839.544 8     -2869.035          49.000    20166114.812 7  83696543.433 7     -2231.472          47.000  
R13  19430235.570 7 103755988.320 7       981.172          42.000    19430237.484 7  80699103.616 7       763.134          45.000  
R12  20465433.617 6 109322309.522 6     -2801.891          37.000    20465437.352 5  85028484.184 5     -2179.255          33.000  
E01  23587516.336 8 123953218.906 8       571.699          51.000    23587516.828 8  94977178.018 8       438.053          51.000  
E19  25906270.391 7 136138350.566 7     -2319.176          47.000    25906275.180 8 104313807.374 8     -1776.948          49.000  
E31  26241976.133 6 137902563.293 6      2723.629          38.000    26241988.117 7 105665614.136 7      2086.776          46.000  
E21  25175808.438 5 132299742.698 5     -2048.207          34.000    25175808.914 6 101372558.219 6     -1569.655          38.000  
E04  23493084.664 8 123456992.337 8       344.781          51.000    23493085.852 8  94596915.371 8       264.147          51.000  
C24  21960611.594 8 114354687.679 8      -850.414          51.000                                                                  
C25  23213308.383 8 120877760.431 8      2053.629          50.000                                                                  
C14  23120751.719 7 120395836.743 7     -2683.629          46.000    23120750.672 8  93097687.526 8     -2075.168          51.000  
C26  24510451.547 5 127632293.036 5     -2768.039          34.000                                                                  
C05  39801042.344 6 207254471.75126        16.465          36.000    39801040.297 6 160262290.265 6        12.819          39.000  
> 2020 05 17 04 20 30.0000000  0 17      -0.000000000000
G13  20166775.398 8 105977110.352 8       298.848          51.000    20166772.953 8  82579541.440 8       232.868          51.000  
G28  20934164.258 8 110009825.146 8      -593.402          51.000    20934162.398 8  85721957.833 8      -462.392          50.000  
G05  22775693.242 7 119687061.363 7     -3297.441          47.000    22775688.992 7  93262607.482 7     -2569.436          47.000  
R14  22794859.180 7 121509043.719 7      3625.766          45.000    22794866.086 7  94507051.123 7      2820.041          45.000  
R02  20182293.648 8 107696194.323 8     -2888.926          49.000    20182297.898 7  83763708.251 7     -2246.946          45.000  
R13  19424779.234 7 103726850.580 7       960.477          43.000    19424781.008 7  80676440.938 7       747.037          46.000  
R12  20481200.867 5 109406535.478 5     -2813.641          33.000    20481202.773 5  85093993.170 5     -2188.391          33.000  
E01  23584288.062 8 123936255.336 8       558.285          51.000    23584288.562 8  94964179.960 8       427.804          51.000  
E19  25919532.211 8 136208038.810 8     -2327.793          48.000    25919536.617 8 104367204.835 8     -1783.536          49.000  
E31  26226446.695 6 137820956.867 6      2716.371          39.000    26226458.117 7 105603084.501 7      2081.275          45.000  
E21  25187523.172 6 132361327.413 6     -2056.938          36.000    25187524.562 6 101419731.978 6     -1576.018          38.000  
E04  23491148.062 8 123446815.214 8       332.867          51.000    23491149.203 8  94589117.306 8       255.033          51.000  
C24  21965541.609 8 114380359.744 8      -861.938          51.000                                                                  
C25  23201502.359 8 120816283.776 8      2044.047          49.000                                                                  
C14  23136241.406 7 120476498.665 7     -2694.758          47.000    23136241.227 8  93160060.446 8     -2083.770          51.000  
C26  24526408.156 5 127715354.269 5     -2771.004          35.000                                                                  
C05  39800947.102 6 207253975.619 6        15.609          36.000    39800945.039 6 160261906.616 6        12.134          39.000  
> 2020 05 17 04 21  0.0000000  0 18      -0.000000000000
G13  20165108.562 8 105968350.822 8       285.484          51.000    20165106.133 8  82572715.815 8       222.455          51.000  
G17  24586076.156 6 129200692.545 6      2824.570          36.000    24586074.430 6 100675861.550 6      2200.971          36.000  
G28  20937602.766 8 110027894.406 8      -610.809          51.000    20937601.000 8  85736037.760 8      -475.955          50.000  
G05  22794541.219 7 119786105.728 7     -3305.176          47.000    22794537.219 7  93339784.870 7     -2575.462          47.000  
R14  22774477.344 7 121400398.800 7      3617.438          43.000    22774483.797 7  94422549.501 7      2813.560          44.000  
R02  20198588.070 8 107783142.393 8     -2907.348          51.000    20198591.758 7  83831334.481 7     -2261.274          44.000  
R13  19419438.281 6 103698330.549 6       941.418          41.000    19419440.352 7  80654258.671 7       732.214          46.000  
R12  20497034.938 6 109491120.375 6     -2824.293          37.000    20497039.039 5  85159781.465 5     -2196.670          35.000  
E01  23581135.289 8 123919688.593 8       546.473          51.000    23581135.680 8  94951485.958 8       418.762          51.000  
E19  25932841.352 8 136277976.555 8     -2334.570          48.000    25932844.719 8 104420793.440 8     -1788.786          48.000  
E31  26210957.562 6 137739560.848 6      2710.543          40.000    26210967.555 7 105540716.083 7      2076.893          44.000  
E21  25199285.984 6 132423142.683 6     -2063.918          41.000    25199288.258 6 101467096.824 6     -1580.819          37.000  
E04  23489278.875 8 123436992.262 8       322.465          51.000    23489279.938 8  94581590.618 8       247.039          51.000  
C24  21970536.930 8 114406372.720 8      -871.848          51.000                                                                  
C25  23189752.102 8 120755097.380 8      2035.578          49.000                                                                  
C14  23151795.391 8 120557489.933 8     -2704.395          49.000    23151795.031 8  93222688.024 8     -2091.156          51.000  
C26  24542380.500 6 127798513.744 6     -2772.969          37.000                                                                  
C05  39800857.094 6 207253507.149 6        15.531          36.000    39800855.008 6 160261544.312 6        12.387          38.000  
> 2020 05 17 04 21 30.0000000  0 18      -0.000000000000
G13  20163518.664 8 105959995.487 8       271.832          51.000    20163516.133 8  82566205.161 8       211.817          51.000  
G17  24569960.477 5 129116009.914 5      2821.633          34.000    24569956.023 5 100609875.074 5      2198.669          33.000  
G28  20941141.570 8 110046490.909 8      -628.562          51.000    20941139.859 8  85750528.534 8      -489.789          49.000  
G05  22813433.625 7 119885382.984 7     -3313.137          46.000    22813429.758 7  93417143.732 7     -2581.666          46.000  
R14  22754141.609 7 121292005.537 7      3608.941          43.000    22754149.016 7  94338243.563 7      2806.955          43.000  
R02  20214986.961 8 107870644.455 8     -2925.812          51.000    20214989.430 7  83899391.546 7     -2275.635          45.000  
R13  19414205.578 7 103670390.193 7       921.816          42.000    19414207.844 7  80632527.270 7       716.968          46.000  
R12  20512929.133 6 109576024.029 6     -2835.426          40.000    20512934.180 5  85225817.667 5     -2205.335          32.000  
E01  23578051.055 8 123903481.766 8       534.281          51.000    23578051.234 8  94939067.738 8       409.355          51.000  
E19  25946190.727 8 136348126.765 8     -2341.668          49.000    25946192.703 7 104474544.858 7     -1794.365          47.000  
E31  26195502.000 6 137658339.543 6      2704.188          39.000    26195509.578 7 105478481.526 7      2072.322          42.000  
E21  25211089.195 6 132485169.219 6     -2071.066          41.000    25211092.312 6 101514623.621 6     -1586.850          36.000  
E04  23487470.203 8 123427487.658 8       311.504          51.000    23487471.297 8  94574307.846 8       238.694          51.000  
C24  21975590.828 8 114432689.218 8      -882.203          51.000                                                                  
C25  23178051.055 8 120694165.275 8      2026.859          50.000                                                                  
C14  23167405.617 8 120638772.616 8     -2714.145          48.000    23167404.391 8  93285540.942 8     -2098.776          51.000  
C26  24558362.844 6 127881734.099 6     -2775.391          36.000                                                                  
C05  39800765.586 6 207253029.957 6        16.008          36.000    39800763.422 6 160261175.292 6        12.451          39.000  
> 2020 05 17 04 22  0.0000000  0 19      -0.000000000000
G13  20162008.398 8 105952058.752 8       257.953          51.000    20162005.859 8  82560020.686 8       200.999          51.000  
G17  24553864.102 5 129031424.476 5      2818.465          34.000    24553858.719 5 100543964.401 5      2196.207          31.000  
G28  20944783.070 8 110065626.877 8      -646.594          51.000    20944781.078 7  85765439.664 7      -503.839          47.000  
G05  22832372.305 7 119984903.882 7     -3321.129          44.000    22832368.500 7  93494692.454 7     -2587.894          44.000  
R03  19420795.719 6 103960660.873 6      1153.438          38.000    19420794.523 5  80858282.379 5       897.121          35.000  
R14  22733857.219 7 121183878.828 7      3600.145          46.000    22733864.469 7  94254144.992 7      2800.113          43.000  
R02  20231491.875 8 107958711.893 8     -2944.562          51.000    20231493.219 7  83967888.395 7     -2290.216          47.000  
R13  19409084.375 7 103643042.670 7       902.020          43.000    19409086.438 7  80611256.965 7       701.571          45.000  
R12  20528885.117 5 109661256.993 5     -2846.074          35.000    20528888.078 4  85292109.836 4     -2213.617          29.000  
E01  23575037.828 8 123887648.005 8       521.957          51.000    23575038.000 8  94926935.374 8       399.923          51.000  
E19  25959582.750 8 136418502.059 8     -2349.246          49.000    25959583.898 7 104528468.720 7     -1800.040          47.000  
E31  26180082.664 6 137577307.281 6      2698.336          40.000    26180087.297 6 105416391.910 6      2067.524          41.000  
E21  25222935.039 6 132547419.006 6     -2078.695          37.000    25222938.820 6 101562321.410 6     -1592.324          36.000  
E04  23485724.852 8 123418315.651 8       300.555          51.000    23485725.859 8  94567279.933 8       230.268          51.000  
C24  21980705.336 8 114459321.405 8      -892.551          51.000                                                                  
C25  23166401.695 8 120633501.110 8      2018.055          51.000                                                                  
C14  23183073.492 7 120720358.288 7     -2724.180          47.000    23183071.938 8  93348628.115 8     -2106.539          50.000  
C26  24574357.164 5 127965027.440 5     -2777.359          33.000                                                                  
C05  39800674.883 6 207252558.377 6        16.402          36.000    39800672.719 6 160260809.893 6        12.291          39.000  
> 2020 05 17 04 22 30.0000000  0 19      -0.000000000000
G13  20160575.805 8 105944530.577 8       244.629          51.000    20160573.359 8  82554154.564 8       190.620          51.000  
G17  24537785.070 5 128946928.301 5      2815.746          35.000    24537778.570 5 100478123.178 5      2194.079          30.000  
G28  20948524.875 8 110085290.370 8      -663.879          50.000    20948522.812 8  85780761.854 8      -517.308          48.000  
G05  22851354.500 6 120084654.660 6     -3328.266          41.000    22851350.828 6  93572420.295 6     -2593.455          41.000  
R03  19414393.516 6 103926406.410 6      1130.906          38.000    19414393.445 5  80831640.027 5       879.594          35.000  
R14  22713622.258 8 121076009.301 8      3591.891          48.000    22713628.148 7  94170246.487 7      2793.693          43.000  
R02  20248099.586 8 108047330.833 8     -2962.602          51.000    20248100.609 8  84036814.221 8     -2304.246          49.000  
R13  19404071.836 7 103616276.616 7       882.777          42.000    19404073.977 7  80590438.921 7       686.605          45.000  
R12  20544899.227 4 109746804.728 4     -2856.684          29.000    20544899.766 5  85358646.963 5     -2221.862          30.000  
E01  23572093.570 8 123872175.903 8       510.191          51.000    23572093.742 8  94915080.123 8       390.920          51.000  
E19  25973015.367 8 136489090.657 8     -2356.027          48.000    25973015.633 7 104582556.039 7     -1805.215          47.000  
E31  26164697.641 6 137496454.009 6      2692.648          40.000    26164699.641 6 105354439.422 6      2063.134          40.000  
E21                                                                  25234825.445 6 101610180.565 6     -1597.805          37.000  
E04  23484040.875 8 123409465.940 8       290.090          51.000    23484041.703 8  94560498.976 8       222.301          51.000  
C24  21985878.000 8 114486257.155 8      -902.453          51.000                                                                  
C25  23154801.617 8 120573094.209 8      2009.719          51.000                                                                  
C14  23198796.492 7 120802234.284 7     -2733.617          46.000    23198795.070 8  93411939.770 8     -2113.758          50.000  
C26  24590363.266 5 128048381.699 5     -2778.766          32.000                                                                  
C05  39800583.008 6 207252079.565 6        16.418          36.000    39800580.781 6 160260439.567 6        12.988          39.000  
> 2020 05 17 04 23  0.0000000  0 19      -0.000000000000
G13  20159221.680 8 105937414.479 8       230.938          51.000    20159219.266 8  82548609.532 8       179.951          51.000  
G17  24521723.883 5 128862562.69725      2812.441          35.000                                                                  
G28  20952367.367 8 110105482.749 8      -681.188          50.000    20952365.297 7  85796496.165 7      -530.796          46.000  
G05  22870379.539 6 120184634.550 6     -3335.734          38.000    22870376.219 6  93650326.721 6     -2599.274          38.000  
R03  19408123.086 6 103892851.363 6      1107.309          38.000    19408126.656 6  80805541.672 6       861.237          36.000  
R14  22693436.430 8 120968400.771 8      3583.211          49.000    22693440.641 7  94086550.981 7      2786.942          43.000  
R02  20264809.680 8 108136501.479 8     -2980.918          50.000    20264811.672 8  84106169.150 8     -2318.495          50.000  
R13  19399168.594 7 103590093.525 7       863.738          43.000    19399171.031 7  80570074.286 7       671.797          46.000  
R12  20560972.844 6 109832666.824 6     -2866.777          38.000    20560976.648 5  85425428.634 5     -2229.719          34.000  
E01  23569218.484 8 123857067.494 8       498.148          51.000    23569218.812 8  94903503.538 8       381.680          51.000  
E19  25986488.992 8 136559894.362 8     -2363.031          48.000    25986488.828 7 104636808.197 7     -1810.773          47.000  
E31  26149347.750 6 137415782.946 6      2686.559          38.000    26149347.859 6 105292626.539 6      2058.587          40.000  
E21                                                                  25246751.984 6 101658201.665 6     -1602.842          36.000  
E04  23482418.844 8 123400941.718 8       279.285          51.000    23482419.578 8  94553967.417 8       214.031          51.000  
C24  21991109.227 8 114513497.626 8      -912.391          51.000                                                                  
C25  23143251.141 8 120512947.221 8      2001.238          50.000                                                                  
C14  23214575.500 7 120884401.158 7     -2743.133          47.000    23214574.406 8  93475476.371 8     -2121.228          50.000  
C26  24606379.867 5 128131884.083 5     -2781.770          30.000                                                                  
C05  39800490.281 6 207251596.719 6        16.359          36.000    39800488.086 6 160260066.166 6        13.124          39.000  
> 2020 05 17 04 23 30.0000000  0 19      -0.000000000000
G13  20157947.125 8 105930716.149 8       214.969          51.000    20157944.672 8  82543390.042 8       167.508          51.000  
G17  24505686.367 5 128778250.15125      2806.852          33.000                                                                  
G28  20956310.992 8 110126207.693 8      -701.066          50.000    20956309.055 7  85812645.488 7      -546.283          46.000  
G05  22889447.875 6 120284845.913 6     -3345.469          37.000    22889445.500 6  93728413.434 6     -2606.863          38.000  
R03  19401986.086 6 103860003.518 6      1081.727          39.000    19401991.078 6  80779993.313 6       841.340          37.000  
R14  22673300.141 8 120861060.429 8      3572.176          48.000    22673303.070 7  94003064.061 7      2778.359          42.000  
R02  20281622.656 7 108226226.336 7     -3001.391          47.000    20281626.672 8  84175955.156 8     -2334.412          50.000  
R13  19394375.562 7 103564498.643 7       841.906          42.000    19394378.195 7  80550167.164 7       654.816          45.000  
R12  20577107.172 5 109918845.418 5     -2879.324          31.000    20577113.719 5  85492456.384 5     -2239.475          34.000  
E01  23566413.336 8 123842327.599 8       483.852          51.000    23566414.117 8  94892209.321 8       370.699          51.000  
E19  26000004.477 8 136630917.600 8     -2372.465          48.000    26000003.766 7 104691228.562 7     -1817.816          47.000  
E31  26134033.406 6 137335300.145 6      2678.410          39.000    26134032.641 6 105230957.936 6      2052.101          41.000  
E21  25258715.039 5 132735440.470 5     -2101.270          35.000    25258718.477 6 101706387.533 6     -1609.762          36.000  
E04  23480859.938 8 123392748.884 8       266.152          51.000    23480860.531 8  94547689.784 8       203.968          51.000  
C24  21996399.875 8 114541046.829 8      -924.703          51.000                                                                  
C25  23131751.141 8 120453065.628 8      1990.328          50.000                                                                  
C14  23230411.758 8 120966862.308 8     -2754.941          48.000    23230410.719 8  93539240.553 8     -2130.320          51.000  
C26  24622407.367 5 128215347.399 5     -2785.949          31.000                                                                  
C05  39800397.750 6 207251114.92526        14.703          36.000    39800395.555 6 160259693.622 6        11.391          38.000  
> 2020 05 17 04 24  0.0000000  0 17      -0.000000000000
G13  20156735.680 8 105924349.604 8       206.414          51.000    20156733.195 8  82538429.076 8       160.839          51.000  
G28  20960339.297 8 110147377.113 8      -713.375          51.000    20960337.391 7  85829141.145 7      -555.877          44.000  
G05  22908543.961 6 120385199.122 6     -3347.633          37.000    22908542.617 6  93806610.695 6     -2608.546          37.000  
R03  19395965.086 6 103827776.559 6      1063.547          38.000    19395972.266 6  80754927.885 6       827.200          37.000  
R14  22653197.109 7 120753901.595 7      3568.742          47.000    22653199.555 7  93919718.287 7      2775.686          42.000  
R02  20298522.523 7 108316414.928 7     -3014.277          47.000    20298528.234 8  84246101.891 8     -2344.438          50.000  
R13  19389676.062 7 103539402.850 7       827.871          43.000    19389678.680 7  80530648.224 7       643.900          45.000  
E01  23563661.914 8 123827868.939 8       477.051          51.000    23563662.852 8  94881130.590 8       365.455          51.000  
E19  26013545.008 7 136702072.749 7     -2374.305          47.000    26013543.844 7 104745750.041 7     -1819.279          47.000  
E31  26118737.953 6 137254919.628 6      2677.340          39.000    26118736.516 7 105169367.683 7      2051.430          42.000  
E21  25270706.281 5 132798456.687 5     -2102.488          33.000    25270708.125 5 101754670.373 5     -1611.169          35.000  
E04  23479347.680 8 123384801.290 8       260.504          51.000    23479348.109 8  94541600.058 8       199.598          51.000  
C24  22001733.031 8 114568817.429 8      -929.621          51.000                                                                  
C25  23120285.414 8 120393363.507 8      1986.809          50.000                                                                  
C14  23246288.031 8 121049529.862 8     -2759.277          49.000    23246286.961 8  93603164.328 8     -2133.688          51.000  
C26  24638430.211 5 128298808.227 5     -2782.352          34.000                                                                  
C05  39800288.852 6 207250548.11726        19.867          36.000    39800286.742 6 160259255.300 6        15.332          39.000  
> 2020 05 17 04 24 30.0000000  0 18      -0.000000000000
G13  20155625.242 8 105918513.851 8       189.844          51.000    20155622.789 8  82533881.728 8       147.930          51.000  
G28  20964489.773 8 110169188.068 8      -733.598          50.000    20964487.945 7  85846136.694 7      -571.635          45.000  
G05  22927703.320 5 120485888.565 5     -3357.641          32.000    22927704.266 5  93885070.039 5     -2616.347          33.000  
R03  19390098.797 6 103796374.772 6      1036.938          40.000    19390105.617 6  80730504.244 6       806.510          37.000  
R14  22633166.219 8 120647126.485 8      3556.918          48.000    22633168.766 7  93836670.963 7      2766.489          42.000  
R02  20315547.977 8 108407266.141 8     -3035.184          51.000    20315553.414 8  84316763.966 8     -2360.699          49.000  
R13  19385107.516 7 103515006.741 7       805.672          42.000    19385109.961 7  80511673.457 7       626.631          45.000  
R12  20609564.000 6 110092168.651 6     -2896.945          38.000    20609534.648 4  85627193.981 4     -2253.186          28.000  
E01  23561001.625 8 123813889.138 8       462.141          51.000    23561002.703 8  94870418.783 8       354.051          51.000  
E19  26027147.641 7 136773557.048 7     -2384.375          46.000    26027147.016 7 104800523.703 7     -1826.867          46.000  
E31  26103498.859 6 137174840.337 6      2668.148          40.000    26103497.242 7 105108008.206 7      2044.636          43.000  
E21                                                                  25282759.195 5 101803194.738 5     -1618.670          35.000  
E04  23477919.891 8 123377297.705 8       246.797          51.000    23477920.234 8  94535850.558 8       189.080          51.000  
C24  22007145.961 8 114597004.480 8      -942.465          51.000                                                                  
C25  23108892.609 8 120334037.350 8      1975.379          51.000                                                                  
C14  23262241.188 8 121132598.278 8     -2771.566          49.000    23262239.758 8  93667398.078 8     -2143.142          50.000  
C26  24654488.297 5 128382442.846 5     -2786.934          34.000                                                                  
C05  39800201.312 6 207250091.467 6        17.020          36.000    39800199.188 6 160258902.911 6        13.577          39.000  
> 2020 05 17 04 25  0.0000000  0 18      -0.000000000000
G13  20154587.641 8 105913061.005 8       171.570          51.000    20154585.195 8  82529632.745 8       133.691          51.000  
G28  20968733.781 8 110191490.454 8      -755.352          51.000    20968732.117 7  85863515.205 7      -588.583          46.000  
G05  22946897.930 5 120586764.025 5     -3368.766          32.000    22946901.398 5  93963674.332 5     -2625.013          33.000  
R03  19384358.961 6 103765648.657 6      1009.051          40.000    19384365.102 6  80706606.140 6       784.817          37.000  
R14  22613179.695 8 120540586.324 8      3543.586          48.000    22613182.336 7  93753806.406 7      2756.126          43.000  
R02  20332669.719 8 108498626.375 8     -3057.500          51.000    20332674.227 8  84387821.913 8     -2378.056          49.000  
R13  19380641.406 7 103491158.582 7       782.156          42.000    19380644.070 7  80493124.882 7       608.344          45.000  
R12  20625868.789 6 110179264.729 6     -2911.707          37.000    20625842.109 4  85694935.222 4     -2264.667          29.000  
E01  23558404.094 8 123800239.261 8       445.844          51.000    23558405.508 8  94859959.778 8       341.624          51.000  
E19  26040784.016 7 136845221.401 7     -2395.598          44.000    26040784.773 7 104855435.358 7     -1835.499          47.000  
E31  26088287.922 6 137094914.524 6      2657.980          40.000    26088287.406 7 105046766.353 7      2036.627          44.000  
E21                                                                  25294844.156 5 101851857.579 5     -1627.128          34.000  
E04  23476548.305 8 123370090.311 8       231.695          51.000    23476548.805 8  94530327.996 8       177.548          51.000  
C24  22012610.336 8 114625459.594 8      -956.711          51.000                                                                  
C25  23097544.250 8 120274940.240 8      1962.391          51.000                                                                  
C14  23278242.398 8 121215918.563 8     -2785.207          49.000    23278239.992 8  93731826.572 8     -2153.621          49.000  
C26  24670553.469 5 128466102.859 5     -2792.605          33.000                                                                  
C05  39800106.914 6 207249600.603 6        13.336          36.000    39800104.711 6 160258522.576 6        10.309          38.000  
> 2020 05 17 04 25 30.0000000  0 17      -0.000000000000
G13  20153634.336 8 105908052.033 8       160.703          50.000    20153632.008 8  82525729.636 8       125.220          50.000  
G28  20973082.609 8 110214343.416 8      -769.719          51.000    20973080.953 7  85881322.705 7      -599.781          47.000  
G05  22966140.117 6 120687881.667 6     -3373.305          37.000    22966144.203 6  94042467.342 6     -2628.550          37.000  
R03  19378757.953 6 103735661.742 6       988.199          40.000    19378763.141 6  80683282.976 6       768.600          38.000  
R14  22593248.312 7 120434343.350 7      3537.621          45.000    22593251.891 7  93671173.001 7      2751.484          44.000  
R02  20349897.695 8 108590554.237 8     -3072.449          51.000    20349901.570 8  84459321.311 8     -2389.686          48.000  
R13  19376289.695 7 103467919.236 7       765.781          43.000    19376292.062 7  80475049.815 7       595.608          45.000  
E01  23555880.570 8 123786978.833 8       436.703          51.000    23555882.484 8  94849799.184 8       334.638          51.000  
E19  26054465.766 7 136917124.853 7     -2399.465          43.000    26054468.594 8 104910530.195 8     -1838.591          48.000  
E31  26073118.031 6 137015203.031 6      2654.777          41.000    26073119.062 7 104985688.681 7      2034.181          45.000  
E21  25306974.305 5 132989045.534 5     -2127.363          34.000    25306974.164 5 101900697.658 5     -1630.073          35.000  
E04  23475244.492 8 123363239.790 8       223.582          51.000    23475245.203 8  94525078.885 8       171.277          51.000  
C24  22018137.453 8 114654240.990 8      -963.598          51.000                                                                  
C25  23086250.984 8 120216131.826 8      1956.703          49.000                                                                  
C14  23294302.789 8 121299548.275 8     -2791.539          49.000    23294299.008 8  93796494.347 8     -2158.599          48.000  
C26  24686636.516 5 128549846.503 5     -2791.395          30.000                                                                  
C05                                                                  39800014.648 6 160258160.217 6        12.668          38.000  
> 2020 05 17 04 26  0.0000000  0 18      -0.000000000000
G13  20152769.266 8 105903507.294 8       142.863          50.000    20152767.188 8  82522188.267 8       111.322          50.000  
G28  20977539.648 8 110237765.065 8      -791.039          51.000    20977538.000 7  85899573.345 7      -616.394          47.000  
G05  22985432.172 5 120789258.411 5     -3384.422          35.000    22985435.234 6  94121462.152 6     -2637.216          36.000  
R03  19373298.664 6 103706436.206 6       960.492          40.000    19373303.688 6  80660551.977 6       747.047          38.000  
R14  22573375.055 7 120328418.975 7      3524.668          42.000    22573381.430 7  93588787.359 7      2741.409          45.000  
R02  20367234.891 8 108683066.903 8     -3094.258          51.000    20367238.266 7  84531275.540 7     -2406.646          47.000  
R13  19372055.094 7 103445307.117 7       742.305          42.000    19372057.367 7  80457462.615 7       577.351          45.000  
R12  20658663.609 5 110354472.179 5     -2932.078          34.000    20658634.664 4  85831152.28524     -2280.512          25.000  
E01  23553434.844 8 123774127.102 8       420.742          51.000    23553437.070 8  94839951.746 8       322.351          51.000  
E19  26068196.961 7 136989286.379 7     -2410.438          43.000    26068201.789 8 104965822.750 8     -1846.966          48.000  
E31  26057993.812 7 136935726.349 7      2644.621          44.000    26057996.141 7 104924790.938 7      2026.285          46.000  
E21  25319152.133 6 133053040.355 6     -2138.051          36.000    25319151.852 5 101949728.809 5     -1638.403          35.000  
E04  23474012.570 8 123356766.494 8       208.668          51.000    23474013.320 8  94520118.820 8       159.874          51.000  
C24  22023730.633 8 114683366.943 8      -977.438          51.000                                                                  
C25  23075015.758 8 120157631.907 8      1943.961          48.000                                                                  
C14  23310425.883 8 121383505.148 8     -2804.902          48.000    23310421.438 8  93861415.089 8     -2168.872          49.000  
C26  24702740.367 5 128633692.150 5     -2796.828          30.000                                                                  
C05  39799935.203 6 207248706.266 6        12.523          36.000    39799932.969 6 160257830.953 6         9.681          38.000  
> 2020 05 17 04 26 30.0000000  0 19      -0.000000000000
G15  20915372.742 4 109911025.54524      1801.582          29.000                                                                  
G13  20151971.969 8 105899318.649 8       132.172          50.000    20151970.289 8  82518924.363 8       102.991          50.000  
G17  24409865.539 5 128274700.903 5      2785.359          33.000    24409873.148 5  99954328.949 5      2170.423          32.000  
G28  20982084.000 8 110261645.357 8      -805.137          51.000    20982082.344 8  85918181.363 8      -627.379          48.000  
G05  23004752.180 6 120890782.702 6     -3387.715          36.000    23004754.086 6  94200571.909 6     -2639.779          37.000  
R03  19367961.688 7 103677863.204 7       940.117          42.000    19367965.477 6  80638328.533 6       731.202          38.000  
R14  22553542.172 7 120222704.580 7      3518.848          43.000    22553550.500 7  93506565.033 7      2736.882          46.000  
R02  20384660.336 8 108776051.204 8     -3108.785          51.000    20384662.898 7  84603596.614 7     -2417.948          46.000  
R13  19367917.227 7 103423211.671 7       726.699          42.000    19367919.570 7  80440277.271 7       565.211          44.000  
R12  20675133.203 5 110442469.614 5     -2939.516          31.000                                                                  
E01  23551046.258 8 123761574.880 8       411.902          51.000    23551048.516 8  94830333.794 8       315.605          51.000  
E19  26081957.180 7 137061596.616 7     -2414.418          44.000    26081962.922 7 105021229.254 7     -1849.959          47.000  
E31  26042894.469 7 136856376.540 7      2641.430          46.000    26042897.711 8 104863990.429 8      2023.915          48.000  
E21  25331354.453 5 133117169.272 5     -2141.375          34.000    25331355.031 5 101998866.493 5     -1641.106          35.000  
E04  23472832.000 8 123350562.376 8       200.727          51.000    23472832.781 8  94515365.005 8       153.822          51.000  
C24  22029369.000 8 114712728.468 8      -984.105          51.000                                                                  
C25  23063819.656 8 120099332.849 8      1938.395          49.000                                                                  
C14  23326590.766 8 121467679.566 8     -2810.945          49.000    23326586.625 8  93926504.065 8     -2173.647          51.000  
C05  39799841.016 6 207248215.311 6        15.344          36.000    39799838.672 6 160257451.284 6        12.149          38.000  
> 2020 05 17 04 27  0.0000000  0 17      -0.000000000000
G13  20151259.102 8 105895572.760 8       119.027          50.000    20151257.516 8  82516005.485 8        92.749          50.000  
G17  24393978.258 6 128191207.026 6      2782.105          36.000    24393975.500 5  99889268.977 5      2167.878          35.000  
G28  20986731.617 8 110286068.320 8      -821.535          51.000    20986729.906 8  85937212.249 8      -640.154          48.000  
G05  23024116.062 6 120992537.014 6     -3394.082          36.000    23024118.984 6  94279860.984 6     -2644.737          36.000  
R03  19362763.578 7 103650032.323 7       916.961          44.000    19362765.891 6  80616682.290 6       713.192          40.000  
R14  22533766.742 7 120117288.379 7      3510.590          46.000    22533775.164 7  93424574.653 7      2730.459          46.000  
R02  20402190.078 8 108869591.706 8     -3125.629          51.000    20402191.789 7  84676350.312 7     -2431.045          47.000  
R13  19363892.281 6 103401719.118 6       707.918          41.000    19363894.828 7  80423560.847 7       550.603          44.000  
E01  23548730.836 8 123749407.251 8       400.797          51.000    23548733.039 8  94821010.546 8       307.146          51.000  
E19  26095762.383 7 137134140.143 7     -2420.355          46.000    26095768.156 7 105076814.517 7     -1854.580          47.000  
E31  26027836.242 7 136777240.063 7      2635.969          47.000    26027839.750 8 104803353.366 8      2019.820          48.000  
E21                                                                  25343599.875 5 102048175.039 5     -1645.159          35.000  
E04  23471719.172 8 123344713.660 8       190.695          51.000    23471719.953 8  94510883.517 8       146.174          51.000  
C24  22035068.656 8 114742409.144 8      -993.090          51.000                                                                  
C25  23052679.250 8 120041319.656 8      1930.723          50.000                                                                  
C14  23342813.578 8 121552154.487 8     -2819.164          49.000    23342810.016 8  93991825.419 8     -2179.984          51.000  
C05  39799750.492 6 207247744.898 6        17.043          36.000    39799748.195 6 160257086.768 6        13.016          38.000  
> 2020 05 17 04 27 30.0000000  0 19      -0.000000000000
G30  22523716.695 5 118362924.20925     -2572.133          30.000                                                                  
G13  20150617.773 8 105892202.694 8       105.383          50.000    20150616.117 8  82513379.446 8        82.117          49.000  
G17  24378104.977 5 128107791.080 5      2778.754          34.000    24378104.602 5  99824269.512 5      2165.260          35.000  
G28  20991469.414 8 110310965.318 8      -838.453          51.000    20991467.867 8  85956612.497 8      -653.340          48.000  
G05  23043510.516 6 121094450.836 6     -3400.098          40.000    23043514.602 6  94359274.339 6     -2649.427          41.000  
R03  19357691.180 7 103622876.488 7       893.285          44.000    19357693.289 6  80595561.094 6       694.774          41.000  
R14  22514035.492 7 120012103.264 7      3501.715          47.000    22514042.883 7  93342763.973 7      2723.553          47.000  
R02  20419810.609 8 108963617.312 8     -3142.922          51.000    20419812.109 8  84749481.341 8     -2444.495          48.000  
R13  19359967.281 6 103380760.234 6       689.027          41.000    19359970.125 7  80407259.484 7       535.910          44.000  
R12  20708253.930 5 110619325.36025     -2956.461          35.000    20708227.953 5  86037217.17225     -2299.470          32.000  
E01  23546475.609 8 123737556.122 8       389.148          51.000    23546477.852 8  94811929.815 8       298.152          51.000  
E19  26109599.500 8 137206848.586 8     -2427.062          48.000    26109604.664 7 105132526.157 7     -1859.641          45.000  
E31  26012806.117 7 136698250.023 7      2629.961          47.000    26012809.211 8 104742828.529 8      2015.145          49.000  
E21                                                                  25355874.492 6 102097601.473 6     -1649.948          36.000  
E04  23470661.125 8 123339153.414 8       179.918          51.000    23470661.930 8  94506623.061 8       137.859          51.000  
C24  22040816.703 8 114772340.715 8     -1002.566          51.000                                                                  
C25  23041581.039 8 119983525.580 8      1922.074          49.000                                                                  
C14  23359080.625 8 121636861.038 8     -2828.000          48.000    23359077.945 8  94057325.881 8     -2186.777          51.000  
C05                                                                  39799648.547 6 160256685.501 6        13.460          38.000  
> 2020 05 17 04 28  0.0000000  0 19      -0.000000000000
G30  22538420.453 5 118440198.10425     -2577.488          33.000                                                                  
G13  20150060.102 8 105889272.450 8        90.648          50.000    20150058.367 8  82511096.125 8        70.632          49.000  
G17  24362258.984 4 128024519.038 4      2774.777          29.000    24362258.789 4  99759382.150 4      2162.165          29.000  
G28  20996309.234 8 110336398.206 8      -856.266          50.000    20996307.602 8  85976430.322 8      -667.220          49.000  
G05  23062946.758 7 121196584.273 7     -3407.562          42.000    23062951.438 7  94438858.859 7     -2655.244          42.000  
R03  19352756.523 7 103596462.612 7       868.359          44.000    19352758.898 6  80575016.929 6       675.391          40.000  
R14  22494359.594 7 119907214.997 7      3491.652          46.000    22494365.930 8  93261184.159 8      2715.727          48.000  
R02  20437532.844 8 109058189.508 8     -3161.148          48.000    20437535.258 8  84823037.487 8     -2458.675          48.000  
R13  19356154.039 6 103360398.450 6       669.285          41.000    19356157.000 7  80391422.523 7       520.555          43.000  
E01  23544292.688 8 123726084.421 8       376.457          51.000    23544294.930 8  94803139.816 8       288.439          51.000  
E19  26123479.922 8 137279784.616 8     -2434.637          49.000    26123483.688 7 105188412.188 7     -1865.382          43.000  
E31  25997815.961 7 136619470.642 7      2622.727          47.000    25997818.422 8 104682465.107 8      2009.734          49.000  
E21                                                                  25368191.102 6 102147193.157 6     -1655.703          36.000  
E04  23469670.023 8 123333945.705 8       168.012          51.000    23469671.023 8  94502632.715 8       128.745          51.000  
C24  22046624.664 8 114802584.795 8     -1012.980          51.000                                                                  
C25  23030536.922 8 119926013.650 8      1912.719          50.000                                                                  
C14  23375403.344 7 121721860.179 7     -2837.707          47.000    23375401.805 8  94123052.609 8     -2194.428          51.000  
C26  24767206.734 5 128969340.571 5     -2801.035          32.000                                                                  
C05                                                                  39799551.867 6 160256296.024 6        12.892          38.000  
> 2020 05 17 04 28 30.0000000  0 17      -0.000000000000
G13  20149581.938 8 105886760.235 8        77.207          50.000    20149580.055 8  82509138.537 8        60.161          49.000  
G28  21001246.328 8 110362343.025 8      -872.766          50.000    21001244.773 8  85996647.078 8      -680.077          48.000  
G05  23082420.094 6 121298912.255 6     -3413.879          41.000    23082424.852 6  94518594.983 6     -2660.166          41.000  
R03  19347957.234 7 103570769.266 7       844.973          46.000    19347958.844 6  80555033.232 6       657.201          41.000  
R14  22474734.438 7 119802602.060 7      3483.047          46.000    22474740.258 8  93179818.485 8      2709.034          48.000  
R02  20455351.141 7 109153281.811 7     -3177.895          46.000    20455355.875 7  84896998.171 7     -2471.696          47.000  
R13  19352448.016 6 103340608.815 6       650.656          41.000    19352450.906 7  80376030.591 7       506.066          43.000  
E01  23542177.500 8 123714968.851 8       365.059          51.000    23542179.547 8  94794622.695 8       279.723          51.000  
E19  26137398.891 8 137352924.528 8     -2440.863          49.000    26137399.984 6 105244454.447 6     -1870.270          41.000  
E31  25982861.359 7 136540879.963 7      2617.047          46.000    25982863.477 8 104622246.281 8      2005.193          49.000  
E21                                                                  25380544.797 6 102196931.348 6     -1660.097          37.000  
E04  23468741.961 8 123329068.365 8       157.453          51.000    23468742.922 8  94498895.515 8       120.694          51.000  
C24  22052487.977 8 114833117.543 8     -1022.113          51.000                                                                  
C25  23019542.742 8 119868761.379 8      1904.551          50.000                                                                  
C14  23391777.531 8 121807127.463 8     -2846.246          48.000    23391776.750 8  94188986.675 8     -2200.908          51.000  
C26  24783345.477 5 129053381.085 5     -2801.477          33.000                                                                  
C05                                                                  39799453.836 6 160255900.838 6        13.532          38.000  
> 2020 05 17 04 29  0.0000000  0 18      -0.000000000000
G13  20149176.797 8 105884631.404 8        63.906          51.000    20149174.812 8  82507479.692 8        49.797          49.000  
G28  21006273.781 8 110388762.951 8      -889.195          49.000    21006272.312 8  86017234.028 8      -692.880          48.000  
G05  23101923.094 6 121401396.370 6     -3419.410          40.000    23101926.961 6  94598452.739 6     -2664.479          39.000  
R03  19343286.008 7 103545762.711 7       821.473          46.000    19343287.258 7  80535583.681 7       638.923          42.000  
R14  22455155.078 8 119698230.095 8      3474.336          48.000    22455159.742 7  93098640.286 7      2702.262          47.000  
R02  20473260.938 8 109248856.924 8     -3194.551          48.000    20473266.414 7  84971334.338 7     -2484.654          45.000  
R13  19348842.625 6 103321356.327 6       632.176          40.000    19348845.336 7  80361056.419 7       491.692          43.000  
R12  20758300.398 6 110886624.289 6     -2983.961          36.000    20758275.148 5  86245130.434 5     -2320.862          30.000  
E01  23540123.141 8 123704173.751 8       353.902          51.000    23540124.969 8  94786351.115 8       271.229          51.000  
E19  26151349.320 8 137426232.522 8     -2447.047          48.000    26151347.305 6 105300625.440 6     -1874.894          40.000  
E31  25967935.750 7 136462443.627 7      2611.273          45.000    25967937.773 8 104562145.704 8      2000.898          48.000  
E21                                                                  25392927.781 6 102246787.931 6     -1664.048          37.000  
E04  23467870.438 8 123324486.890 8       147.211          51.000    23467871.008 8  94495385.030 8       112.798          51.000  
C24  22058400.203 8 114863902.914 8     -1031.027          51.000                                                                  
C25  23008591.625 8 119811734.144 8      1896.535          49.000                                                                  
C14  23408196.711 8 121892626.207 8     -2854.398          49.000    23408195.805 8  94255099.689 8     -2207.172          51.000  
C26  24799485.750 5 129137432.093 5     -2802.430          34.000                                                                  
C05  39799349.773 5 207245657.979 5        18.711          35.000    39799347.555 6 160255472.939 6        14.342          38.000  
> 2020 05 17 04 29 30.0000000  0 18      -0.000000000000
G13  20148870.234 8 105883020.792 8        42.898          51.000    20148868.359 8  82506224.653 8        33.427          48.000  
G17  24314871.055 5 127775500.15625      2754.641          32.000                                                                  
G28  21011416.805 8 110415790.510 8      -913.098          48.000    21011415.625 7  86038294.463 7      -711.505          47.000  
G05  23121488.984 5 121504231.30025     -3432.176          31.000    23121484.422 5  94678600.99625     -2674.424          31.000  
R03  19338768.523 7 103521581.267 7       789.957          47.000    19338769.953 7  80516775.877 7       614.408          43.000  
R14  22435647.227 8 119594236.254 8      3458.016          50.000    22435650.398 7  93017756.209 7      2689.568          47.000  
R02  20491287.750 8 109345047.705 8     -3218.805          51.000    20491292.312 7  85046149.288 7     -2503.518          44.000  
R13  19345363.070 6 103302775.214 6       605.668          40.000    19345365.734 7  80346604.430 7       471.075          43.000  
E01  23538155.289 8 123693832.441 8       334.930          51.000    23538156.969 8  94778427.250 8       256.688          51.000  
E19  26165356.633 7 137499841.402 7     -2460.871          47.000    26165351.492 6 105357026.963 6     -1885.427          41.000  
E31  25953064.523 7 136384296.217 7      2597.941          43.000    25953066.812 8 104502266.492 8      1990.635          48.000  
E21                                                                  25405364.305 6 102296864.229 6     -1674.521          38.000  
E04  23467080.828 8 123320335.773 8       128.996          51.000    23467081.047 8  94492204.291 8        98.874          51.000  
C24  22064386.195 8 114895072.275 8     -1047.504          51.000                                                                  
C25  22997708.500 8 119755064.755 8      1880.848          49.000                                                                  
C14  23424685.789 8 121978487.114 8     -2870.242          50.000    23424684.266 8  94321492.744 8     -2219.427          51.000  
C26  24815654.891 5 129221625.016 5     -2811.090          35.000                                                                  
C05  39799260.719 6 207245193.881 6        11.910          36.000    39799258.641 6 160255114.832 6         9.031          39.000  
> 2020 05 17 04 30  0.0000000  0 18      -0.000000000000
G13  20148634.461 8 105881782.249 8        34.094          51.000    20148632.672 8  82505259.526 8        26.567          49.000  
G17  24299123.211 5 127692757.020 5      2755.449          33.000    24299124.883 5  99500835.890 5      2147.101          32.000  
G28  21016647.273 7 110443277.165 7      -924.898          47.000    21016646.258 7  86059712.634 7      -720.700          47.000  
G05  23141071.336 4 121607155.752 4     -3432.613          29.000    23141065.898 4  94758789.214 4     -2674.767          29.000  
R03  19334377.477 7 103498077.234 7       771.262          47.000    19334379.164 7  80498494.950 7       599.870          43.000  
R14  22416182.789 8 119490473.352 8      3453.871          51.000    22416184.867 8  92937051.741 8      2686.345          48.000  
R02  20509401.773 8 109441702.493 8     -3230.566          51.000    20509405.594 7  85121325.168 7     -2512.663          45.000  
R13  19341981.484 6 103284716.279 6       592.602          41.000    19341983.938 7  80332558.581 7       460.912          42.000  
E01  23536245.953 8 123683797.746 8       328.438          51.000    23536247.594 8  94770738.330 8       251.624          51.000  
E19  26179392.766 7 137573603.916 7     -2462.344          45.000    26179386.492 6 105413546.229 6     -1886.678          41.000  
E31  25938219.891 7 136306291.915 7      2596.668          43.000    25938222.898 8 104442496.935 8      1989.689          48.000  
E21                                                                  25417826.195 6 102347046.655 6     -1675.356          36.000  
E04  23466345.383 8 123316468.983 8       123.160          51.000    23466345.273 8  94489241.416 8        94.364          51.000  
C24  22070417.492 8 114926479.087 8     -1051.793          51.000                                                                  
C25  22986866.039 8 119698608.053 8      1877.441          49.000                                                                  
C14  23441216.039 8 122064563.020 8     -2873.746          51.000    23441214.023 8  94388052.027 8     -2222.184          51.000  
C26  24831823.922 5 129305813.419 5     -2806.867          31.000                                                                  
C05  39799161.203 6 207244675.639 6        17.184          36.000    39799159.148 6 160254714.061 6        13.345          39.000  
> 2020 05 17 04 30 30.0000000  0 18      -0.000000000000
G30  22612339.898 5 118828648.11925     -2603.238          34.000                                                                  
G13  20148481.195 8 105880976.473 8        18.562          51.000    20148479.328 8  82504631.629 8        14.464          49.000  
G17  24283405.891 6 127610169.999 6      2749.512          36.000    24283408.305 5  99436502.107 5      2142.477          33.000  
G28  21021976.375 7 110471282.329 7      -943.340          45.000    21021975.250 7  86081534.822 7      -735.070          45.000  
G05  23160689.016 5 121710258.622 5     -3441.059          35.000    23160681.547 5  94839128.988 5     -2681.348          34.000  
R03  19330124.484 7 103475313.927 7       745.285          47.000    19330126.578 7  80480790.121 7       579.666          44.000  
R14  22396773.016 8 119387003.359 8      3442.984          50.000    22396774.781 8  92856575.081 8      2677.874          48.000  
R02  20527613.164 8 109538878.927 8     -3248.945          50.000    20527616.961 7  85196906.877 7     -2526.955          47.000  
R13  19338708.625 6 103267239.181 6       572.051          39.000    19338710.773 7  80318965.291 7       444.928          42.000  
E01  23534406.234 8 123674128.968 8       315.016          51.000    23534407.820 8  94763329.782 8       241.391          51.000  
E19  26193469.234 7 137647578.937 7     -2470.598          45.000    26193464.109 7 105470228.347 7     -1893.018          43.000  
E31  25923413.555 7 136228491.303 7      2588.758          44.000    25923417.602 8 104382883.441 8      1983.694          48.000  
E21                                                                  25430325.516 6 102397379.878 6     -1681.621          36.000  
E04  23465675.508 8 123312946.996 8       110.410          51.000    23465675.133 8  94486542.741 8        84.648          51.000  
C24  22076505.539 8 114958181.402 8     -1062.926          51.000                                                                  
C25  22976076.188 8 119642423.482 8      1867.125          48.000                                                                  
C14  23457798.438 8 122150911.300 8     -2883.852          50.000    23457796.266 8  94454821.944 8     -2230.032          51.000  
C05  39799062.430 6 207244161.465 6        16.012          36.000    39799060.422 6 160254316.453 6        12.236          38.000  
> 2020 05 17 04 31  0.0000000  0 17      -0.000000000000
G13  20148413.359 8 105880619.559 8         4.664          51.000    20148411.492 8  82504353.497 8         3.631          49.000  
G17  24267719.742 5 127527741.191 5      2745.328          34.000    24267722.055 5  99372271.901 5      2139.217          34.000  
G28  21027406.531 7 110499819.309 7      -959.867          45.000    21027405.617 7  86103771.424 7      -747.949          45.000  
G05  23180347.523 5 121813568.301 5     -3446.816          33.000    23180336.820 5  94919629.784 5     -2685.850          33.000  
R03  19326013.484 7 103453308.483 7       721.199          46.000    19326015.445 7  80463674.770 7       560.933          44.000  
R14  22377420.711 8 119283843.800 8      3433.738          49.000    22377422.805 8  92776339.840 8      2670.686          48.000  
R02  20545924.805 8 109636590.662 8     -3265.746          51.000    20545928.016 8  85272904.960 8     -2540.022          48.000  
R13  19335547.250 6 103250358.580 6       553.227          38.000    19335549.602 7  80305835.929 7       430.287          42.000  
E01  23532638.977 8 123664841.186 8       303.488          51.000    23532640.391 8  94756213.163 8       232.537          51.000  
E19  26207588.883 7 137721781.293 7     -2476.953          44.000    26207586.180 7 105527084.662 7     -1897.947          44.000  
E31  25908648.992 7 136150910.752 7      2582.621          45.000    25908654.211 8 104323438.564 8      1978.917          48.000  
E21                                                                  25442865.617 5 102447874.554 5     -1685.584          35.000  
E04  23465074.094 8 123309786.002 8        99.613          51.000    23465073.742 8  94484120.673 8        76.291          51.000  
C24  22082653.188 8 114990193.403 8     -1071.902          51.000                                                                  
C25  22965341.023 7 119586526.680 7      1858.691          45.000                                                                  
C14  23474435.391 8 122237545.547 8     -2892.316          49.000    23474433.703 8  94521813.009 8     -2236.550          51.000  
C05  39798967.539 6 207243666.732 6        16.379          36.000    39798965.484 6 160253933.881 6        12.584          38.000  
> 2020 05 17 04 31 30.0000000  0 18      -0.000000000000
G24  23580260.414 5 123915104.53425      3039.961          35.000                                                                  
G13  20148426.406 8 105880688.013 8        -9.078          51.000    20148424.734 8  82504406.829 8        -7.074          49.000  
G17  24252062.117 6 127445457.183 6      2741.133          36.000    24252062.969 5  99308154.477 5      2135.948          35.000  
G28  21032932.969 7 110528862.525 7      -975.867          44.000    21032932.133 7  86126402.453 7      -760.416          44.000  
G05  23200038.766 5 121917057.174 5     -3451.645          32.000    23200032.914 5  95000270.363 5     -2689.591          31.000  
R03  19322039.812 7 103432038.338 7       696.992          47.000    19322042.188 7  80447131.287 7       542.105          45.000  
R14  22358121.523 8 119180971.227 8      3424.609          49.000    22358124.055 7  92696327.811 7      2663.586          47.000  
R02  20564331.750 8 109734809.928 8     -3282.148          51.000    20564334.461 8  85349297.729 8     -2552.783          49.000  
R13  19332492.461 6 103234049.243 6       534.562          37.000    19332495.641 7  80293150.881 7       415.771          42.000  
E01  23530939.594 8 123655909.401 8       292.062          51.000    23530940.766 8  94749369.315 8       223.818          51.000  
E19  26221747.250 7 137796185.569 7     -2483.223          45.000    26221746.453 7 105584095.729 7     -1902.748          45.000  
E31  25893922.617 7 136073526.580 7      2576.465          47.000    25893928.438 8 104264144.197 8      1974.172          48.000  
E21                                                                  25455441.531 6 102498510.828 6     -1689.876          36.000  
E04  23464536.695 8 123306962.211 8        88.863          51.000    23464536.547 8  94481956.961 8        68.063          51.000  
C24  22088855.367 8 115022489.681 8     -1080.961          51.000                                                                  
C25  22954655.023 7 119530893.590 7      1850.262          42.000                                                                  
C14  23491121.922 8 122324439.562 8     -2900.480          48.000    23491121.242 8  94589004.941 8     -2242.818          51.000  
C05  39798871.617 6 207243168.231 6        16.730          36.000    39798869.547 6 160253547.590 6        13.161          38.000  
> 2020 05 17 04 32  0.0000000  0 19      -0.000000000000
G13  20148514.844 8 105881152.943 8       -22.340          51.000    20148513.383 8  82504769.078 8       -17.408          49.000  
G17  24236426.961 5 127363291.520 5      2736.906          35.000    24236420.617 5  99244129.294 5      2132.658          33.000  
G28  21038549.914 7 110558381.001 7      -991.992          44.000    21038548.953 7  86149403.839 7      -772.981          44.000  
G05  23219761.281 5 122020660.809 5     -3456.664          30.000    23219757.000 5  95081025.529 5     -2693.499          31.000  
R03  19318198.430 7 103411475.243 7       673.422          47.000    19318200.758 7  80431137.746 7       523.773          45.000  
R14  22338870.297 8 119078356.999 8      3415.852          48.000    22338872.781 7  92616516.722 7      2656.774          45.000  
R02  20582826.992 8 109833503.785 8     -3297.938          51.000    20582830.102 8  85426059.550 8     -2565.066          48.000  
R13  19329539.125 6 103218279.918 6       516.227          38.000    19329542.492 7  80280885.859 7       401.513          42.000  
R12  20859821.039 5 111429033.492 5     -3038.047          33.000                                                                  
E01  23529301.984 8 123647303.557 8       281.238          51.000    23529303.211 8  94742775.230 8       215.503          51.000  
E19  26235938.633 7 137870761.717 7     -2488.844          46.000    26235939.820 7 105641238.466 7     -1907.040          46.000  
E31  25879228.969 8 135996310.049 8      2570.828          49.000    25879234.664 8 104204978.273 8      1969.910          49.000  
E21                                                                  25468046.961 5 102549264.890 5     -1693.919          35.000  
E04  23464058.102 8 123304446.727 8        78.492          51.000    23464057.859 8  94480029.494 8        60.125          51.000  
C24  22095106.141 8 115055039.760 8     -1089.453          51.000                                                                  
C25  22944015.094 7 119475495.206 7      1842.383          45.000                                                                  
C14  23507852.555 7 122411562.239 7     -2908.145          47.000    23507852.562 8  94656373.713 8     -2248.720          51.000  
C26  24896589.703 4 129643075.11024     -2811.762          29.000                                                                  
C05  39798769.227 6 207242634.573 6        18.215          36.000    39798767.000 6 160253134.926 6        14.166          38.000  
> 2020 05 17 04 32 30.0000000  0 17      -0.000000000000
G13  20148692.250 8 105882084.893 8       -38.219          51.000    20148690.617 8  82505495.263 8       -29.781          49.000  
G17  24220828.430 5 127281316.356 5      2730.125          33.000    24220819.273 5  99180252.661 5      2127.368          33.000  
G28  21044270.484 7 110588442.778 7     -1010.398          45.000    21044269.430 7  86172828.594 7      -787.324          44.000  
R03  19314502.711 8 103391691.570 8       646.980          48.000    19314504.812 7  80415750.439 7       503.207          45.000  
R14  22319681.023 8 118976073.425 8      3404.652          48.000    22319682.750 7  92536962.807 7      2648.060          43.000  
R02  20601423.828 8 109932740.187 8     -3316.211          51.000    20601426.805 7  85503243.334 7     -2579.279          46.000  
R13  19326700.367 6 103203120.317 6       496.035          39.000    19326703.461 7  80269095.058 7       385.805          42.000  
R12  20876916.453 4 111520353.770 4     -3049.219          28.000                                                                  
E01  23527739.484 8 123639092.859 8       267.801          51.000    23527740.578 8  94736483.914 8       205.246          51.000  
E19  26250176.078 7 137945578.435 7     -2497.172          47.000    26250178.867 7 105698565.522 7     -1913.419          47.000  
E31  25864581.023 8 135919331.675 8      2562.641          50.000    25864585.977 8 104145994.844 8      1963.604          49.000  
E21                                                                  25480694.250 5 102600188.937 5     -1699.696          35.000  
E04  23463651.570 8 123302309.883 8        65.582          51.000    23463651.078 8  94478392.170 8        50.239          51.000  
C24  22101418.648 8 115087911.499 8     -1100.434          51.000                                                                  
C25  22933435.484 7 119420400.715 7      1832.035          47.000                                                                  
C14  23524640.078 7 122498980.804 7     -2918.215          47.000    23524640.133 8  94723971.297 8     -2256.498          51.000  
C05  39798673.477 6 207242135.858 6        16.723          36.000    39798671.250 6 160252749.276 6        12.825          38.000  
> 2020 05 17 04 33  0.0000000  0 18      -0.000000000000
G30  22686957.094 6 119220744.069 6     -2621.348          38.000    22686980.953 4  92899384.699 4     -2042.612          29.000  
G13  20148939.742 8 105883384.719 8       -48.406          51.000    20148937.805 8  82506508.105 8       -37.719          49.000  
G17  24205247.617 6 127199435.465 6      2728.773          36.000    24205241.594 6  99116449.421 6      2126.314          36.000  
G28  21050075.477 7 110618946.768 7     -1023.199          45.000    21050074.016 7  86196597.933 7      -797.295          43.000  
G05  23259310.086 5 122228492.52525     -3465.465          30.000    23259304.289 4  95242962.03224     -2700.363          28.000  
R03  19310934.180 8 103372587.837 8       626.426          48.000    19310936.281 7  80400891.966 7       487.217          46.000  
R14  22300535.133 7 118874020.711 7      3399.008          47.000    22300536.406 7  92457588.488 7      2643.676          43.000  
R02  20620102.219 8 110032415.726 8     -3328.664          48.000    20620104.977 7  85580768.694 7     -2588.961          43.000  
R13  19323956.539 6 103188468.459 6       481.195          39.000    19323959.555 7  80257699.189 7       374.263          42.000  
E01  23526233.242 8 123631177.149 8       260.086          51.000    23526233.992 8  94730418.626 8       199.266          51.000  
E19  26264440.406 7 138020535.211 7     -2499.777          47.000    26264443.930 7 105755999.921 7     -1915.397          46.000  
E31  25849959.500 8 135842492.610 8      2560.102          50.000    25849963.484 8 104087118.166 8      1961.619          49.000  
E21  25493361.789 5 133968509.245 5     -2220.500          34.000    25493363.586 5 102651205.537 5     -1701.312          34.000  
E04  23463297.922 8 123300452.695 8        58.352          51.000    23463297.688 8  94476969.109 8        44.741          51.000  
C24  22107773.984 8 115121005.009 8     -1105.727          51.000                                                                  
C25  22922896.016 7 119365511.577 7      1827.309          47.000                                                                  
C14  23541465.188 7 122586594.624 7     -2922.555          47.000    23541464.859 8  94791719.882 8     -2259.959          50.000  
C05  39798565.500 6 207241573.255 6        20.855          36.000    39798563.211 6 160252314.226 6        16.081          38.000  
> 2020 05 17 04 33 30.0000000  0 19      -0.000000000000
G30  22701983.609 5 119299696.086 5     -2629.316          35.000    22701990.078 5  92960829.911 5     -2048.819          35.000  
G13  20149285.500 8 105885201.016 8       -65.367          51.000    20149283.406 8  82507923.395 8       -50.935          50.000  
G17  24189713.242 6 127117799.620 6      2720.902          39.000    24189708.984 6  99052837.019 6      2120.181          38.000  
G28  21055992.422 8 110650039.248 8     -1042.262          48.000    21055990.711 7  86220825.845 7      -812.152          42.000  
G05  23279140.172 5 122332706.88125     -3474.184          30.000    23279136.570 5  95324168.14525     -2707.157          30.000  
R03  19307521.055 8 103354316.521 8       599.027          49.000    19307522.914 7  80386680.924 7       465.910          46.000  
R14  22281461.633 7 118772350.435 7      3386.504          47.000    22281462.852 7  92378511.657 7      2633.951          45.000  
R02  20638890.383 8 110132677.076 8     -3347.867          49.000    20638892.984 7  85658749.774 7     -2603.894          44.000  
R13  19321336.023 6 103174474.288 6       459.141          38.000    19321338.891 7  80246814.821 7       357.109          43.000  
R12  20911252.039 6 111703691.76126     -3063.840          36.000    20911243.977 5  86880654.96325     -2382.987          30.000  
E01  23524811.047 8 123623703.765 8       245.555          51.000    23524811.805 8  94724692.261 8       188.167          51.000  
E19  26278758.945 7 138095779.460 7     -2509.074          46.000    26278763.102 7 105813654.564 7     -1922.598          46.000  
E31  25835392.320 8 135765941.536 8      2550.730          48.000    25835395.547 8 104028462.154 8      1954.454          50.000  
E21  25506082.180 6 134035370.340 6     -2228.781          36.000    25506083.195 5 102702426.758 5     -1707.858          33.000  
E04  23463025.680 8 123299023.672 8        44.344          51.000    23463025.914 8  94475874.113 8        34.020          51.000  
C24  22114199.812 8 115154465.614 8     -1117.652          51.000                                                                  
C25  22912423.883 7 119310974.537 7      1815.852          47.000                                                                  
C14  23558355.805 7 122674548.409 7     -2933.699          47.000    23558354.453 7  94859731.324 7     -2268.526          47.000  
C05  39798473.281 6 207241093.363 6        18.285          36.000    39798471.164 6 160251943.109 6        14.396          39.000  
> 2020 05 17 04 34  0.0000000  0 19      -0.000000000000
G30  22717005.555 5 119378634.871 5     -2632.820          34.000    22717011.188 5  93022340.449 5     -2051.561          31.000  
G13  20149699.641 8 105887376.950 8       -79.285          51.000    20149697.531 8  82509618.918 8       -61.781          50.000  
G17  24174195.961 6 127036254.045 6      2715.711          37.000    24174191.102 6  98989295.001 6      2116.142          37.000  
G28  21061991.266 8 110681561.535 8     -1058.543          48.000    21061989.141 6  86245388.648 6      -824.839          41.000  
G05  23298990.352 5 122437019.992 5     -3479.645          35.000    23298987.266 5  95405450.947 5     -2711.415          34.000  
R03  19304233.883 8 103336718.940 8       574.637          49.000    19304235.586 7  80372993.902 7       446.940          46.000  
R14  22262430.344 7 118670904.215 7      3377.027          46.000    22262432.406 7  92299609.039 7      2626.577          45.000  
R02  20657759.617 8 110233362.275 8     -3364.012          51.000    20657761.500 7  85737060.489 7     -2616.454          46.000  
R13  19318808.312 6 103160976.028 6       440.852          37.000    19318811.234 7  80236316.178 7       342.885          42.000  
R12  20928482.352 6 111795802.94526     -3071.609          37.000    20928479.078 4  86952280.05824     -2389.033          28.000  
E01  23523442.914 8 123616514.666 8       234.105          51.000    23523443.961 8  94719183.728 8       179.410          51.000  
E19  26293101.703 7 138171152.585 7     -2515.324          45.000    26293106.688 7 105871407.948 7     -1927.393          46.000  
E31  25820849.641 8 135689521.740 8      2544.258          48.000    25820852.422 8 103969906.728 8      1949.578          50.000  
E21  25518826.844 6 134102336.537 6     -2234.516          36.000    25518823.953 5 102753730.786 5     -1712.156          32.000  
E04  23462805.281 8 123297865.912 8        33.285          51.000    23462805.750 8  94474986.977 8        25.549          51.000  
C24  22120665.773 8 115188136.055 8     -1126.582          51.000                                                                  
C25  22901989.219 7 119256633.631 7      1807.441          46.000                                                                  
C14  23575281.406 7 122762684.160 7     -2941.664          47.000    23575278.203 7  94927883.450 7     -2274.639          44.000  
C05  39798367.070 6 207240540.081 6        18.613          36.000    39798364.852 6 160251515.263 6        14.598          38.000  
> 2020 05 17 04 34 30.0000000  0 17      -0.000000000000
G13  20150204.070 8 105890027.766 8       -95.734          51.000    20150202.133 8  82511684.475 8       -74.598          50.000  
G17  24158717.625 6 126954915.978 6      2708.453          36.000    24158712.820 6  98925914.694 6      2110.487          36.000  
G28  21068093.062 8 110713625.716 8     -1077.328          48.000    21068090.602 6  86270373.748 6      -839.474          41.000  
G05  23318879.859 6 122541540.340 6     -3486.816          37.000    23318870.219 5  95486895.170 5     -2717.010          33.000  
R03  19301094.531 8 103319912.786 8       547.574          50.000    19301096.000 7  80359922.443 7       425.891          47.000  
R14  22243463.258 7 118569799.132 7      3364.984          46.000    22243466.898 7  92220971.713 7      2617.211          45.000  
R02  20676729.375 8 110334583.665 8     -3382.328          51.000    20676731.203 8  85815788.186 8     -2630.703          48.000  
R13  19316394.922 6 103148088.844 6       419.992          38.000    19316397.664 7  80226292.781 7       326.661          42.000  
E01  23522150.547 8 123609723.338 8       220.230          51.000    23522151.852 8  94713979.978 8       168.781          51.000  
E19  26307490.711 7 138246767.698 7     -2523.938          45.000    26307496.008 7 105929346.772 7     -1933.954          47.000  
E31  25806354.023 8 135613348.074 8      2535.500          48.000    25806356.211 8 103911539.887 8      1942.790          50.000  
E21  25531613.445 5 134169531.323 5     -2242.242          31.000    25531607.836 5 102805201.852 5     -1718.358          32.000  
E04  23462658.367 8 123297094.109 8        19.809          51.000    23462658.883 8  94474395.586 8        15.190          51.000  
C24  22127193.586 8 115222128.131 8     -1137.980          51.000                                                                  
C25  22891614.086 7 119202602.110 7      1796.527          46.000                                                                  
C14  23592263.133 7 122851113.044 7     -2952.117          46.000    23592258.375 7  94996262.223 7     -2282.541          43.000  
C05                                                                  39798266.180 6 160251117.984 6        13.164          39.000  
> 2020 05 17 04 35  0.0000000  0 17      -0.000000000000
G13  20150790.969 8 105893112.282 8      -109.836          50.000    20150789.195 8  82514087.988 8       -85.586          50.000  
G17  24143270.547 6 126873746.926 6      2702.910          36.000    24143264.961 6  98862666.084 6      2106.164          36.000  
G28  21074289.828 8 110746189.044 8     -1093.484          49.000    21074287.328 6  86295747.762 6      -852.066          41.000  
G05  23338800.344 6 122646223.251 6     -3491.773          39.000    23338791.547 6  95568466.096 6     -2720.869          36.000  
R03  19298095.508 8 103303857.411 8       522.891          50.000    19298096.648 7  80347434.920 7       406.693          47.000  
R14  22224552.578 7 118468994.365 7      3355.277          46.000    22224557.703 7  92142567.993 7      2609.661          45.000  
R02  20695790.570 8 110436296.355 8     -3398.309          50.000    20695792.648 7  85894898.011 7     -2643.133          47.000  
R13  19314088.055 6 103135769.627 6       401.504          38.000    19314090.609 7  80216711.159 7       312.281          42.000  
R12  20963056.430 4 111980499.30024     -3090.633          28.000                                                                  
E01  23520925.789 8 123603287.675 8       208.902          51.000    23520927.352 8  94709048.747 8       160.032          51.000  
E19  26321917.547 7 138322582.659 7     -2530.375          44.000    26321922.961 8 105987438.700 8     -1938.749          48.000  
E31  25791898.023 8 135537379.742 8      2529.105          49.000    25791899.570 8 103853330.364 8      1937.887          51.000  
E04  23462577.016 8 123296667.322 8         8.695          51.000    23462577.586 8  94474068.549 8         6.645          51.000  
C24  22133775.078 8 115256399.500 8     -1146.820          51.000                                                                  
C25  22881288.586 7 119148839.040 7      1787.836          43.000                                                                  
C14  23609293.062 7 122939791.922 7     -2959.793          46.000    23609288.250 7  95064834.327 7     -2288.733          46.000  
C05  39798169.438 6 207239511.995 6        17.152          36.000    39798167.211 6 160250719.466 6        13.644          38.000  
> 2020 05 17 04 35 30.0000000  0 18      -0.000000000000
G30  22762199.742 4 119616168.743 4     -2647.910          28.000    22762203.344 4  93207401.648 4     -2063.316          25.000  
G13  20151415.273 8 105896393.393 8      -124.156          50.000    20151413.594 8  82516644.703 8       -96.745          50.000  
G17  24127811.562 6 126792512.219 6      2697.355          36.000    24127804.820 6  98799366.287 6      2101.836          36.000  
G28  21080535.969 8 110779012.403 8     -1109.930          48.000    21080533.617 6  86321324.413 6      -864.881          41.000  
G05  23358705.961 6 122750828.430 6     -3497.078          39.000    23358699.273 6  95649976.567 6     -2725.000          39.000  
R03  19295191.703 8 103288312.822 8       497.875          50.000    19295192.586 7  80335344.661 7       387.236          47.000  
R14  22205653.336 7 118368250.467 7      3345.496          46.000    22205658.945 7  92064211.610 7      2602.053          44.000  
R02  20714896.586 7 110538256.271 7     -3414.461          46.000    20714900.258 7  85974200.138 7     -2655.692          46.000  
R13  19311842.461 6 103123776.342 6       382.648          38.000    19311844.461 6  80207383.040 6       297.616          41.000  
E01  23519723.305 8 123596969.642 8       197.148          51.000    23519725.227 8  94704207.643 8       151.053          51.000  
E19  26336336.875 7 138398359.114 7     -2536.672          45.000    26336342.477 8 106045501.137 8     -1943.682          49.000  
E31  25777436.094 8 135461380.015 8      2522.387          48.000    25777437.828 8 103795096.789 8      1932.736          51.000  
E04  23462516.273 8 123296348.648 8        -2.648          51.000    23462516.820 8  94473824.361 8        -2.035          51.000  
C24  22140364.672 8 115290713.610 8     -1155.895          51.000                                                                  
C25  22870968.859 7 119095109.159 7      1779.121          45.000                                                                  
C14  23626325.297 7 123028483.658 7     -2967.953          45.000    23626321.625 8  95133416.360 8     -2295.022          49.000  
C26  25010205.602 5 130234699.359 5     -2822.469          30.000                                                                  
C05                                                                  39798022.789 6 160250137.691 6        13.731          38.000  
> 2020 05 17 04 36  0.0000000  0 16      -0.000000000000
G13  20152213.945 8 105900591.003 8      -136.727          49.000    20152212.352 8  82519915.565 8      -106.540          49.000  
G17  24112477.711 6 126711933.694 6      2693.434          38.000    24112471.812 6  98736577.848 6      2098.780          38.000  
G28  21086968.008 8 110812812.853 8     -1124.637          49.000    21086965.828 6  86347662.422 6      -876.341          40.000  
G05  23378733.000 6 122856071.690 6     -3500.516          40.000    23378726.977 6  95731984.262 6     -2727.675          39.000  
R03  19292520.547 8 103274012.212 8       474.711          51.000    19292520.961 7  80324221.975 7       369.220          47.000  
R14  22186902.625 7 118268297.794 7      3337.250          47.000    22186907.297 7  91986470.639 7      2595.639          42.000  
R02  20734185.289 8 110641190.995 8     -3428.664          50.000    20734189.727 7  86054260.451 7     -2666.739          44.000  
R13  19309794.055 6 103112837.690 6       365.824          38.000    19309795.992 7  80198875.186 7       284.530          42.000  
E01  23518679.906 8 123591487.436 8       187.289          51.000    23518682.180 8  94700006.983 8       143.492          51.000  
E19  26350885.820 7 138474815.102 7     -2541.309          46.000    26350891.164 8 106104084.269 8     -1947.261          50.000  
E31  25763104.688 8 135386068.439 8      2517.379          49.000    25763107.719 8 103737390.509 8      1928.881          51.000  
E04  23462612.977 8 123296857.491 8       -12.242          51.000    23462613.656 8  94474214.242 8        -9.431          51.000  
C24  22147099.172 8 115325781.524 8     -1163.188          51.000                                                                  
C25  22860793.648 7 119042124.814 7      1772.121          46.000                                                                  
C14  23643496.281 7 123117898.527 7     -2974.270          46.000    23643494.281 8  95202557.589 8     -2299.870          50.000  
C05  39797971.906 6 207238482.607 6        19.703          36.000    39797969.617 6 160249923.445 6        15.311          38.000  
> 2020 05 17 04 36 30.0000000  0 16      -0.000000000000
G13  20153037.648 8 105904919.926 8      -152.582          49.000    20153036.094 8  82523288.745 8      -118.895          49.000  
G17  24097120.164 6 126631228.643 6      2686.191          40.000    24097116.125 6  98673690.845 6      2093.137          41.000  
G28  21093436.172 8 110846803.259 8     -1142.199          48.000    21093434.484 6  86374148.457 6      -890.026          40.000  
G05  23398731.570 6 122961164.329 6     -3506.789          40.000    23398725.531 6  95813874.598 6     -2732.567          40.000  
R03  19289932.508 8 103260157.439 8       448.289          51.000    19289932.664 7  80313446.034 7       348.669          47.000  
R14  22168152.023 8 118168341.036 8      3325.793          50.000    22168153.461 6  91908726.557 6      2586.731          41.000  
R02  20753508.508 8 110744299.099 8     -3446.035          51.000    20753511.703 7  86134455.572 7     -2680.253          45.000  
R13  19307793.391 6 103102154.759 6       345.898          38.000    19307795.883 6  80190566.235 6       269.032          41.000  
E01  23517646.094 8 123586054.907 8       174.273          51.000    23517648.656 8  94695844.388 8       133.531          51.000  
E19  26365414.898 7 138551163.934 7     -2549.168          47.000    26365419.508 8 106162585.317 8     -1953.299          51.000  
E31  25748755.008 8 135310660.217 8      2509.160          50.000    25748759.273 8 103679610.167 8      1922.640          51.000  
E04  23462717.781 8 123297408.847 8       -25.129          51.000    23462718.711 8  94474636.691 8       -19.252          51.000  
C24  22153828.883 8 115360823.637 8     -1173.664          51.000                                                                  
C25  22850612.586 7 118989107.814 7      1761.793          46.000                                                                  
C14  23660656.344 7 123207256.155 7     -2983.559          46.000    23660656.000 8  95271654.589 8     -2307.089          51.000  
C05  39797860.445 6 207237902.356 6        18.723          36.000    39797858.211 6 160249474.775 6        14.157          38.000  
> 2020 05 17 04 37  0.0000000  0 17      -0.000000000000
G13  20153949.422 8 105909711.626 8      -161.258          50.000    20153948.055 8  82527022.539 8      -125.652          50.000  
G17  24081802.406 6 126550731.229 6      2685.770          41.000    24081799.844 7  98610965.600 7      2092.808          42.000  
G28  21100003.000 8 110881312.776 8     -1152.789          49.000    21100001.570 6  86401038.994 6      -898.277          40.000  
G05  23418764.367 6 123066434.406 6     -3506.039          41.000    23418755.305 6  95895903.165 6     -2731.979          40.000  
R03  19287490.891 8 103247086.464 8       428.832          51.000    19287490.750 7  80303279.711 7       333.536          47.000  
R14  22149464.430 8 118068716.856 8      3321.500          48.000    22149463.656 7  91831241.114 7      2583.392          42.000  
R02  20772926.641 8 110847914.066 8     -3456.047          51.000    20772929.539 8  86215044.945 8     -2688.037          48.000  
R13  19305903.492 6 103092062.929 6       332.746          38.000    19305905.547 6  80182717.029 6       258.803          40.000  
R12  21032843.516 5 112353278.046 5     -3114.133          35.000    21032845.070 4  87385899.88424     -2422.104          26.000  
E01  23516684.578 8 123581002.093 8       168.242          51.000    23516687.289 8  94691972.745 8       128.949          51.000  
E19  26379986.648 7 138627735.667 7     -2549.980          47.000    26379990.531 8 106221257.136 8     -1953.828          50.000  
E31  25734450.273 8 135235486.753 8      2508.004          51.000    25734455.039 8 103622009.701 8      1921.754          51.000  
E04  23462893.820 8 123298333.951 8       -30.918          51.000    23462894.633 8  94475345.529 8       -23.702          51.000  
C24  22160616.359 8 115396166.349 8     -1176.973          51.000                                                                  
C25  22840488.062 7 118936385.955 7      1758.551          46.000                                                                  
C14  23677868.344 7 123296882.320 7     -2985.750          46.000    23677869.008 8  95340959.204 8     -2308.823          51.000  
C05  39797753.750 6 207237346.519 6        24.160          36.000    39797751.445 6 160249044.937 6        18.918          38.000  
> 2020 05 17 04 37 30.0000000  0 17      -0.000000000000
G13  20154941.844 8 105914927.307 8      -186.859          49.000    20154940.625 8  82531086.699 8      -145.605          49.000  
G17  24066516.922 7 126470404.209 7      2668.918          42.000    24066514.977 7  98548373.107 7      2079.677          42.000  
G28  21106660.805 8 110916300.207 8     -1180.207          48.000    21106659.156 6  86428301.927 6      -919.642          40.000  
G05  23438823.156 7 123171839.679 7     -3521.559          42.000    23438811.203 6  95978037.054 6     -2744.079          38.000  
R03  19285188.570 8 103234760.836 8       392.398          51.000    19285188.219 7  80293693.098 7       305.196          47.000  
R14  22130831.188 7 117969386.443 7      3300.008          45.000    22130831.172 7  91753984.150 7      2566.673          45.000  
R02  20792430.766 7 110951992.726 7     -3483.117          47.000    20792434.570 8  86295994.958 8     -2709.092          49.000  
R13  19304116.305 6 103082519.818 6       302.934          39.000    19304118.078 6  80175294.615 6       235.615          41.000  
R12  21050385.477 6 112446926.059 6     -3133.004          37.000                                                                  
E01  23515787.609 8 123576288.896 8       145.586          51.000    23515790.281 8  94688361.332 8       111.508          51.000  
E19  26394593.078 7 138704489.822 7     -2567.316          47.000    26394596.359 8 106280068.763 8     -1967.211          50.000  
E31  25720182.867 8 135160509.262 8      2490.133          51.000    25720187.523 8 103564559.413 8      1907.971          51.000  
E04  23463133.695 8 123299593.876 8       -53.477          51.000    23463134.211 8  94476310.917 8       -40.982          51.000  
C24  22167453.719 8 115431769.371 8     -1196.898          51.000                                                                  
C25  22830412.625 7 118883920.228 7      1738.738          46.000                                                                  
C14  23695124.484 8 123386735.957 8     -3004.832          48.000    23695125.023 8  95410439.698 8     -2323.464          50.000  
C05  39797644.148 6 207236775.907 6        13.609          36.000    39797641.930 6 160248603.686 6        10.358          38.000  
> 2020 05 17 04 38  0.0000000  0 16      -0.000000000000
G13  20156027.375 8 105920632.159 8      -196.945          49.000    20156026.156 8  82535532.024 8      -153.464          49.000  
G17  24051276.570 6 126390315.626 6      2666.957          41.000    24051274.883 6  98485966.425 6      2078.149          41.000  
G28  21113421.461 7 110951828.545 7     -1191.699          47.000    21113419.984 6  86455986.352 6      -928.597          38.000  
G05  23458919.156 7 123277441.836 7     -3521.902          43.000    23458906.133 6  96060324.380 6     -2744.340          39.000  
R03  19283037.961 8 103223247.758 8       371.641          51.000    19283037.492 8  80284738.486 8       289.054          48.000  
R14  22112261.680 6 117870417.031 6      3294.305          39.000    22112266.359 7  91677007.903 7      2562.234          45.000  
R02  20812030.289 6 111056597.652 6     -3494.145          41.000    20812037.844 8  86377354.412 8     -2717.666          48.000  
R13  19302444.148 6 103073590.505 6       288.746          38.000    19302446.180 6  80168349.588 6       224.580          41.000  
E01  23514967.531 8 123571979.454 8       138.406          51.000    23514970.102 8  94685059.286 8       106.070          51.000  
E19  26409246.117 7 138781490.322 7     -2569.266          46.000    26409249.109 8 106339069.137 8     -1968.638          49.000  
E31  25705965.133 8 135085793.244 8      2487.680          51.000    25705969.461 8 103507309.474 8      1906.121          51.000  
E04  23463449.656 8 123301253.872 8       -60.484          51.000    23463450.172 8  94477582.858 8       -46.363          51.000  
C24  22174353.070 8 115467695.624 8     -1201.477          51.000                                                                  
C25  22820399.133 7 118831774.936 7      1734.262          46.000                                                                  
C14  23712436.406 8 123476879.271 8     -3008.148          48.000    23712435.805 8  95480144.173 8     -2326.119          50.000  
C05  39797544.000 6 207236254.695 6        17.895          36.000    39797541.859 6 160248200.618 6        14.049          38.000  
> 2020 05 17 04 38 30.0000000  0 19      -0.000000000000
G24  23339955.828 5 122652301.54725      2971.004          32.000                                                                  
G15  20691282.414 5 108733422.10125      1463.473          32.000                                                                  
G30  22853402.109 5 120095429.669 5     -2674.379          31.000    22853377.219 4  93580757.213 4     -2083.932          29.000  
G13  20157200.531 8 105926796.508 8      -212.277          50.000    20157199.141 8  82540335.399 8      -165.411          50.000  
G17  24036075.945 6 126310437.956 6      2660.344          39.000    24036075.039 6  98423724.122 6      2072.996          38.000  
G28  21120279.086 7 110987866.039 7     -1208.434          47.000    21120277.922 6  86484067.524 6      -941.637          37.000  
G05  23479046.070 6 123383207.400 6     -3527.043          41.000    23479033.531 6  96142739.051 6     -2748.346          39.000  
R03  19281033.461 8 103212517.674 8       345.613          51.000    19281032.992 8  80276392.857 8       268.810          48.000  
R14  22093755.820 7 117771779.120 7      3283.391          45.000    22093762.852 7  91600289.434 7      2553.749          44.000  
R02  20831724.688 8 111161695.337 8     -3510.406          48.000    20831733.445 7  86459097.113 7     -2730.316          47.000  
R13  19300880.938 6 103065243.315 6       269.594          38.000    19300883.195 6  80161857.304 6       209.681          41.000  
E01  23514218.398 8 123568042.778 8       126.016          51.000    23514221.031 8  94682042.870 8        96.546          51.000  
E19  26423939.805 7 138858705.981 7     -2576.355          46.000    26423942.961 8 106398234.378 8     -1974.170          48.000  
E31  25691791.352 8 135011309.067 8      2479.957          51.000    25691795.445 8 103450237.163 8      1900.246          51.000  
E04  23463835.930 8 123303284.192 8       -72.859          51.000    23463836.688 8  94479138.536 8       -55.824          51.000  
C24  22181308.445 8 115503913.843 8     -1211.109          51.000                                                                  
C25  22810441.445 7 118779920.061 7      1724.617          46.000                                                                  
C14  23729797.539 8 123567280.250 8     -3016.617          48.000    23729795.445 8  95550047.878 8     -2332.670          50.000  
C05  39797447.578 6 207235752.756 6        17.203          36.000    39797445.453 6 160247812.481 6        13.475          38.000  
> 2020 05 17 04 39  0.0000000  0 18      -0.000000000000
G15  20682969.914 5 108689740.14725      1447.770          31.000                                                                  
G30  22868655.562 5 120175595.79425     -2680.121          32.000                                                                  
G13  20158446.320 8 105933342.545 8      -227.391          50.000    20158444.742 8  82545436.197 8      -177.191          50.000  
G17  24020900.867 6 126230696.077 6      2652.785          37.000    24020900.797 6  98361587.589 6      2067.106          39.000  
G28  21127218.398 7 111024332.706 7     -1225.402          46.000    21127217.141 6  86512483.137 6      -954.856          37.000  
G05  23499188.156 6 123489055.058 6     -3532.668          40.000    23499177.891 6  96225217.689 6     -2752.729          39.000  
R03  19279160.438 8 103202492.164 8       319.648          51.000    19279160.203 8  80268595.226 8       248.615          48.000  
R14  22075300.180 8 117673394.118 8      3272.484          48.000    22075305.852 7  91523767.797 7      2545.266          44.000  
R02  20851498.406 8 111267203.224 8     -3526.598          51.000    20851505.445 7  86541158.782 7     -2742.910          45.000  
R13  19299411.711 6 103057397.365 6       250.387          38.000    19299414.031 7  80155754.898 7       194.748          42.000  
E01  23513525.023 8 123564399.804 8       113.684          51.000    23513527.781 8  94679251.505 8        87.132          51.000  
E19  26438659.227 7 138936057.389 7     -2583.527          47.000    26438662.836 7 106457503.611 7     -1979.563          46.000  
E31  25677646.703 8 134936979.012 8      2472.262          50.000    25677650.625 8 103393282.963 8      1894.281          51.000  
E04  23464277.922 8 123305606.912 8       -85.180          51.000    23464278.719 8  94480918.275 8       -65.274          51.000  
C24  22188304.625 8 115540345.099 8     -1220.672          51.000                                                                  
C25  22800524.547 7 118728278.048 7      1715.047          46.000                                                                  
C14  23747192.508 8 123657859.227 8     -3024.957          49.000    23747189.656 8  95620089.228 8     -2339.201          51.000  
C05  39797339.914 6 207235192.261 6        17.039          36.000    39797337.805 6 160247379.095 6        12.916          38.000  
> 2020 05 17 04 39 30.0000000  0 17      -0.000000000000
G13  20159780.938 8 105940355.210 8      -235.664          51.000    20159778.953 8  82550900.583 8      -183.634          50.000  
G17  24005767.844 5 126151176.842 5      2652.910          35.000    24005769.195 5  98299624.564 5      2067.203          35.000  
G28  21134255.133 7 111061311.161 7     -1235.441          46.000    21134253.312 5  86541297.512 5      -962.682          35.000  
G05  23519360.820 6 123595066.585 6     -3530.727          38.000    23519353.078 6  96307824.004 6     -2751.216          38.000  
R03  19277435.250 8 103193258.613 8       300.539          51.000    19277435.328 8  80261413.569 8       233.753          48.000  
R14  22056908.930 7 117575349.229 7      3268.520          47.000    22056912.352 7  91447510.699 7      2542.185          44.000  
R02  20871364.625 8 111373203.653 8     -3535.578          51.000    20871369.547 7  86623603.520 7     -2749.895          45.000  
R13  19298051.938 6 103050137.304 6       237.977          38.000    19298054.602 6  80150108.182 6       185.093          41.000  
R12  21121012.766 5 112824184.36025     -3153.723          35.000                                                                  
E01  23512903.625 8 123561134.377 8       108.324          51.000    23512906.109 8  94676749.422 8        82.990          51.000  
E19  26453420.398 7 139013628.060 7     -2583.598          46.000    26453424.508 7 106516940.857 7     -1979.581          45.000  
E31  25663547.727 8 134862888.265 8      2471.508          51.000    25663551.102 8 103336512.140 8      1893.754          50.000  
E04  23464791.914 8 123308307.043 8       -90.566          51.000    23464792.508 8  94482987.197 8       -69.332          51.000  
C24  22195357.492 8 115577071.901 8     -1223.305          51.000                                                                  
C25  22790664.578 7 118676932.679 7      1712.348          46.000                                                                  
C14  23764637.320 8 123748697.934 8     -3026.492          49.000    23764634.500 8  95690331.449 8     -2340.364          51.000  
C05  39797237.133 6 207234657.08226        23.332          36.000    39797235.047 6 160246965.223 6        17.924          39.000  
> 2020 05 17 04 40  0.0000000  0 15      -0.000000000000
G13  20161199.633 8 105947809.673 8      -257.695          51.000    20161197.430 8  82556709.241 8      -200.802          50.000  
G17  23990673.539 5 126071858.088 5      2639.188          35.000    23990676.023 6  98237817.771 6      2056.510          36.000  
G28  21141384.117 7 111098773.821 7     -1258.660          44.000    21141381.938 6  86570489.187 6      -980.774          36.000  
R03  19275853.414 8 103184792.252 8       267.496          51.000    19275854.094 8  80254828.630 8       208.053          49.000  
R14  22038576.188 7 117477619.754 7      3250.543          47.000    22038577.734 7  91371498.869 7      2528.198          45.000  
R02  20891317.500 8 111479668.011 8     -3558.469          51.000    20891320.641 7  86706409.086 7     -2767.701          46.000  
R13  19296796.773 6 103043435.880 6       212.348          38.000    19296799.672 6  80144895.960 6       165.159          41.000  
E01  23512349.211 8 123558220.224 8        89.543          51.000    23512351.320 8  94674516.484 8        68.626          51.000  
E19  26468218.258 7 139091391.529 7     -2597.062          46.000    26468222.430 7 106576525.823 7     -1990.012          43.000  
E31  25649489.836 8 134789011.929 8      2457.246          51.000    25649492.172 8 103279905.615 8      1882.841          50.000  
E04  23465372.852 8 123311359.513 8      -109.402          51.000    23465373.336 8  94485326.094 8       -83.759          51.000  
C24  22202462.055 8 115614067.654 8     -1239.512          51.000                                                                  
C25  22780856.531 7 118625858.684 7      1696.094          44.000                                                                  
C14  23782126.445 8 123839769.091 8     -3041.375          49.000    23782124.453 8  95760753.414 8     -2351.760          51.000  
C05  39797134.336 6 207234121.673 6        16.426          36.000    39797132.242 6 160246551.187 6        12.605          38.000  
> 2020 05 17 04 40 30.0000000  0 16      -0.000000000000
G15  20658531.883 5 108561330.83125      1404.902          32.000                                                                  
G13  20162704.133 8 105955715.497 8      -269.520          51.000    20162701.977 8  82562869.606 8      -210.015          49.000  
G17  23975620.297 6 125992751.563 6      2634.629          37.000    23975622.805 6  98176176.315 6      2052.955          38.000  
G28  21148606.594 7 111136728.392 7     -1271.586          42.000    21148604.922 6  86600064.227 6      -990.843          38.000  
R03  19274416.609 8 103177103.345 8       244.957          50.000    19274418.211 8  80248848.346 8       190.522          49.000  
R14  22020303.211 7 117380216.188 7      3242.957          47.000    22020304.406 7  91295740.516 7      2522.300          46.000  
R02  20911357.914 8 111586602.411 8     -3570.648          51.000    20911360.125 7  86789580.218 7     -2777.175          46.000  
R13  19295648.203 6 103037301.439 6       196.441          38.000    19295651.234 6  80140124.734 6       152.788          41.000  
E01  23511863.086 8 123555665.756 8        80.750          51.000    23511865.172 8  94672559.182 8        61.849          51.000  
E19  26483054.312 7 139169356.169 7     -2600.641          45.000    26483057.656 6 106636264.902 6     -1992.670          40.000  
E31  25635474.359 8 134715359.805 8      2452.844          49.000    25635475.766 8 103223470.890 8      1879.459          49.000  
E04  23466022.453 8 123314773.909 8      -118.242          51.000    23466023.117 8  94487942.313 8       -90.613          51.000  
C24  22209619.836 8 115651340.125 8     -1245.441          51.000                                                                  
C25  22771100.688 6 118575065.216 6      1690.121          40.000                                                                  
C14  23799661.125 8 123931079.658 8     -3045.930          49.000    23799660.477 8  95831360.530 8     -2355.421          51.000  
C05  39797033.312 6 207233594.971 6        18.938          36.000    39797031.109 6 160246143.904 6        14.665          38.000  
> 2020 05 17 04 41  0.0000000  0 16      -0.000000000000
G30  22930011.031 5 120498012.14225     -2695.453          33.000                                                                  
G13  20164288.211 8 105964040.222 8      -285.496          51.000    20164286.352 8  82569356.381 8      -222.465          49.000  
G17  23960601.922 6 125913827.048 6      2627.004          37.000    23960603.594 6  98114676.697 6      2047.014          37.000  
G28  21155916.000 7 111175139.822 7     -1288.645          43.000    21155913.930 6  86629995.198 6     -1004.139          37.000  
R03  19273119.055 8 103170159.430 8       218.125          50.000    19273121.211 8  80243447.525 8       169.653          49.000  
R14  22002085.477 8 117283106.248 8      3231.141          49.000    22002087.031 7  91220210.564 7      2513.110          47.000  
R02  20931479.086 8 111693970.182 8     -3586.992          51.000    20931480.320 7  86873088.425 7     -2789.883          43.000  
R13  19294598.828 6 103031698.098 6       176.801          37.000    19294601.797 6  80135766.570 6       137.509          40.000  
E01  23511438.961 8 123553437.190 8        67.945          51.000    23511440.875 8  94670851.577 8        52.083          51.000  
E19  26497921.953 7 139247487.880 7     -2608.250          44.000    26497922.133 6 106696131.907 6     -1998.390          38.000  
E31  25621494.445 7 134641899.415 7      2444.594          47.000    25621495.797 8 103167183.075 8      1873.149          50.000  
E04  23466734.680 8 123318517.600 8      -131.227          51.000    23466735.727 8  94490810.839 8      -100.499          51.000  
C24  22216824.211 8 115688855.331 8     -1255.492          51.000                                                                  
C25  22761391.094 6 118524519.538 6      1679.328          37.000                                                                  
C14  23817235.156 8 124022594.839 8     -3054.867          49.000    23817235.641 8  95902125.869 8     -2362.124          51.000  
C05  39796927.602 6 207233045.170 6        17.914          36.000    39796925.344 6 160245717.955 6        13.858          38.000  
> 2020 05 17 04 41 30.0000000  0 16      -0.000000000000
G13  20165945.047 8 105972746.951 8      -297.941          51.000    20165943.367 8  82576140.815 8      -232.162          49.000  
G17  23945611.398 5 125835050.063 5      2621.988          35.000    23945611.984 6  98053292.080 6      2043.108          36.000  
G28  21163304.859 7 111213968.738 7     -1302.395          42.000    21163302.547 6  86660251.504 6     -1014.853          37.000  
R03  19271953.938 8 103163923.716 8       194.742          51.000    19271956.352 8  80238597.507 8       151.466          49.000  
R14  21983916.438 8 117186252.841 8      3222.902          48.000    21983918.609 8  91144880.143 8      2506.702          48.000  
R02  20951673.062 8 111801730.106 8     -3599.762          51.000    20951673.070 6  86956901.626 6     -2799.818          40.000  
R13  19293641.961 6 103026588.035 6       160.984          37.000    19293644.406 6  80131792.048 6       125.210          39.000  
R12  21192276.539 5 113204952.695 5     -3184.867          32.000    21192285.008 4  88048319.274 4     -2477.125          28.000  
E01  23511069.719 8 123551496.275 8        58.676          51.000    23511071.148 8  94669364.369 8        44.977          51.000  
E19  26512813.812 7 139325748.141 7     -2612.078          44.000    26512812.836 6 106756097.460 6     -2001.299          41.000  
E31  25607543.844 7 134568593.903 7      2439.641          47.000    25607545.523 8 103111013.902 8      1869.381          50.000  
E04  23467502.641 8 123322553.488 8      -140.641          51.000    23467503.953 8  94493903.258 8      -107.758          51.000  
C24  22224067.727 8 115726574.757 8     -1261.922          51.000                                                                  
C25  22751724.141 6 118474184.369 6      1673.184          37.000                                                                  
C14  23834841.031 8 124114275.478 8     -3060.027          49.000    23834842.250 8  95973019.149 8     -2366.199          51.000  
C05  39796810.141 6 207232432.956 6        20.082          36.000    39796807.812 6 160245244.564 6        15.492          38.000  
> 2020 05 17 04 42  0.0000000  0 17      -0.000000000000
G13  20167698.203 8 105981959.973 8      -311.203          51.000    20167696.375 8  82583319.785 8      -242.496          49.000  
G17  23930673.242 5 125756547.782 5      2616.422          30.000    23930672.828 4  97992121.497 4      2038.771          28.000  
G28  21170796.555 7 111253337.526 7     -1317.086          43.000    21170794.250 6  86690928.456 6     -1026.307          37.000  
R03  19270945.203 8 103158523.330 8       170.434          51.000    19270947.719 8  80234397.203 8       132.559          49.000  
R14  21965818.969 7 117089783.183 7      3213.559          46.000    21965822.078 8  91069848.192 8      2499.435          49.000  
R02  20971962.289 8 111910004.920 8     -3613.324          48.000    20971961.352 6  87041115.251 6     -2810.367          39.000  
R13  19292800.695 6 103022094.495 6       143.695          37.000    19292802.703 6  80128297.075 6       111.763          38.000  
R12  21210187.133 6 113300654.435 6     -3190.273          39.000    21210192.016 4  88122751.660 4     -2481.333          25.000  
E01  23510778.602 8 123549966.239 8        48.461          51.000    23510779.844 8  94668192.000 8        37.153          51.000  
E19  26527753.484 7 139404260.018 7     -2616.828          44.000    26527755.070 7 106816255.880 7     -2005.154          44.000  
E31  25593647.133 7 134495567.872 7      2433.816          47.000    25593649.016 8 103055058.874 8      1864.969          50.000  
E21  25727238.227 5 135197530.448 5     -2321.965          33.000                                                                  
E04  23468350.109 8 123327006.004 8      -150.945          51.000    23468351.359 8  94497314.927 8      -115.707          51.000  
C24  22231373.867 8 115764620.074 8     -1269.270          51.000                                                                  
C25  22742120.898 6 118424182.733 6      1665.777          36.000                                                                  
C14  23852502.070 8 124206242.368 8     -3065.965          49.000    23852503.477 8  96044133.767 8     -2370.808          51.000  
C05  39796704.352 6 207231882.090 6        21.402          36.000    39796702.031 6 160244818.587 6        16.535          38.000  
> 2020 05 17 04 42 30.0000000  0 16      -0.000000000000
G13  20169509.453 8 105991477.912 8      -329.637          51.000    20169507.203 8  82590736.343 8      -256.860          49.000  
G28  21178352.242 6 111293042.714 6     -1336.395          38.000    21178350.188 6  86721867.541 6     -1041.350          38.000  
R03  19270054.375 8 103153754.161 8       141.121          51.000    19270056.719 8  80230687.823 8       109.761          49.000  
R14  21947754.078 7 116993493.868 7      3199.223          46.000    21947758.711 8  90994956.438 8      2488.282          49.000  
R02  20992307.719 7 112018586.667 7     -3631.770          46.000    20992309.883 7  87125567.751 7     -2824.707          44.000  
R13  19292036.406 6 103018011.693 6       122.070          37.000    19292037.508 6  80125121.568 6        94.944          38.000  
R12  21228114.977 5 113396419.641 5     -3200.520          35.000    21228097.148 4  88197121.577 4     -2489.287          24.000  
E01  23510527.227 8 123548644.803 8        33.387          51.000    23510528.531 8  94667179.473 8        25.639          51.000  
E19  26542702.977 7 139482820.908 7     -2626.699          45.000    26542707.023 7 106876451.845 7     -2012.592          45.000  
E31  25579765.602 7 134422620.359 7      2423.117          47.000    25579768.227 8 102999164.036 8      1856.621          51.000  
E21  25740502.070 5 135267252.364 5     -2330.477          34.000                                                                  
E04  23469238.539 8 123331674.021 8      -166.363          51.000    23469239.734 8  94500891.710 8      -127.464          51.000  
C24  22238703.953 8 115802790.243 8     -1281.520          51.000                                                                  
C25  22732542.500 5 118374314.995 5      1653.098          35.000                                                                  
C14  23870179.602 8 124298293.773 8     -3076.914          48.000    23870180.547 8  96115313.730 8     -2379.250          51.000  
C05  39796572.062 6 207231193.780 6        18.078          36.000    39796569.586 6 160244285.538 6        14.218          38.000  
> 2020 05 17 04 43  0.0000000  0 17      -0.000000000000
G30  22991714.500 5 120822274.41425     -2711.180          33.000                                                                  
G13  20171437.969 8 106001612.353 8      -343.961          51.000    20171435.578 8  82598633.302 8      -268.022          49.000  
G17  23900909.148 5 125600138.849 5      2598.398          31.000    23900894.742 5  97870169.600 5      2024.727          30.000  
G28  21186030.703 6 111333393.525 6     -1351.504          40.000    21186028.812 6  86753309.751 6     -1053.120          40.000  
R03  19269340.961 8 103149934.112 8       115.816          51.000    19269343.023 8  80227716.658 8        90.079          49.000  
R14  21929782.617 8 116897701.683 8      3189.016          48.000    21929787.906 8  90920451.403 8      2480.349          48.000  
R02  21012771.734 8 112127788.175 8     -3646.203          50.000    21012775.727 7  87210502.298 7     -2835.933          47.000  
R13  19291408.102 6 103014655.072 6       104.117          37.000    19291408.922 6  80122510.860 6        80.980          39.000  
R12  21246110.820 5 113492562.026 5     -3206.613          33.000                                                                  
E01  23510374.602 8 123547842.324 8        22.277          51.000    23510375.891 8  94666564.591 8        17.037          51.000  
E19  26557721.539 7 139561740.987 7     -2632.426          46.000    26557726.344 7 106936923.090 7     -2017.130          46.000  
E31  25565958.266 7 134350063.148 7      2416.211          46.000    25565962.227 8 102943568.241 8      1851.354          51.000  
E04  23470227.039 8 123336869.067 8      -177.789          51.000    23470228.445 8  94504872.330 8      -136.240          51.000  
C24  22246117.125 8 115841392.340 8     -1289.816          51.000                                                                  
C25  22723050.945 6 118324889.255 6      1644.324          40.000                                                                  
C14  23887932.086 7 124390735.935 7     -3083.789          47.000    23887932.445 8  96186795.860 8     -2384.579          51.000  
C05  39796472.305 6 207230674.320 6        18.508          37.000    39796469.906 6 160243883.841 6        14.233          38.000  
> 2020 05 17 04 43 30.0000000  0 16      -0.000000000000
G13  20173441.297 8 106012139.498 8      -364.082          51.000    20173438.992 8  82606836.260 8      -283.700          49.000  
G28  21193788.891 6 111374163.593 6     -1372.105          40.000    21193787.453 6  86785078.582 6     -1069.173          39.000  
G05  23681573.266 5 124447499.893 5     -3574.039          34.000    23681577.852 5  96972091.153 5     -2784.969          33.000  
R03  19268762.062 8 103146835.221 8        84.465          51.000    19268764.023 8  80225306.403 8        65.695          49.000  
R14  21911863.297 8 116802179.865 8      3172.762          50.000    21911867.383 7  90846156.683 7      2467.704          47.000  
R02  21033310.164 8 112237378.470 8     -3666.184          51.000    21033314.305 8  87295739.200 8     -2851.477          49.000  
R13  19290872.375 5 103011794.330 5        80.531          35.000    19290873.375 6  80120285.817 6        62.635          38.000  
E01  23510277.742 8 123547333.435 8         5.461          51.000    23510278.781 8  94666174.649 8         4.217          51.000  
E19  26572765.445 7 139640794.630 7     -2643.965          45.000    26572769.930 7 106997496.641 7     -2025.956          44.000  
E31  25552182.758 8 134277672.217 8      2403.648          49.000    25552187.828 8 102888099.836 8      1841.734          51.000  
E04  23471273.125 8 123342366.955 8      -194.941          51.000    23471274.727 8  94509084.980 8      -149.386          51.000  
C24  22253570.430 8 115880202.507 8     -1303.672          51.000                                                                  
C25  22713603.289 7 118275683.114 7      1630.012          43.000                                                                  
C14  23905716.266 7 124483344.206 7     -3096.250          47.000    23905716.484 8  96258406.442 8     -2394.169          50.000  
C26  25271203.055 5 131593785.42225     -2843.672          31.000                                                                  
C05  39796362.414 6 207230101.872 6        13.559          36.000    39796359.992 6 160243441.208 6        10.367          38.000  
> 2020 05 17 04 44  0.0000000  0 16      -0.000000000000
G13  20175523.758 8 106023082.080 8      -373.672          51.000    20175521.523 8  82615362.933 8      -291.173          50.000  
G17  23871311.344 5 125444608.102 5      2584.363          33.000    23871304.000 5  97749003.250 5      2013.787          34.000  
G28  21201630.391 6 111415373.320 6     -1383.785          38.000    21201629.453 5  86817190.007 5     -1078.274          35.000  
G05  23701947.328 5 124554558.811 5     -3573.145          32.000    23701951.586 5  97055513.619 5     -2784.269          30.000  
R03  19268322.055 8 103144481.056 8        64.008          50.000    19268324.297 8  80223475.367 8        49.784          48.000  
R14  21893999.328 8 116706952.134 8      3167.309          50.000    21894002.594 8  90772090.678 8      2463.463          48.000  
R02  21053925.016 8 112347376.882 8     -3675.480          51.000    21053928.805 8  87381293.502 8     -2858.708          49.000  
R13  19290433.266 6 103009451.012 6        67.703          36.000    19290434.703 6  80118463.238 6        52.655          38.000  
E01  23510240.797 8 123547139.522 8        -0.836          51.000    23510241.633 8  94666026.064 8        -0.682          51.000  
E19  26587838.578 7 139720003.046 7     -2645.004          45.000    26587841.383 7 107058188.771 7     -2026.731          42.000  
E31  25538444.102 8 134205470.316 8      2401.535          51.000    25538449.125 8 102832776.278 8      1840.147          51.000  
E04  23472381.266 8 123348190.233 8      -201.645          51.000    23472382.711 8  94513546.962 8      -154.504          51.000  
C24  22261067.500 8 115919241.453 8     -1307.105          51.000                                                                  
C25  22704202.617 7 118226718.519 7      1625.961          44.000                                                                  
C14  23923536.656 8 124576138.508 8     -3098.172          48.000    23923536.461 8  96330160.874 8     -2395.710          49.000  
C05  39796246.602 6 207229498.503 6        18.680          36.000    39796244.156 6 160242974.621 6        14.375          38.000  
> 2020 05 17 04 44 30.0000000  0 18      -0.000000000000
G30  23038263.047 5 121066888.75825     -2713.500          31.000                                                                  
G13  20177711.820 8 106034579.810 8      -379.586          51.000    20177709.547 8  82624322.195 8      -295.781          50.000  
G17  23856594.969 5 125367253.172 5      2585.121          33.000    23856587.102 5  97688737.572 5      2014.381          35.000  
G28  21209582.008 6 111457160.169 6     -1389.836          37.000    21209581.172 6  86849751.184 6     -1082.989          38.000  
G05  23722362.516 5 124661836.422 5     -3566.441          35.000    23722362.617 5  97139106.408 5     -2779.049          35.000  
R03  19268047.883 8 103143014.798 8        47.223          50.000    19268050.375 8  80222334.924 8        36.729          48.000  
R14  21876216.945 8 116612161.018 8      3165.473          50.000    21876220.328 8  90698364.244 8      2462.035          48.000  
R02  21074641.828 8 112457921.875 8     -3680.840          50.000    21074645.414 8  87467272.919 8     -2862.876          48.000  
R13  19290117.695 5 103007764.953 5        57.859          35.000    19290118.766 6  80117151.861 6        45.002          37.000  
E01  23510290.227 8 123547399.362 8        -3.410          51.000    23510291.078 8  94666225.154 8        -2.592          51.000  
E19  26602967.641 7 139799504.546 7     -2641.965          46.000    26602966.789 6 107119105.488 6     -2024.520          39.000  
E31  25524768.672 8 134133597.534 8      2403.125          51.000    25524772.969 8 102777704.926 8      1841.363          51.000  
E21  25793946.523 5 135548095.470 5     -2341.125          34.000                                                                  
E04  23473577.969 8 123354478.814 8      -204.516          51.000    23473579.062 8  94518365.482 8      -156.698          51.000  
C24  22268634.609 8 115958646.193 8     -1306.734          51.000                                                                  
C25  22694874.117 7 118178133.723 7      1625.809          45.000                                                                  
C14  23941419.555 8 124669255.077 8     -3096.465          49.000    23941418.023 7  96402164.475 7     -2394.356          47.000  
C05  39796151.312 6 207229002.219 6        27.566          36.000    39796148.812 6 160242590.863 6        21.047          38.000  
> 2020 05 17 04 45  0.0000000  0 19      -0.000000000000
G24  23121820.328 5 121505993.132 5      2900.781          35.000                                                                  
G13  20179950.008 8 106046341.160 8      -407.449          51.000    20179947.492 8  82633486.879 8      -317.493          50.000  
G17  23841886.891 5 125289959.593 5      2564.441          33.000    23841878.297 5  97628508.066 5      1998.270          31.000  
G28  21217587.555 6 111499230.456 6     -1417.797          41.000    21217587.266 6  86882533.226 6     -1104.777          37.000  
G05  23742763.422 5 124769037.069 5     -3582.922          32.000    23742760.898 4  97222639.352 4     -2791.894          27.000  
R03  19267884.711 8 103142139.842 8         8.051          51.000    19267886.969 8  80221654.380 8         6.262          48.000  
R14  21858461.102 8 116517511.767 8      3141.379          50.000    21858464.594 8  90624748.150 8      2443.295          48.000  
R02  21095404.219 8 112568713.608 8     -3708.340          49.000    21095407.727 7  87553444.267 7     -2884.265          47.000  
R13  19289869.148 5 103006438.366 5        27.102          35.000    19289870.133 6  80116120.081 6        21.079          37.000  
R12  21318426.406 6 113878792.415 6     -3236.566          36.000                                                                  
E01  23510370.305 8 123547820.273 8       -27.711          51.000    23510371.273 8  94666547.659 8       -21.239          51.000  
E19  26618097.016 7 139879006.712 7     -2661.238          45.000    26618090.945 6 107180022.668 6     -2039.027          38.000  
E31  25511100.383 8 134061762.606 8      2382.844          51.000    25511103.664 8 102722662.576 8      1825.831          51.000  
E21  25807355.305 5 135618559.237 5     -2359.023          35.000                                                                  
E04  23474807.688 8 123360941.209 8      -229.352          51.000    23474808.555 8  94523317.175 8      -175.701          51.000  
C24  22276216.242 8 115998126.233 8     -1328.199          51.000                                                                  
C25  22685562.039 7 118129639.475 7      1603.875          44.000                                                                  
C14  23959308.531 8 124762402.617 8     -3116.438          49.000    23959305.359 7  96474192.017 7     -2409.665          45.000  
C05                                                                  39796018.578 6 160242066.237 6        11.318          38.000  
> 2020 05 17 04 45 30.0000000  0 20      -0.000000000000
G24  23105264.805 5 121418985.80825      2898.344          30.000                                                                  
G15  20582661.484 5 108162604.088 5      1250.574          32.000    20582662.469 5  84282551.463 5       974.474          33.000  
G13  20182309.547 8 106058740.216 8      -419.504          51.000    20182306.883 8  82643148.469 8      -326.886          51.000  
G17  23827257.438 5 125213086.586 5      2559.340          34.000    23827250.023 5  97568603.754 5      1994.291          33.000  
G28  21225717.938 7 111541955.483 7     -1430.629          42.000    21225717.570 6  86915825.440 6     -1114.776          38.000  
G05  23763219.422 5 124876530.678 5     -3583.816          32.000    23763213.977 5  97306400.577 5     -2792.582          32.000  
R03  19267903.219 8 103142237.222 8       -14.930          51.000    19267904.945 7  80221730.086 7       -11.615          47.000  
R14  21840803.414 8 116423383.871 8      3133.359          51.000    21840806.469 8  90551537.566 8      2437.058          49.000  
R02  21116283.594 8 112680128.296 8     -3719.652          51.000    21116286.602 7  87640100.079 7     -2893.067          46.000  
R13  19289758.570 5 103005849.282 5        12.109          33.000    19289760.117 6  80115661.895 6         9.418          38.000  
R12  21336611.609 5 113975938.961 5     -3239.949          35.000                                                                  
E01  23510551.820 8 123548774.695 8       -36.262          51.000    23510552.945 8  94667278.960 8       -27.815          51.000  
E19  26633296.977 7 139958881.558 7     -2664.188          44.000    26633288.648 6 107241225.428 6     -2041.266          39.000  
E31  25497509.945 8 133990339.386 8      2378.289          51.000    25497511.984 8 102667935.684 8      1822.389          51.000  
E21  25820829.031 5 135689360.795 5     -2361.324          35.000                                                                  
E04  23476141.406 8 123367951.057 8      -238.469          51.000    23476142.180 8  94528688.328 8      -182.666          51.000  
C24  22283883.312 8 116038050.182 8     -1333.828          51.000                                                                  
C25  22676338.188 7 118081605.639 7      1597.836          44.000                                                                  
C14  23977274.000 8 124855948.918 8     -3120.355          50.000    23977269.070 7  96546527.907 7     -2412.900          45.000  
C05  39795926.711 6 207227833.944 6        17.957          36.000    39795924.336 6 160241686.641 6        13.759          38.000  
> 2020 05 17 04 46  0.0000000  0 19      -0.000000000000
G15  20575554.375 5 108125267.410 5      1228.641          35.000    20575552.047 5  84253454.751 5       957.383          34.000  
G13  20184731.617 8 106071468.081 8      -440.363          51.000    20184728.992 8  82653066.274 8      -343.140          51.000  
G17  23812650.578 5 125136330.920 5      2546.301          34.000    23812645.898 5  97508794.240 5      1984.134          34.000  
G28  21233913.906 6 111585024.527 6     -1451.477          39.000    21233912.617 6  86949385.695 6     -1131.024          38.000  
G05  23783673.055 5 124984006.332 5     -3592.645          32.000    23783664.719 5  97390147.794 5     -2799.467          32.000  
R03  19268044.984 8 103142993.130 8       -46.969          51.000    19268045.789 7  80222317.990 7       -36.534          47.000  
R14  21823184.711 8 116329465.212 8      3116.297          50.000    21823187.492 8  90478489.726 8      2423.787          48.000  
R02  21137220.883 8 112791848.823 8     -3739.879          51.000    21137222.836 7  87726993.749 7     -2908.795          46.000  
R13  19289727.266 5 103005682.641 5       -11.930          33.000    19289729.180 6  80115532.271 6        -9.279          37.000  
R12  21354810.711 5 114073150.835 5     -3252.074          32.000    21354816.383 4  88723600.92224     -2529.392          25.000  
E01  23510776.047 8 123549953.032 8       -53.617          51.000    23510777.133 8  94668181.813 8       -41.068          51.000  
E19  26648508.547 7 140038819.217 7     -2676.137          45.000    26648501.938 7 107302476.327 7     -2050.622          42.000  
E31  25483938.406 8 133919019.626 8      2364.996          51.000    25483939.469 8 102613288.079 8      1812.111          49.000  
E21  25834309.641 5 135760189.807 5     -2372.340          33.000                                                                  
E04  23477520.508 8 123375199.850 8      -256.207          51.000    23477521.086 8  94534242.578 8      -196.321          51.000  
C24  22291576.617 8 116078110.740 8     -1348.148          51.000                                                                  
C25  22667143.180 7 118033726.252 7      1582.891          43.000                                                                  
C14  23995256.688 8 124949585.893 8     -3133.141          50.000    23995249.891 7  96618933.879 7     -2422.753          43.000  
C05  39795809.672 6 207227223.545 6        12.000          36.000    39795807.273 6 160241215.418 6         9.167          38.000  
> 2020 05 17 04 46 30.0000000  0 19      -0.000000000000
G15  20568557.617 5 108088490.134 5      1222.117          35.000    20568553.461 5  84224797.137 5       952.293          35.000  
G30  23100619.195 5 121394573.05625     -2736.055          31.000                                                                  
G13  20187260.469 8 106084757.126 8      -446.578          51.000    20187257.852 8  82663421.367 8      -347.983          51.000  
G17  23798109.086 5 125059926.863 5      2546.805          35.000    23798107.562 6  97449258.446 6      1984.521          36.000  
G28  21242219.250 7 111628667.604 7     -1458.336          42.000    21242217.867 6  86983393.333 6     -1136.369          37.000  
G05  23804166.453 6 125091692.739 6     -3587.203          36.000    23804156.945 5  97474059.191 5     -2795.224          35.000  
R03  19268353.961 8 103144644.711 8       -64.117          50.000    19268354.188 7  80223602.539 7       -49.869          47.000  
R14  21805648.945 8 116235992.459 8      3114.145          50.000    21805652.109 8  90405788.670 8      2422.113          48.000  
R02  21158258.969 8 112904107.646 8     -3745.020          51.000    21158260.266 7  87814306.109 7     -2912.797          46.000  
R13  19289818.828 5 103006172.737 5       -21.645          31.000    19289820.875 6  80115913.430 6       -16.835          36.000  
R12  21373073.461 5 114170677.461 5     -3249.020          31.000    21373068.180 4  88799404.777 4     -2527.016          27.000  
E01  23511087.055 8 123551586.422 8       -56.250          51.000    23511088.039 8  94669433.354 8       -43.095          51.000  
E19  26663776.250 7 140119050.656 7     -2673.379          46.000    26663772.727 7 107363952.331 7     -2048.491          46.000  
E31  25470429.828 8 133848035.864 8      2366.293          51.000    25470430.258 8 102558897.939 8      1813.102          48.000  
E04  23478989.266 8 123382919.954 8      -259.438          51.000    23478989.594 8  94540157.971 8      -198.757          51.000  
C24  22299339.875 8 116118536.543 8     -1347.930          51.000                                                                  
C25  22658020.828 7 117986231.157 7      1582.344          42.000                                                                  
C14  24013300.141 8 125043541.325 8     -3131.465          49.000    24013291.945 7  96691586.102 7     -2421.445          42.000  
C05  39795714.062 6 207226725.458 6        20.059          37.000    39795711.672 6 160240830.227 6        15.909          38.000  
> 2020 05 17 04 47  0.0000000  0 17      -0.000000000000
G15  20561638.789 6 108052127.819 6      1203.301          37.000    20561636.438 6  84196462.918 6       937.637          37.000  
G13  20189864.234 8 106098440.264 8      -464.371          51.000    20189861.656 8  82674083.536 8      -361.848          51.000  
G17  23783602.844 5 124983676.61725      2535.379          33.000    23783604.531 5  97389868.45825      1975.620          34.000  
G28  21250601.578 7 111672715.224 7     -1476.895          42.000    21250599.578 5  87017716.078 5     -1150.827          35.000  
G05  23824666.586 6 125199419.027 6     -3593.129          36.000    23824656.391 5  97558001.742 5     -2799.839          35.000  
R03  19268798.039 8 103147021.740 8       -92.949          49.000    19268798.312 8  80225451.324 8       -72.294          48.000  
R14  21788165.469 8 116142796.102 8      3100.258          51.000    21788168.875 8  90333302.612 8      2411.312          48.000  
R02  21179364.922 8 113016731.175 8     -3761.852          51.000    21179365.922 7  87901902.154 7     -2925.885          45.000  
R13  19290001.297 5 103007147.540 5       -42.188          31.000    19290003.586 6  80116671.607 6       -32.816          36.000  
E01  23511452.531 8 123553506.277 8       -70.406          51.000    23511453.508 8  94670904.403 8       -53.927          51.000  
E19  26679067.719 7 140199407.125 7     -2682.191          47.000    26679067.375 8 107425524.142 8     -2055.205          49.000  
E31  25456952.812 8 133777220.869 8      2356.070          50.000    25456952.742 7 102504637.117 7      1805.344          47.000  
E04  23480515.930 8 123390943.885 8      -274.145          51.000    23480516.062 8  94546306.170 8      -210.029          51.000  
C24  22307141.000 8 116159160.055 8     -1359.000          51.000                                                                  
C25  22648941.852 7 117938953.921 7      1570.656          43.000                                                                  
C14  24031371.922 8 125137646.826 8     -3140.957          48.000    24031363.344 7  96764354.383 7     -2428.736          43.000  
C05  39795607.867 6 207226172.248 6        17.535          36.000    39795605.414 6 160240402.427 6        13.837          38.000  
> 2020 05 17 04 47 30.0000000  0 17      -0.000000000000
G15  20554805.906 6 108016222.486 6      1188.719          36.000    20554804.734 5  84168484.740 5       926.275          34.000  
G13  20192550.703 8 106112558.494 8      -478.367          51.000    20192548.227 8  82685084.734 8      -372.754          51.000  
G17  23769139.312 5 124907658.475 5      2528.012          34.000    23769145.609 5  97330663.715 5      1969.871          32.000  
G28  21259067.961 6 111717205.837 6     -1490.801          40.000    21259065.992 6  87052384.098 6     -1161.663          38.000  
G05  23845180.758 6 125307222.697 6     -3595.492          37.000    23845171.836 5  97642004.567 5     -2801.680          35.000  
R03  19269385.500 8 103150166.453 8      -118.152          50.000    19269385.945 8  80227897.205 8       -91.896          48.000  
R14  21770742.344 8 116049918.728 8      3090.121          51.000    21770745.070 7  90261064.648 7      2403.428          47.000  
R02  21200544.719 7 113129757.052 7     -3774.762          47.000    21200546.336 7  87989811.176 7     -2935.926          42.000  
R13  19290282.477 5 103008646.534 5       -59.156          34.000    19290284.000 5  80117837.478 5       -46.010          35.000  
E01  23511880.141 8 123555752.520 8       -80.723          51.000    23511880.773 8  94672625.542 8       -61.852          51.000  
E19  26694390.469 7 140279928.209 7     -2687.227          47.000    26694392.492 8 107487222.066 8     -2058.988          50.000  
E31  25443515.930 8 133706615.967 8      2349.582          49.000    25443515.859 7 102450537.271 7      1800.345          47.000  
E04  23482108.352 8 123399312.791 8      -285.215          51.000    23482108.477 8  94552718.694 8      -218.517          51.000  
C24  22314987.602 8 116200020.416 8     -1366.430          51.000                                                                  
C25  22639913.195 7 117891935.059 7      1562.551          43.000                                                                  
C14  24049479.492 7 125231940.796 7     -3146.715          46.000    24049471.750 7  96837268.401 7     -2433.165          43.000  
C05  39795498.805 6 207225605.253 6        18.781          36.000    39795496.383 6 160239963.209 6        14.550          38.000  
> 2020 05 17 04 48  0.0000000  0 16      -0.000000000000
G15  20548057.195 5 107980766.564 5      1173.195          34.000    20548057.164 5  84140856.717 5       914.175          34.000  
G13  20195318.234 8 106127102.408 8      -492.371          51.000    20195315.695 8  82696417.644 8      -383.666          51.000  
G28  21267616.695 7 111762128.239 7     -1505.133          43.000    21267614.922 6  87087388.565 6     -1172.831          36.000  
G05  23865706.656 5 125415091.918 5     -3597.172          34.000    23865700.797 5  97726058.508 5     -2802.992          34.000  
R03  19270114.773 8 103154069.616 8      -143.230          50.000    19270115.203 8  80230933.012 8      -111.401          48.000  
R14  21753377.133 8 115957351.549 8      3079.957          49.000    21753379.008 7  90189067.942 7      2395.520          46.000  
R02  21221797.125 8 113243172.703 8     -3787.289          48.000    21221797.297 6  88078023.345 6     -2945.673          37.000  
R13  19290659.523 5 103010658.549 5       -76.199          33.000    19290660.273 5  80119402.362 5       -59.266          35.000  
E01  23512367.914 8 123558314.699 8       -91.137          51.000    23512368.047 8  94674588.756 8       -69.832          51.000  
E19  26709742.570 7 140360603.478 7     -2692.172          47.000    26709745.961 8 107549038.155 8     -2062.831          50.000  
E31  25430117.102 7 133636212.099 7      2342.945          47.000    25430118.492 7 102396591.442 7      1795.251          47.000  
E04  23483764.609 8 123408017.336 8      -296.258          51.000    23483764.984 8  94559388.389 8      -227.018          51.000  
C24  22322877.664 8 116241106.810 8     -1373.773          51.000                                                                  
C25  22630932.617 7 117845164.946 7      1554.449          42.000                                                                  
C14  24067620.844 7 125326411.569 7     -3152.473          44.000    24067614.914 7  96910319.163 7     -2437.538          44.000  
C05  39795385.062 6 207225012.821 6        20.148          37.000    39795382.578 6 160239505.102 6        15.239          38.000  
> 2020 05 17 04 48 30.0000000  0 19      -0.000000000000
G24  23006497.336 6 120899962.951 6      2871.246          36.000                                                                  
G15  20541389.227 5 107945732.310 5      1161.457          34.000    20541389.562 5  84113557.273 5       905.035          34.000  
G30  23163306.117 5 121723985.175 5     -2748.977          35.000    23163298.492 5  94849842.414 5     -2142.060          34.000  
G13  20198161.312 8 106142043.400 8      -503.691          51.000    20198158.844 8  82708059.953 8      -392.487          51.000  
G17  23740345.234 5 124756356.13025      2516.715          32.000    23740352.039 4  97212775.98524      1961.086          26.000  
G28  21276241.484 7 111807450.944 7     -1516.355          42.000    21276239.398 5  87122704.919 5     -1181.576          35.000  
G05  23886233.953 5 125523011.620 5     -3596.395          33.000    23886242.742 5  97810133.474 5     -2802.392          31.000  
R03  19270980.102 8 103158702.334 8      -165.621          50.000    19270980.633 8  80234536.225 8      -128.816          48.000  
R14  21736063.719 8 115865066.052 8      3072.426          48.000    21736065.633 7  90117290.329 7      2389.662          46.000  
R02  21243118.531 8 113356945.270 8     -3797.293          51.000    21243115.578 6  88166513.003 6     -2953.454          39.000  
R13  19291126.844 5 103013153.270 5       -89.828          34.000    19291127.648 5  80121342.697 5       -69.866          35.000  
E01  23512909.977 8 123561162.849 8       -98.633          51.000    23512910.062 8  94676771.098 8       -75.543          51.000  
E19  26725118.156 7 140441402.445 7     -2694.250          46.000    26725122.188 8 107610949.040 8     -2064.445          50.000  
E31  25416751.539 8 133565980.636 8      2339.254          48.000    25416755.195 8 102342777.698 8      1792.422          49.000  
E04  23485479.375 8 123417028.719 8      -304.402          51.000    23485479.805 8  94566293.187 8      -233.294          51.000  
C24  22330805.602 8 116282389.147 8     -1378.340          51.000                                                                  
C25  22621994.242 6 117798614.644 6      1549.223          41.000                                                                  
C14  24085789.992 7 125421028.124 7     -3155.246          42.000    24085786.711 7  96983482.672 7     -2439.813          45.000  
C05  39795261.227 6 207224367.011 6        23.383          37.000    39795258.492 6 160239005.682 6        18.311          38.000  
> 2020 05 17 04 49  0.0000000  0 16      -0.000000000000
G24  22990151.617 5 120814061.47325      2849.141          33.000                                                                  
G15  20534835.484 5 107911296.925 5      1129.520          33.000    20534836.953 5  84086724.457 5       880.142          33.000  
G13  20201113.500 8 106157557.860 8      -534.949          51.000    20201111.086 8  82720149.138 8      -416.841          50.000  
G28  21284975.258 7 111853348.388 7     -1547.578          42.000    21284973.203 6  87158469.209 6     -1205.899          36.000  
R03  19272015.812 8 103164244.338 8      -208.328          51.000    19272016.070 8  80238846.685 8      -162.033          48.000  
R14  21718837.406 8 115773242.151 8      3044.668          50.000    21718839.984 7  90045871.727 7      2368.075          47.000  
R02  21264540.023 8 113471250.639 8     -3827.480          51.000    21264538.383 7  88255417.135 7     -2976.930          43.000  
R13  19291717.633 5 103016307.740 5      -124.168          33.000    19291717.938 5  80123796.178 5       -96.572          35.000  
E01  23513539.750 8 123564472.359 8      -126.355          51.000    23513540.039 8  94679306.959 8       -96.815          51.000  
E19  26740550.133 7 140522500.595 7     -2716.469          45.000    26740554.609 8 107673089.148 8     -2081.541          49.000  
E31  25403453.664 8 133496098.405 8      2315.199          50.000    25403458.953 8 102289231.526 8      1774.051          51.000  
E04  23487286.297 8 123426523.487 8      -332.891          51.000    23487286.281 8  94573568.380 8      -255.042          51.000  
C24  22338804.531 8 116324040.778 8     -1402.750          51.000                                                                  
C25  22613131.414 6 117752458.741 6      1523.621          39.000                                                                  
C14  24104021.062 7 125515963.078 7     -3177.914          43.000    24104019.891 7  97056892.403 7     -2457.565          46.000  
C05  39795160.594 6 207223843.310 6         7.617          36.000    39795157.742 6 160238599.943 6         5.588          38.000  
> 2020 05 17 04 49 30.0000000  0 15      -0.000000000000
G13  20204144.398 8 106173485.691 8      -534.938          51.000    20204141.938 8  82732560.422 8      -416.835          50.000  
G17  23711770.664 6 124606199.775 6      2498.746          36.000    23711766.633 5  97095722.754 5      1947.075          35.000  
G28  21293787.641 7 111899658.036 7     -1547.773          42.000    21293785.438 6  87194554.621 6     -1206.061          37.000  
R03  19273190.641 8 103170532.676 8      -219.133          50.000    19273190.938 8  80243737.602 8      -170.437          48.000  
R14  21701667.992 8 115681717.943 8      3048.703          51.000    21701671.305 8  89974686.225 8      2371.214          48.000  
R02  21286029.656 8 113585921.614 8     -3825.539          51.000    21286030.422 7  88344605.660 7     -2975.420          46.000  
R13  19292401.227 5 103019957.232 5      -126.875          32.000    19292401.578 5  80126634.668 5       -98.681          35.000  
E01  23514226.531 8 123568081.824 8      -122.406          51.000    23514226.828 8  94682072.651 8       -93.816          51.000  
E19  26756008.297 7 140603736.264 7     -2707.281          45.000    26756012.383 7 107735334.602 7     -2074.349          47.000  
E31  25390192.398 8 133426405.288 8      2322.773          51.000    25390198.234 8 102235830.286 8      1779.857          51.000  
E04  23489154.828 8 123436341.364 8      -329.824          51.000    23489154.125 8  94581091.168 8      -252.663          51.000  
C24  22346843.516 8 116365901.366 8     -1396.043          51.000                                                                  
C25  22604312.977 5 117706538.170 5      1529.297          32.000                                                                  
C14  24122282.984 7 125611055.239 7     -3169.559          44.000    24122282.875 7  97130423.662 7     -2450.868          46.000  
C05  39795052.625 6 207223281.594 6        22.148          37.000    39795049.641 6 160238164.786 6        17.051          38.000  
> 2020 05 17 04 50  0.0000000  0 16      -0.000000000000
G13  20207262.203 8 106189870.288 8      -553.938          51.000    20207259.773 8  82745327.621 8      -431.640          50.000  
G17  23697551.352 5 124531490.671 5      2485.277          35.000    23697550.070 5  97037507.835 5      1936.577          35.000  
G28  21302686.203 6 111946420.862 6     -1566.066          41.000    21302684.070 5  87230993.225 5     -1220.306          34.000  
R03  19274512.781 8 103177612.018 8      -249.285          50.000    19274513.344 8  80249243.757 8      -193.888          48.000  
R14  21684563.164 8 115590538.240 8      3033.434          50.000    21684567.344 8  89903768.673 8      2359.338          48.000  
R02  21307595.352 8 113700999.707 8     -3842.914          51.000    21307597.859 7  88434110.865 7     -2988.934          47.000  
R13  19293184.477 5 103024143.589 5      -148.949          31.000    19293185.633 5  80129890.750 5      -115.846          35.000  
E01  23514978.547 8 123572033.577 8      -137.562          51.000    23514978.578 8  94685100.606 8      -105.366          51.000  
E19  26771500.734 7 140685151.402 7     -2716.852          45.000    26771503.797 7 107797717.582 7     -2081.816          46.000  
E31  25376975.492 8 133356945.007 8      2311.316          51.000    25376981.133 8 102182607.477 8      1771.031          51.000  
E21  25943165.211 5 136332252.825 5     -2401.930          32.000                                                                  
E04  23491093.078 8 123446525.823 8      -345.734          51.000    23491092.266 8  94588894.829 8      -264.899          51.000  
C24  22354930.602 8 116408012.457 8     -1407.984          51.000                                                                  
C25  22595540.984 5 117660924.875 5      1516.727          31.000                                                                  
C14  24140582.945 7 125706345.255 7     -3179.695          42.000    24140583.148 7  97204107.933 7     -2458.773          47.000  
C05  39794945.500 6 207222723.496 6        18.750          36.000    39794942.469 6 160237733.210 6        14.218          38.000  
> 2020 05 17 04 50 30.0000000  0 15      -0.000000000000
G13  20210461.422 8 106206682.158 8      -567.387          51.000    20210458.867 8  82758427.763 8      -442.120          50.000  
G17  23683379.227 5 124457018.892 5      2478.375          35.000    23683377.195 5  96979477.835 5      1931.199          34.000  
G28  21311664.930 7 111993605.425 7     -1579.574          43.000    21311663.133 5  87267760.485 5     -1230.834          32.000  
R03  19275977.523 8 103185452.409 8      -273.906          51.000    19275977.820 8  80255341.839 8      -213.038          48.000  
R14  21667517.227 8 115499673.640 8      3023.680          50.000    21667522.422 7  89833096.196 7      2351.751          47.000  
R02  21329230.570 8 113816450.555 8     -3854.430          51.000    21329234.773 7  88523905.969 7     -2997.893          47.000  
R13  19294063.422 5 103028835.565 5      -164.617          33.000    19294064.688 6  80133540.021 6      -128.039          36.000  
E01  23515789.789 8 123576296.861 8      -147.254          51.000    23515789.898 8  94688367.280 8      -112.741          51.000  
E19  26787021.062 7 140766715.280 7     -2721.148          44.000    26787023.648 7 107860214.511 7     -2085.085          45.000  
E31  25363797.102 8 133287688.250 8      2305.285          51.000    25363802.273 8 102129540.596 8      1766.361          51.000  
E04  23493095.594 8 123457047.253 8      -356.254          51.000    23493094.969 8  94596956.681 8      -272.920          51.000  
C24  22363059.938 8 116450343.180 8     -1414.578          51.000                                                                  
C25  22586821.891 6 117615530.728 6      1508.895          36.000                                                                  
C14  24158914.102 6 125801801.444 6     -3184.570          41.000    24158914.961 7  97277920.714 7     -2462.506          47.000  
C05  39794833.547 6 207222140.385 6        19.812          36.000    39794830.539 6 160237282.303 6        15.193          38.000  
> 2020 05 17 04 51  0.0000000  0 15      -0.000000000000
G13  20213745.211 8 106223937.947 8      -582.547          51.000    20213742.555 8  82771873.818 8      -453.933          49.000  
G17  23669256.125 6 124382803.209 6      2469.543          37.000    23669253.789 6  96921647.469 6      1924.326          37.000  
G28  21320726.648 7 112041225.967 7     -1594.754          42.000    21320724.898 5  87304867.402 5     -1242.663          35.000  
R03  19277587.641 8 103194070.614 8      -300.121          51.000    19277587.656 8  80262044.873 8      -233.428          48.000  
R14  21650533.578 8 115409141.638 8      3012.316          49.000    21650538.781 7  89762682.406 7      2342.910          45.000  
R02  21350938.398 8 113932287.600 8     -3867.559          51.000    21350943.070 7  88614001.450 7     -3008.102          44.000  
R13  19295038.828 5 103034047.543 5      -182.027          32.000    19295041.039 6  80137593.815 6      -141.577          36.000  
E01  23516663.273 8 123580887.075 8      -158.309          51.000    23516663.648 8  94691884.469 8      -121.310          51.000  
E19  26802572.570 7 140848443.105 7     -2726.785          42.000    26802575.125 7 107922837.085 7     -2089.389          43.000  
E31  25350660.133 8 133218651.825 8      2297.664          50.000    25350664.977 8 102076642.537 8      1760.564          51.000  
E04  23495165.398 8 123467922.228 8      -368.227          51.000    23495164.766 8  94605289.436 8      -282.115          51.000  
C24  22371234.320 8 116492908.429 8     -1422.602          51.000                                                                  
C25  22578155.414 6 117570400.955 6      1499.895          37.000                                                                  
C14  24177278.539 6 125897437.756 6     -3190.281          37.000    24177281.523 7  97351872.814 7     -2467.246          47.000  
C05  39794719.727 6 207221548.183 6        20.277          37.000    39794716.883 6 160236824.346 6        15.571          38.000  
> 2020 05 17 04 51 30.0000000  0 17      -0.000000000000
G24  22908860.984 5 120386872.735 5      2837.102          34.000                                                                  
G15  20503372.258 5 107745945.669 5      1065.363          33.000    20503374.672 5  83957883.885 5       830.156          32.000  
G13  20217098.117 8 106241556.965 8      -594.660          51.000    20217095.406 8  82785602.899 8      -463.372          49.000  
G17  23655167.750 6 124308765.851 6      2462.949          38.000    23655164.156 6  96863956.033 6      1919.185          37.000  
G28  21329855.523 7 112089199.275 7     -1606.379          42.000    21329854.164 5  87342249.211 5     -1251.724          33.000  
R03  19279327.461 8 103203384.677 8      -323.504          51.000    19279327.539 8  80269289.124 8      -251.617          48.000  
R14  21633596.969 8 115318861.525 8      3003.762          49.000    21633600.156 6  89692464.559 6      2336.263          41.000  
R02  21372702.750 8 114048425.779 8     -3877.762          51.000    21372705.742 6  88704331.062 6     -3016.041          39.000  
R13  19296097.086 5 103039696.446 5      -196.969          31.000    19296099.391 6  80141987.341 6      -153.198          37.000  
E01  23517583.594 8 123585722.560 8      -166.641          51.000    23517584.023 8  94695589.576 8      -127.692          51.000  
E19  26818139.125 6 140930252.777 6     -2729.750          41.000    26818142.633 7 107985522.400 7     -2091.682          42.000  
E31  25337549.484 8 133149755.365 8      2292.863          50.000    25337553.828 8 102023851.744 8      1756.855          51.000  
E04  23497287.000 8 123479070.214 8      -377.523          51.000    23497286.258 8  94613831.391 8      -289.223          51.000  
C24  22379438.047 8 116535626.898 8     -1427.832          51.000                                                                  
C25  22569526.680 6 117525455.601 6      1493.746          40.000                                                                  
C14  24195662.117 6 125993172.068 6     -3194.066          38.000    24195666.617 7  97425900.731 7     -2470.000          45.000  
C05  39794588.828 6 207220865.87226        23.180          36.000    39794585.992 6 160236297.504 6        17.574          38.000  
> 2020 05 17 04 52  0.0000000  0 16      -0.000000000000
G15  20497370.531 6 107714405.960 6      1045.234          36.000    20497372.695 6  83933307.424 6       814.469          37.000  
G13  20220568.078 8 106259791.699 8      -613.094          51.000    20220565.336 8  82799811.765 8      -477.736          49.000  
G17  23641161.461 6 124235161.979 6      2451.215          36.000                                                                  
G28  21339099.438 7 112137775.381 7     -1624.047          42.000    21339097.758 5  87380100.718 5     -1265.491          33.000  
R03  19281245.461 8 103213651.913 8      -352.980          51.000    19281245.367 8  80277274.736 8      -274.540          48.000  
R14  21616755.750 8 115229089.800 8      2989.012          49.000    21616756.172 6  89622642.126 6      2324.787          40.000  
R02  21394570.750 8 114165117.813 8     -3893.770          50.000    21394571.250 6  88795091.352 6     -3028.491          41.000  
R13  19297283.938 5 103046036.344 5      -217.809          31.000    19297286.789 6  80146918.397 6      -169.404          36.000  
E01  23518598.172 8 123591054.589 8      -180.996          51.000    23518598.820 8  94699675.161 8      -138.727          51.000  
E19  26833769.508 6 141012395.565 6     -2738.738          41.000    26833773.789 6 108048462.966 6     -2098.383          41.000  
E31  25324513.859 8 133081251.597 8      2281.836          51.000    25324516.969 8 101971361.837 8      1748.478          51.000  
E04  23499508.531 8 123490743.631 8      -392.949          51.000    23499508.047 8  94622775.952 8      -301.067          51.000  
C24  22387718.867 8 116578747.200 8     -1439.023          51.000                                                                  
C25  22560980.219 6 117480944.443 6      1481.430          41.000                                                                  
C14  24214114.820 7 126089252.195 7     -3203.293          42.000    24214117.602 6  97500196.031 6     -2477.162          41.000  
C05  39794488.930 6 207220345.158 6        19.984          37.000    39794486.016 6 160235894.814 6        15.411          38.000  
> 2020 05 17 04 52 30.0000000  0 16      -0.000000000000
G15  20491447.555 5 107683279.412 5      1029.559          34.000    20491448.336 5  83909052.981 5       802.257          34.000  
G13  20224110.430 8 106278406.975 8      -627.828          51.000    20224107.906 8  82814317.140 8      -489.217          49.000  
G17  23627192.695 6 124161758.633 6      2442.914          38.000    23627183.688 5  96749366.069 5      1903.573          33.000  
G28  21348412.914 7 112186717.102 7     -1638.445          42.000    21348411.078 6  87418237.150 6     -1276.711          36.000  
R03  19283296.586 8 103224632.637 8      -378.871          51.000    19283296.703 8  80285815.274 8      -294.678          48.000  
R14  21599965.648 8 115139588.519 8      2977.789          49.000    21599965.656 7  89553030.036 7      2316.059          42.000  
R02  21416496.742 8 114282120.886 8     -3906.234          49.000    21416498.148 7  88886093.659 7     -3038.183          44.000  
R13  19298555.852 5 103052826.604 5      -235.113          33.000    19298558.094 6  80152199.656 6      -182.869          36.000  
E01  23519662.172 8 123596646.747 8      -191.676          51.000    23519663.117 8  94703960.056 8      -146.887          51.000  
E19  26849419.414 7 141094634.910 7     -2744.035          43.000    26849423.078 6 108111477.527 6     -2102.442          40.000  
E31  25311508.156 8 133012905.445 8      2274.566          51.000    25311510.398 8 101918992.723 8      1742.913          51.000  
E04  23501785.352 8 123502707.168 8      -404.586          51.000    23501785.359 8  94631942.810 8      -310.040          51.000  
C24  22396031.703 8 116622034.715 8     -1446.605          51.000                                                                  
C25  22552471.359 6 117436633.930 6      1472.676          41.000                                                                  
C14  24232588.953 7 126185442.617 7     -3208.980          44.000    24232589.406 5  97574576.537 5     -2481.164          35.000  
C05  39794374.992 6 207219751.604 6        20.242          37.000    39794372.117 6 160235435.833 6        15.731          38.000  
> 2020 05 17 04 53  0.0000000  0 17      -0.000000000000
G15  20485617.859 5 107652648.734 5      1013.082          34.000    20485618.617 5  83885182.505 5       789.418          34.000  
G13  20227740.094 8 106297480.888 8      -642.816          51.000    20227737.844 8  82829179.920 8      -500.896          50.000  
G17  23613276.883 5 124088636.651 5      2432.781          34.000    23613270.117 5  96692387.996 5      1895.668          33.000  
G28  21357810.406 6 112236100.102 6     -1652.773          40.000    21357808.648 6  87456717.388 6     -1287.873          38.000  
G19  24808456.734 7 130369317.660 7      3441.184          47.000    24808451.305 6 101586460.772 6      2681.443          38.000  
R03  19285495.555 8 103236406.633 8      -405.125          51.000    19285496.234 8  80294972.825 8      -315.097          48.000  
R14  21583241.031 8 115050437.612 8      2966.441          48.000    21583242.641 7  89483690.437 7      2307.233          43.000  
R02  21438494.766 7 114399510.884 7     -3918.727          46.000    21438497.969 7  88977396.918 7     -3047.902          47.000  
R13  19299925.719 5 103060144.675 5      -253.012          30.000    19299928.656 5  80157891.509 5      -196.784          35.000  
E01  23520790.336 8 123602576.169 8      -202.672          51.000    23520791.742 8  94708503.365 8      -155.324          51.000  
E19  26865103.000 7 141177047.804 7     -2749.398          44.000    26865105.820 6 108174625.046 6     -2106.704          39.000  
E31  25298547.258 8 132944795.443 8      2266.941          51.000    25298549.047 8 101866804.554 8      1737.062          51.000  
E04  23504132.188 8 123515039.118 8      -416.625          51.000    23504132.516 8  94641391.950 8      -319.241          51.000  
C24  22404391.336 8 116665565.530 8     -1454.422          51.000                                                                  
C25  22544015.531 6 117392601.284 6      1463.617          41.000                                                                  
C14  24251098.297 7 126281818.523 7     -3214.969          46.000    24251117.859 5  97649178.982 5     -2485.550          32.000  
C05  39794261.805 6 207219162.380 6        20.008          37.000    39794258.961 6 160234980.174 6        15.807          38.000  
> 2020 05 17 04 53 30.0000000  0 18      -0.000000000000
G24  22844415.156 5 120048170.031 5      2817.148          31.000                                                                  
G15  20479871.578 5 107622452.428 5      1002.008          33.000    20479872.461 5  83861652.898 5       780.783          32.000  
G13  20231446.328 8 106316957.299 8      -652.465          51.000    20231444.156 8  82844356.324 8      -508.414          50.000  
G17  23599404.289 5 124015742.486 5      2428.996          35.000    23599399.812 5  96635587.262 5      1892.725          33.000  
G28  21367280.664 6 112285866.199 6     -1662.141          39.000    21367279.086 6  87495496.214 6     -1295.178          37.000  
G19  24788806.672 8 130266054.918 8      3446.113          48.000    24788801.250 6 101505996.311 6      2685.284          37.000  
R03  19287831.461 8 103248916.531 8      -425.785          49.000    19287833.719 8  80304702.726 8      -331.169          48.000  
R14  21566571.297 8 114961581.012 8      2960.445          48.000    21566574.359 7  89414579.756 7      2302.572          43.000  
R02  21460552.984 6 114517226.589 6     -3925.492          38.000    21460558.773 8  89068953.538 8     -3053.161          48.000  
R13  19301384.383 5 103067931.878 5      -264.113          34.000    19301386.906 5  80163948.167 5      -205.428          35.000  
E01  23521971.750 8 123608785.463 8      -208.172          51.000    23521973.688 8  94713261.134 8      -159.523          51.000  
E19  26880808.945 7 141259576.602 7     -2749.316          45.000    26880810.844 6 108237861.346 6     -2106.626          40.000  
E31  25285620.516 8 132876865.591 8      2264.695          50.000    25285622.148 8 101814754.425 8      1735.290          51.000  
E04  23506538.359 8 123527683.228 8      -423.223          51.000    23506538.844 8  94651080.277 8      -324.303          51.000  
C24  22412786.734 8 116709282.448 8     -1456.953          51.000                                                                  
C25  22535601.914 6 117348790.566 6      1460.039          40.000                                                                  
C14  24269631.578 7 126378321.804 7     -3215.461          45.000    24269638.984 6  97723801.475 6     -2486.465          41.000  
C05  39794138.617 6 207218521.434 6        25.629          37.000    39794135.891 6 160234484.546 6        20.066          38.000  
> 2020 05 17 04 54  0.0000000  0 16      -0.000000000000
G15  20474228.203 6 107592795.604 6       976.012          36.000    20474228.977 6  83838543.781 6       760.532          36.000  
G13  20235248.305 8 106336937.121 8      -677.941          51.000    20235246.391 8  82859925.009 8      -528.266          50.000  
G28  21376842.641 6 112336113.886 6     -1686.473          37.000    21376840.883 6  87534650.240 6     -1314.135          36.000  
G19  24769169.305 8 130162858.492 8      3435.340          48.000    24769165.289 6 101425583.513 6      2676.889          40.000  
R03  19290324.492 8 103262265.133 8      -462.527          50.000    19290327.484 7  80315084.938 7      -359.744          47.000  
R14  21549976.570 8 114873121.651 8      2938.512          49.000    21549980.016 7  89345778.033 7      2285.513          44.000  
R02  21482687.344 6 114635354.488 6     -3948.926          39.000    21482698.969 8  89160875.118 8     -3071.384          48.000  
R13  19302949.383 5 103076288.192 5      -291.102          34.000    19302951.586 5  80170447.539 5      -226.412          34.000  
E01  23523225.555 8 123615374.462 8      -229.445          51.000    23523227.562 8  94718309.843 8      -175.800          51.000  
E19  26896555.484 7 141342321.110 7     -2765.379          44.000    26896556.086 6 108301262.931 6     -2118.838          39.000  
E31  25272747.547 8 132809217.096 8      2246.758          51.000    25272748.820 8 101762919.893 8      1721.549          51.000  
E04  23509023.133 8 123540740.457 8      -445.680          51.000    23509023.922 8  94661085.159 8      -341.477          51.000  
C24  22421236.695 8 116753284.031 8     -1474.914          51.000                                                                  
C25  22527248.555 6 117305301.509 6      1440.691          36.000                                                                  
C14  24288207.227 7 126475050.166 7     -3231.566          44.000    24288208.000 7  97798597.944 7     -2498.825          44.000  
C05  39794024.758 6 207217928.500 6        15.359          36.000    39794022.109 6 160234026.038 6        11.901          38.000  
> 2020 05 17 04 54 30.0000000  0 16      -0.000000000000
G15  20468683.359 5 107563656.676 5       965.914          33.000    20468683.680 5  83815837.323 5       752.661          32.000  
G13  20239141.477 8 106357396.354 8      -687.391          51.000    20239140.000 8  82875867.253 8      -535.632          50.000  
G28  21386491.039 5 112386816.551 5     -1695.258          35.000    21386489.320 5  87574158.857 5     -1320.971          34.000  
G19  24749540.375 8 130059707.159 8      3440.078          48.000    24749537.930 6 101345205.882 6      2680.581          41.000  
R03  19292970.312 8 103276427.935 8      -483.113          50.000    19292973.266 8  80326100.437 8      -375.758          48.000  
R14  21533452.180 8 114785035.869 8      2932.449          48.000    21533456.078 7  89277266.902 7      2280.794          44.000  
R02  21504903.227 7 114753892.679 7     -3955.113          47.000    21504913.203 7  89253071.453 7     -3076.200          47.000  
R13  19304616.484 5 103085187.983 5      -303.184          34.000    19304618.516 5  80177369.589 5      -235.810          35.000  
E01  23524546.898 8 123622318.037 8      -234.863          51.000    23524548.719 8  94723630.237 8      -179.945          51.000  
E19  26912338.117 7 141425255.764 7     -2765.137          45.000    26912337.781 6 108364810.226 6     -2118.754          41.000  
E31  25259924.070 8 132741826.242 8      2244.562          51.000    25259924.734 8 101711282.751 8      1719.843          51.000  
E04  23511581.867 8 123554186.776 8      -452.250          51.000    23511583.008 8  94671388.167 8      -346.517          51.000  
C24  22429736.391 8 116797545.060 8     -1477.094          51.000                                                                  
C25  22518953.164 6 117262109.896 6      1437.156          38.000                                                                  
C14  24306820.656 7 126571977.430 7     -3231.637          43.000    24306818.703 7  97873548.246 7     -2498.946          45.000  
C05  39793915.531 6 207217360.461 6        20.770          36.000    39793912.781 6 160233586.002 6        16.323          38.000  
> 2020 05 17 04 55  0.0000000  0 17      -0.000000000000
G15  20463223.609 5 107534965.989 5       948.199          34.000    20463223.656 5  83793480.897 5       738.854          34.000  
G13  20243112.992 8 106378266.666 8      -702.727          51.000    20243111.875 8  82892129.823 8      -547.579          51.000  
G17  23558149.906 5 123798903.21425      2396.020          34.000    23558145.531 5  96466666.63625      1867.029          33.000  
G28  21396212.719 6 112437903.730 6     -1708.965          36.000    21396211.289 6  87613967.080 6     -1331.655          37.000  
G19  24729907.562 8 129956535.438 8      3439.305          48.000    24729906.070 7 101264812.375 7      2679.979          42.000  
R03  19295755.078 8 103291335.014 8      -509.418          49.000    19295757.977 8  80337694.785 8      -396.214          48.000  
R14  21516984.992 8 114697255.143 8      2920.660          48.000    21516989.703 7  89208992.971 7      2271.622          46.000  
R02  21527180.266 8 114872754.917 8     -3967.594          51.000    21527187.406 7  89345519.797 7     -3085.910          46.000  
R13  19306371.539 5 103094559.585 5      -320.500          34.000    19306373.688 6  80184658.633 6      -249.278          36.000  
E01  23525922.477 8 123629546.582 8      -245.812          51.000    23525924.359 8  94729168.994 8      -188.332          51.000  
E19  26928143.594 7 141508310.920 7     -2770.582          45.000    26928143.141 7 108428449.842 7     -2123.010          43.000  
E31  25247136.578 8 132674624.807 8      2236.746          51.000    25247137.469 8 101659790.740 8      1713.871          51.000  
E04  23514201.508 8 123567953.745 8      -464.355          51.000    23514202.828 8  94681936.868 8      -355.814          51.000  
C24  22438272.633 8 116841996.261 8     -1485.012          51.000                                                                  
C25  22510703.477 6 117219147.734 6      1428.176          39.000                                                                  
C14  24325459.172 7 126669033.501 7     -3237.480          43.000    24325455.375 7  97948598.175 7     -2503.441          45.000  
C05  39793797.750 6 207216747.25526        20.879          36.000    39793795.039 6 160233111.813 6        16.447          38.000  
> 2020 05 17 04 55 30.0000000  0 17      -0.000000000000
G15  20457856.547 5 107506763.309 5       931.594          35.000    20457857.164 5  83771504.797 5       725.920          34.000  
G13  20247170.031 8 106399586.063 8      -718.590          51.000    20247169.133 8  82908742.326 8      -559.940          51.000  
G17  23544498.688 6 123727177.853 6      2385.723          37.000    23544501.289 6  96410776.763 6      1859.011          37.000  
G28  21406014.672 5 112489411.209 5     -1723.793          32.000    21406012.562 5  87654102.812 5     -1343.210          32.000  
G19  24710278.531 8 129853383.849 8      3437.504          48.000    24710277.344 6 101184434.517 6      2678.575          41.000  
R03  19298685.938 8 103307024.886 8      -536.551          48.000    19298689.141 8  80349898.023 8      -417.317          49.000  
R14  21500582.258 8 114609818.188 8      2908.363          49.000    21500587.859 7  89140986.422 7      2262.061          45.000  
R02  21549524.242 8 114991975.941 8     -3980.555          51.000    21549528.109 7  89438247.197 7     -3095.991          44.000  
R13  19308222.297 5 103104440.031 5      -338.734          35.000    19308224.117 6  80192343.424 6      -263.460          36.000  
E01  23527359.281 8 123637096.923 8      -257.555          51.000    23527361.375 8  94734954.333 8      -197.392          51.000  
E19  26943978.539 7 141591523.074 7     -2776.836          45.000    26943979.023 7 108492209.724 7     -2127.683          45.000  
E31  25234391.789 8 132607650.989 8      2228.102          50.000    25234393.867 8 101608473.126 8      1707.290          51.000  
E04  23516889.352 8 123582079.273 8      -477.340          51.000    23516890.789 8  94692760.312 8      -365.793          51.000  
C24  22446852.477 8 116886673.782 8     -1493.465          51.000                                                                  
C25  22502504.211 6 117176452.181 6      1418.555          38.000                                                                  
C14  24344129.344 7 126766253.632 7     -3243.914          43.000    24344124.523 7  98023774.953 7     -2508.512          46.000  
C05  39793678.688 6 207216127.154 6        20.293          37.000    39793675.922 6 160232632.322 6        15.432          38.000  
> 2020 05 17 04 56  0.0000000  0 17      -0.000000000000
G15  20452586.539 6 107479071.389 6       914.848          37.000    20452587.562 6  83749926.632 6       712.872          38.000  
G13  20251316.492 8 106421375.215 8      -733.742          51.000    20251315.477 8  82925720.879 8      -571.747          51.000  
G17  23530908.047 6 123655760.505 6      2375.508          36.000    23530913.609 6  96355126.937 6      1851.049          36.000  
G28  21415900.031 6 112541357.492 6     -1738.996          37.000    21415897.625 6  87694580.461 6     -1355.062          36.000  
G19  24690657.695 7 129750276.512 7      3436.562          47.000    24690656.820 6 101104091.094 6      2677.839          40.000  
R03  19301767.172 8 103323518.696 8      -562.789          48.000    19301770.656 8  80362726.533 8      -437.725          49.000  
R14  21484248.961 8 114522747.361 8      2896.715          49.000    21484253.562 6  89073264.688 6      2253.001          41.000  
R02  21571937.758 8 115111573.817 8     -3992.410          48.000    21571939.461 7  89531267.683 7     -3105.212          42.000  
R13  19310171.312 5 103114848.137 5      -355.141          34.000    19310173.289 6  80200438.624 6      -276.221          37.000  
E01  23528861.156 8 123644989.040 8      -268.324          51.000    23528863.211 8  94741001.537 8      -205.614          51.000  
E19  26959847.078 7 141674912.240 7     -2782.148          45.000    26959848.516 7 108556105.271 7     -2131.786          46.000  
E31  25221693.766 8 132540926.151 8      2220.461          49.000    25221696.836 8 101557346.272 8      1701.411          51.000  
E04  23519649.375 8 123596584.459 8      -489.426          51.000    23519651.023 8  94703874.660 8      -375.045          51.000  
C24  22455479.680 8 116931597.137 8     -1501.141          51.000                                                                  
C25  22494360.844 6 117134043.946 6      1409.297          41.000                                                                  
C14  24362834.609 6 126863656.373 6     -3249.410          41.000    24362829.867 7  98099092.884 7     -2512.611          47.000  
C05  39793562.305 6 207215520.772 6        20.383          37.000    39793559.500 6 160232163.410 6        15.662          38.000  
> 2020 05 17 04 56 30.0000000  0 18      -0.000000000000
G15  20447410.719 5 107451875.590 5       897.121          35.000    20447412.156 5  83728735.022 5       699.049          34.000  
G30  23417377.633 5 123059149.83925     -2808.930          31.000                                                                  
G13  20255549.477 8 106443618.834 8      -749.848          51.000    20255548.086 8  82943053.562 8      -584.297          51.000  
G28  21425865.445 6 112593724.823 6     -1752.785          37.000    21425863.258 6  87735386.176 6     -1365.804          37.000  
G19  24671042.719 7 129647201.139 7      3434.520          46.000    24671042.039 6 101023772.597 6      2676.250          39.000  
R03  19304996.344 8 103340800.845 8      -589.938          50.000    19304999.133 8  80376168.199 8      -458.840          49.000  
R14  21467981.180 7 114436027.702 7      2884.078          47.000    21467983.594 6  89005816.067 6      2243.169          40.000  
R02  21594416.961 7 115231529.138 7     -4005.242          45.000    21594418.219 6  89624566.215 6     -3115.192          41.000  
R13  19312215.898 5 103125766.675 5      -373.250          33.000    19312217.891 6  80208930.784 6      -290.306          37.000  
R12  21744298.266 5 116153752.92425     -3354.777          31.000    21744295.078 4  90341793.78424     -2609.272          29.000  
E01  23530424.938 8 123653206.455 8      -280.055          51.000    23530426.711 8  94747297.994 8      -214.608          51.000  
E19  26975745.938 7 141758461.541 7     -2788.426          44.000    26975748.133 7 108620123.506 7     -2136.521          46.000  
E31  25209040.281 8 132474435.203 8      2211.750          49.000    25209043.867 8 101506398.620 8      1694.683          51.000  
E04  23522478.695 8 123611453.926 8      -502.430          51.000    23522480.531 8  94715268.122 8      -385.027          51.000  
C24  22464150.875 8 116976749.696 8     -1509.641          51.000                                                                  
C25  22486270.109 6 117091907.598 6      1399.348          41.000                                                                  
C14  24381571.031 6 126961224.193 6     -3255.770          39.000    24381567.445 7  98174538.500 7     -2517.614          45.000  
C05  39793445.695 6 207214912.626 6        19.590          37.000    39793442.695 6 160231693.143 6        15.085          38.000  
> 2020 05 17 04 57  0.0000000  0 17      -0.000000000000
G15  20442318.070 5 107425113.799 5       874.992          35.000    20442319.414 6  83707881.678 6       681.809          36.000  
G13  20259856.938 8 106466253.962 8      -770.777          51.000    20259855.484 8  82960691.313 8      -600.609          51.000  
G28  21435898.125 6 112646448.230 6     -1772.969          39.000    21435896.039 6  87776469.401 6     -1381.535          39.000  
G19  24651422.141 7 129544097.210 7      3427.574          45.000    24651421.305 6 100943431.863 6      2670.838          40.000  
G05  24237482.609 5 127368830.28325     -3640.199          31.000                                                                  
R03  19308360.742 8 103358806.750 8      -622.102          50.000    19308362.781 8  80390172.790 8      -483.857          49.000  
R14  21451765.906 7 114349596.038 7      2866.320          46.000    21451768.000 6  88938591.449 6      2229.358          40.000  
R02  21616950.383 7 115351773.851 7     -4022.895          46.000    21616952.539 7  89718089.860 7     -3128.919          43.000  
R13  19314342.969 5 103137130.199 5      -395.609          31.000    19314346.086 6  80217769.094 6      -307.696          37.000  
E01  23532038.242 8 123661684.903 8      -296.676          51.000    23532040.070 8  94753794.469 8      -227.341          51.000  
E19  26991663.117 7 141842106.762 7     -2799.441          45.000    26991665.570 7 108684215.288 7     -2145.097          45.000  
E31  25196419.766 8 132408115.250 8      2198.117          50.000    25196423.555 8 101455582.022 8      1684.207          51.000  
E04  23525365.359 8 123626624.548 8      -520.492          51.000    23525367.242 8  94726892.338 8      -398.783          51.000  
C24  22472853.734 8 117022067.507 8     -1522.891          51.000                                                                  
C25  22478218.695 6 117049980.200 6      1384.523          41.000                                                                  
C14  24400325.508 5 127058892.281 5     -3266.781          35.000    24400324.227 7  98250061.639 7     -2526.228          42.000  
C05  39793316.461 6 207214239.897 6        14.098          37.000    39793313.594 6 160231172.951 6        10.433          38.000  
> 2020 05 17 04 57 30.0000000  0 16      -0.000000000000
G15  20437343.750 6 107398971.149 6       865.500          37.000    20437344.398 6  83687510.784 6       674.416          36.000  
G13  20264273.984 8 106489464.736 8      -778.961          51.000    20264272.391 8  82978777.612 8      -606.983          51.000  
G28  21446033.438 6 112699709.628 6     -1779.918          39.000    21446030.750 6  87817971.724 6     -1386.949          38.000  
G19  24631832.258 7 129441151.947 7      3433.281          44.000    24631830.430 6 100863214.774 6      2675.285          39.000  
R03  19311895.016 8 103377723.721 8      -641.395          50.000    19311896.805 8  80404885.977 8      -498.863          50.000  
R14  21435640.219 7 114263639.808 7      2861.559          47.000    21435642.453 7  88871736.616 7      2225.660          42.000  
R02  21639573.141 7 115472492.369 7     -4027.465          47.000    21639576.188 7  89811981.982 7     -3132.473          45.000  
R13  19316588.906 5 103149123.427 5      -405.836          31.000    19316591.977 6  80227097.122 6      -315.653          37.000  
E01  23533736.195 8 123670607.563 8      -300.582          51.000    23533738.156 8  94760631.309 8      -230.316          51.000  
E19  27007633.539 7 141926030.828 7     -2797.887          46.000    27007635.836 7 108748520.710 7     -2143.899          45.000  
E31  25183867.406 8 132342150.832 8      2197.141          51.000    25183870.430 8 101405037.848 8      1683.503          51.000  
E04  23528344.391 8 123642280.572 8      -525.746          51.000    23528346.234 8  94738888.490 8      -402.833          51.000  
C24  22481622.984 8 117067731.781 8     -1523.637          51.000                                                                  
C25  22470242.359 7 117008444.116 7      1382.219          42.000                                                                  
C14  24419133.523 5 127156840.770 5     -3264.844          33.000    24419134.656 6  98325801.636 6     -2524.932          41.000  
C05  39793209.883 6 207213685.893 6        20.805          37.000    39793206.984 6 160230743.732 6        16.287          38.000  
> 2020 05 17 04 58  0.0000000  0 16      -0.000000000000
G15  20432451.141 6 107373258.246 6       848.191          38.000    20432451.109 6  83667474.685 6       660.926          39.000  
G13  20268764.250 8 106513060.502 8      -794.512          51.000    20268762.398 8  82997163.899 8      -619.100          50.000  
G28  21456233.938 7 112753315.611 7     -1794.133          43.000    21456231.609 6  87859742.678 6     -1398.023          36.000  
G19  24612237.180 7 129338177.562 7      3431.238          44.000    24612234.961 6 100782975.015 6      2673.693          41.000  
R03  19315562.828 8 103397357.087 8      -668.012          51.000    19315564.641 8  80420156.355 8      -519.565          49.000  
R14  21419568.031 7 114177966.343 7      2849.414          47.000    21419570.078 7  88805101.709 7      2216.211          43.000  
R02  21662247.703 7 115593487.114 7     -4039.234          46.000    21662251.594 7  89906088.993 7     -3141.627          46.000  
R13  19318915.867 5 103161550.340 5      -423.074          32.000    19318919.320 6  80236762.509 6      -329.055          37.000  
E01  23535482.258 8 123679782.558 8      -311.637          51.000    23535484.055 8  94767661.493 8      -238.778          51.000  
E19  27023620.539 7 142010041.692 7     -2803.340          47.000    27023622.234 7 108812892.635 7     -2148.212          45.000  
E31  25171346.742 8 132276351.504 8      2188.934          51.000    25171348.305 8 101354620.177 8      1677.278          50.000  
E04  23531379.633 8 123658231.254 8      -538.234          51.000    23531381.203 8  94751110.435 8      -412.408          51.000  
C24  22490422.125 8 117113552.105 8     -1531.367          51.000                                                                  
C25  22462305.102 7 116967110.087 7      1372.887          43.000                                                                  
C14  24437959.883 5 127254878.505 5     -3270.883          33.000    24437961.453 6  98401610.617 6     -2529.403          38.000  
C05  39793089.562 6 207213059.392 6        20.801          37.000    39793086.641 6 160230269.289 6        15.912          38.000  
> 2020 05 17 04 58 30.0000000  0 16      -0.000000000000
G15  20427655.594 6 107348055.172 6       832.066          40.000    20427654.867 6  83647835.961 6       648.364          40.000  
G13  20273342.852 8 106537120.556 8      -809.156          51.000    20273340.570 8  83015911.979 8      -630.512          50.000  
G28  21466515.055 7 112807343.621 7     -1807.500          42.000    21466513.141 6  87901842.356 6     -1408.445          38.000  
G19  24592652.086 7 129235256.307 7      3430.371          45.000    24592650.359 7 100702776.700 7      2673.020          44.000  
R03  19319379.445 8 103417787.476 8      -693.648          51.000    19319381.086 8  80436046.643 8      -539.504          48.000  
R14  21403564.164 7 114092656.506 7      2838.098          46.000    21403566.914 7  88738749.630 7      2207.410          45.000  
R02  21684986.930 7 115714834.422 7     -4050.168          42.000    21684992.906 7  90000470.231 7     -3150.131          46.000  
R13  19321339.375 5 103174490.264 5      -439.281          33.000    19321342.625 6  80246826.857 6      -341.663          37.000  
E01  23537291.133 8 123689288.126 8      -321.766          51.000    23537292.750 8  94774944.973 8      -246.575          51.000  
E19  27039638.977 7 142094217.599 7     -2807.941          47.000    27039639.500 7 108877390.989 7     -2151.648          44.000  
E31  25158872.531 8 132210796.843 8      2181.758          51.000    25158873.031 8 101304389.988 8      1671.699          50.000  
E04  23534486.062 8 123674555.912 8      -549.859          51.000    23534487.344 8  94763618.947 8      -421.294          51.000  
C24  22499266.148 8 117159605.795 8     -1538.402          51.000                                                                  
C25  22454421.375 7 116926056.434 7      1364.250          43.000                                                                  
C14  24456819.555 5 127353081.832 5     -3275.379          35.000    24456818.992 5  98477547.587 5     -2532.876          34.000  
C05  39792970.641 6 207212439.784 6        21.316          37.000    39792967.656 6 160229790.161 6        16.223          38.000  
> 2020 05 17 04 59  0.0000000  0 17      -0.000000000000
G15  20422953.586 6 107323346.434 6       814.250          39.000    20422953.086 6  83628582.393 6       634.481          39.000  
G13  20278006.547 8 106561628.158 8      -825.398          51.000    20278003.906 8  83035008.790 8      -643.168          50.000  
G28  21476872.555 6 112861774.268 6     -1822.367          39.000    21476870.609 6  87944255.885 6     -1420.024          38.000  
G19  24573074.203 7 129132374.557 7      3427.797          44.000    24573073.352 7 100622609.160 7      2671.014          44.000  
G05  24320519.805 5 127805193.52125     -3638.902          31.000                                                                  
R03  19323341.828 8 103438997.635 8      -721.035          51.000    19323343.289 8  80452543.409 8      -560.805          48.000  
R14  21387625.555 7 114007694.185 7      2825.379          47.000    21387629.391 7  88672667.826 7      2197.514          46.000  
R02  21707787.086 6 115836514.190 6     -4062.523          39.000    21707796.961 7  90095110.162 7     -3159.735          45.000  
R13  19323854.836 5 103187924.197 5      -457.293          31.000    19323859.055 6  80257275.448 6      -355.672          38.000  
E01  23539159.586 8 123699106.578 8      -333.484          51.000    23539161.094 8  94782468.192 8      -255.491          51.000  
E19  27055685.117 7 142178540.445 7     -2814.227          46.000    27055684.602 7 108942001.910 7     -2156.375          45.000  
E31  25146441.320 8 132145470.583 8      2172.758          49.000    25146441.844 8 101254334.803 8      1664.797          50.000  
E04  23537660.453 8 123691237.942 8      -563.031          51.000    23537661.812 8  94776401.280 8      -431.432          51.000  
C24  22508151.781 8 117205874.981 8     -1546.832          51.000                                                                  
C25  22446588.117 7 116885266.458 7      1354.180          42.000                                                                  
C14  24475708.031 6 127451432.046 6     -3282.148          36.000    24475704.234 5  98553598.051 5     -2537.797          32.000  
C05  39792849.773 6 207211810.381 6        20.004          36.000    39792846.750 6 160229303.419 6        15.725          38.000  
> 2020 05 17 04 59 30.0000000  0 16      -0.000000000000
G15  20418352.117 6 107299165.081 6       797.773          39.000    20418351.477 6  83609739.778 6       621.642          39.000  
G13  20282761.406 8 106586615.156 8      -840.387          51.000    20282758.680 8  83054479.136 8      -654.850          49.000  
G28  21487312.281 7 112916637.438 7     -1835.207          43.000    21487311.055 6  87987006.371 6     -1430.035          39.000  
G19  24553510.391 7 129029567.124 7      3426.246          43.000    24553510.258 7 100542499.536 7      2669.803          43.000  
R03  19327455.609 8 103461019.707 8      -747.074          51.000    19327457.289 7  80469671.629 7      -581.058          47.000  
R14  21371757.836 7 113923112.597 7      2813.613          46.000    21371762.703 7  88606882.131 7      2188.363          45.000  
R02  21730658.102 7 115958555.000 7     -4073.422          44.000    21730668.555 6  90190030.855 6     -3168.218          41.000  
R13  19326468.789 5 103201882.389 5      -473.402          33.000    19326473.133 6  80268131.819 6      -368.205          36.000  
E01  23541093.391 8 123709268.698 8      -343.855          51.000    23541094.875 8  94790254.754 8      -263.462          51.000  
E19  27071764.750 7 142263040.835 7     -2818.988          46.000    27071764.289 7 109006748.888 7     -2160.032          46.000  
E31  25134058.281 7 132080404.851 7      2165.102          46.000    25134059.945 8 101204479.232 8      1658.966          50.000  
E04  23540908.922 8 123708309.220 8      -574.902          51.000    23540910.453 8  94789481.848 8      -440.501          51.000  
C24  22517084.617 8 117252389.997 8     -1554.035          51.000                                                                  
C25  22438811.078 7 116844771.470 7      1345.430          42.000                                                                  
C14  24494631.242 6 127549958.289 6     -3286.734          36.000    24494624.203 5  98629784.651 5     -2541.440          32.000  
C05  39792733.000 6 207211202.517 6        20.434          37.000    39792729.992 6 160228833.377 6        15.795          38.000  
