     3.02           OBSERVATION DATA    M (MIXED)           RINEX VERSION / TYPE
SAVERINEX           SC600               20200505 035930 LCL PGM / RUN BY / DATE
       G = GPS       R = GLONASS       C = COMPASS          COMMENT
       S = SBAS      J = QZSS          E = GALILEO          COMMENT
BEAN                                                        MARKER NAME
1                                                           MARKER NUMBER
GEODETIC                                                    MARKER TYPE
Unige DICCA         GTER                                    OBSERVER / AGENCY
SC60291900056       SC600               2.12(191226)        REC # / TYPE / VERS
                    HEMA45          NONE                    ANT # / TYPE
  4509407.8091   693652.4678  4442337.6214                  APPROX POSITION XYZ
        0.0000        0.0000        0.0000                  ANTENNA: DELTA H/E/N
G    8 C1C L1C D1C S1C C2Y L2Y D2Y S2Y                      SYS / # / OBS TYPES
R    8 C1C L1C D1C S1C C2P L2P D2P S2P                      SYS / # / OBS TYPES
C    8 C1I L1I D1I S1I C7I L7I D7I S7I                      SYS / # / OBS TYPES
E    8 C1C L1C D1C S1C C7Q L7Q D7Q S7Q                      SYS / # / OBS TYPES
DBHZ                                                        COMMENT
     30.000                                                 INTERVAL
  2020    05    05    01    00    0.0000000     GPS         TIME OF FIRST OBS
  2020    05    05    01    59   30.0000000     GPS         TIME OF LAST OBS
     0                                                      RCV CLOCK OFFS APPL
G L1C  0.00000                                              SYS / PHASE SHIFT
G L2Y  0.00000                                              SYS / PHASE SHIFT
R L1C  0.00000                                              SYS / PHASE SHIFT
R L2P  0.25000                                              SYS / PHASE SHIFT
C L1I  0.00000                                              SYS / PHASE SHIFT
C L7I  0.00000                                              SYS / PHASE SHIFT
E L1C  0.50000                                              SYS / PHASE SHIFT
E L7Q -0.25000                                              SYS / PHASE SHIFT
 14 R02 -4 R03  5 R04  6 R05  1 R10 -5 R12 -1 R13 -2 R14 -7 GLONASS SLOT / FRQ #
    R15  0 R16 -1 R17  4 R18 -3 R19  3 R20  2               GLONASS SLOT / FRQ #
 C1C   71.950 C2C   71.950 C2P   71.950                     GLONASS COD/PHS/BIS
    18                                                      LEAP SECONDS
*** Above antenna height is from mark to ANTENNA BOTTOM.    COMMENT
    17     4        0.0000        ANT MEASURE TYPE/HEIGT    COMMENT
    0.0000    0.0000    0.0458    0.0405    0.0000          COMMENT
                    BASE STATION                            COMMENT
                                                            END OF HEADER
> 2020 05 05 01 00  0.0000000  0 15        .000000000000
G04  22466335.125 6 118061365.589 6     -2649.555          36.000    22466334.359 4  91995882.081 4     -2064.588          26.000
G06  21344365.430 8 112165403.612 8     -1374.418          51.000    21344367.438 8  87401618.303 8     -1070.975          51.000
G07  21487953.680 8 112919939.464 8      1969.973          49.000    21487953.406 8  87989553.765 8      1535.044          49.000
G09  20515032.758 8 107807317.812 8     -1011.578          51.000    20515033.531 8  84005678.576 8      -788.243          51.000
G30  23292580.586 6 122403321.543 6      3475.852          37.000    23292579.469 5  95379219.992 5      2708.456          35.000
R04  20402995.375 7 109257095.411 7     -1607.008          42.000    20403001.484 4  84977771.876 4     -1249.895          28.000
R14  20495361.758 5 109251848.101 5       379.605          33.000    20495364.914 6  84973660.128 6       295.258          37.000
R15  21623736.781 8 115550681.337 8      3856.633          50.000    21623741.344 8  89872784.699 8      2999.606          49.000
C05  39769052.430 5 207087890.953 5       -16.293          35.000    39769048.602 6 160133475.395 6       -12.421          38.000
C19  21595437.289 8 112453099.192 8      -298.324          51.000
C20  24687225.930 5 128552826.573 5     -2371.148          34.000
E03  23536091.094 8 123682978.851 8      -461.594          51.000    23536092.914 8  94770123.131 8      -353.686          51.000
E05  26502641.469 5 139272325.432 5     -2123.938          35.000    26502650.375 5 106715168.863 5     -1627.463          33.000
E15  25224894.906 8 132557710.074 8     -2473.438          48.000    25224898.781 8 101570204.234 8     -1895.246          51.000
E25  25979440.312 5 136522880.057 5      2072.586          32.000    25979443.469 6 104608471.238 6      1588.600          36.000
> 2020 05 05 01 00 30.0000000  0 14        .000000000000
G06  21352291.656 8 112207056.940 8     -1403.207          51.000    21352293.781 8  87434075.439 8     -1093.408          51.000
G07  21476773.570 8 112861190.951 8      1945.770          48.000    21476774.055 8  87943775.673 8      1516.184          48.000
G09  20520864.703 8 107837965.050 8     -1032.293          51.000    20520865.328 8  84029559.525 8      -804.384          51.000
G30  23272781.602 6 122299274.907 6      3459.504          37.000    23272777.602 5  95298144.861 5      2695.723          34.000
R04  20412050.266 6 109305584.713 6     -1626.254          38.000    20412054.648 4  85015485.711 4     -1264.870          29.000
R14  20493330.586 6 109241012.397 6       342.102          36.000    20493333.477 6  84965232.247 6       266.073          38.000
R15  21602148.719 8 115435315.260 8      3833.691          49.000    21602152.711 8  89783055.515 8      2981.760          49.000
C05  39769170.164 6 207088504.538 6       -25.801          36.000    39769166.344 6 160133949.106 6       -19.724          38.000
C19  21597207.273 8 112462315.380 8      -316.918          51.000
C20  24700934.406 5 128624171.906 5     -2385.930          32.000
E03  23538767.797 8 123697045.528 8      -476.930          51.000    23538769.188 8  94780901.483 8      -365.416          51.000
E05  26514801.438 5 139336208.379 5     -2135.422          34.000    26514808.812 5 106764114.150 5     -1636.002          31.000
E15  25239066.836 8 132632184.370 8     -2492.227          48.000    25239070.289 8 101627268.938 8     -1909.529          51.000
E25                                                                  25967665.961 6 104561039.611 6      1573.225          37.000
> 2020 05 05 01 01  0.0000000  0 13        .000000000000
G06  21360339.727 8 112249350.995 8     -1416.695          51.000    21360341.750 8  87467031.832 8     -1103.918          51.000
G07  21465689.742 8 112802948.110 8      1936.770          48.000    21465690.336 8  87898391.629 8      1509.171          48.000
G09  20526772.164 8 107869009.434 8     -1037.656          51.000    20526772.867 8  84053749.934 8      -808.563          51.000
G30  23253033.000 6 122195492.360 6      3458.734          38.000    23253027.391 6  95217275.397 6      2695.121          38.000
R04  20421171.930 6 109354429.787 6     -1630.305          39.000    20421175.133 5  85053476.302 5     -1268.015          30.000
R14  20491467.883 6 109231080.070 6       319.641          37.000    20491470.445 6  84957507.254 6       248.609          41.000
R15  21580646.438 8 115320410.076 8      3826.324          49.000    21580650.523 8  89693684.796 8      2976.030          48.000
C05  39769301.906 6 207089191.136 6       -20.180          36.000    39769298.289 6 160134480.020 6       -15.737          38.000
C19  21599042.039 8 112471869.430 8      -320.371          51.000
E03  23541489.906 8 123711351.408 8      -476.980          51.000    23541491.008 8  94791863.123 8      -365.467          51.000
E08  23040310.586 5 121077648.707 5      1632.664          31.000
E15  25253303.500 8 132706997.162 8     -2495.539          48.000    25253306.445 8 101684593.017 8     -1912.160          51.000
E25  25955955.242 5 136399458.560 5      2048.277          33.000    25955961.219 5 104513901.514 5      1569.402          32.000
> 2020 05 05 01 01 30.0000000  0 14        .000000000000
G06  21368453.938 8 112291993.085 8     -1435.125          51.000    21368455.750 8  87500259.409 8     -1118.282          51.000
G07  21454647.508 8 112744921.770 8      1922.848          49.000    21454646.945 8  87853176.343 8      1498.326          49.000
G09  20532699.664 8 107900158.790 8     -1048.074          51.000    20532700.578 8  84078022.145 8      -816.684          51.000
G30  23233280.039 6 122091684.997 6      3452.770          40.000    23233274.086 6  95136386.513 6      2690.470          40.000
R04  20430303.570 6 109403333.934 6     -1639.152          39.000    20430303.117 4  85091491.257 4     -1274.896          27.000
R14  20489721.312 6 109221756.893 6       292.801          36.000    20489720.625 6  84950255.687 6       227.722          40.000
R15  21559175.758 8 115205674.132 8      3813.727          50.000    21559179.750 7  89604445.668 7      2966.229          47.000
C05  39769392.453 6 207089662.071 6       -19.855          36.000    39769388.930 6 160134844.966 6       -15.338          38.000
C19  21600886.359 8 112481473.196 8      -328.762          51.000
C20  24728407.977 5 128767332.072 5     -2389.484          31.000
E03  23544202.078 8 123725605.135 8      -482.121          51.000    23544203.047 8  94802784.804 8      -369.402          51.000
E08  23030977.836 5 121028604.093 5      1629.430          35.000
E15  25267548.883 8 132781855.409 8     -2503.898          49.000    25267551.617 8 101741951.936 8     -1918.566          51.000
E25  25944268.602 6 136338039.904 6      2038.051          36.000
> 2020 05 05 01 02  0.0000000  0 13        .000000000000
G06  21376712.766 8 112335395.106 8     -1454.047          51.000    21376714.703 8  87534079.135 8     -1133.024          51.000
G07  21443725.664 8 112687526.221 8      1908.016          51.000    21443723.797 8  87808452.601 8      1486.765          51.000
G09  20538725.648 8 107931825.570 8     -1058.738          51.000    20538726.617 8  84102697.546 8      -824.991          51.000
G30  23213600.969 6 121988268.432 6      3446.039          41.000    23213595.508 7  95055802.161 7      2685.225          42.000
R04  20439525.273 6 109452717.971 6     -1648.570          36.000    20439525.117 4  85129900.604 4     -1282.221          27.000
R14  20488168.648 5 109213436.642 5       264.871          35.000    20488165.016 7  84943789.000 7       206.005          42.000
R15  21537816.062 8 115091532.077 8      3800.258          49.000    21537820.203 7  89515668.471 7      2955.756          45.000
C05  39769520.578 5 207090329.091 5       -20.254          35.000    39769517.070 6 160135360.749 6       -15.610          38.000
C19  21602819.047 8 112491536.737 8      -337.859          51.000
E03  23546983.094 8 123740219.940 8      -487.840          51.000    23546983.969 8  94813983.155 8      -373.784          51.000
E08  23021703.664 6 120979862.581 6      1624.438          37.000
E15  25281880.805 8 132857170.618 8     -2512.773          48.000    25281883.906 8 101799660.986 8     -1925.336          51.000
E25  25932679.016 6 136277123.148 6      2027.703          36.000
> 2020 05 05 01 02 30.0000000  0 13        .000000000000
G06  21385041.250 8 112379162.251 8     -1477.918          51.000    21385043.445 8  87568183.396 8     -1151.624          51.000
G07  21432849.641 8 112630369.748 8      1888.094          51.000    21432847.328 8  87763915.096 8      1471.242          51.000
G09  20544775.148 8 107963615.596 8     -1074.641          51.000    20544775.750 8  84127468.989 8      -837.382          51.000
G30  23193921.148 6 121884851.784 6      3434.055          41.000    23193917.609 6  94975217.776 6      2675.887          40.000
R04  20448761.359 6 109502181.621 6     -1663.188          37.000    20448762.617 4  85168372.307 4     -1293.590          29.000
R14  20486720.164 5 109205758.526 5       231.027          31.000    20486725.555 7  84937828.258 7       179.688          42.000
R15  21516493.078 8 114977588.516 8      3781.598          48.000    21516497.258 6  89427045.742 6      2941.246          40.000
C05  39769611.359 5 207090802.548 5       -25.223          35.000    39769607.734 6 160135726.093 6       -19.616          38.000
C19  21604765.383 8 112501670.807 8      -351.863          51.000
E03  23549758.031 8 123754802.410 8      -498.523          51.000    23549758.898 8  94825156.736 8      -381.980          51.000
E08  23012416.180 6 120931042.973 6      1616.008          36.000
E15  25296224.258 8 132932547.685 8     -2526.602          49.000    25296227.984 8 101857417.448 8     -1935.946          51.000
E25  25921110.727 5 136216323.843 5      2011.750          33.000
> 2020 05 05 01 03  0.0000000  0 15        .000000000000
G06  21393517.742 8 112423706.256 8     -1487.992          51.000    21393520.219 8  87602893.007 8     -1159.474          51.000
G07  21422097.859 8 112573867.065 8      1882.148          49.000    21422095.820 8  87719887.031 8      1466.609          49.000
G09  20550926.516 8 107995941.121 8     -1076.672          51.000    20550926.758 8  84152657.708 8      -838.965          51.000
G30  23174320.031 6 121781850.587 6      3436.246          40.000    23174318.445 6  94894957.111 6      2677.594          41.000
R04  20458089.852 5 109552145.562 5     -1664.047          34.000    20458093.906 4  85207233.097 4     -1294.259          27.000
R05  19999414.703 5 106908314.279 5      1342.012          30.000    19999415.500 4  83150923.697 4      1043.781          28.000
R14  20485488.312 6 109199143.537 6       212.777          40.000    20485485.664 7  84932683.071 7       165.490          42.000
R15  21495285.898 7 114864267.989 7      3776.781          47.000    21495286.578 6  89338907.780 6      2937.506          36.000
C05  39769743.445 6 207091489.980 6       -16.895          36.000    39769739.867 6 160136257.655 6       -13.085          38.000
C19  21606803.727 8 112512285.305 8      -352.211          50.000
C20  24769830.859 5 128982997.789 5     -2401.012          32.000
E03  23552605.586 8 123769765.620 8      -495.422          51.000    23552606.422 8  94836622.049 8      -379.603          51.000
E05  26575701.867 5 139656255.440 5     -2134.785          34.000
E15  25310657.867 8 133008397.979 8     -2526.465          50.000    25310662.000 8 101915536.493 8     -1935.848          51.000
E25                                                                  25909647.602 5 104327406.253 5      1540.154          34.000
> 2020 05 05 01 03 30.0000000  0 13        .000000000000
G06  21402069.656 8 112468646.121 8     -1505.969          51.000    21402072.062 8  87637911.083 8     -1173.485          51.000
G07  21411398.102 8 112517639.448 8      1868.398          49.000    21411396.570 8  87676073.314 8      1455.895          49.000
G09  20557107.414 8 108028421.725 8     -1086.469          51.000    20557107.781 8  84177967.274 8      -846.599          51.000
G30  23154726.562 6 121678887.764 6      3430.535          38.000    23154726.008 6  94814726.314 6      2673.141          37.000
R04  20467441.867 6 109602223.285 6     -1672.242          37.000    20467444.867 4  85246182.389 4     -1300.633          29.000
R15  21474123.469 7 114751189.379 7      3763.891          46.000    21474125.031 7  89250957.811 7      2927.470          42.000
C05  39769844.492 6 207092016.275 6       -16.020          36.000    39769840.891 6 160136664.641 6       -12.620          38.000
C19  21608861.961 8 112523004.648 8      -360.301          51.000
C20  24783694.812 4 129055195.143 4     -2405.020          29.000
E03  23555453.438 8 123784729.973 8      -500.203          51.000    23555454.273 8  94848088.241 8      -383.234          51.000
E05  26587896.703 5 139720343.296 5     -2135.656          34.000
E15  25325109.266 8 133084340.185 8     -2534.266          51.000    25325113.094 8 101973725.955 8     -1941.816          51.000
E25                                                                  25898210.820 5 104281346.415 5      1532.255          33.000
> 2020 05 05 01 04  0.0000000  0 11        .000000000000
G06  21410756.547 8 112514294.944 8     -1529.410          51.000    21410758.586 8  87673481.598 8     -1191.748          51.000
G07  21400811.156 8 112462003.449 8      1848.605          50.000    21400809.891 8  87632720.575 8      1440.472          50.000
G09  20563377.523 8 108061371.265 8     -1102.164          51.000    20563378.203 8  84203642.235 8      -858.829          51.000
G30  23135201.469 5 121576280.338 5      3418.020          34.000    23135201.016 5  94734772.471 5      2663.392          34.000
R04  20476875.312 6 109652735.218 6     -1686.855          41.000    20476875.078 4  85285464.388 4     -1311.996          28.000
R14  20483438.352 6 109188237.200 6       153.312          36.000    20483439.250 6  84924185.896 6       119.240          41.000
R15  21453067.750 8 114638676.911 8      3745.008          48.000    21453071.086 7  89163448.073 7      2912.781          46.000
C05  39769974.492 6 207092693.557 6       -21.160          36.000    39769970.969 6 160137188.315 6       -16.205          38.000
C19  21611000.406 8 112534141.157 8      -374.242          51.000
E03  23558361.375 8 123800010.092 8      -510.504          51.000    23558362.312 8  94859796.380 8      -391.171          51.000
E15  25339638.016 8 133160687.147 8     -2547.543          51.000    25339641.148 8 102032225.540 8     -1952.052          51.000
> 2020 05 05 01 04 30.0000000  0 13        .000000000000
G06  21419531.062 8 112560404.175 8     -1547.078          51.000    21419532.773 8  87709410.861 8     -1205.515          51.000
G07  21390290.258 8 112406713.997 8      1834.781          51.000    21390288.750 8  87589637.877 8      1429.700          51.000
G09  20569689.633 8 108094541.695 8     -1111.816          51.000    20569690.523 8  84229489.324 8      -866.350          51.000
G30  23115697.406 5 121473809.443 5      3411.910          32.000    23115697.211 5  94654904.802 5      2658.634          33.000
R04  20486341.570 6 109703429.992 6     -1695.512          38.000    20486340.906 5  85324885.658 5     -1318.734          30.000
R05  19977101.562 5 106789045.118 5      1310.500          31.000
R14  20482647.539 5 109183991.027 5       126.383          35.000    20482643.930 6  84920899.595 6        98.289          37.000
R15  21432072.852 8 114526483.735 8      3731.914          51.000    21432076.695 7  89076186.707 7      2902.600          47.000
C05  39770086.383 5 207093275.898 5       -20.324          35.000    39770082.938 6 160137639.419 6       -15.767          38.000
C19  21613172.156 8 112545450.469 8      -382.305          51.000
E03  23561282.281 8 123815358.801 8      -515.285          51.000    23561283.398 8  94871557.077 8      -394.847          51.000
E15  25354196.625 8 133237189.966 8     -2555.113          51.000    25354199.523 8 102090844.556 8     -1957.847          51.000
E25  25875545.078 5 135976906.174 5      1974.668          35.000
> 2020 05 05 01 05  0.0000000  0 12        .000000000000
G02  22471700.078 5 118089590.374 5       741.891          34.000
G06  21428409.336 8 112607059.058 8     -1561.785          51.000    21428411.078 8  87745765.305 8     -1216.975          51.000
G07  21379851.633 8 112351858.857 8      1823.727          50.000    21379849.805 8  87546893.620 8      1421.086          50.000
G09  20576060.000 8 108128019.068 8     -1118.684          51.000    20576061.117 8  84255575.569 8      -871.702          51.000
G30  23096229.609 6 121371510.368 6      3409.547          36.000    23096232.602 5  94575192.865 5      2656.790          35.000
R04  20495858.516 6 109754395.890 6     -1700.863          38.000    20495860.398 5  85364525.724 5     -1322.897          33.000
R15  21411155.188 8 114414702.772 8      3721.512          51.000    21411158.625 8  88989245.926 8      2894.509          48.000
C05  39770196.984 6 207093851.634 6       -16.762          36.000    39770193.539 6 160138084.620 6       -12.937          38.000
C19  21615393.906 8 112557019.127 8      -387.574          51.000
E03  23564232.617 8 123830862.841 8      -516.934          51.000    23564233.977 8  94883436.787 8      -396.077          51.000
E15  25368800.930 8 133313933.613 8     -2559.668          51.000    25368804.211 8 102149648.122 8     -1961.310          51.000
E25  25864301.789 6 135917806.477 6      1967.180          38.000    25864301.008 5 104144823.785 5      1507.146          35.000
> 2020 05 05 01 05 30.0000000  0 13        .000000000000
G04  22634535.516 5 118945286.582 5     -2704.574          31.000
G06  21437394.047 8 112654274.166 8     -1584.754          50.000    21437396.133 8  87782556.294 8     -1234.873          50.000
G07  21369498.773 8 112297455.477 8      1804.355          48.000    21369496.805 8  87504501.394 8      1405.991          48.000
G09  20582491.617 8 108161818.558 8     -1133.449          51.000    20582492.953 8  84281912.821 8      -883.207          51.000
G30  23076802.156 6 121269431.866 6      3397.410          39.000    23076808.922 6  94495651.043 6      2647.327          38.000
R04  20505430.977 6 109805649.369 6     -1714.617          40.000    20505433.242 5  85404389.481 5     -1333.588          34.000
R14  20481529.797 5 109178094.568 5        69.707          32.000    20481523.961 5  84916270.869 5        54.204          32.000
R15  21390318.078 8 114303354.862 8      3702.801          50.000    21390321.969 8  88902642.010 8      2879.956          50.000
C05  39770309.281 6 207094435.739 6       -21.148          36.000    39770305.781 6 160138536.272 6       -16.311          38.000
C19  21617668.727 8 112568863.620 8      -400.949          51.000
E03  23567215.555 8 123846538.317 8      -526.871          51.000    23567217.211 8  94895447.867 8      -403.715          51.000
E15  25383453.312 8 133390932.446 8     -2572.410          51.000    25383457.258 8 102208647.235 8     -1971.062          51.000
E25  25853120.516 6 135859039.590 6      1952.168          36.000    25853118.570 6 104099794.675 6      1495.530          37.000
> 2020 05 05 01 06  0.0000000  0 14        .000000000000
G04  22649998.023 6 119026516.308 6     -2706.574          37.000
G06  21446477.617 8 112702009.997 8     -1600.414          49.000    21446480.289 8  87819753.066 8     -1247.076          49.000
G07  21359224.922 8 112243467.267 8      1792.215          48.000    21359223.203 8  87462432.673 8      1396.531          49.000
G09  20588977.273 8 108195901.445 8     -1141.297          51.000    20588978.547 8  84308470.918 8      -889.322          51.000
G30  23057409.430 6 121167536.228 6      3393.035          41.000    23057417.141 6  94416251.762 6      2643.920          40.000
R04  20515048.625 6 109857151.717 6     -1721.305          38.000    20515051.484 5  85444446.961 5     -1338.793          33.000
R05  19955254.805 5 106672217.521 5      1284.453          33.000    19955245.109 4  82967273.849 4       999.013          27.000
R15  21369555.219 8 114192405.952 8      3691.129          48.000    21369559.766 8  88816348.392 8      2870.875          50.000
C05  39770415.898 6 207094991.846 6       -18.301          36.000    39770412.477 6 160138965.546 6       -14.366          38.000
C19  21619989.336 8 112580946.879 8      -407.172          51.000
C20  24853391.188 4 129418132.309 4     -2430.527          29.000
E03  23570223.906 8 123862347.290 8      -529.652          51.000    23570225.828 8  94907561.237 8      -405.843          51.000
E15  25398146.453 8 133468146.742 8     -2577.844          50.000    25398150.828 8 102267811.452 8     -1975.171          51.000
E25  25841991.102 5 135800576.376 5      1943.668          32.000    25841989.969 5 104054992.960 5      1489.367          32.000
> 2020 05 05 01 06 30.0000000  0 13        .000000000000
G06  21455672.508 8 112750332.075 8     -1621.555          49.000    21455675.742 8  87857406.636 8     -1263.549          49.000
G07  21349043.172 8 112189962.351 8      1774.289          50.000    21349042.000 8  87420740.526 8      1382.563          50.000
G09  20595529.688 8 108230333.957 8     -1154.770          51.000    20595530.484 8  84335301.440 8      -899.820          51.000
G30  23038065.086 6 121065892.959 6      3382.945          40.000    23038073.289 6  94337049.162 6      2636.058          40.000
R04  20524724.617 5 109908971.633 5     -1733.746          35.000    20524729.859 5  85484751.259 5     -1348.472          35.000
R14  20481037.141 5 109175464.245 5        13.840          30.000    20481023.578 6  84914207.895 6        10.752          37.000
R15  21348880.336 8 114081928.802 8      3673.559          49.000    21348885.258 8  88730421.683 8      2857.212          49.000
C05  39770529.648 6 207095584.549 6       -21.672          36.000    39770526.305 6 160139423.839 6       -16.556          38.000
C19  21622368.539 8 112593335.900 8      -419.184          51.000
E03  23573270.375 8 123878356.766 8      -538.113          51.000    23573272.477 8  94919828.240 8      -412.297          51.000
E05  26661338.188 5 140106282.895 5     -2150.648          33.000
E15  25412893.234 8 133545641.783 8     -2588.988          51.000    25412897.242 8 102327190.777 8     -1983.737          51.000
E25  25830937.164 5 135742487.876 5      1930.238          34.000
> 2020 05 05 01 07  0.0000000  0 12        .000000000000
G06  21464970.039 8 112799193.084 8     -1637.195          49.000    21464973.195 8  87895480.143 8     -1275.737          49.000
G07  21338945.445 8 112136897.269 8      1761.910          51.000    21338944.641 8  87379391.088 8      1372.914          51.000
G09  20602139.859 8 108265069.521 8     -1162.336          51.000    20602140.367 8  84362368.115 8      -905.716          51.000
G30  23018761.273 6 120964458.738 6      3378.109          41.000    23018769.742 6  94258009.481 6      2632.293          40.000
R04  20534454.055 6 109961062.451 6     -1740.484          40.000    20534457.133 5  85525266.362 5     -1353.707          34.000
R14  20481020.180 6 109175368.649 6       -11.262          36.000    20481016.492 6  84914158.959 6        -8.765          40.000
R15  21328286.922 8 113971881.318 8      3661.422          51.000    21328291.016 8  88644829.205 8      2847.773          48.000
C05  39770641.977 6 207096169.669 6       -19.035          36.000    39770638.742 6 160139876.291 6       -14.789          39.000
C19  21624797.828 8 112605985.889 8      -425.590          51.000
E03  23576346.219 8 123894521.047 8      -540.945          51.000    23576348.438 8  94932213.860 8      -414.497          51.000
E05  26673605.570 5 140170749.143 5     -2149.516          33.000
E15  25427684.633 8 133623370.078 8     -2594.461          51.000    25427687.273 8 102386748.799 8     -1987.943          51.000
> 2020 05 05 01 07 30.0000000  0 14        .000000000000
G04  22696450.234 5 119270638.322 5     -2712.781          34.000
G06  21474352.578 8 112848498.206 8     -1648.695          50.000    21474354.688 8  87933899.712 8     -1284.698          50.000
G07  21328914.086 8 112084179.849 8      1753.684          51.000    21328913.266 8  87338312.569 8      1366.510          51.000
G09  20608789.758 8 108300014.093 8     -1166.113          51.000    20608790.336 8  84389597.652 8      -908.660          51.000
G30  22999480.375 6 120863142.753 6      3377.117          41.000    22999488.297 6  94179061.896 6      2631.517          41.000
R04  20544214.289 5 110013329.320 5     -1742.520          35.000    20544217.734 5  85565918.312 5     -1355.302          35.000
R05  19933857.445 5 106557896.951 5      1262.551          31.000    19933850.406 4  82878352.170 4       981.975          25.000
R14  20481137.336 5 109176028.788 5       -32.793          33.000    20481135.047 6  84914672.443 6       -25.506          38.000
R15  21307757.281 8 113862173.255 8      3653.422          51.000    21307760.039 7  88559500.756 7      2841.553          46.000
C05  39770735.148 6 207096654.982 6       -12.578          36.000    39770731.953 6 160140251.582 6        -9.593          38.000
C19  21627259.516 8 112618805.009 8      -427.949          51.000
C20  24895527.250 5 129637511.005 5     -2438.531          32.000
E03  23579433.719 8 123910746.896 8      -539.695          51.000    23579435.945 8  94944646.647 8      -413.500          51.000
E15  25442502.266 8 133701236.584 8     -2595.617          50.000    25442503.219 8 102446412.730 8     -1988.760          51.000
> 2020 05 05 01 08  0.0000000  0 12        .000000000000
G04  22712011.945 5 119352403.684 5     -2724.574          35.000
G06  21483876.672 8 112898545.478 8     -1674.043          50.000    21483877.766 8  87972897.569 8     -1304.449          51.000
G07  21319005.797 8 112032110.864 8      1731.395          51.000    21319005.305 8  87297739.366 8      1349.139          51.000
G09  20615536.211 8 108335466.527 8     -1183.672          51.000    20615536.922 8  84417222.921 8      -922.342          51.000
G30  22980280.250 7 120762247.036 7      3362.770          43.000    22980287.422 7  94100441.791 7      2620.337          43.000
R04  20554066.102 6 110066077.595 6     -1759.594          40.000    20554067.938 5  85606944.740 5     -1368.573          34.000
R14  20481451.742 5 109177722.884 5       -66.812          31.000    20481454.734 6  84915990.061 6       -51.959          40.000
R15  21287348.594 8 113753113.909 8      3631.086          50.000    21287349.875 7  88474676.837 7      2824.178          45.000
C05  39770866.258 6 207097336.701 6       -19.680          36.000    39770863.125 6 160140779.491 6       -15.042          38.000
C19  21629810.734 8 112632090.808 8      -444.184          51.000
E03  23582590.008 8 123927333.982 8      -552.352          51.000    23582592.102 8  94957356.228 8      -423.242          51.000
E15  25457402.422 8 133779539.186 8     -2610.754          48.000    25457402.742 8 102506410.827 8     -2000.382          51.000
> 2020 05 05 01 08 30.0000000  0 13        .000000000000
G04  22727569.805 5 119434159.312 5     -2729.281          35.000
G06  21493478.336 8 112948999.522 8     -1692.520          51.000    21493479.023 8  88012212.389 8     -1318.846          51.000
G07  21309157.531 8 111980358.230 8      1715.758          51.000    21309157.305 8  87257412.656 8      1336.954          51.000
G09  20622315.633 8 108371092.337 8     -1194.316          51.000    20622316.359 8  84444983.291 8      -930.636          51.000
G30  22961097.742 7 120661440.296 7      3354.910          45.000    22961104.508 7  94021891.055 7      2614.216          46.000
R04  20563943.836 6 110118967.338 6     -1769.375          40.000    20563943.289 5  85648081.236 5     -1376.181          34.000
R05  19919892.703 5 106483241.664 5      1236.359          33.000    19919887.773 5  82820278.604 5       961.613          30.000
R14  20481897.312 6 109180112.543 6       -95.258          39.000    20481901.227 6  84917848.721 6       -74.092          38.000
R15  21266997.820 8 113644368.335 8      3615.699          48.000    21266998.992 7  88390096.932 7      2812.211          44.000
C05                                                                  39770968.703 6 160141204.435 6       -15.495          38.000
C19  21632388.422 8 112645513.071 8      -453.574          51.000
E03  23585751.688 8 123943948.590 8      -558.129          51.000    23585753.578 8  94970086.900 8      -427.612          51.000
E15  25472321.219 7 133857942.355 7     -2619.113          46.000    25472322.609 8 102566486.008 8     -2006.757          51.000
> 2020 05 05 01 09  0.0000000  0 11        .000000000000
G06  21503182.141 8 112999990.999 8     -1704.480          51.000    21503182.875 8  88051946.001 8     -1328.167          51.000
G07  21299395.023 8 111929055.554 8      1706.707          51.000    21299394.469 8  87217436.517 8      1329.902          51.000
G09  20629153.109 8 108407023.006 8     -1198.621          51.000    20629153.836 8  84472981.202 8      -933.994          51.000
G30  22941958.188 8 120560857.273 8      3353.035          48.000    22941964.547 8  93943514.669 8      2612.755          48.000
R04  20573872.273 6 110172133.665 6     -1772.836          38.000    20573871.000 5  85689432.811 5     -1378.872          32.000
R14  20482500.109 6 109183331.864 6      -117.348          38.000    20482506.141 6  84920352.660 6       -91.264          39.000
R15  21246731.242 8 113536075.603 8      3606.395          49.000    21246733.273 7  88305869.182 7      2804.970          45.000
C05  39771076.836 6 207098433.816 6       -14.160          36.000    39771073.906 6 160141627.874 6       -11.043          38.000
C19  21635017.773 8 112659203.513 8      -456.762          51.000
E03  23588943.922 8 123960723.091 8      -557.777          51.000    23588945.609 8  94982940.091 8      -427.367          51.000
E15  25487284.039 7 133936576.619 7     -2620.879          46.000    25487286.875 8 102626738.276 8     -2008.230          51.000
> 2020 05 05 01 09 30.0000000  0 12        .000000000000
G06  21512972.328 8 113051438.718 8     -1731.176          50.000    21512973.383 8  88092035.140 8     -1348.968          50.000
G07  21289703.281 8 111878124.902 8      1682.879          51.000    21289702.211 8  87177750.289 8      1311.337          51.000
G09  20636033.312 8 108443178.197 8     -1217.609          51.000    20636034.023 8  84501154.062 8      -948.787          51.000
G30  22922846.641 8 120460420.772 8      3336.703          48.000    22922851.844 7  93865252.480 7      2600.028          47.000
R04  20583838.320 7 110225495.508 7     -1790.863          43.000    20583834.148 4  85730936.407 4     -1392.891          29.000
R14  20483244.531 6 109187300.505 6      -153.695          41.000    20483250.398 6  84923439.358 6      -119.544          38.000
R15  21226535.984 8 113428159.247 8      3582.160          49.000    21226538.758 7  88221934.192 7      2786.125          46.000
C05  39771166.586 6 207098901.010 6       -22.984          36.000    39771163.641 6 160141989.124 6       -17.643          39.000
C19  21637683.352 8 112673083.860 8      -474.406          51.000
E03  23592151.445 8 123977577.935 8      -571.766          51.000    23592152.969 8  94995854.844 8      -438.100          51.000
E05  26735063.969 5 140493720.141 5     -2161.758          34.000
E15  25502275.898 7 134015360.686 7     -2637.215          47.000    25502278.805 8 102687105.290 8     -2020.648          50.000
> 2020 05 05 01 10  0.0000000  0 12        .000000000000
G06  21522901.672 8 113103619.622 8     -1743.652          49.000    21522902.812 8  88132695.611 8     -1358.690          49.000
G07  21280135.453 8 111827845.903 8      1672.957          51.000    21280133.945 8  87138571.854 8      1303.603          51.000
G09  20643009.070 8 108479835.741 8     -1222.395          51.000    20643009.719 8  84529718.368 8      -952.515          51.000
G30  22903816.438 7 120360411.904 7      3334.359          46.000    22903817.266 7  93787323.604 7      2598.208          43.000
R04  20593893.008 5 110279337.056 5     -1794.645          35.000    20593887.633 4  85772813.088 4     -1395.844          29.000
R14  20484182.734 7 109192300.888 7      -175.840          43.000    20484188.734 6  84927328.591 6      -136.764          37.000
R15  21206465.094 8 113320907.205 8      3571.941          50.000    21206468.750 7  88138515.970 7      2778.180          47.000
C05  39771293.906 6 207099563.919 6       -17.754          36.000    39771290.977 6 160142501.696 6       -13.324          39.000
C19  21640438.477 8 112687430.768 8      -478.137          51.000
C20  24966299.273 5 130006058.433 5     -2467.027          30.000
E03  23595427.273 8 123994791.833 8      -571.824          51.000    23595428.633 8  95009044.711 8      -438.169          51.000
E15  25517349.344 7 134094571.413 7     -2639.512          47.000    25517350.953 8 102747799.217 8     -2022.519          49.000
> 2020 05 05 01 10 30.0000000  0 12        .000000000000
G06  21532907.172 8 113156199.153 8     -1761.105          50.000    21532908.367 8  88173666.687 8     -1372.290          50.000
G07  21270628.562 8 111777886.612 8      1658.074          51.000    21270626.953 8  87099642.532 8      1292.006          51.000
G09  20650016.852 8 108516661.929 8     -1232.254          51.000    20650017.477 8  84558414.089 8      -960.198          51.000
G30  22884804.047 7 120260500.273 7      3326.879          42.000    22884798.836 7  93709470.503 7      2592.376          42.000
R04  20603975.180 6 110333318.993 6     -1803.332          41.000    20603969.211 4  85814798.943 4     -1402.592          24.000
R14  20485252.000 7 109197995.417 7      -203.207          43.000    20485256.984 5  84931757.678 5      -158.053          34.000
R15  21186456.414 8 113213985.327 8      3556.660          51.000    21186460.266 7  88055354.552 7      2766.294          47.000
C05  39771395.414 6 207100092.911 6       -16.965          37.000    39771392.594 6 160142910.792 6       -13.454          38.000
C19  21643220.109 8 112701914.924 8      -486.906          51.000
E03  23598708.070 8 124012031.893 8      -576.969          51.000    23598709.344 8  95022254.625 8      -442.099          51.000
E15  25532440.531 7 134173874.132 7     -2646.789          47.000    25532441.078 8 102808563.598 8     -2027.978          48.000
E25  25744715.516 5 135289393.555 5      1844.793          32.000
> 2020 05 05 01 11  0.0000000  0 15        .000000000000
G04  22805717.633 5 119844810.032 5     -2738.395          35.000
G06  21543019.781 8 113209340.836 8     -1771.039          50.000    21543021.461 8  88215075.784 8     -1380.030          50.000
G07  21261214.289 8 111728414.492 8      1650.668          51.000    21261212.883 8  87061092.838 8      1286.235          51.000
G09  20657088.016 8 108553821.285 8     -1234.434          51.000    20657088.781 8  84587369.422 8      -961.896          51.000
G30  22865840.094 6 120160853.536 6      3327.148          39.000    22865836.336 6  93631823.665 6      2592.580          39.000
R04  20614113.484 5 110387609.936 5     -1804.914          34.000    20614124.664 4  85857065.265 4     -1403.822          27.000
R14  20486482.617 7 109204551.528 7      -222.949          43.000    20486487.367 5  84936856.902 5      -173.405          35.000
R15  21166542.188 8 113107566.122 8      3548.754          51.000    21166545.320 7  87972584.091 7      2760.142          47.000
C05  39771502.805 6 207100650.986 6        -9.645          36.000    39771499.906 6 160143343.068 6        -7.319          39.000
C19  21646059.953 8 112716700.668 8      -488.297          51.000
E03  23602025.266 8 124029463.433 8      -574.441          51.000    23602026.602 8  95035611.258 8      -440.198          51.000
E05  26772072.930 5 140688192.146 5     -2153.660          31.000
E08  22858278.836 5 120121061.374 5      1564.293          34.000
E15  25547580.586 8 134253432.277 8     -2646.430          48.000    25547581.320 8 102869523.706 8     -2027.790          49.000
E25  25734227.852 5 135234276.783 5      1840.883          34.000    25734235.258 6 103621094.590 6      1410.295          36.000
> 2020 05 05 01 11 30.0000000  0 13        .000000000000
G06  21553235.992 8 113263028.405 8     -1797.555          49.000    21553238.266 8  88256910.223 8     -1400.695          49.000
G07  21251890.016 8 111679415.566 8      1626.477          51.000    21251888.906 8  87022911.857 8      1267.381          51.000
G09  20664219.664 8 108591298.456 8     -1253.516          51.000    20664220.586 8  84616572.404 8      -976.765          51.000
G30  22846924.867 7 120061459.529 7      3310.105          43.000    22846924.023 7  93554373.745 7      2579.303          43.000
R04  20624307.695 6 110442195.067 6     -1823.254          37.000
R14  20487872.258 6 109211954.490 6      -259.887          41.000    20487878.641 5  84942614.951 5      -202.125          34.000
R15  21146720.125 8 113001639.398 8      3523.793          51.000    21146721.906 7  87890196.657 7      2740.728          46.000
C05  39771613.148 6 207101225.809 6       -18.070          36.000    39771610.336 6 160143787.594 6       -14.109          39.000
C19  21648955.141 8 112731774.111 8      -506.172          51.000
E03  23605376.047 8 124047071.979 8      -588.754          51.000    23605377.555 8  95049103.513 8      -451.138          51.000
E08  22849414.250 5 120074482.061 5      1551.406          32.000
E15  25562766.227 8 134333229.539 8     -2662.789          48.000    25562768.086 8 102930667.051 8     -2040.331          49.000
E25  25723808.875 5 135179527.522 5      1820.035          33.000    25723814.305 6 103579141.597 6      1394.525          38.000
> 2020 05 05 01 12  0.0000000  0 13        .000000000000
G06  21563547.156 8 113317215.791 8     -1814.461          48.000    21563549.633 8  88299134.148 8     -1413.866          48.000
G07  21242647.523 8 111630847.145 8      1611.832          49.000    21242646.922 8  86985066.322 8      1255.973          49.000
G09  20671403.219 8 108629048.360 8     -1262.859          51.000    20671404.109 8  84645987.920 8      -984.046          51.000
G30  22828051.094 7 119962276.292 7      3302.582          45.000    22828051.695 7  93477088.088 7      2573.441          45.000
R04  20634547.078 6 110497029.491 6     -1831.922          38.000
R14  20489412.328 6 109220159.293 6      -286.641          39.000    20489416.633 4  84948987.017 4      -222.943          26.000
R15  21126981.984 8 112896164.453 8      3508.305          49.000    21126982.609 7  87808160.659 7      2728.684          45.000
C05                                                                  39771715.406 6 160144210.586 6       -13.858          39.000
C19  21651897.219 8 112747091.935 8      -514.664          51.000
C20  25023374.195 4 130303276.564 4     -2484.355          29.000
E03  23608752.070 8 124064813.292 8      -593.633          51.000    23608753.664 8  95062697.500 8      -454.841          51.000
E15  25577988.500 7 134413219.837 7     -2669.574          47.000    25577991.312 8 102991958.318 8     -2045.440          49.000
E25                                                                  25713452.320 6 103537432.117 6      1386.231          37.000
> 2020 05 05 01 12 30.0000000  0 14        .000000000000
G06  21573949.500 7 113371882.334 7     -1831.363          47.000    21573952.117 7  88341731.460 7     -1427.036          47.000
G07  21233483.531 8 111582691.707 8      1597.086          50.000    21233483.633 8  86947542.620 8      1244.483          50.000
G09  20678634.922 8 108667051.350 8     -1272.262          51.000    20678635.555 8  84675600.639 8      -991.373          51.000
G30  22809214.570 7 119863287.358 7      3295.023          47.000    22809215.734 7  93399953.858 7      2567.551          46.000
R04  20644829.336 5 110552114.330 5     -1840.828          35.000
R05  19866059.062 5 106195469.927 5      1162.031          31.000    19866056.023 4  82596464.699 4       903.802          27.000
R14  20491098.555 6 109229146.435 6      -313.895          38.000    20491107.344 5  84955950.660 5      -244.134          32.000
R15  21107325.281 7 112791126.596 7      3492.676          46.000    21107324.672 7  87726464.568 7      2716.526          44.000
C05  39771814.477 6 207102274.470 6       -17.172          36.000    39771811.492 6 160144597.701 6       -13.152          39.000
C19  21654882.414 8 112762636.007 8      -523.156          51.000
C20  25037709.203 5 130377873.832 5     -2488.918          34.000
E03  23612149.773 8 124082668.506 8      -598.234          51.000    23612151.359 8  95076378.763 8      -458.396          51.000
E15  25593243.242 7 134493382.467 7     -2676.230          47.000    25593246.445 8 103053381.626 8     -2050.522          49.000
E25  25703146.766 5 135070946.827 5      1798.129          33.000    25703149.672 6 103495953.146 6      1378.018          38.000
> 2020 05 05 01 13  0.0000000  0 13        .000000000000
G06  21584456.797 8 113427099.886 8     -1850.203          48.000    21584459.555 8  88384758.078 8     -1441.717          48.000
G07  21224412.602 8 111535023.755 8      1580.398          51.000    21224412.859 8  86910398.763 8      1231.479          51.000
G09  20685928.664 8 108705380.185 8     -1283.492          51.000    20685928.898 8  84705467.260 8     -1000.124          51.000
G30  22790429.430 8 119764568.687 8      3285.641          48.000    22790430.992 8  93323030.226 8      2560.239          48.000
R04  20655169.055 6 110607484.288 6     -1851.246          36.000    20655199.078 4  86028142.603 4     -1439.870          26.000
R14  20492945.906 6 109238990.141 6      -342.844          37.000    20492948.992 5  84963607.050 5      -266.653          32.000
R15  21087763.570 7 112686605.097 7      3474.797          43.000    21087764.984 7  87645170.018 7      2702.617          45.000
C05  39771915.797 6 207102801.832 6       -18.504          36.000    39771912.758 6 160145005.493 6       -14.281          39.000
C19  21657924.859 8 112778479.777 8      -533.520          51.000
E03  23615583.164 8 124100711.293 8      -604.965          51.000    23615584.852 8  95090203.747 8      -463.539          51.000
E08  22822932.242 5 119935319.392 5      1539.465          33.000
E15  25608544.188 7 134573789.213 7     -2684.598          45.000    25608547.195 7 103114991.986 7     -2057.110          47.000
E25  25692915.625 5 135017181.792 5      1784.906          32.000    25692920.562 6 103454762.522 6      1368.003          39.000
> 2020 05 05 01 13 30.0000000  0 15        .000000000000
G02  22414341.547 5 117788170.079 5       443.340          34.000
G06  21595067.719 8 113482860.816 8     -1865.617          49.000    21595070.664 8  88428208.142 8     -1453.728          49.000
G07  21215433.617 8 111487838.817 8      1566.934          50.000    21215433.516 8  86873631.277 8      1220.987          50.000
G09  20693283.172 8 108744028.433 8     -1291.504          51.000    20693283.258 8  84735582.782 8     -1006.364          51.000
G30  22771694.852 7 119666117.037 7      3279.363          46.000    22771696.922 7  93246314.653 7      2555.348          46.000
R04  20665566.055 5 110663153.641 5     -1858.375          33.000
R05  19853158.820 5 106126511.170 5      1142.086          30.000
R14  20494952.531 5 109249684.489 5      -368.668          33.000    20494954.688 5  84971924.957 5      -286.733          35.000
R15  21068299.453 7 112582598.600 7      3460.387          47.000    21068302.695 7  87564276.023 7      2691.412          46.000
C05  39772021.070 6 207103350.512 6       -17.055          36.000    39772018.133 6 160145429.761 6       -12.701          39.000
C19  21661023.992 8 112794618.108 8      -540.805          51.000
C20  25066451.547 4 130527590.845 4     -2497.977          28.000
E03  23619051.195 8 124118935.987 8      -608.508          51.000    23619053.047 8  95104168.119 8      -466.259          51.000
E15  25623889.852 7 134654432.585 7     -2689.922          43.000    25623892.250 7 103176783.611 7     -2061.196          46.000
E25                                                                  25682762.797 6 103413857.191 6      1360.325          39.000
> 2020 05 05 01 14  0.0000000  0 14        .000000000000
G02  22411866.883 5 117775175.362 5       420.613          35.000
G04  22900207.820 5 120341391.250 5     -2773.715          33.000
G06  21605775.117 8 113539127.481 8     -1887.895          51.000    21605777.969 8  88472052.287 8     -1471.087          51.000
G07  21206539.852 8 111441102.528 8      1546.465          51.000    21206539.312 8  86837213.397 8      1205.038          51.000
G09  20700691.469 8 108782959.368 8     -1306.398          51.000    20700691.609 8  84765918.585 8     -1017.973          51.000
G30  22753004.461 7 119567898.889 7      3266.031          46.000    22753006.664 7  93169781.037 7      2544.959          46.000
R04  20676007.695 5 110719086.225 5     -1872.953          34.000
R14  20497112.117 6 109261192.963 6      -401.156          36.000    20497113.109 5  84980876.019 5      -312.010          34.000
R15  21048926.750 8 112479074.872 8      3438.641          50.000    21048930.812 8  87483757.560 8      2674.498          48.000
C05  39772123.781 6 207103885.032 6       -21.246          36.000    39772120.852 6 160145843.092 6       -16.486          39.000
C19  21664173.016 8 112811016.034 8      -554.875          51.000
E03  23622547.016 8 124137306.763 8      -618.668          51.000    23622548.953 8  95118244.420 8      -474.065          51.000
E15  25639272.594 6 134735274.801 6     -2701.801          41.000    25639274.602 7 103238727.603 7     -2070.307          45.000
E25                                                                  25672669.055 6 103373211.086 6      1347.407          38.000
> 2020 05 05 01 14 30.0000000  0 17        .000000000000
G02  22409504.336 5 117762756.823 5       406.961          35.000
G04  22916039.375 5 120424592.884 5     -2773.023          31.000
G06  21616587.969 8 113595947.083 8     -1900.980          51.000    21616590.430 8  88516327.291 8     -1481.283          51.000
G07  21197741.211 8 111394865.277 8      1535.098          50.000    21197740.430 8  86801184.365 8      1196.180          50.000
G09  20708162.727 8 108822221.324 8     -1312.082          51.000    20708163.125 8  84796512.319 8     -1022.402          51.000
G30  22734368.219 7 119469965.720 7      3261.824          46.000    22734369.695 7  93093469.467 7      2541.681          46.000
R04  20686511.594 6 110775332.012 6     -1877.820          37.000
R05  19840462.227 5 106058628.807 5      1121.562          31.000    19840448.336 4  82490006.482 4       872.326          29.000
R14  20499432.812 6 109273564.556 6      -424.730          38.000    20499434.703 6  84990498.462 6      -330.346          36.000
R15  21029655.047 8 112376088.181 8      3426.066          51.000    21029659.516 8  87403656.818 8      2664.718          48.000
C05  39772232.945 6 207104454.271 6       -17.160          36.000    39772230.227 6 160146283.281 6       -13.454          39.000
C19  21667381.344 8 112827722.732 8      -559.910          51.000
C20  25095295.406 4 130677819.760 4     -2507.703          29.000
C22  23246923.586 6 121052869.382 6      1990.551          36.000
E03  23626079.891 8 124155872.782 8      -620.000          51.000    23626081.922 8  95132470.323 8      -475.044          51.000
E15  25654699.625 5 134816363.113 5     -2705.230          35.000    25654704.141 7 103300860.259 7     -2072.716          45.000
E25                                                                  25662647.336 6 103332863.078 6      1341.681          36.000
> 2020 05 05 01 15  0.0000000  0 16        .000000000000
G02  22407231.430 5 117750794.599 5       390.574          35.000
G06  21627486.133 8 113653215.217 8     -1917.258          51.000    21627487.836 8  88560951.809 8     -1493.967          51.000
G07  21189018.016 8 111349025.336 8      1520.484          48.000    21189017.555 8  86765464.924 8      1184.793          48.000
G09  20715677.305 8 108861710.937 8     -1320.883          51.000    20715677.812 8  84827283.446 8     -1029.259          51.000
G30  22715767.188 7 119372217.287 7      3254.391          47.000    22715767.953 7  93017301.885 7      2535.889          47.000
R04  20697092.414 5 110831917.932 5     -1886.238          30.000
R05  19834193.781 5 106025102.352 5      1112.207          32.000    19834178.141 4  82463936.613 4       865.056          27.000
R14  20501894.758 6 109286694.859 6      -451.352          40.000    20501897.477 5  85000711.062 5      -351.057          34.000
R15  21010465.031 8 112273538.639 8      3410.102          51.000    21010468.812 8  87323896.078 8      2652.304          48.000
C05  39772329.469 6 207104955.836 6       -16.180          37.000    39772326.789 6 160146671.888 6       -12.738          39.000
C19  21670629.586 8 112844637.088 8      -568.137          51.000
C20  25109757.781 5 130753071.654 5     -2511.133          32.000
C22  23235468.336 4 120993214.630 4      1986.391          29.000
E03  23629630.391 8 124174531.533 8      -624.359          51.000    23629632.500 8  95146767.280 8      -478.441          51.000
E15  25670156.789 6 134897593.163 6     -2710.777          39.000    25670161.695 7 103363101.561 7     -2077.206          45.000
E25                                                                  25652680.164 5 103292735.984 5      1333.232          35.000
> 2020 05 05 01 15 30.0000000  0 14        .000000000000
G06  21638493.344 8 113711058.193 8     -1937.824          50.000    21638494.664 8  88606024.234 8     -1509.996          50.000
G07  21180394.945 8 111303711.999 8      1501.500          48.000    21180394.977 8  86730155.845 8      1170.000          48.000
G09  20723259.438 8 108901555.670 8     -1334.371          51.000    20723259.875 8  84858331.283 8     -1039.770          51.000
G30  22697226.297 8 119274784.229 8      3242.371          48.000    22697227.453 8  92941380.035 8      2526.523          48.000
R04  20707664.648 6 110888570.928 6     -1899.137          37.000    20707663.992 5  86246653.896 5     -1477.100          31.000
R05  19827984.031 5 105991940.204 5      1099.008          32.000
R14  20504524.219 6 109300713.982 6      -482.578          38.000    20504526.797 5  85011614.816 5      -375.336          35.000
R15  20991381.828 8 112171561.108 8      3389.629          51.000    20991384.641 7  87244580.265 7      2636.381          47.000
C05  39772437.617 6 207105519.898 6       -19.844          36.000    39772434.961 6 160147107.270 6       -15.272          38.000
C19  21673942.039 8 112861886.704 8      -580.656          51.000
C22  23224053.336 4 120933739.857 4      1977.664          29.000
E03  23633222.938 8 124193411.284 8      -633.023          51.000    23633225.180 8  95161233.569 8      -485.041          51.000
E15  25685666.594 7 134979091.545 7     -2721.141          43.000    25685671.094 7 103425548.365 7     -2085.087          46.000
E25                                                                  25642793.992 6 103252929.294 6      1321.693          36.000
> 2020 05 05 01 16  0.0000000  0 15        .000000000000
G04  22963617.102 4 120674622.081 4     -2784.051          29.000
G06  21649582.969 8 113769335.307 8     -1953.488          50.000    21649584.398 8  88651434.954 8     -1522.202          50.000
G07  21171846.141 8 111258787.622 8      1487.336          49.000    21171846.289 8  86695149.830 8      1158.963          49.000
G09  20730882.539 8 108941615.973 8     -1342.641          51.000    20730882.922 8  84889547.077 8     -1046.217          51.000
G30  22678719.555 8 119177530.114 8      3235.145          48.000    22678721.695 8  92865597.610 8      2520.892          48.000
R04  20718300.867 5 110945563.435 5     -1906.750          31.000    20718304.570 5  86290981.334 5     -1483.037          32.000
R14  20507293.961 7 109315480.049 7      -508.445          42.000    20507295.250 5  85023099.527 5      -395.467          34.000
R15  20972379.578 8 112070018.801 8      3373.707          50.000    20972381.875 7  87165602.923 7      2623.991          46.000
C05  39772531.047 6 207106005.160 6       -19.020          36.000    39772528.344 6 160147483.263 6       -14.251          39.000
C19  21677292.531 8 112879334.653 8      -588.590          51.000
C22  23212665.633 5 120874392.749 5      1973.297          32.000
E03  23636831.219 8 124212373.379 8      -637.129          51.000    23636833.516 8  95175762.951 8      -488.196          51.000
E08  22770609.641 5 119660361.213 5      1515.277          32.000
E15  25701200.898 7 135060717.528 7     -2726.660          45.000    25701204.914 7 103488092.930 7     -2089.238          46.000
E25  25632965.195 6 134702133.268 6      1713.973          37.000    25632962.461 6 103213338.048 6      1313.283          37.000
> 2020 05 05 01 16 30.0000000  0 15        .000000000000
G06  21660780.086 8 113828176.807 8     -1969.199          51.000    21660781.961 8  88697285.451 8     -1534.441          51.000
G07  21163397.008 8 111214386.234 8      1472.953          50.000    21163397.008 8  86660551.320 8      1147.756          50.000
G09  20738571.656 8 108982023.196 8     -1351.059          51.000    20738572.086 8  84921033.200 8     -1052.776          51.000
G30  22660272.438 8 119080589.456 8      3227.781          49.000    22660275.023 8  92790059.425 8      2515.154          49.000
R04  20729004.398 5 111002888.885 5     -1915.008          32.000    20729012.016 5  86335567.889 5     -1489.451          35.000
R05  19815719.461 5 105926376.358 5      1082.121          30.000
R14  20510228.789 5 109331126.893 5      -533.945          34.000    20510232.422 6  85035269.298 6      -415.282          37.000
R15  20953484.055 8 111969050.487 8      3357.695          49.000    20953486.398 7  87087071.957 7      2611.538          45.000
C05  39772634.859 6 207106546.751 6       -17.004          36.000    39772632.320 6 160147901.316 6       -13.321          39.000
C19  21680706.406 8 112897112.385 8      -596.426          51.000
C20  25153311.062 5 130979897.772 5     -2525.023          31.000
C22  23201301.625 4 120815244.123 4      1969.613          29.000
E03  23640480.375 8 124231549.989 8      -641.223          51.000    23640482.688 8  95190456.705 8      -491.320          51.000
E15  25716784.461 7 135142601.396 7     -2732.184          45.000    25716787.430 7 103550835.112 7     -2093.419          46.000
E25  25623208.805 5 134650871.318 5      1703.441          31.000    25623210.227 6 103174064.789 6      1305.049          40.000
> 2020 05 05 01 17  0.0000000  0 12        .000000000000
G06  21672087.297 8 113887595.939 8     -1991.992          51.000    21672089.539 8  88743586.048 8     -1552.202          51.000
G07  21155050.367 8 111170523.566 8      1451.363          50.000    21155050.133 8  86626372.602 8      1130.932          50.000
G09  20746329.578 8 109022791.763 8     -1366.699          51.000    20746330.141 8  84952800.893 8     -1064.960          51.000
G30  22641888.289 8 118983979.791 8      3213.016          50.000    22641890.461 8  92714779.164 8      2503.649          50.000
R04  20739772.172 4 111060540.217 4     -1929.871          29.000    20739780.203 5  86380425.720 5     -1501.008          34.000
R14  20513332.016 6 109347669.152 6      -568.184          41.000    20513336.344 5  85048135.585 5      -441.921          35.000
R15  20934700.266 8 111868675.966 8      3334.098          51.000    20934702.180 7  87009002.841 7      2593.187          43.000
C05  39772752.078 5 207107156.972 5       -22.719          35.000    39772749.500 6 160148373.185 6       -17.930          38.000
C19  21684186.758 8 112915235.522 8      -611.648          51.000
E03  23644173.352 8 124250956.399 8      -652.418          51.000    23644175.695 8  95205326.543 8      -499.908          51.000
E15  25732419.344 7 135224756.506 7     -2744.805          46.000    25732421.359 7 103613785.152 7     -2103.150          45.000
E25  25613536.016 6 134600045.359 6      1685.219          38.000    25613540.984 6 103135122.568 6      1291.266          40.000
> 2020 05 05 01 17 30.0000000  0 13        .000000000000
G06  21683468.898 8 113947405.594 8     -2002.094          51.000    21683471.648 8  88790190.966 8     -1560.073          51.000
G07  21146771.258 8 111127015.685 8      1442.465          49.000    21146770.586 8  86592470.364 8      1123.999          49.000
G09  20754120.930 8 109063735.736 8     -1369.711          51.000    20754121.633 8  84984705.286 8     -1067.307          51.000
G30  22623532.477 8 118887518.337 8      3210.875          51.000    22623533.859 8  92639614.405 8      2501.981          51.000
R04  20750570.312 5 111118361.816 5     -1932.680          30.000    20750579.359 6  86425408.217 6     -1503.201          36.000
R14  20516568.062 6 109364918.374 6      -588.625          39.000    20516571.906 5  85061551.666 5      -457.816          35.000
R15  20915993.789 8 111768710.934 8      3323.340          51.000    20915993.906 6  86931252.264 6      2584.820          41.000
C05  39772847.438 6 207107653.500 6       -16.254          36.000    39772844.773 6 160148757.148 6       -12.717          39.000
C19  21687698.258 8 112933521.073 8      -614.148          51.000
C22  23178674.945 5 120697466.855 5      1960.074          33.000
E03  23647874.867 8 124270407.545 8      -651.023          51.000    23647877.242 8  95220230.669 8      -498.818          51.000
E15  25748069.992 7 135306995.887 7     -2744.551          46.000    25748071.227 7 103676799.754 7     -2102.938          43.000
E25  25603912.273 6 134549471.024 6      1679.867          37.000    25603918.148 6 103096370.754 6      1287.147          39.000
> 2020 05 05 01 18  0.0000000  0 15        .000000000000
G06  21694951.570 8 114007746.824 8     -2020.000          51.000    21694954.586 8  88837210.120 8     -1574.023          51.000
G07  21138586.789 8 111084005.899 8      1425.531          49.000    21138585.570 8  86558956.248 8      1110.804          49.000
G09  20761972.828 8 109104997.464 8     -1380.465          51.000    20761973.492 8  85016857.269 8     -1075.687          51.000
G30  22605232.703 8 118791350.505 8      3200.812          51.000    22605233.359 8  92564678.454 8      2494.143          51.000
R04  20761429.047 5 111176502.292 5     -1943.398          33.000    20761436.281 6  86470628.628 6     -1511.529          36.000
R14  20519964.531 6 109383019.085 6      -617.266          39.000    20519966.859 5  85075629.971 5      -480.099          35.000
R15  20897391.852 8 111669305.519 8      3304.211          51.000    20897390.141 7  86853937.008 7      2569.945          42.000
R20  22134287.867 6 118361990.946 6     -3202.426          37.000    22134288.906 6  92059324.409 6     -2490.773          41.000
C05  39772948.234 6 207108178.371 6       -17.871          36.000    39772945.586 6 160149162.990 6       -13.759          39.000
C19  21691268.266 8 112952111.411 8      -624.625          51.000
C22  23167406.141 5 120638779.126 5      1952.582          32.000
E03  23651612.102 8 124290046.573 8      -657.617          51.000    23651614.445 8  95235278.749 8      -503.897          51.000
E08  22736170.789 5 119479384.126 5      1499.645          32.000
E15  25763763.625 7 135389460.852 7     -2752.305          47.000    25763763.312 6 103739987.173 6     -2108.969          41.000
E25                                                                  25594369.094 6 103057920.292 6      1276.686          38.000
> 2020 05 05 01 18 30.0000000  0 17        .000000000000
G06  21706526.531 8 114068573.003 8     -2036.168          51.000    21706529.336 8  88884607.176 8     -1586.624          51.000
G07  21130488.828 8 111041451.553 8      1410.305          49.000    21130487.172 8  86525797.024 8      1098.939          49.000
G09  20769876.555 8 109146531.465 8     -1389.629          51.000    20769877.219 8  85049221.418 8     -1082.828          51.000
G30  22586980.727 8 118695433.976 8      3192.332          51.000    22586980.844 8  92489938.336 8      2487.531          51.000
R04  20772338.938 5 111234903.623 5     -1951.363          35.000    20772341.891 6  86516051.812 6     -1517.730          36.000
R05  19791896.805 5 105799035.990 5      1041.734          30.000
R14  20523510.391 5 109401925.027 5      -644.117          34.000    20523513.828 5  85090334.682 5      -500.974          34.000
R15  20878886.312 8 111570418.361 8      3287.016          51.000    20878884.844 7  86777024.864 7      2556.568          44.000
R20  22152292.648 6 118458270.524 6     -3218.008          36.000    22152294.625 7  92134208.527 7     -2502.895          43.000
C05  39773045.977 6 207108687.480 6       -17.504          36.000    39773043.367 6 160149556.667 6       -13.342          39.000
C19  21694888.586 8 112970962.752 8      -633.281          51.000
C20  25211723.922 4 131284055.109 4     -2543.246          29.000
C22  23156163.562 5 120580236.137 5      1948.168          31.000
E03  23655376.516 8 124309828.905 8      -662.293          51.000    23655378.844 8  95250436.640 8      -507.444          51.000
E08  22727609.398 5 119434397.374 5      1497.234          32.000
E15  25779491.305 8 135472104.855 8     -2758.328          48.000    25779487.531 6 103803311.722 6     -2113.312          38.000
E25  25584880.320 5 134449453.345 5      1654.586          35.000    25584887.609 6 103019738.325 6      1267.800          36.000
> 2020 05 05 01 19  0.0000000  0 17        .000000000000
G02  22392728.156 5 117674580.437 5       247.527          35.000
G06  21718197.266 8 114129902.523 8     -2052.227          51.000    21718199.508 8  88932396.431 8     -1599.138          51.000
G07  21122481.688 8 110999374.333 8      1394.949          51.000    21122479.609 8  86493009.605 8      1086.976          51.000
G09  20777835.828 8 109188357.370 8     -1398.656          51.000    20777836.453 8  85081813.025 8     -1089.862          51.000
G30  22568780.586 8 118599791.430 8      3183.832          49.000    22568780.312 8  92415411.708 8      2480.911          49.000
R04  20783298.836 6 111293586.332 6     -1960.348          36.000    20783300.609 6  86561693.997 6     -1524.715          36.000
R14  20527212.742 6 109421656.451 6      -670.766          37.000    20527216.148 5  85105681.367 5      -521.707          35.000
R15  20860482.688 8 111472074.732 8      3269.438          51.000    20860482.266 7  86700535.411 7      2542.899          46.000
R20  22170387.734 5 118555037.849 5     -3232.840          35.000    22170389.492 7  92209471.990 7     -2514.431          42.000
C05  39773144.586 6 207109201.186 6       -16.848          36.000    39773142.055 6 160149953.899 6       -12.985          39.000
C19  21698562.930 8 112990095.828 8      -642.125          51.000
C20  25226391.383 5 131360422.621 5     -2547.262          30.000
C22  23144952.680 5 120521859.567 5      1943.793          30.000
E03  23659171.984 8 124329775.028 8      -667.242          51.000    23659174.484 8  95265720.029 8      -511.275          51.000
E08  22719077.938 5 119389559.133 5      1493.027          32.000    22719083.047 5  91480329.358 5      1143.981          34.000
E15  25795256.250 7 135554946.389 7     -2764.305          46.000    25795247.523 6 103866787.651 6     -2118.128          37.000
E25                                                                  25575477.516 5 102981848.684 5      1258.629          32.000
> 2020 05 05 01 19 30.0000000  0 16        .000000000000
G02  22391372.133 5 117667438.631 5       233.176          33.000
G06  21729969.820 8 114191768.557 8     -2066.445          49.000    21729971.750 8  88980603.740 8     -1610.217          50.000
G07  21114572.398 8 110957810.179 8      1381.570          51.000    21114569.648 8  86460621.975 8      1076.548          51.000
G09  20785857.156 8 109230509.603 8     -1405.852          51.000    20785857.852 8  85114658.916 8     -1095.469          51.000
G30  22550639.031 7 118504460.473 7      3177.039          46.000    22550639.031 7  92341127.834 7      2475.612          46.000
R04  20794318.656 6 111352586.696 6     -1967.273          38.000    20794318.648 5  86607583.014 5     -1530.108          34.000
R14  20531076.414 5 109442248.097 5      -696.328          35.000    20531080.281 6  85121697.108 6      -541.589          36.000
R15  20842188.812 8 111374314.564 8      3253.598          51.000    20842188.891 7  86624499.709 7      2530.573          47.000
R20  22188580.125 5 118652324.617 5     -3246.664          35.000    22188581.305 6  92285139.462 6     -2525.186          41.000
C05  39773250.836 5 207109754.473 5       -13.863          35.000    39773248.305 6 160150381.767 6       -11.249          39.000
C19  21702298.055 8 113009546.082 8      -649.008          51.000
C22  23133775.016 4 120463624.588 4      1940.633          29.000
E03  23663005.367 8 124349920.173 8      -670.215          51.000    23663008.016 8  95281155.917 8      -513.580          51.000
E08                                                                  22710580.930 5  91446095.937 5      1142.658          34.000
E15  25811063.750 7 135638018.792 7     -2768.227          42.000    25811053.883 6 103930440.502 6     -2121.258          37.000
E25  25566140.711 6 134350973.759 6      1632.980          36.000
> 2020 05 05 01 20  0.0000000  0 15        .000000000000
G04  23091413.242 5 121346195.358 5     -2811.793          34.000
G06  21741829.414 8 114254092.777 8     -2085.836          48.000    21741831.320 8  89029168.087 8     -1625.327          48.000
G07  21106746.484 8 110916683.581 8      1362.816          51.000    21106743.109 8  86428575.301 8      1061.935          51.000
G09  20793925.906 8 109272911.173 8     -1418.234          51.000    20793926.805 8  85147699.109 8     -1105.118          51.000
G30  22532541.859 7 118409367.211 7      3164.973          44.000    22532543.180 7  92267029.136 7      2466.212          45.000
R04  20805383.672 6 111411826.974 6     -1979.445          41.000    20805379.219 5  86653658.845 5     -1539.566          33.000
R15  20823990.062 8 111277064.503 8      3232.336          50.000    20823991.055 8  86548860.746 8      2514.039          48.000
R20  22206854.383 5 118750048.657 5     -3265.602          35.000    22206854.883 6  92361147.065 6     -2539.912          41.000
C05  39773350.148 6 207110271.241 6       -17.410          36.000    39773347.758 6 160150782.118 6       -13.405          39.000
C19  21706079.508 8 113029238.499 8      -661.215          51.000
C22  23122628.984 5 120405578.382 5      1931.879          34.000
E03  23666862.219 8 124370188.229 8      -678.359          51.000    23666864.953 8  95296685.990 8      -519.758          51.000
E08                                                                  22702098.430 5  91411927.654 5      1137.196          32.000
E15  25826898.148 6 135721244.013 6     -2777.555          40.000    25826892.477 6 103994210.496 6     -2128.229          39.000
E25  25556873.320 6 134302259.406 6      1617.062          36.000
> 2020 05 05 01 20 30.0000000  0 15        .000000000000
G06  21753785.656 8 114316923.770 8     -2102.520          49.000    21753787.281 8  89078127.296 8     -1638.327          49.000
G07  21099013.727 8 110876046.115 8      1346.680          51.000    21099010.320 8  86396909.755 8      1049.361          51.000
G09  20802051.617 8 109315611.893 8     -1428.023          51.000    20802052.695 8  85180972.403 8     -1112.742          51.000
G30  22514500.898 7 118314564.478 7      3155.453          46.000    22514502.539 7  92193156.874 7      2458.795          46.000
R04  20816501.719 6 111471358.841 6     -1989.023          37.000    20816498.547 5  86699961.366 5     -1547.018          34.000
R05  19768971.758 5 105676470.043 5       999.711          34.000
R14  20539274.977 6 109485819.932 6      -754.082          37.000    20539255.406 5  85155599.561 5      -586.514          34.000
R15  20805896.188 8 111180380.350 8      3213.730          48.000    20805898.547 8  86473661.926 8      2499.565          48.000
R20  22225219.477 5 118848257.017 5     -3281.180          35.000    22225220.188 7  92437531.335 7     -2552.029          42.000
C05  39773452.367 6 207110803.635 6       -17.496          36.000    39773449.984 6 160151193.816 6       -13.741          39.000
C19  21709917.547 8 113049223.682 8      -670.746          51.000
C20  25270563.891 4 131590456.893 4     -2561.352          28.000
C22  23111519.195 6 120347711.506 6      1926.496          36.000
E03  23670752.117 8 124390629.927 8      -684.020          51.000    23670754.953 8  95312349.104 8      -524.110          51.000
E15  25842772.039 6 135804670.852 6     -2783.965          41.000    25842771.281 6 104058134.953 6     -2133.150          41.000
> 2020 05 05 01 21  0.0000000  0 14        .000000000000
G06  21765832.352 8 114380228.210 8     -2120.488          51.000    21765833.734 8  89127455.404 8     -1652.329          51.000
G07  21091368.172 8 110835868.023 8      1329.184          51.000    21091365.273 8  86365602.169 8      1035.731          51.000
G09  20810228.227 8 109358579.834 8     -1439.164          51.000    20810229.367 8  85214453.915 8     -1121.427          51.000
G30  22496510.516 7 118220023.372 7      3144.395          47.000    22496511.727 7  92119488.500 7      2450.181          47.000
R04  20827666.930 4 111531210.313 4     -1999.816          28.000    20827663.398 5  86746466.165 5     -1555.422          31.000
R05  19763388.031 5 105646610.418 5       988.027          33.000
R14  20543567.508 5 109508795.831 5      -782.977          31.000    20543574.836 5  85173527.957 5      -608.982          35.000
R15  20787903.266 7 111084234.472 7      3193.316          47.000    20787905.969 7  86398881.795 7      2483.691          47.000
R20  22243668.109 5 118946913.934 5     -3298.293          34.000    22243670.195 7  92514264.476 7     -2565.339          43.000
C05  39773551.461 6 207111319.952 6       -19.391          36.000    39773549.164 6 160151593.070 6       -14.994          39.000
C19  21713806.023 8 113069471.276 8      -681.750          51.000
C22  23100434.500 4 120290023.719 4      1919.344          27.000
E03  23674669.070 8 124411214.086 8      -690.957          51.000    23674672.062 8  95328121.385 8      -529.435          51.000
E15  25858679.758 7 135888266.232 7     -2791.770          43.000    25858682.266 7 104122188.545 7     -2139.031          42.000
> 2020 05 05 01 21 30.0000000  0 13        .000000000000
G06  21777973.055 8 114444026.078 8     -2131.758          51.000    21777973.586 8  89177168.016 8     -1661.110          51.000
G07  21083814.164 8 110796171.682 8      1318.105          51.000    21083811.633 8  86334669.964 8      1027.095          51.000
G09  20818459.750 8 109401836.289 8     -1443.723          51.000    20818460.797 8  85248160.252 8     -1124.979          51.000
G30  22478574.758 7 118125768.263 7      3140.023          47.000    22478575.430 7  92046042.999 7      2446.775          47.000
R04  20838892.188 4 111591298.926 4     -2004.145          29.000    20838884.461 5  86793221.799 5     -1558.782          31.000
R05  19757863.172 5 105617067.654 5       982.852          34.000
R15  20770015.914 8 110988653.471 8      3179.598          49.000    20770019.195 8  86324541.063 8      2473.020          48.000
R20  22262204.578 5 119046037.548 5     -3308.645          34.000    22262207.359 7  92591360.610 7     -2573.390          43.000
C05  39773651.836 6 207111842.296 6       -14.562          36.000    39773649.516 6 160151996.955 6       -11.176          39.000
C19  21717749.148 8 113090003.636 8      -686.184          51.000
C22  23089384.320 5 120232490.187 5      1918.426          31.000
E03  23678617.367 8 124431962.929 8      -691.410          51.000    23678620.430 8  95344019.841 8      -529.746          51.000
E15  25874624.086 7 135972050.383 7     -2792.914          42.000    25874628.250 7 104186386.802 7     -2140.079          43.000
> 2020 05 05 01 22  0.0000000  0 12        .000000000000
G06  21790199.133 8 114508273.408 8     -2149.723          51.000    21790199.398 8  89227230.851 8     -1675.109          51.000
G07  21076344.250 8 110756916.775 8      1300.461          51.000    21076341.914 8  86304081.708 8      1013.346          51.000
G09  20826738.117 8 109445338.658 8     -1454.910          51.000    20826738.891 8  85282058.196 8     -1133.696          51.000
G30  22460685.648 7 118031759.630 7      3128.766          46.000    22460686.242 7  91972789.551 7      2437.999          46.000
R14  20552657.789 5 109557216.810 5      -833.578          34.000    20552654.758 5  85211179.347 5      -648.336          34.000
R15  20752227.812 8 110893599.127 8      3158.977          50.000    20752231.289 8  86250609.886 8      2456.982          50.000
R20  22280818.547 5 119145580.528 5     -3325.426          32.000    22280822.562 7  92668782.915 7     -2586.442          43.000
C05  39773745.352 6 207112329.363 6       -16.320          36.000    39773743.070 6 160152373.592 6       -12.665          39.000
C19  21721738.953 8 113110779.848 8      -697.344          51.000
C22  23078364.805 4 120175084.685 4      1910.359          29.000
E03  23682589.117 8 124452834.696 8      -698.551          51.000    23682592.117 8  95360012.488 8      -535.244          51.000
E15  25890595.977 6 136055979.557 6     -2800.969          39.000    25890600.625 7 104250696.175 7     -2146.020          43.000
> 2020 05 05 01 22 30.0000000  0 13        .000000000000
G06  21802527.367 8 114573059.476 8     -2165.359          51.000    21802527.562 8  89277713.496 8     -1687.293          51.000
G07  21068976.023 8 110718195.613 8      1284.816          51.000    21068973.852 8  86273909.356 8      1001.156          51.000
G09  20835080.477 8 109489177.593 8     -1463.941          51.000    20835081.008 8  85316218.397 8     -1140.734          51.000
G30  22442860.836 7 117938091.240 7      3119.578          45.000    22442862.227 7  91899801.191 7      2430.840          44.000
R14  20557435.102 6 109582691.343 6      -860.836          37.000    20557428.234 5  85230960.717 5      -669.545          34.000
R15  20734556.305 8 110799168.433 8      3140.352          50.000    20734560.555 8  86177163.764 8      2442.493          51.000
R20  22299527.695 5 119245631.708 5     -3340.070          31.000    22299532.445 7  92746600.518 7     -2597.829          43.000
C05  39773849.477 6 207112870.946 6       -16.426          36.000    39773847.289 6 160152793.130 6       -12.427          39.000
C19  21725793.000 8 113131890.979 8      -706.332          51.000
C20  25329773.820 4 131898770.785 4     -2577.785          29.000
E03  23686601.688 8 124473920.885 8      -703.457          51.000    23686604.688 8  95376169.438 8      -539.045          51.000
E08  22660012.406 5 119079163.443 5      1465.008          33.000    22660011.445 5  91242474.174 5      1122.949          34.000
E15  25906611.430 5 136140143.310 5     -2806.203          34.000    25906616.023 7 104315185.310 7     -2150.384          42.000
> 2020 05 05 01 23  0.0000000  0 17        .000000000000
G06  21814933.961 8 114638258.224 8     -2182.332          50.000    21814934.594 8  89328517.723 8     -1700.518          50.000
G07  21061685.867 8 110679885.073 8      1267.871          51.000    21061683.828 8  86244056.995 8       987.952          51.000
G09  20843463.055 8 109533228.382 8     -1474.090          51.000    20843463.453 8  85350543.675 8     -1148.641          51.000
G30  22425077.797 7 117844641.399 7      3108.867          46.000    22425079.977 7  91826983.123 7      2422.494          46.000
R04  20872842.398 5 111773125.724 5     -2034.348          31.000
R05  19741621.562 5 105530269.958 5       948.922          33.000    19741621.180 4  82079101.229 4       738.050          27.000
R14  20562350.383 6 109608908.320 6      -888.312          37.000    20562355.352 6  85251351.766 6      -690.907          37.000
R15  20716978.898 8 110705239.480 8      3120.320          51.000    20716983.633 8  86104107.911 8      2426.916          50.000
R20  22318307.727 5 119346060.502 5     -3356.098          32.000    22318312.992 7  92824711.817 7     -2610.298          43.000
C05  39773940.742 6 207113346.358 6       -16.957          36.000    39773938.633 6 160153160.778 6       -13.079          40.000
C19  21729888.008 8 113153214.744 8      -716.516          51.000
C20  25344636.969 4 131976173.853 4     -2582.910          28.000
C22  23056408.984 5 120060782.496 5      1898.457          35.000
E03  23690631.523 8 124495097.685 8      -709.621          51.000    23690634.516 8  95392395.813 8      -543.709          51.000
E08  22651654.430 5 119035256.543 5      1460.344          35.000    22651656.992 5  91208831.135 5      1119.117          34.000
E15                                                                  25922650.547 6 104379757.784 6     -2155.407          40.000
E24  25101028.078 6 131906792.799 6     -1104.145          40.000
> 2020 05 05 01 23 30.0000000  0 15        .000000000000
G06  21827422.711 8 114703888.975 8     -2198.605          50.000    21827424.172 8  89379658.564 8     -1713.199          50.000
G07  21054478.273 8 110642007.578 8      1251.527          51.000    21054476.039 8  86214542.062 8       975.216          51.000
G09  20851889.844 8 109577511.799 8     -1483.766          51.000    20851890.227 8  85385050.212 8     -1156.181          51.000
G30  22407341.422 8 117751433.853 8      3099.133          48.000    22407343.711 8  91754353.864 8      2414.909          49.000
R05  19736316.719 5 105501885.810 5       937.984          32.000    19736321.031 4  82057032.596 4       729.540          28.000
R14  20567411.844 6 109635888.519 6      -916.027          38.000    20567415.133 5  85272336.351 5      -712.466          33.000
R15  20699500.281 8 110611838.313 8      3100.684          50.000    20699504.625 8  86031462.594 8      2411.643          48.000
R20  22337162.648 5 119446884.374 5     -3370.730          33.000    22337167.891 7  92903130.357 7     -2621.679          44.000
C05                                                                  39774021.180 6 160153493.156 6       -13.544          39.000
C19  21734028.133 8 113174772.925 8      -726.242          51.000
C22  23045472.383 5 120003821.348 5      1893.168          34.000
E03  23694682.695 8 124516386.698 8      -715.375          51.000    23694685.562 8  95408708.164 8      -548.064          51.000
E08  22643317.039 5 118991434.379 5      1456.332          32.000    22643314.312 5  91175244.144 5      1115.454          30.000
E15                                                                  25938708.711 6 104444428.646 6     -2160.348          39.000
E24  25107354.109 6 131940045.265 6     -1118.590          38.000
> 2020 05 05 01 24  0.0000000  0 15        .000000000000
G04  23220395.680 5 122023995.050 5     -2835.750          33.000
G06  21840013.547 8 114770055.999 8     -2212.910          50.000    21840015.891 8  89431217.284 8     -1724.346          49.000
G07  21047373.461 8 110604670.479 8      1237.102          51.000    21047371.031 8  86185448.223 8       963.975          51.000
G09  20860381.000 8 109622133.516 8     -1491.469          50.000    20860381.422 8  85419820.371 8     -1162.183          51.000
G30  22389672.250 8 117658577.307 8      3090.984          50.000    22389673.930 8  91681998.124 8      2408.559          50.000
R05  19731077.695 5 105473879.110 5       928.930          33.000    19731080.773 4  82035249.574 4       722.495          26.000
R14  20572636.336 6 109663738.645 6      -941.176          41.000    20572641.016 5  85293997.601 5      -732.023          34.000
R15  20682141.742 8 110519077.218 8      3082.926          50.000    20682144.336 7  85959315.090 7      2397.831          44.000
R20  22356111.289 5 119548207.404 5     -3383.754          34.000    22356116.336 7  92981937.132 7     -2631.809          44.000
C05  39774117.398 5 207114266.073 5       -15.520          35.000    39774115.359 6 160153871.983 6       -12.327          40.000
C19  21738233.609 8 113196671.508 8      -734.000          51.000
C22  23034577.531 5 119947091.797 5      1888.336          32.000
E03  23698775.508 8 124537894.455 8      -718.938          51.000    23698778.227 8  95425188.132 8      -550.889          51.000
E15  25954825.477 5 136393528.380 5     -2823.191          35.000    25954811.500 6 104509278.012 6     -2163.437          37.000
E24  25113771.523 6 131973774.816 6     -1130.668          38.000
> 2020 05 05 01 24 30.0000000  0 14        .000000000000
G06  21852719.586 8 114836828.163 8     -2222.105          49.000    21852722.461 8  89483247.549 8     -1731.508          49.000
G07  21040384.773 8 110567945.407 8      1227.664          51.000    21040382.414 8  86156831.310 8       956.624          51.000
G09  20868949.859 8 109667163.856 8     -1494.203          49.000    20868950.539 8  85454908.936 8     -1164.314          50.000
G30  22372083.922 8 117566145.128 8      3087.730          51.000    22372084.711 8  91609973.072 8      2406.024          51.000
R14  20578037.109 5 109692529.808 5      -961.266          35.000    20578039.172 4  85316410.731 4      -747.648          29.000
R15  20664916.602 7 110427032.732 7      3070.148          47.000    20664917.523 7  85887724.934 7      2387.890          43.000
R20  22375165.531 5 119650097.347 5     -3391.578          35.000    22375170.797 7  93061184.853 7     -2637.894          45.000
C05  39774236.672 6 207114887.631 6        -9.227          36.000    39774234.570 6 160154351.843 6        -7.334          40.000
C19  21742517.859 8 113218981.434 8      -736.898          51.000
C22  23023739.602 5 119890665.393 5      1889.156          32.000
E02  26972639.469 7 141742175.465 7      3118.797          43.000    26972637.984 7 108607634.553 7      2389.739          43.000
E03  23702923.602 8 124559692.147 8      -717.820          51.000    23702926.172 8  95441890.255 8      -549.961          51.000
E15  25970987.086 6 136478464.649 6     -2822.914          38.000    25970973.047 5 104574358.965 5     -2162.913          35.000
E24  25120293.305 6 132008051.772 6     -1138.180          36.000
> 2020 05 05 01 25  0.0000000  0 17        .000000000000
G02  22383114.719 5 117624050.028 5        35.516          35.000
G06  21865470.500 8 114903835.192 8     -2243.191          50.000    21865473.422 8  89535460.829 8     -1747.941          50.000
G07  21033442.648 8 110531465.302 8      1206.152          51.000    21033440.789 8  86128405.276 8       939.862          51.000
G09  20877526.367 8 109712234.014 8     -1508.766          49.000    20877527.297 8  85490028.539 8     -1175.658          49.000
G30  22354506.602 8 117473771.535 8      3072.395          51.000    22354506.383 8  91537993.668 8      2394.074          51.000
R04  20918842.820 4 112019429.177 4     -2068.914          29.000
R05  19720789.820 5 105418885.274 5       908.250          31.000    19720781.188 4  81992464.400 4       706.420          29.000
R14  20583545.375 7 109721887.184 7      -993.738          42.000    20583547.758 5  85339244.242 5      -772.911          33.000
R15  20647755.000 7 110335334.499 7      3044.922          45.000    20647756.641 7  85816404.011 7      2368.270          46.000
R20  22394255.125 6 119752175.268 6     -3411.492          37.000    22394260.586 7  93140578.794 7     -2653.383          45.000
C05                                                                  39774308.797 6 160154650.837 6       -11.384          39.000
C19  21746811.102 8 113241338.510 8      -751.684          51.000
C22  23012893.797 5 119834178.696 5      1878.074          34.000
E02  26954861.641 7 141648749.766 7      3111.496          45.000    26954860.367 7 108536048.624 7      2384.127          44.000
E03  23707056.773 8 124581411.819 8      -728.520          51.000    23707059.391 8  95458532.602 8      -558.210          51.000
E15  25987136.711 6 136563333.092 6     -2833.555          40.000    25987122.953 5 104639388.000 5     -2171.222          33.000
E24  25126848.969 5 132042507.264 5     -1157.125          34.000
> 2020 05 05 01 25 30.0000000  0 16        .000000000000
G02  22382982.422 5 117623370.812 5        13.453          34.000
G06  21878341.758 8 114971472.615 8     -2262.902          51.000    21878344.242 8  89588165.298 8     -1763.301          51.000
G07  21026622.914 8 110495628.588 8      1185.961          51.000    21026621.625 8  86100480.576 8       924.128          51.000
G09  20886185.961 8 109757740.917 8     -1522.031          49.000    20886187.172 8  85525488.486 8     -1185.998          49.000
G30  22337016.141 8 117381856.502 8      3058.363          51.000    22337015.203 8  91466371.581 8      2383.140          51.000
R14  20589233.281 5 109752212.902 5     -1025.012          31.000    20589236.594 4  85362834.949 4      -797.228          25.000
R15  20630736.242 8 110244391.025 8      3021.004          50.000    20630738.844 8  85745670.203 8      2349.670          48.000
R20  22413454.812 6 119854841.586 6     -3429.766          37.000    22413460.164 7  93220430.361 7     -2667.595          46.000
C05  39774416.047 6 207115821.493 6       -18.809          36.000    39774413.781 6 160155073.945 6       -14.613          39.000
C19  21751189.430 8 113264137.336 8      -765.176          51.000
C22  23002111.977 5 119778027.064 5      1868.754          32.000
E02  26937124.406 7 141555539.819 7      3105.441          44.000    26937123.383 7 108464628.035 7      2379.509          43.000
E03  23711250.820 8 124603451.348 8      -737.902          51.000    23711253.445 8  95475420.019 8      -565.391          51.000
E15  26003348.805 6 136648529.708 6     -2843.348          41.000    26003335.391 4 104704655.455 4     -2178.633          29.000
E24  25133515.047 5 132077512.454 5     -1175.355          35.000
E25  25459601.148 5 133791108.057 5      1476.570          35.000
> 2020 05 05 01 26  0.0000000  0 17        .000000000000
G02  22382937.266 5 117623128.501 5         1.812          30.000    22382933.844 4  91654371.029 4         1.412          29.000
G04  23285317.500 5 122365165.990 5     -2845.539          34.000
G06  21891285.992 8 115039492.273 8     -2272.836          51.000    21891287.688 8  89641167.597 8     -1771.044          51.000
G07  21019879.023 8 110460190.564 8      1175.406          51.000    21019877.812 8  86072866.532 8       915.901          51.000
G09  20894881.797 8 109803437.980 8     -1525.613          49.000    20894883.242 8  85561096.598 8     -1188.790          49.000
G30  22319566.156 8 117290156.375 8      3053.844          51.000    22319565.297 8  91394916.934 8      2379.619          51.000
R04  20942114.359 5 112144117.436 5     -2085.535          31.000    20942123.062 5  87223183.880 5     -1622.089          33.000
R14  20595057.625 6 109783256.337 6     -1045.781          37.000    20595059.711 4  85386977.807 4      -813.385          26.000
R15  20613813.195 8 110153956.145 8      3006.867          51.000    20613816.281 8  85675332.015 8      2338.678          49.000
R20  22432716.742 6 119957841.368 6     -3438.516          37.000    22432721.664 7  93300541.300 7     -2674.401          45.000
C05  39774505.078 6 207116285.580 6       -13.336          36.000    39774502.938 6 160155432.806 6       -10.176          39.000
C19  21755605.859 8 113287134.674 8      -769.066          51.000
E02  26919381.703 7 141462301.906 7      3109.188          44.000    26919381.000 7 108393186.015 7      2382.385          44.000
E03  23715458.953 8 124625564.894 8      -737.480          51.000    23715461.531 8  95492364.153 8      -565.064          51.000
E15  26019576.023 6 136733806.637 6     -2843.016          41.000
E24  25140244.016 6 132112872.461 6     -1182.949          38.000
E25  25451187.109 5 133746897.574 5      1469.750          34.000
> 2020 05 05 01 26 30.0000000  0 17        .000000000000
G04  23301589.766 5 122450668.317 5     -2852.215          33.000
G06  21904324.422 8 115108006.766 8     -2292.824          51.000    21904325.109 8  89694555.489 8     -1786.616          51.000
G07  21013233.203 8 110425266.858 8      1154.832          51.000    21013231.773 8  86045653.245 8       899.869          51.000
G09  20903635.594 8 109849439.313 8     -1539.109          49.000    20903637.078 8  85596941.805 8     -1199.306          49.000
G30  22302179.125 8 117198788.256 8      3039.371          50.000    22302178.484 8  91323721.007 8      2368.341          50.000
R04  20953843.188 6 112206922.304 6     -2099.551          38.000    20953853.367 5  87272031.998 5     -1632.978          34.000
R14  20601037.555 6 109815132.670 6     -1076.898          38.000    20601044.055 4  85411761.443 4      -837.588          27.000
R15  20597008.336 8 110064150.963 8      2982.285          51.000    20597010.992 8  85605483.548 8      2319.555          49.000
R20  22452061.328 6 120061287.239 6     -3456.074          37.000    22452066.133 7  93380999.175 7     -2688.058          44.000
C05  39774600.172 6 207116779.652 6       -17.305          36.000    39774598.016 6 160155815.645 6       -13.481          39.000
C19  21760082.234 8 113310444.893 8      -782.922          51.000
E02  26901655.844 7 141369153.115 7      3102.715          43.000    26901655.289 7 108321812.302 7      2377.510          42.000
E03  23719702.992 8 124647867.506 8      -747.367          51.000    23719705.594 8  95509453.155 8      -572.610          51.000
E08  22593840.953 5 118731413.367 5      1431.336          35.000    22593843.992 5  90976042.510 5      1096.448          34.000
E15  26035839.711 6 136819276.982 6     -2853.070          41.000
E24  25147057.844 6 132148675.547 6     -1201.445          37.000
E25  25442852.352 6 133703107.040 6      1451.762          36.000
> 2020 05 05 01 27  0.0000000  0 16        .000000000000
G02  22383168.734 5 117624333.620 5       -38.574          32.000
G06  21917452.594 8 115176993.727 8     -2307.734          51.000    21917452.422 8  89748311.553 8     -1798.235          51.000
G07  21006681.695 8 110390838.177 8      1139.012          51.000    21006680.117 8  86018825.692 8       887.542          51.000
G09  20912443.320 8 109895724.113 8     -1548.008          49.000    20912444.695 8  85633007.891 8     -1206.240          49.000
G30  22284851.961 8 117107734.262 8      3029.535          51.000    22284851.273 8  91252769.853 8      2360.677          50.000
R14  20607168.648 5 109847819.771 5     -1104.258          30.000
R15  20580318.094 8 109974958.879 8      2962.363          51.000    20580320.195 8  85536111.943 8      2304.060          48.000
R20  22471484.719 5 120165154.179 5     -3469.703          35.000    22471489.297 7  93461784.525 7     -2698.658          44.000
C05  39774697.406 6 207117286.059 6       -17.512          36.000    39774695.273 6 160156207.202 6       -13.384          40.000
C19  21764614.820 8 113334048.557 8      -792.070          51.000
E02  26883943.523 6 141276075.586 6      3100.879          41.000    26883942.898 6 108250493.175 6      2376.202          41.000
E03  23723979.188 8 124670339.166 8      -752.262          51.000    23723981.789 8  95526671.697 8      -576.366          51.000
E08  22585674.406 5 118688523.391 5      1427.629          32.000    22585679.641 5  90943175.643 5      1094.191          33.000
E15  26052135.367 6 136904918.642 6     -2857.973          41.000
E24  25153952.344 5 132184900.736 5     -1214.809          34.000
E25  25434595.375 6 133659717.921 6      1439.164          38.000
> 2020 05 05 01 27 30.0000000  0 17        .000000000000
G02  22383448.617 5 117625788.377 5       -57.613          34.000
G06  21930674.070 8 115246471.672 8     -2323.191          51.000    21930673.695 8  89802450.192 8     -1810.279          51.000
G07  21000228.406 8 110356925.873 8      1122.691          51.000    21000226.555 8  85992400.526 8       874.824          51.000
G09  20921308.820 8 109942312.340 8     -1557.137          49.000    20921310.086 8  85669310.406 8     -1213.353          49.000
G30  22267588.742 8 117017017.426 8      3019.172          49.000    22267588.297 8  91182081.400 8      2352.601          49.000
R04  20977469.820 5 112333400.911 5     -2117.480          32.000    20977470.961 6  87370420.342 6     -1646.926          36.000
R14  20613457.320 5 109881337.496 5     -1130.113          35.000    20613477.461 4  85463265.088 4      -878.974          29.000
R15  20563746.836 8 109886405.045 8      2941.961          51.000    20563748.820 7  85467236.760 7      2288.192          47.000
R20  22490989.867 5 120269458.969 5     -3483.031          33.000    22490993.953 7  93542910.447 7     -2709.024          43.000
C05  39774800.766 6 207117824.461 6       -17.719          36.000    39774798.680 6 160156623.559 6       -13.590          39.000
C19  21769207.852 8 113357966.683 8      -801.625          51.000
C20  25479546.281 4 132678685.239 4     -2622.934          27.000
C22  22959280.703 5 119555001.311 5      1845.117          30.000
E02  26866249.195 6 141183092.203 6      3098.855          40.000    26866248.031 6 108179246.246 6      2374.376          40.000
E03  23728291.484 8 124693000.781 8      -757.660          51.000    23728294.125 8  95544035.797 8      -580.518          51.000
E15  26068467.039 6 136990750.545 6     -2863.105          41.000
E25  25426420.172 6 133616752.425 6      1425.824          39.000    25426426.125 6 102381655.619 6      1092.733          38.000
> 2020 05 05 01 28  0.0000000  0 15        .000000000000
G02  22383819.836 5 117627734.804 5       -74.152          33.000
G06  21943973.758 8 115316362.007 8     -2337.004          51.000    21943973.578 8  89856910.183 8     -1821.042          51.000
G07  20993859.055 8 110323454.438 8      1107.883          51.000    20993856.609 8  85966318.872 8       863.285          51.000
G09  20930217.469 8 109989126.929 8     -1564.645          50.000    20930218.414 8  85705789.296 8     -1219.204          50.000
G30  22250375.047 8 116926563.691 8      3010.305          48.000    22250375.938 8  91111597.942 8      2345.689          48.000
R04  20989349.594 5 112397031.266 5     -2125.211          33.000    20989350.906 5  87419910.673 5     -1652.945          35.000
R15  20547280.633 8 109798415.705 8      2923.137          51.000    20547282.102 7  85398800.602 7      2273.554          46.000
R20  22510561.773 5 120374119.802 5     -3494.848          35.000    22510565.391 7  93624313.324 7     -2718.218          42.000
C05  39774895.828 6 207118319.512 6       -16.285          36.000    39774893.773 6 160157006.362 6       -12.611          39.000
C19  21773846.930 8 113382124.246 8      -809.637          51.000
C22  22948657.273 5 119499678.699 5      1840.711          30.000
E02  26848558.242 6 141090128.940 6      3097.926          40.000    26848555.828 6 108108014.787 6      2373.592          38.000
E03  23732625.516 8 124715776.207 8      -761.488          51.000    23732628.219 8  95561487.097 8      -583.529          51.000
E15  26084820.227 6 137076694.528 6     -2867.102          41.000    26084819.938 5 105032764.427 5     -2196.963          32.000
E25  25418311.203 6 133574135.727 6      1414.289          40.000    25418316.789 5 102349001.270 5      1083.484          35.000
> 2020 05 05 01 28 30.0000000  0 15        .000000000000
G06  21957359.836 7 115386709.532 7     -2351.727          47.000    21957360.703 7  89911726.468 7     -1832.514          47.000
G07  20987582.805 8 110290471.713 8      1092.148          51.000    20987580.234 8  85940618.046 8       851.025          51.000
G09  20939177.984 8 110036214.520 8     -1573.258          48.000    20939178.477 8  85742480.918 8     -1225.915          49.000
G30  22233221.164 8 116836422.428 8      3000.441          49.000    22233223.133 8  91041357.963 8      2338.006          49.000
R04  21001283.094 5 112460940.270 5     -2134.215          35.000    21001287.812 5  87469617.745 5     -1659.945          35.000
R15  20530929.883 8 109711042.769 8      2902.992          51.000    20530929.094 7  85330843.854 7      2257.883          43.000
R20  22530209.492 6 120479179.712 6     -3507.535          36.000    22530212.109 7  93706026.597 7     -2728.083          43.000
C05  39774991.570 6 207118818.148 6       -15.785          36.000    39774989.570 6 160157391.939 6       -12.115          40.000
C19  21778540.992 8 113406568.410 8      -818.691          51.000
C22  22938070.938 5 119444547.408 5      1835.062          32.000
E02  26830880.484 6 140997235.272 6      3096.125          40.000    26830875.250 6 108036836.607 6      2372.370          36.000
E03  23736990.227 8 124738712.743 8      -766.297          51.000    23736992.945 8  95579061.840 8      -587.169          51.000
E08  22561346.547 5 118560678.873 5      1416.805          35.000
E15  26101203.695 6 137162795.885 6     -2871.645          39.000    26101203.102 5 105098738.200 5     -2200.504          35.000
E25  25410277.531 6 133531916.506 6      1401.797          36.000    25410282.281 5 102316651.427 5      1073.916          35.000
> 2020 05 05 01 29  0.0000000  0 19        .000000000000
G02  22384843.133 5 117633163.738 5       -99.316          34.000
G04  23383178.648 5 122879402.123 5     -2855.547          33.000
G06  21970808.734 7 115457388.364 7     -2357.363          47.000    21970811.211 7  89966800.914 7     -1836.903          47.000
G07  20981376.039 8 110257854.776 8      1085.234          51.000    20981373.773 8  85915202.284 8       845.640          51.000
G09  20948166.609 8 110083450.648 8     -1572.941          48.000    20948166.977 8  85779288.258 8     -1225.669          48.000
G30  22216104.414 8 116746472.171 8      2999.277          51.000    22216106.391 8  90971266.849 8      2337.099          50.000
R04  21013246.281 6 112525001.953 6     -2133.938          36.000    21013250.539 5  87519443.464 5     -1659.729          33.000
R05  19681981.977 5 105211489.721 5       830.980          35.000    19681987.328 5  81831165.442 5       646.318          34.000
R15  20514671.969 8 109624164.515 8      2891.832          51.000    20514669.484 7  85263271.883 7      2249.203          42.000
R20  22549906.906 5 120584508.470 5     -3511.059          35.000    22549909.859 7  93787948.961 7     -2730.823          44.000
C05  39775064.484 6 207119198.072 6        -6.605          36.000    39775062.531 6 160157685.701 6        -4.866          40.000
C19  21783266.484 8 113431177.169 8      -818.953          50.000
C20  25524934.836 5 132915016.923 5     -2624.391          33.000
C22  22927497.719 4 119389479.139 4      1838.559          26.000
E02  26813193.227 6 140904289.645 6      3103.289          37.000    26813185.828 6 107965618.566 6      2377.806          37.000
E03  23741362.125 8 124761686.907 8      -762.238          51.000    23741364.695 8  95596665.416 8      -584.032          51.000
E08  22553249.203 5 118518145.650 5      1422.188          33.000
E15  26117593.500 6 137248929.154 6     -2867.395          36.000    26117591.312 5 105164736.339 5     -2196.885          35.000
E25  25402295.852 5 133489965.506 5      1397.980          35.000    25402300.742 6 102284512.562 6      1070.872          36.000
> 2020 05 05 01 29 30.0000000  0 21        .000000000000
G02  22385519.281 6 117636702.732 6      -126.797          38.000
G04  23399546.656 5 122965426.022 5     -2868.020          33.000
G06  21984367.047 8 115528637.961 8     -2381.738          50.000    21984370.172 8  90022320.093 8     -1855.900          50.000
G07  20975285.031 8 110225846.242 8      1059.527          51.000    20975282.750 8  85890260.591 8       825.606          51.000
G09  20957229.375 7 110131076.270 7     -1591.312          46.000    20957229.820 7  85816399.132 7     -1239.984          46.000
G30  22199070.719 8 116656956.844 8      2979.289          51.000    22199072.242 8  90901514.671 8      2321.524          51.000
R04  21025284.766 6 112589463.003 6     -2152.703          36.000    21025286.617 5  87569579.743 5     -1674.328          30.000
R05  19677412.039 4 105187043.154 4       810.535          27.000    19677410.914 5  81812149.858 5       630.419          32.000
R14  20640057.750 6 110023112.362 6     -1234.223          36.000    20640047.844 5  85573517.437 5      -959.957          31.000
R15  20498553.008 8 109538030.685 8      2861.469          51.000    20498550.758 7  85196278.912 7      2225.587          44.000
R20  22569698.727 5 120690347.758 5     -3533.719          34.000    22569703.086 7  93870268.431 7     -2748.448          44.000
C05  39775160.664 6 207119698.989 6       -16.055          36.000    39775158.664 6 160158073.053 6       -12.402          40.000
C19  21788069.648 8 113456190.526 8      -837.863          51.000
C20  25540120.414 4 132994097.392 4     -2636.969          29.000
C22  22917018.047 5 119334895.505 5      1822.770          30.000
E02  26795543.609 5 140811536.047 5      3091.363          35.000    26795535.617 6 107894547.641 6      2368.497          40.000
E03  23745787.117 8 124784940.569 8      -777.137          51.000    23745789.516 8  95614483.159 8      -595.444          51.000
E13  25438646.281 6 133681012.421 6      -822.137          39.000    25438651.805 5 102430905.497 5      -630.063          35.000
E15                                                                  26134032.016 5 105230942.769 5     -2208.319          35.000
E24  25189568.320 5 132372072.749 5     -1281.289          35.000
E25  25394413.883 6 133448540.128 6      1374.941          37.000    25394417.430 5 102252770.971 5      1053.607          32.000
> 2020 05 05 01 30  0.0000000  0 19        .000000000000
G02  22386311.727 6 117640868.743 6      -147.109          36.000
G06  21998024.703 8 115600407.538 8     -2399.359          51.000    21998027.648 8  90078244.413 8     -1869.631          51.000
G07  20969300.570 8 110194398.452 8      1040.500          51.000    20969298.398 8  85865755.814 8       810.779          51.000
G09  20966356.891 7 110179042.333 7     -1603.039          46.000    20966357.391 7  85853775.279 7     -1249.121          46.000
G30  22182111.031 8 116567830.283 8      2965.941          51.000    22182112.039 8  90832065.440 8      2311.123          51.000
R04  21037390.477 5 112654273.804 5     -2164.586          35.000    21037386.398 4  87619972.222 4     -1683.561          25.000
R05  19672908.180 5 105162995.057 5       796.297          34.000    19672909.211 5  81793426.562 5       619.339          32.000
R15  20482564.734 8 109452595.815 8      2837.805          51.000    20482563.844 7  85129829.558 7      2207.181          46.000
R20  22589576.180 5 120796643.960 5     -3549.254          35.000    22589581.070 7  93952943.253 7     -2760.531          45.000
C05  39775270.844 6 207120273.176 6       -18.258          36.000    39775268.914 6 160158517.071 6       -14.589          39.000
C19  21792941.719 8 113481561.003 8      -850.094          51.000
C20  25555336.484 4 133073361.103 4     -2644.902          29.000
E02                                                                  26777914.938 6 107823588.397 6      2364.663          41.000
E03  23750256.055 8 124808425.436 8      -784.984          51.000    23750258.445 8  95632478.053 8      -601.452          51.000
E08  22537183.273 5 118433697.600 5      1401.551          35.000
E13  25443398.578 5 133705988.288 5      -838.965          33.000    25443401.758 5 102450042.870 5      -642.957          33.000
E15                                                                  26150515.938 5 105297318.860 5     -2213.955          34.000
E24  25196940.367 5 132410809.684 5     -1297.355          34.000
E25  25386621.367 5 133407586.218 5      1358.594          34.000    25386622.500 5 102221409.687 5      1041.297          35.000
> 2020 05 05 01 30 30.0000000  0 18        .000000000000
G02  22387188.258 5 117645478.551 5      -161.957          33.000    22387191.719 5  91671807.431 5      -126.200          31.000
G06  22011749.477 8 115672529.731 8     -2410.695          51.000    22011751.633 8  90134443.504 8     -1878.464          51.000
G07  20963391.344 8 110163346.830 8      1027.617          50.000    20963389.883 8  85841559.749 8       800.741          50.000
G09  20975517.805 7 110227183.163 7     -1608.391          46.000    20975518.180 7  85891287.613 7     -1253.291          46.000
G30  22165194.266 8 116478929.719 8      2958.785          51.000    22165194.680 8  90762792.317 8      2305.550          51.000
R05  19668456.281 5 105139188.028 5       788.625          35.000    19668457.570 5  81774910.012 5       613.378          31.000
R14  20654253.195 5 110098832.503 5     -1287.066          33.000    20654247.023 5  85632369.127 5     -1001.061          31.000
R15  20466676.656 8 109367696.162 8      2820.203          51.000    20466677.398 7  85063796.527 7      2193.491          47.000
R20  22609507.969 6 120903224.681 6     -3557.629          37.000    22609511.586 7  94035839.343 7     -2767.045          43.000
C05  39775363.742 6 207120757.348 6       -15.289          36.000    39775361.914 6 160158891.459 6       -11.964          39.000
C19  21797851.305 8 113507125.610 8      -856.199          51.000
C20  25570565.555 5 133152676.458 5     -2644.621          35.000
E02                                                                  26760291.062 6 107752616.172 6      2365.304          41.000
E03  23754737.742 8 124831976.755 8      -786.961          51.000    23754740.203 8  95650523.861 8      -602.981          51.000
E13  25448215.078 5 133731272.563 5      -850.457          31.000    25448221.406 5 102469444.113 5      -652.164          31.000
E15                                                                  26167010.820 5 105363736.857 5     -2215.302          34.000
E24  25204370.383 5 132449859.398 5     -1307.840          33.000
E25  25378886.453 6 133366940.215 6      1349.141          37.000    25378889.836 6 102190265.433 6      1033.530          38.000
> 2020 05 05 01 31  0.0000000  0 19        .000000000000
G06  22025554.500 8 115745074.428 8     -2424.879          51.000    22025556.141 8  90190971.836 8     -1889.516          51.000
G07  20957571.359 8 110132764.717 8      1011.746          49.000    20957570.727 8  85817729.523 8       788.377          49.000
G09  20984725.680 7 110275570.278 7     -1616.844          45.000    20984726.359 7  85928991.860 7     -1259.878          45.000
G30  22148334.141 8 116390329.646 8      2948.562          49.000    22148334.234 8  90693753.330 8      2297.581          49.000
R04  21061712.234 6 112784521.651 6     -2179.051          37.000    21061726.734 4  87721309.437 4     -1694.817          27.000
R05  19664060.164 5 105115693.516 5       777.898          31.000    19664061.430 4  81756636.537 4       605.038          29.000
R14  20661561.438 5 110137749.145 5     -1311.828          32.000    20661567.820 5  85662685.142 5     -1020.311          35.000
R15  20450903.438 8 109283408.894 8      2799.535          51.000    20450905.211 8  84998239.772 8      2177.416          48.000
R20  22629506.023 6 121010159.066 6     -3570.188          38.000    22629507.852 7  94119010.491 7     -2776.816          43.000
C05                                                                  39775451.430 6 160159251.763 6       -11.611          40.000
C19  21802812.273 8 113532956.467 8      -865.281          51.000
C20  25585818.312 5 133232098.977 5     -2648.434          34.000
C22  22885653.078 4 119171637.872 4      1805.395          29.000
E02                                                                  26742677.555 6 107681688.039 6      2363.604          41.000
E03  23759245.906 8 124855666.909 8      -791.781          51.000    23759248.305 8  95668676.049 8      -606.728          51.000
E13                                                                  25453120.172 5 102489160.952 5      -662.732          30.000
E15                                                                  26183530.031 6 105430250.627 6     -2218.564          36.000
E24  25211874.664 5 132489295.096 5     -1320.637          34.000
E25  25371224.234 6 133326675.999 6      1335.609          38.000    25371228.789 6 102159413.648 6      1023.643          37.000
> 2020 05 05 01 31 30.0000000  0 20        .000000000000
G02  22389245.820 6 117656240.659 6      -196.188          37.000    22389239.992 5  91680211.923 5      -152.876          33.000
G06  22039443.258 8 115818061.051 8     -2439.082          50.000    22039445.680 8  90247844.517 8     -1900.583          51.000
G07  20951844.953 8 110102674.233 8       995.977          49.000    20951844.594 8  85794282.384 8       776.086          49.000
G09  20993984.367 7 110324224.719 7     -1625.195          44.000    20993985.438 7  85966904.431 7     -1266.386          44.000
G30  22131534.977 7 116302054.001 7      2938.340          47.000    22131535.562 7  90624967.122 7      2289.615          47.000
R04  21073940.703 6 112850045.953 6     -2187.504          36.000    21073949.156 5  87772238.485 5     -1701.389          33.000
R05  19659724.602 5 105092491.999 5       767.270          30.000
R14  20669021.594 6 110177513.490 6     -1337.211          36.000    20669029.734 5  85693612.937 5     -1040.053          35.000
R15  20435249.820 8 109199759.907 8      2778.852          51.000    20435252.250 8  84933179.444 8      2161.329          49.000
R20  22649573.359 6 121117464.411 6     -3581.508          37.000    22649574.156 7  94202470.165 7     -2785.617          44.000
C05  39775543.586 6 207121692.903 6       -14.953          36.000    39775541.562 6 160159614.856 6       -11.170          40.000
C19  21807828.742 8 113559075.589 8      -874.352          51.000
C20  25601096.523 5 133311649.997 5     -2652.859          35.000
C22  22875264.062 5 119117481.625 5      1799.441          31.000
E02                                                                  26725078.438 6 107610822.319 6      2362.074          40.000
E03  23763784.727 8 124879517.839 8      -796.445          51.000    23763786.891 8  95686951.418 8      -610.251          51.000
E13  25458089.680 5 133783163.572 5      -878.109          30.000
E15                                                                  26200078.227 6 105496875.427 6     -2221.773          38.000
E24  25219456.242 6 132529133.907 6     -1333.262          36.000    25219465.969 5 101548341.757 5     -1022.003          34.000
E25  25363638.359 5 133286816.553 5      1322.902          35.000    25363641.688 6 102128871.943 6      1013.958          37.000
> 2020 05 05 01 32  0.0000000  0 17        .000000000000
G02  22390415.836 5 117662376.002 5      -212.641          35.000
G06  22053403.203 8 115891422.273 8     -2451.734          51.000    22053406.859 8  90305009.091 8     -1910.442          51.000
G07  20946200.250 8 110073010.840 8       981.508          51.000    20946199.555 8  85771168.043 8       764.811          51.000
G09  21003281.375 7 110373080.917 7     -1632.109          45.000    21003282.562 7  86004974.202 7     -1271.774          45.000
G30  22114785.586 8 116214039.995 8      2929.211          48.000    22114787.289 8  90556384.760 8      2282.502          48.000
R04  21086221.703 6 112915784.139 6     -2195.027          38.000    21086229.477 5  87823368.057 5     -1707.247          35.000
R14  20676615.836 5 110217996.907 5     -1361.746          35.000    20676618.977 5  85725100.059 5     -1059.136          34.000
R15  20419703.898 8 109116687.159 8      2759.285          51.000    20419706.812 8  84868567.301 8      2146.108          49.000
R20  22669696.516 6 121225070.297 6     -3592.121          36.000    22669697.086 7  94286163.614 7     -2793.872          44.000
C05  39775622.039 6 207122101.838 6       -12.586          36.000    39775620.047 6 160159931.086 6        -9.732          40.000
C19  21812888.258 8 113585419.066 8      -882.055          51.000
C20  25616387.430 5 133391264.824 5     -2655.438          34.000
E02                                                                  26707482.406 6 107539971.029 6      2361.353          40.000
E03  23768341.797 8 124903464.769 8      -800.020          51.000    23768343.789 8  95705300.354 8      -613.005          51.000
E15  26216652.281 5 137769439.640 5     -2902.336          35.000    26216641.602 6 105563560.000 6     -2223.922          38.000
E24  25227101.930 5 132569311.900 5     -1345.410          35.000    25227109.469 5 101579127.395 5     -1030.378          34.000
E25  25356116.602 5 133247298.376 5      1311.328          34.000    25356121.258 6 102098591.738 6      1004.892          41.000
> 2020 05 05 01 32 30.0000000  0 19        .000000000000
G02  22391697.484 5 117669107.415 5      -233.328          35.000
G06  22067457.727 8 115965279.590 8     -2469.066          51.000    22067462.023 8  90362560.279 8     -1923.945          51.000
G07  20940660.930 8 110043899.635 8       962.301          51.000    20940659.883 8  85748483.973 8       749.845          51.000
G09  21012640.320 7 110422262.032 7     -1643.602          46.000    21012641.414 7  86043297.163 7     -1280.725          46.000
G30  22098110.711 8 116126413.688 8      2915.598          49.000    22098113.312 8  90488104.523 8      2271.894          50.000
R04  21098565.188 5 112981860.518 5     -2206.777          35.000    21098565.117 5  87874760.803 5     -1716.382          32.000
R05  19651237.898 5 105047103.787 5       744.172          32.000    19651238.922 4  81703325.794 4       578.800          26.000
R14  20684368.984 6 110259323.185 6     -1390.477          36.000    20684373.445 6  85757242.684 6     -1081.485          36.000
R15  20404289.812 8 109034320.222 8      2734.895          51.000    20404292.906 8  84804504.110 8      2127.140          48.000
R20  22689897.727 6 121333098.397 6     -3606.941          36.000    22689899.281 7  94370185.469 7     -2805.396          44.000
C05  39775712.578 6 207122573.261 6       -15.234          36.000    39775710.688 6 160160295.636 6       -11.904          40.000
C19  21818014.539 8 113612110.174 8      -894.355          51.000
C20  25631714.562 5 133471066.126 5     -2661.684          34.000
E02  26689909.211 6 140256417.504 6      3076.164          37.000    26689913.336 6 107469230.829 6      2356.953          40.000
E03  23772940.688 8 124927631.782 8      -808.141          51.000    23772942.766 8  95723817.919 8      -619.189          51.000
E08  22497383.367 5 118224542.351 5      1383.605          34.000
E15  26233249.031 6 137856668.905 6     -2910.066          37.000    26233242.344 6 105630397.938 6     -2229.336          38.000
E24  25234835.547 5 132609955.124 5     -1361.117          33.000    25234843.266 5 101610267.270 5     -1042.775          33.000
E25  25348684.961 6 133208238.911 6      1294.648          36.000    25348691.008 6 102068669.142 6       992.324          41.000
> 2020 05 05 01 33  0.0000000  0 17        .000000000000
G06  22081592.336 8 116039557.402 8     -2484.449          51.000    22081596.781 8  90420439.116 8     -1935.934          51.000
G07  20935212.734 8 110015267.702 8       944.836          51.000    20935211.352 8  85726173.386 8       736.236          51.000
G09  21022047.047 7 110471694.198 7     -1653.453          46.000    21022048.195 7  86081815.744 7     -1288.402          47.000
G30  22081496.477 8 116039104.024 8      2903.488          50.000    22081499.492 8  90420071.021 8      2262.458          50.000
R04  21110959.523 6 113048200.449 6     -2217.324          38.000    21110952.211 5  87926358.596 5     -1724.582          33.000
R05  19647091.367 6 105024940.419 6       731.598          36.000    19647089.852 4  81686076.509 4       569.020          27.000
R14  20692265.406 6 110301416.104 6     -1417.348          37.000    20692270.930 6  85789981.659 6     -1102.382          36.000
R15  20388994.344 8 108952588.646 8      2712.242          50.000    20388997.727 8  84740935.104 8      2109.522          48.000
R20  22710162.930 5 121441469.692 5     -3619.629          35.000    22710165.289 7  94454474.268 7     -2815.267          44.000
C05  39775801.062 6 207123033.778 6       -16.324          36.000    39775799.289 6 160160652.533 6       -12.913          40.000
C19  21823193.266 8 113639076.867 8      -904.957          51.000
E02  26672357.047 6 140164169.508 6      3072.246          39.000    26672357.266 6 107398547.294 6      2353.915          39.000
E03  23777567.469 8 124951945.817 8      -814.391          51.000    23777569.750 8  95742448.145 8      -623.996          51.000
E13                                                                  25473526.445 5 102571340.564 5      -707.928          33.000
E15  26249871.430 6 137944023.124 6     -2915.457          37.000    26249865.578 6 105697331.711 6     -2233.619          36.000
E24                                                                  25242652.430 5 101641704.564 5     -1054.134          32.000
E25  25341328.656 6 133169582.136 6      1280.629          37.000    25341334.031 6 102039048.959 6       981.156          39.000
> 2020 05 05 01 33 30.0000000  0 17        .000000000000
G06  22095811.625 8 116114279.611 8     -2498.160          51.000    22095815.688 8  90478664.202 8     -1946.618          51.000
G07  20929860.953 8 109987141.906 8       929.191          51.000    20929859.070 8  85704257.171 8       724.045          51.000
G09  21031506.438 7 110521403.005 7     -1661.488          46.000    21031507.500 7  86120549.879 7     -1294.666          46.000
G30  22064948.008 8 115952139.499 8      2893.141          49.000    22064951.023 8  90352306.462 8      2254.395          49.000
R04  21123402.477 5 113114831.075 5     -2225.629          34.000    21123398.477 5  87978182.285 5     -1731.054          35.000
R05  19643012.500 6 105003130.481 6       721.301          38.000    19643010.695 4  81669113.177 4       561.006          29.000
R14  20700310.641 6 110344300.689 6     -1442.496          37.000    20700314.375 5  85823336.298 5     -1121.944          35.000
R15  20373822.938 8 108871522.691 8      2691.137          49.000    20373826.500 7  84677883.834 7      2093.106          47.000
R20  22730496.516 5 121550206.616 5     -3630.500          35.000    22730499.703 7  94539047.441 7     -2823.722          44.000
C05  39775892.945 6 207123511.725 6       -15.887          36.000    39775891.078 6 160161022.093 6       -12.599          40.000
C19  21828430.023 8 113666345.655 8      -913.961          51.000
C22  22834091.719 5 118903093.958 5      1773.562          32.000
E02  26654823.602 6 140072024.011 6      3069.957          41.000    26654820.867 6 107327942.318 6      2352.344          39.000
E03  23782227.328 8 124976433.387 8      -819.055          51.000    23782229.711 8  95761211.340 8      -627.578          51.000
E13  25478831.695 5 133892168.106 5      -937.758          35.000    25478836.141 5 102592713.585 5      -718.045          32.000
E15  26266523.523 5 138031526.916 5     -2919.406          35.000    26266515.180 5 105764373.033 5     -2236.708          33.000
E25  25334053.258 6 133131347.801 6      1267.445          40.000    25334057.562 6 102009752.485 6       971.085          40.000
> 2020 05 05 01 34  0.0000000  0 17        .000000000000
G06  22110123.961 8 116189490.623 8     -2508.809          50.000    22110126.594 8  90537270.157 8     -1954.916          50.000
G07  20924614.461 8 109959569.823 8       916.141          51.000    20924612.414 8  85682772.435 8       713.876          51.000
G09  21041027.203 7 110571434.676 7     -1666.711          46.000    21041028.172 7  86159535.603 7     -1298.736          46.000
G30  22048474.336 8 115865569.179 8      2885.410          49.000    22048476.961 8  90284849.071 8      2248.372          49.000
R05  19639008.711 6 104981722.956 6       713.363          37.000    19639009.664 5  81652462.878 5       554.838          33.000
R14  20708511.812 6 110388022.430 6     -1464.840          37.000    20708517.289 6  85857342.165 6     -1139.320          37.000
R15  20358786.086 8 108791173.632 8      2672.773          50.000    20358789.867 8  84615390.133 8      2078.824          48.000
R20  22750906.711 6 121659352.491 6     -3638.648          36.000    22750911.125 7  94623938.658 7     -2830.063          44.000
C05  39775996.773 5 207124052.670 5       -12.250          35.000    39775995.039 6 160161440.397 6        -9.808          40.000
C19  21833733.820 8 113693963.454 8      -920.137          51.000
C20  25677852.562 4 133711328.766 4     -2672.059          29.000
C22  22823915.688 5 118850062.509 5      1769.840          34.000
E02  26637318.656 7 139980030.114 7      3070.078          42.000    26637314.617 6 107257453.506 6      2352.562          40.000
E03  23786929.164 8 125001141.514 8      -820.961          51.000    23786931.547 8  95780143.527 8      -629.063          51.000
E13  25484234.234 6 133920567.392 6      -948.523          37.000
E15  26283212.875 6 138119225.126 6     -2920.180          36.000    26283200.227 5 105831556.311 5     -2237.427          30.000
E25  25326868.195 6 133093584.126 6      1257.156          39.000    25326872.109 6 101980816.692 6       963.479          40.000
> 2020 05 05 01 34 30.0000000  0 17        .000000000000
G06  22124498.086 8 116265027.008 8     -2526.648          49.000    22124499.664 8  90596129.640 8     -1968.817          49.000
G07  20919442.383 8 109932390.805 8       896.109          51.000    20919440.484 8  85661594.005 8       698.267          51.000
G09  21050578.523 7 110621627.442 7     -1679.027          44.000    21050579.375 7  86198646.847 7     -1308.333          44.000
G30  22032044.875 8 115779234.122 8      2870.570          48.000    22032046.609 8  90217574.993 8      2236.805          48.000
R04  21148447.953 4 113249000.150 4     -2244.160          29.000    21148437.430 4  88082512.694 4     -1745.452          26.000
R05  19635049.492 6 104960555.633 6       698.379          38.000    19635052.328 5  81635999.392 5       543.184          33.000
R14  20716840.375 6 110432415.849 6     -1494.305          39.000    20716845.289 5  85891870.398 5     -1162.243          35.000
R15  20343854.070 8 108711381.577 8      2647.094          51.000    20343858.203 8  84553329.656 8      2058.848          49.000
R20  22771362.156 5 121768738.512 5     -3653.602          35.000    22771367.539 7  94709016.667 7     -2841.690          44.000
C05  39776082.203 6 207124497.334 6       -16.340          36.000    39776080.484 6 160161784.220 6       -12.689          40.000
C19  21839074.047 8 113721771.146 8      -933.348          51.000
C22  22813755.773 5 118797128.233 5      1759.578          33.000
E02  26619811.609 7 139888028.964 7      3063.543          43.000    26619808.242 6 107186959.185 6      2347.393          41.000
E03  23791642.344 8 125025909.336 8      -829.762          51.000    23791644.688 8  95799121.456 8      -635.806          51.000
E13  25489700.125 6 133949297.503 6      -966.293          37.000
E15  26299908.289 5 138206949.945 5     -2927.922          31.000
E25  25319742.031 6 133056131.434 6      1240.062          39.000    25319744.094 5 101952119.142 5       950.106          35.000
> 2020 05 05 01 35  0.0000000  0 14        .000000000000
G06  22138958.047 8 116341015.660 8     -2540.824          48.000    22138959.977 8  90655341.556 8     -1979.863          48.000
G07  20914369.883 8 109905734.673 8       879.316          51.000    20914367.805 8  85640823.026 8       685.182          51.000
G09  21060185.008 7 110672110.120 7     -1687.742          44.000    21060185.969 7  86237983.974 7     -1315.124          43.000
G30  22015685.172 8 115693265.937 8      2859.242          48.000    22015685.250 8  90150586.785 8      2227.981          48.000
R05  19631159.797 6 104939761.390 6       686.352          37.000    19631164.000 5  81619826.092 5       533.829          31.000
R14  20725318.594 6 110477610.449 6     -1520.199          37.000    20725321.609 6  85927021.679 6     -1182.377          36.000
R15  20329051.969 8 108632281.758 8      2624.773          51.000    20329056.031 8  84491807.599 8      2041.490          48.000
R20  22791887.117 5 121878492.148 5     -3665.004          35.000    22791892.312 7  94794380.568 7     -2850.562          44.000
C05  39776173.766 6 207124974.205 6       -16.500          36.000    39776172.039 6 160162152.948 6       -12.973          40.000
C19  21844475.242 8 113749897.462 8      -943.207          51.000
E02  26602327.820 7 139796152.261 7      3060.102          44.000    26602325.805 7 107116560.204 7      2344.840          42.000
E03  23796391.461 8 125050866.515 8      -835.430          51.000    23796393.945 8  95818244.480 8      -640.134          51.000
E13  25495254.039 6 133978487.208 6      -980.992          36.000
E25  25312698.852 6 133019120.499 6      1225.863          39.000    25312700.930 6 101923760.117 6       939.328          36.000
> 2020 05 05 01 35 30.0000000  0 18        .000000000000
G02  22401509.148 6 117720695.788 6      -337.203          37.000
G06  22153486.633 8 116417365.241 8     -2551.297          48.000    22153488.820 8  90714834.723 8     -1988.024          48.000
G07  20909380.008 8 109879513.365 8       866.617          51.000    20909377.969 8  85620390.853 8       675.286          51.000
G09  21069829.469 7 110722793.020 7     -1692.922          43.000    21069831.070 7  86277477.165 7     -1319.160          43.000
G30  21999379.422 8 115607577.734 8      2851.355          50.000    21999378.211 8  90083816.789 8      2221.838          50.000
R04  21173674.180 5 113384059.138 5     -2259.352          34.000    21173674.180 4  88187599.239 4     -1757.270          26.000
R05  19627321.531 5 104919250.966 5       678.422          34.000    19627325.797 4  81603903.555 4       527.658          25.000
R14  20733930.172 6 110523513.927 6     -1542.062          39.000    20733934.227 6  85962724.414 6     -1199.385          37.000
R15  20314363.336 8 108553787.223 8      2606.035          51.000    20314367.117 7  84430756.314 7      2026.916          47.000
R20  22812463.055 5 121988518.353 5     -3672.367          35.000    22812467.836 7  94879956.475 7     -2856.286          44.000
C05  39776254.547 6 207125395.345 6       -13.309          36.000    39776252.945 6 160162478.621 6       -10.418          40.000
C19  21849920.672 8 113778254.728 8      -949.309          51.000
C20  25724165.289 5 133952480.463 5     -2684.445          32.000
E02  26584850.211 7 139704313.344 7      3060.570          42.000    26584849.859 7 107046190.163 7      2344.963          43.000
E03  23801159.719 8 125075924.274 8      -837.141          51.000    23801162.266 8  95837444.566 8      -641.404          51.000
E13  25500878.578 5 134008046.962 5      -991.578          35.000    25500885.945 5 102681489.440 5      -759.745          33.000
E24  25282818.602 6 132862104.750 6     -1437.688          38.000
E25  25305722.766 6 132982463.766 6      1215.883          38.000    25305726.453 5 101895672.544 5       931.624          32.000
> 2020 05 05 01 36  0.0000000  0 18        .000000000000
G06  22168101.531 8 116494167.936 8     -2559.707          49.000    22168103.055 8  90774680.961 8     -1994.577          49.000
G07  20904490.820 8 109853821.961 8       855.383          51.000    20904489.047 8  85600371.600 8       666.532          51.000
G09  21079530.148 7 110773770.187 7     -1696.305          42.000    21079531.570 7  86317199.661 7     -1321.796          42.000
G30  21983145.773 8 115522266.362 8      2845.234          51.000    21983144.570 8  90017340.409 8      2217.066          51.000
R04  21186360.102 4 113452036.908 4     -2262.770          28.000
R05  19623555.273 6 104899122.224 6       672.691          37.000
R14  20742692.156 6 110570220.171 6     -1562.355          37.000    20742697.219 6  85999051.619 6     -1215.162          36.000
R15  20299806.727 8 108475997.763 8      2589.102          51.000    20299809.930 7  84370253.397 7      2013.746          47.000
R20  22833107.156 5 122098909.401 5     -3677.961          35.000    22833111.539 7  94965816.153 7     -2860.636          43.000
C05  39776342.742 5 207125854.772 5        -7.945          35.000    39776341.172 6 160162833.869 6        -6.092          40.000
C19  21855428.656 8 113806937.225 8      -953.738          51.000
C20  25739655.969 5 134033126.887 5     -2683.027          34.000
E02  26567397.820 7 139612609.083 7      3062.480          42.000    26567399.492 7 106975923.308 7      2346.522          45.000
E03  23805965.164 8 125101177.504 8      -837.137          51.000    23805967.789 8  95856794.435 8      -641.448          51.000
E13  25506592.008 6 134038070.627 6     -1000.988          36.000    25506598.680 5 102704494.588 5      -766.988          35.000
E15  26350139.453 6 138470911.955 6     -2932.285          36.000    26350133.086 5 106101067.214 5     -2246.529          35.000
E24  25291077.859 6 132905495.486 6     -1445.418          37.000    25291087.125 6 101836722.070 6     -1107.549          36.000
E25  25298831.938 5 132946257.172 5      1207.156          35.000
> 2020 05 05 01 36 30.0000000  0 19        .000000000000
G06  22182789.023 8 116571351.028 8     -2575.613          50.000    22182789.523 8  90834823.628 8     -2006.971          50.000
G07  20899689.289 8 109828590.881 8       836.867          51.000    20899687.648 8  85580711.012 8       652.104          51.000
G09  21089273.430 7 110824970.819 7     -1706.898          43.000    21089274.297 7  86357096.253 7     -1330.051          43.000
G30  21966970.797 8 115437263.720 8      2831.629          51.000    21966970.477 8  89951104.584 8      2206.464          51.000
R04  21199109.914 5 113520249.823 5     -2274.625          31.000
R05  19619847.578 6 104879305.018 6       659.137          36.000    19619848.258 4  81572815.082 4       512.659          27.000
R14  20751591.812 6 110617656.136 6     -1589.887          40.000    20751595.914 6  86035946.171 6     -1236.582          36.000
R15  20285369.297 8 108398846.092 8      2564.562          50.000    20285372.039 7  84310246.554 7      1994.660          47.000
R20  22853804.117 5 122209588.815 5     -3690.344          33.000    22853809.172 7  95051900.125 7     -2870.267          43.000
C05  39776424.992 6 207126282.197 6       -10.609          36.000    39776423.398 6 160163165.148 6        -8.125          40.000
C19  21860986.039 8 113835875.838 8      -965.516          51.000
C20  25755162.633 5 134113863.846 5     -2689.449          31.000
E02  26549959.008 7 139520971.564 7      3057.008          43.000    26549962.008 7 106905707.574 7      2342.266          46.000
E03  23810794.547 8 125126556.195 8      -844.562          51.000    23810797.211 8  95876240.435 8      -647.153          51.000
E08  22434931.875 5 117896377.377 5      1355.688          32.000
E13                                                                  25512386.016 5 102727800.796 5      -779.586          33.000
E15  26366920.297 6 138559119.498 6     -2938.336          39.000    26366917.891 5 106168654.802 5     -2251.701          35.000
E24  25299403.625 6 132949263.960 6     -1460.637          37.000    25299412.125 6 101870243.383 6     -1119.285          38.000
E25  25292014.703 6 132910431.799 6      1191.090          37.000
> 2020 05 05 01 37  0.0000000  0 17        .000000000000
G06  22197554.219 8 116648941.576 8     -2596.453          51.000    22197554.305 8  90895283.789 8     -2023.210          51.000
G07  20894981.133 8 109803849.876 8       813.199          51.000    20894979.727 8  85561432.297 8       633.662          51.000
G09  21099064.828 7 110876423.682 7     -1722.680          44.000    21099065.062 7  86397189.381 7     -1342.348          44.000
G30  21950860.219 8 115352601.406 8      2813.164          50.000    21950860.891 8  89885133.948 8      2192.076          50.000
R05  19616205.266 6 104859830.766 6       640.016          39.000    19616206.516 4  81557667.896 4       497.793          29.000
R14  20760632.727 6 110665849.196 6     -1622.355          37.000    20760637.367 5  86073429.709 5     -1261.829          35.000
R15  20271057.180 8 108322365.405 8      2534.855          50.000    20271059.547 7  84250761.565 7      1971.551          47.000
R20  22874559.539 5 122320582.279 5     -3708.336          32.000    22874565.844 7  95138228.385 7     -2884.261          44.000
C05  39776506.953 6 207126709.004 6       -17.352          36.000    39776505.367 6 160163495.191 6       -13.499          40.000
C19  21866598.414 8 113865100.223 8      -982.094          51.000
E02  26532539.758 7 139429432.462 7      3046.508          44.000    26532543.062 7 106835567.221 7      2334.262          47.000
E03  23815653.461 8 125152090.014 8      -856.973          51.000    23815656.180 8  95895805.304 8      -656.656          51.000
E08                                                                  22427226.820 5  90305141.324 5      1030.366          35.000
E13                                                                  25518253.148 5 102751430.025 5      -795.671          33.000
E15  26383724.570 6 138647443.715 6     -2949.387          40.000    26383725.258 5 106236331.756 5     -2259.833          34.000
E24  25307800.992 6 132993390.611 6     -1480.656          37.000    25307811.297 6 101904067.357 6     -1134.765          38.000
E25  25285276.281 6 132875018.474 6      1170.078          38.000
> 2020 05 05 01 37 30.0000000  0 19        .000000000000
G02  22410044.203 5 117765573.216 5      -405.059          35.000
G06  22212406.453 8 116726988.708 8     -2603.246          51.000    22212406.891 8  90956099.734 8     -2028.503          51.000
G07  20890376.070 8 109779650.592 8       803.508          51.000    20890374.977 8  85542575.725 8       626.110          51.000
G09  21108913.883 7 110928179.759 7     -1724.488          43.000    21108913.891 7  86437518.756 7     -1343.757          43.000
G30  21934824.078 8 115268333.182 8      2808.266          49.000    21934825.477 8  89819470.394 8      2188.259          49.000
R05  19612637.273 5 104840753.337 5       635.500          35.000    19612640.867 5  81542829.883 5       494.278          32.000
R14  20769825.898 7 110714849.835 7     -1640.715          42.000    20769827.141 5  86111541.213 5     -1276.118          34.000
R15  20256881.086 8 108246611.789 8      2519.078          51.000    20256883.102 8  84191842.054 8      1959.280          48.000
R20  22895382.883 5 122431938.009 5     -3711.578          34.000    22895390.492 7  95224838.397 7     -2886.783          45.000
C05  39776598.406 5 207127185.545 5       -10.805          35.000    39776596.898 6 160163863.702 6        -8.412          40.000
C19  21872275.398 8 113894662.017 8      -985.145          51.000
C20  25786248.148 5 134275762.585 5     -2697.137          32.000
E02  26515149.609 7 139338045.681 7      3049.727          44.000    26515152.789 7 106765543.578 7      2336.660          47.000
E03  23820551.836 8 125177830.818 8      -855.512          51.000    23820554.570 8  95915528.769 8      -655.537          51.000
E08                                                                  22419558.898 6  90274251.685 6      1031.898          36.000
E13  25524213.352 5 134130647.491 5     -1045.691          34.000    25524211.891 5 102775422.325 5      -800.810          31.000
E15  26400561.273 6 138735934.412 6     -2946.559          39.000    26400564.258 5 106304136.316 5     -2257.899          32.000
E24  25316280.312 6 133037958.159 6     -1487.141          36.000    25316292.750 6 101938216.812 6     -1139.443          38.000
E25  25278626.742 5 132840080.042 5      1163.289          33.000    25278629.648 5 101786553.064 5       891.205          33.000
> 2020 05 05 01 38  0.0000000  0 19        .000000000000
G02  22412428.773 5 117778095.784 5      -427.602          35.000
G06  22227326.133 8 116805390.412 8     -2621.598          51.000    22227327.023 8  91017191.985 8     -2042.803          51.000
G07  20885855.539 8 109755895.035 8       782.176          51.000    20885854.539 8  85524064.906 8       609.488          51.000
G09  21118801.625 7 110980138.932 7     -1737.582          43.000    21118801.070 7  86478006.384 7     -1353.960          43.000
G30  21918844.000 7 115184361.664 7      2791.832          47.000    21918846.234 7  89754038.015 7      2175.450          47.000
R05  19609124.406 5 104821972.932 5       618.777          35.000    19609129.781 5  81528222.877 5       481.268          32.000
R14  20779150.211 6 110764554.911 6     -1670.750          38.000    20779153.391 6  86150200.737 6     -1299.466          36.000
R15  20242822.859 8 108171487.511 8      2491.238          51.000    20242824.828 8  84133412.055 8      1937.630          49.000
R20  22916255.297 5 122543550.067 5     -3727.023          34.000    22916263.391 7  95311647.743 7     -2898.799          45.000
C05  39776680.656 5 207127613.588 5       -15.484          35.000    39776679.070 6 160164194.696 6       -12.369          40.000
C19  21877998.406 8 113924463.103 8      -999.633          51.000
C22  22743676.391 5 118432253.405 5      1714.711          31.000
E02  26497769.500 7 139246713.934 7      3041.191          42.000    26497772.844 8 106695562.092 8      2330.231          48.000
E03  23825470.797 8 125203679.341 8      -865.762          51.000    23825473.453 8  95935334.765 8      -663.373          51.000
E08                                                                  22411902.617 6  90243421.377 6      1024.901          36.000
E13  25530244.273 4 134162339.427 4     -1065.246          29.000    25530245.156 5 102799714.905 5      -815.401          32.000
E15  26417410.703 6 138824490.214 6     -2955.199          38.000    26417415.836 5 106371986.716 5     -2263.963          30.000
E24  25324825.633 6 133082870.043 6     -1505.129          37.000    25324839.969 6 101972629.745 6     -1153.152          39.000
E25  25272044.195 5 132805496.295 5      1144.430          33.000    25272055.898 5 101760055.512 5       876.556          35.000
> 2020 05 05 01 38 30.0000000  0 19        .000000000000
G02  22414916.375 6 117791164.300 6      -443.281          37.000
G06  22242325.383 8 116884211.613 8     -2632.438          51.000    22242326.977 8  91078611.116 8     -2051.247          51.000
G07  20881432.430 8 109732650.691 8       768.137          51.000    20881431.406 8  85505952.430 8       598.548          51.000
G09  21128740.617 7 111032367.955 7     -1743.684          43.000    21128740.203 7  86518704.305 7     -1358.714          43.000
G30  21902934.031 8 115100756.341 8      2782.547          48.000    21902936.688 8  89688890.978 8      2168.218          48.000
R05  19605679.586 6 104803559.440 6       609.336          38.000    19605682.594 4  81513901.240 4       473.928          29.000
R14  20788619.602 6 110815030.353 6     -1693.438          41.000    20788623.516 5  86189459.505 5     -1317.118          33.000
R15  20228895.812 8 108097064.564 8      2470.891          51.000    20228897.914 8  84075527.574 8      1921.807          48.000
R20  22937188.211 5 122655483.001 5     -3734.758          33.000    22937196.141 7  95398706.679 7     -2904.812          44.000
C05  39776766.406 5 207128060.172 5       -13.410          35.000    39776764.805 6 160164540.009 6       -10.472          40.000
C19  21883780.578 8 113954570.699 8     -1006.957          51.000
E02  26480413.125 7 139155506.912 7      3040.059          42.000    26480416.625 8 106625676.216 8      2329.267          48.000
E03  23830423.117 8 125229703.198 8      -868.664          51.000    23830425.523 8  95955275.111 8      -665.603          51.000
E05  27463468.703 5 144321501.571 5     -2239.688          33.000
E08                                                                  22404272.578 5  90212702.420 5      1023.563          34.000
E13                                                                  25536360.219 5 102824327.711 5      -824.764          34.000
E15  26434285.562 6 138913176.741 6     -2956.641          38.000
E24  25333449.188 6 133128185.638 6     -1515.113          38.000    25333463.820 6 102007352.102 6     -1161.126          39.000
E25                                                                  25265552.688 4 101733910.494 4       867.802          28.000
> 2020 05 05 01 39  0.0000000  0 18        .000000000000
G02  22417500.727 6 117804739.260 6      -461.438          37.000    22417495.742 5  91795892.228 5      -359.543          30.000
G06  22257396.438 8 116963410.830 8     -2646.609          51.000    22257398.570 8  91140324.802 8     -2062.293          51.000
G07  20877099.039 8 109709878.804 8       750.848          51.000    20877098.094 8  85488208.118 8       585.076          51.000
G09  21138723.148 6 111084827.250 6     -1752.770          41.000    21138723.609 6  86559581.678 6     -1365.794          40.000
G30  21887087.461 8 115017480.333 8      2770.078          50.000    21887089.664 8  89624000.584 8      2158.502          50.000
R05  19602296.164 5 104785474.400 5       596.801          34.000    19602295.875 4  81499847.118 4       464.175          26.000
R14  20798226.016 7 110866234.903 7     -1719.180          42.000    20798227.195 5  86229285.169 5     -1337.140          33.000
R15  20215093.453 8 108023306.999 8      2447.117          51.000    20215094.789 7  84018160.589 7      1903.313          46.000
R20  22958172.453 5 122767692.229 5     -3744.965          33.000    22958179.688 7  95485980.586 7     -2912.750          42.000
C05  39776848.477 5 207128487.892 5       -14.180          35.000    39776846.766 6 160164869.943 6       -10.786          40.000
C19  21889613.828 8 113984946.715 8     -1017.359          51.000
E02  26463073.391 6 139064387.982 6      3035.500          41.000    26463076.883 8 106555857.797 8      2326.013          48.000
E03  23835401.328 8 125255863.678 8      -874.547          51.000    23835403.430 8  95975320.144 8      -670.071          51.000
E05  27476261.062 5 144388725.606 5     -2241.762          32.000
E08                                                                  22396661.445 5  90182065.392 5      1019.366          32.000
E13                                                                  25542550.062 5 102849246.312 5      -835.781          35.000
E15  26451178.445 6 139001953.167 6     -2960.914          37.000
E24  25342142.367 6 133173865.182 6     -1529.082          39.000    25342156.523 6 102042353.274 6     -1171.524          39.000
> 2020 05 05 01 39 30.0000000  0 18        .000000000000
G02  22420187.945 5 117818860.916 5      -487.613          32.000
G06  22272546.719 8 117043026.097 8     -2668.836          50.000    22272548.734 8  91202362.683 8     -2079.612          50.000
G07  20872863.562 8 109687620.482 8       725.273          51.000    20872862.539 8  85470863.966 8       565.148          51.000
G09  21148756.859 6 111137556.781 6     -1770.125          41.000    21148758.336 6  86600669.585 6     -1379.318          41.000
G30  21871311.953 8 114934576.288 8      2749.285          51.000    21871312.992 8  89559400.049 8      2142.300          51.000
R05  19598981.547 5 104767760.687 5       576.547          33.000    19598981.578 4  81486058.742 4       448.422          27.000
R14  20807975.188 6 110918206.934 6     -1753.543          36.000    20807978.469 5  86269707.913 5     -1363.864          34.000
R15  20201423.695 8 107950259.194 8      2414.770          51.000    20201424.211 7  83961345.662 7      1878.154          46.000
R20  22979214.773 5 122880215.191 5     -3764.438          34.000    22979221.164 7  95573498.470 7     -2927.896          42.000
C05  39776934.328 5 207128935.162 5       -23.398          35.000    39776932.648 6 160165215.836 6       -18.018          40.000
C19  21895506.375 8 114015631.755 8     -1036.055          51.000
E02  26445758.078 6 138973399.986 6      3022.738          40.000    26445761.914 7 106486139.698 7      2316.025          47.000
E03  23840413.312 8 125282201.598 8      -889.008          51.000    23840415.227 8  95995501.145 8      -681.164          51.000
E08                                                                  22389075.656 5  90151533.635 5      1009.241          31.000
E13                                                                  25548823.820 5 102874501.222 5      -853.734          35.000
E15  26468096.664 6 139090858.291 6     -2974.070          37.000
E24  25350912.664 6 133219948.161 6     -1550.965          39.000    25350925.312 6 102077663.579 6     -1188.303          39.000
E25  25252784.797 5 132704278.512 5      1094.641          32.000
> 2020 05 05 01 40  0.0000000  0 18        .000000000000
G02  22422987.039 5 117833571.541 5      -495.828          32.000
G06  22287783.773 8 117123097.376 8     -2672.176          49.000    22287785.453 8  91264755.904 8     -2082.215          49.000
G07  20868733.859 8 109665918.284 8       718.527          51.000    20868732.836 8  85453953.168 8       559.891          51.000
G09  21158850.094 7 111190598.379 7     -1768.844          42.000    21158851.703 7  86642000.692 7     -1378.320          42.000
G30  21855615.750 8 114852088.799 8      2747.082          51.000    21855615.125 8  89495124.122 8      2140.583          51.000
R05  19595744.680 5 104750463.110 5       574.109          35.000    19595745.789 4  81472603.116 4       446.530          25.000
R14  20817876.930 6 110970987.548 6     -1768.387          40.000    20817878.445 5  86310759.495 5     -1375.415          32.000
R15  20187895.414 8 107877968.126 8      2401.594          51.000    20187895.570 7  83905119.304 7      1867.906          47.000
R20  23000323.773 5 122993089.824 5     -3763.727          35.000    23000328.211 7  95661289.854 7     -2927.346          43.000
C05  39777032.172 6 207129445.375 6       -13.484          36.000    39777030.617 6 160165610.363 6       -10.563          40.000
C19  21901466.477 8 114046668.356 8     -1036.008          50.000
E02  26428476.000 6 138882587.613 6      3028.672          40.000    26428480.312 7 106416556.160 7      2320.626          47.000
E03  23845467.227 8 125308759.644 8      -884.527          51.000    23845469.016 8  96015850.803 8      -677.731          51.000
E08                                                                  22381528.172 5  90121146.162 5      1014.012          31.000
E13                                                                  25555188.102 5 102900124.245 5      -856.748          34.000
E15  26485047.484 6 139179932.674 6     -2967.715          38.000    26485059.805 5 106644360.837 5     -2274.059          33.000
E24  25359767.297 6 133266476.022 6     -1553.855          39.000    25359778.438 6 102113314.799 6     -1190.566          38.000
E25  25246537.562 5 132671452.728 5      1090.516          33.000
> 2020 05 05 01 40 30.0000000  0 19        .000000000000
G02  22425860.969 5 117848670.807 5      -509.734          33.000
G04  23763227.477 5 124876582.941 5     -2916.277          31.000
G06  22303068.734 7 117203422.435 7     -2681.562          47.000    22303070.648 7  91327346.864 7     -2089.529          47.000
G07  20864672.000 8 109644573.441 8       705.707          51.000    20864670.930 8  85437320.837 8       549.902          51.000
G09  21168964.797 7 111243751.739 7     -1773.383          42.000    21168966.305 7  86683418.894 7     -1381.857          42.000
G30  21839961.039 8 114769820.244 8      2738.922          51.000    21839959.695 8  89431018.792 8      2134.228          51.000
R05  19592548.828 6 104733379.861 6       566.047          36.000    19592551.156 4  81459316.159 4       440.262          26.000
R14  20827891.461 6 111024371.819 6     -1789.281          38.000    20827894.094 5  86352280.532 5     -1391.663          34.000
R15  20174470.836 8 107806233.892 8      2382.008          51.000    20174471.578 8  83849326.019 8      1852.673          48.000
R20  23021459.758 5 123106108.888 5     -3769.461          34.000    23021463.383 7  95749193.550 7     -2931.803          44.000
C05  39777104.195 5 207129819.901 5       -10.000          35.000    39777102.758 6 160165900.734 6        -7.678          40.000
C19  21907456.266 8 114077859.138 8     -1042.062          50.000
E02  26411190.008 7 138791753.386 7      3028.387          43.000    26411194.336 7 106346955.938 7      2320.458          47.000
E03  23850524.977 8 125335338.402 8      -885.996          51.000    23850526.703 8  96036216.341 8      -678.883          51.000
E08                                                                  22373982.211 5  90090754.331 5      1013.290          32.000
E13                                                                  25561603.852 5 102925961.925 5      -864.500          35.000
E15  26501992.523 6 139268974.816 6     -2967.262          39.000    26502004.789 5 106712587.925 5     -2273.383          34.000
E24  25368666.828 6 133313247.097 6     -1562.656          38.000    25368676.641 6 102149146.167 6     -1197.297          38.000
E25  25240343.992 5 132638905.856 5      1079.680          35.000
> 2020 05 05 01 41  0.0000000  0 21        .000000000000
G02  22428839.430 6 117864317.806 6      -532.590          36.000
G04  23779903.234 4 124964234.094 4     -2923.523          29.000
G06  22318431.383 7 117284158.298 7     -2699.918          45.000    22318433.766 7  91390257.962 7     -2103.829          44.000
G07  20860708.656 8 109623745.719 8       683.809          51.000    20860707.477 8  85421091.433 8       532.838          51.000
G09  21179130.891 6 111297175.897 6     -1786.996          39.000    21179132.352 6  86725048.108 6     -1392.464          40.000
G30  21824378.383 8 114687932.309 8      2721.508          51.000    21824377.492 8  89367210.026 8      2120.655          51.000
R04  21316081.633 5 114146575.902 5     -2361.172          32.000    21316084.945 4  88780695.557 4     -1836.470          26.000
R05  19589423.562 5 104716674.473 5       548.453          35.000    19589427.273 4  81446323.077 4       426.575          29.000
R14  20838049.289 6 111078519.176 6     -1819.340          40.000    20838052.289 5  86394395.214 5     -1415.045          33.000
R15  20161181.023 8 107735222.264 8      2353.125          50.000    20161183.016 8  83794094.729 8      1830.208          49.000
R20  23042651.008 5 123219430.396 5     -3783.930          32.000    23042655.914 7  95837332.531 7     -2943.053          45.000
C05  39777180.789 5 207130218.170 5       -15.660          35.000    39777179.484 6 160166209.481 6       -11.983          40.000
C19  21913505.984 8 114109362.689 8     -1057.117          49.000
C20  25895751.711 5 134845957.657 5     -2730.121          32.000
E02  26393931.656 7 138701059.212 7      3019.027          45.000    26393935.109 8 106277463.006 8      2313.248          48.000
E03  23855617.070 8 125362097.730 8      -896.789          51.000    23855618.758 8  96056720.238 8      -687.147          51.000
E08                                                                  22366467.750 5  90060486.674 5      1005.391          35.000
E13                                                                  25568104.359 6 102952135.692 6      -879.298          37.000
E15  26518961.539 6 139358142.476 6     -2976.145          39.000    26518973.766 5 106780911.225 5     -2280.195          35.000
E24  25377643.352 6 133360422.013 6     -1580.883          37.000    25377654.336 6 102185293.178 6     -1211.137          38.000
E25  25234239.039 4 132606819.692 4      1060.426          28.000
> 2020 05 05 01 41 30.0000000  0 17        .000000000000
G02  22431943.023 5 117880620.925 5      -550.055          34.000
G06  22333892.977 7 117365411.462 7     -2712.773          44.000    22333894.922 7  91453572.155 7     -2113.849          45.000
G07  20856864.477 8 109603544.328 8       667.406          51.000    20856863.523 8  85405350.099 8       520.057          51.000
G09  21189369.445 6 111350979.244 6     -1795.191          38.000    21189370.695 6  86766972.790 6     -1398.850          38.000
G30  21808888.695 8 114606536.072 8      2709.438          50.000    21808888.938 8  89303784.364 8      2111.247          50.000
R05  19586390.539 5 104700459.473 5       536.504          31.000    19586394.016 4  81433711.449 4       417.281          28.000
R14  20848371.117 6 111133538.037 6     -1843.883          39.000    20848374.805 5  86437187.637 5     -1434.128          32.000
R15  20148047.523 8 107665047.215 8      2329.707          49.000    20148051.305 8  83739514.135 8      1811.994          49.000
R20  23063918.320 5 123333160.736 5     -3793.480          33.000    23063924.734 7  95925789.512 7     -2950.485          45.000
C05  39777282.836 5 207130749.446 5       -15.250          35.000    39777281.492 6 160166620.293 6       -11.886          40.000
C19  21919636.586 8 114141287.546 8     -1066.832          51.000
E02  26376721.539 7 138610616.388 7      3014.902          47.000    26376724.391 8 106208162.675 8      2310.183          49.000
E03  23860764.344 8 125389146.897 8      -902.109          51.000    23860765.992 8  96077446.215 8      -691.215          51.000
E08                                                                  22359004.062 6  90030419.164 6      1002.446          36.000
E13                                                                  25574710.406 5 102978728.518 5      -890.127          35.000
E15  26535975.172 6 139447542.853 6     -2979.539          38.000    26535986.938 5 106849412.864 5     -2283.305          34.000
E24  25386717.000 6 133408107.788 6     -1593.582          36.000    25386730.172 6 102221831.661 6     -1221.212          38.000
> 2020 05 05 01 42  0.0000000  0 20        .000000000000
G02  22435113.422 5 117897274.166 5      -561.531          34.000
G06  22349395.016 7 117446873.549 7     -2719.266          47.000    22349396.070 7  91517049.068 7     -2118.908          47.000
G07  20853081.281 8 109583663.916 8       656.781          51.000    20853080.406 8  85389858.875 8       511.778          51.000
G09  21199621.938 6 111404855.320 6     -1797.305          39.000    21199622.422 6  86808954.142 6     -1400.500          39.000
G30  21793434.711 8 114525327.671 8      2703.348          50.000    21793435.562 8  89240505.073 8      2106.505          50.000
R05  19583391.938 5 104684424.894 5       530.641          33.000    19583394.766 4  81421249.209 4       412.724          29.000
R14  20858797.102 6 111189115.255 6     -1862.242          41.000    20858798.836 4  86480414.346 4     -1448.414          29.000
R15  20135013.594 8 107595401.152 8      2312.188          49.000    20135018.180 8  83685344.975 8      1798.368          49.000
R20  23085203.578 5 123446984.353 5     -3796.262          34.000    23085210.594 7  96014318.992 7     -2952.648          44.000
C05  39777352.031 5 207131109.876 5        -9.547          35.000    39777350.688 6 160166899.002 6        -7.470          40.000
C19  21925790.508 8 114173331.004 8     -1070.570          51.000
C20  25927242.312 5 135009945.177 5     -2731.797          30.000
C22  22665852.305 4 118027062.327 4      1665.363          28.000
E02  26359501.734 8 138520121.305 8      3016.836          48.000    26359504.312 8 106138822.287 8      2311.691          51.000
E03  23865908.602 8 125416180.233 8      -901.234          51.000    23865910.242 8  96098160.068 8      -690.544          51.000
E08                                                                  22351531.000 5  90000317.808 5      1003.545          35.000
E13  25581351.719 5 134430910.721 5     -1169.434          33.000    25581364.281 5 103005505.275 5      -895.910          33.000
E15  26552974.664 6 139536868.236 6     -2976.434          37.000    26552987.523 4 106917877.001 4     -2281.126          28.000
E24  25395830.359 6 133455997.411 6     -1599.867          37.000    25395844.508 6 102258526.333 6     -1226.393          37.000
E25  25222286.328 5 132544001.760 5      1038.344          33.000
> 2020 05 05 01 42 30.0000000  0 18        .000000000000
G04  23830017.391 5 125227600.032 5     -2929.395          32.000
G06  22364973.391 8 117528735.678 8     -2737.051          49.000    22364974.266 8  91580837.712 8     -2132.767          49.000
G07  20849396.258 8 109564298.674 8       635.277          51.000    20849395.094 8  85374769.064 8       495.021          51.000
G09  21209925.008 6 111458997.222 6     -1810.664          38.000    21209924.977 6  86851142.661 6     -1410.904          37.000
G30  21778054.133 8 114444502.878 8      2686.137          51.000    21778053.664 8  89177524.739 8      2093.094          51.000
R05  19580464.469 6 104668769.488 6       513.887          38.000    19580468.586 5  81409072.729 5       399.690          30.000
R14  20869364.570 6 111245445.333 6     -1891.613          38.000    20869365.375 5  86524226.550 5     -1471.258          30.000
R15  20122116.648 8 107526484.390 8      2283.395          49.000    20122121.375 8  83631743.050 8      1775.974          48.000
R20  23106542.688 5 123561093.769 5     -3810.258          34.000    23106549.531 7  96103070.762 7     -2963.534          44.000
C05  39777425.359 6 207131491.758 6       -14.613          36.000    39777424.016 6 160167194.308 6       -11.502          41.000
C19  21932004.227 8 114205685.490 8     -1085.277          51.000
E02  26342309.211 8 138429769.977 8      3007.605          49.000    26342311.477 8 106069592.055 8      2304.547          51.000
E03  23871086.758 8 125443391.782 8      -911.668          51.000    23871088.414 8  96119010.466 8      -698.533          51.000
E08                                                                  22344083.531 5  89970366.452 5       996.146          32.000
E13  25588086.078 5 134466272.879 5     -1188.043          34.000    25588102.172 5 103032682.935 5      -910.615          32.000
E15  26569996.695 6 139626310.500 6     -2984.750          37.000
E24  25405019.344 5 133504283.610 5     -1617.852          35.000    25405033.742 5 102295524.827 5     -1239.491          35.000
E25  25216422.508 5 132513159.539 5      1019.188          35.000
> 2020 05 05 01 43  0.0000000  0 19        .000000000000
G06  22380646.031 8 117611094.102 8     -2748.883          50.000    22380647.555 8  91645013.094 8     -2141.990          50.000
G07  20845828.234 8 109545547.684 8       619.430          51.000    20845826.898 8  85360157.901 8       482.672          51.000
G09  21220297.398 6 111513503.325 6     -1818.191          38.000    21220296.977 6  86893614.879 6     -1416.773          39.000
G30  21762766.102 8 114364162.559 8      2674.559          51.000    21762763.352 8  89114921.957 8      2084.072          51.000
R04  21369371.680 5 114432022.544 5     -2395.844          31.000    21369369.453 4  89002663.998 4     -1863.422          27.000
R05  19577626.883 6 104653594.951 6       502.637          37.000    19577630.422 4  81397270.358 4       390.940          29.000
R14  20880096.617 5 111302635.525 5     -1916.410          32.000    20880094.633 5  86568726.241 5     -1490.547          30.000
R15  20109375.953 8 107458400.615 8      2260.195          50.000    20109380.266 8  83578788.991 8      1757.930          48.000
R20  23127952.953 5 123675585.413 5     -3818.176          34.000    23127959.812 7  96192119.821 7     -2969.692          44.000
C05  39777521.719 5 207131993.226 5       -13.723          35.000    39777520.328 6 160167582.085 6       -11.028          40.000
C19  21938296.648 8 114238449.377 8     -1094.359          51.000
C20  25958824.672 5 135174431.376 5     -2744.141          31.000
E02  26325163.133 8 138339663.480 8      3004.070          49.000    26325164.703 8 106000549.414 8      2301.808          51.000
E03  23876317.695 8 125470880.613 8      -916.344          51.000    23876319.406 8  96140073.327 8      -702.143          51.000
E08                                                                  22336680.070 5  89940561.097 5       993.204          31.000
E13  25594918.758 5 134502203.101 5     -1201.145          33.000    25594937.500 5 103060207.491 5      -920.690          31.000
E15  26587059.773 6 139715966.747 6     -2987.590          37.000
E24  25414301.992 6 133553058.206 6     -1629.848          36.000    25414316.562 5 102332902.139 5     -1248.994          35.000
E25  25210654.953 6 132482863.364 6      1005.223          38.000
> 2020 05 05 01 43 30.0000000  0 20        .000000000000
G02  22445256.234 5 117950618.742 5      -618.340          32.000
G06  22396371.953 8 117693733.294 8     -2760.785          50.000    22396374.180 8  91709407.268 8     -2151.261          50.000
G07  20842336.414 8 109527197.887 8       603.438          51.000    20842335.211 8  85345859.378 8       470.211          51.000
G09  21230698.359 6 111568159.930 6     -1826.227          41.000    21230697.945 7  86936204.446 7     -1423.034          42.000
G30  21747530.125 8 114284095.837 8      2662.719          51.000    21747526.758 8  89052532.326 8      2074.846          51.000
R04  21382816.484 5 114503955.448 5     -2404.305          32.000    21382816.938 4  89058660.462 4     -1870.009          28.000
R05  19574838.883 6 104638686.372 6       490.926          39.000    19574842.906 5  81385674.780 5       381.831          30.000
R14  20890934.633 5 111360448.260 5     -1939.387          34.000    20890936.469 4  86613691.505 4     -1508.418          27.000
R15  20096751.133 8 107390936.487 8      2236.871          50.000    20096755.148 8  83526316.898 8      1739.789          49.000
R20  23149393.609 5 123790238.221 5     -3826.156          35.000    23149400.133 7  96281294.199 7     -2975.902          44.000
C05  39777600.508 5 207132403.568 5       -13.867          35.000    39777599.094 6 160167899.343 6       -10.575          40.000
C19  21944626.789 8 114271412.096 8     -1103.652          51.000
C20  25974644.781 5 135256798.582 5     -2747.398          30.000
E02  26308023.266 8 138249591.184 8      3000.281          49.000    26308024.086 8 105931532.980 8      2298.962          50.000
E03  23881560.859 8 125498434.083 8      -921.004          51.000    23881562.680 8  96161185.714 8      -705.698          51.000
E08                                                                  22329285.672 5  89910793.961 5       990.522          35.000
E13  25601814.984 5 134538424.382 5     -1214.059          35.000    25601827.828 5 103087960.077 5      -930.642          31.000
E15  26604122.922 6 139805622.110 6     -2990.164          37.000    26604116.344 5 107123740.827 5     -2291.006          35.000
E24  25423637.906 6 133602119.148 6     -1641.504          36.000    25423652.492 6 102370494.250 6     -1257.886          37.000
E25  25204952.977 6 132452901.492 6       991.688          39.000
> 2020 05 05 01 44  0.0000000  0 18        .000000000000
G02  22448822.039 5 117969358.773 5      -633.301          32.000
G06  22412160.859 8 117776703.689 8     -2771.375          51.000    22412163.273 8  91774059.520 8     -2159.513          51.000
G07  20838931.211 8 109509302.585 8       588.898          51.000    20838929.711 8  85331914.989 8       458.882          51.000
G09  21241137.930 7 111623019.460 7     -1831.984          42.000    21241137.711 7  86978952.161 7     -1427.520          42.000
G30  21732356.508 8 114204357.736 8      2652.316          51.000    21732354.078 8  88990398.744 8      2066.740          51.000
R04  21396305.953 5 114576188.075 5     -2411.566          34.000    21396310.562 4  89114841.313 4     -1875.666          27.000
R05  19572110.789 6 104624098.843 6       480.590          36.000    19572113.922 5  81374349.001 5       373.792          30.000
R15  20084253.484 8 107324149.013 8      2214.863          51.000    20084256.945 8  83474371.111 8      1722.671          49.000
R20  23170874.125 5 123905101.330 5     -3831.996          35.000    23170878.828 7  96370632.118 7     -2980.441          43.000
C05  39777671.953 5 207132775.559 5       -11.902          35.000    39777670.555 6 160168187.001 6        -9.083          40.000
C19  21951005.227 8 114304626.591 8     -1111.465          51.000
E02  26290900.156 8 138159608.385 8      2997.824          49.000    26290900.383 8 105862585.127 8      2297.070          50.000
E03  23886826.492 8 125526105.432 8      -924.512          51.000    23886828.344 8  96182388.424 8      -708.329          51.000
E08                                                                  22321912.031 6  89881096.142 6       988.891          38.000
E13  25608783.930 5 134575060.837 5     -1225.984          33.000    25608785.117 5 103115977.668 5      -939.403          33.000
E15  26621195.031 6 139895327.828 6     -2991.047          38.000    26621189.102 6 107192476.356 6     -2291.913          37.000
E24  25433037.078 6 133651512.389 6     -1651.867          37.000    25433051.656 6 102408341.015 6     -1265.959          37.000
E25  25199325.398 5 132423348.091 5       978.762          34.000
> 2020 05 05 01 44 30.0000000  0 18        .000000000000
G02  22452510.453 5 117988720.297 5      -651.938          33.000
G06  22428042.109 8 117860160.370 8     -2785.008          50.000    22428044.414 8  91839090.679 8     -2170.136          50.000
G07  20835642.562 8 109492020.372 8       570.738          51.000    20835640.633 8  85318448.321 8       444.731          51.000
G09  21251645.867 6 111678239.187 6     -1841.723          40.000    21251645.844 6  87021980.509 6     -1435.112          40.000
G30  21717275.641 8 114125107.934 8      2638.223          50.000    21717274.344 8  88928645.632 8      2055.758          50.000
R04  21409867.281 6 114648812.016 6     -2422.285          36.000    21409868.414 4  89171326.702 4     -1884.003          27.000
R05  19569471.930 5 104609994.363 5       467.004          35.000    19569476.938 5  81363378.866 5       363.225          31.000
R15  20071913.375 8 107258201.790 8      2189.074          51.000    20071915.891 8  83423078.831 8      1702.613          49.000
R20  23192423.406 5 124020330.786 5     -3841.727          34.000    23192425.602 7  96460254.965 7     -2988.013          43.000
C05  39777766.070 5 207133265.749 5       -13.379          35.000    39777764.680 6 160168566.036 6       -10.481          40.000
C19  21957462.219 8 114338249.584 8     -1122.801          51.000
E02  26273824.352 8 138069875.037 8      2991.766          49.000    26273824.000 8 105793828.423 8      2292.395          49.000
E03  23892144.719 8 125554052.650 8      -931.406          51.000    23892146.555 8  96203802.512 8      -713.636          51.000
E08  22314590.891 5 117263966.268 5      1284.250          32.000    22314586.344 6  89851588.843 6       983.868          39.000
E13                                                                  25615842.305 5 103144422.304 5      -951.222          35.000
E15  26638305.695 6 139985239.786 6     -2995.852          37.000    26638300.562 6 107261369.915 6     -2295.259          38.000
E24  25442529.367 6 133701394.599 6     -1666.027          36.000    25442543.953 5 102446562.437 5     -1276.659          35.000
E25  25193800.188 5 132394313.750 5       963.223          32.000    25193806.195 6 101444995.232 6       737.976          37.000
> 2020 05 05 01 45  0.0000000  0 18        .000000000000
G02  22456282.305 5 118008533.238 5      -669.629          33.000
G06  22443975.688 8 117943893.543 8     -2797.668          49.000    22443977.953 8  91904337.292 8     -2180.001          49.000
G07  20832430.938 8 109475143.928 8       553.672          51.000    20832429.172 8  85305297.844 8       431.433          51.000
G09  21262182.586 6 111733611.358 6     -1850.344          37.000    21262182.766 6  87065127.582 6     -1441.832          37.000
G30  21702248.664 8 114046141.255 8      2625.465          50.000    21702248.523 8  88867113.135 8      2045.817          50.000
R04  21423461.703 6 114721616.569 6     -2431.828          37.000    21423465.984 4  89227952.260 4     -1891.428          25.000
R05  19566882.961 6 104596163.377 6       454.230          36.000    19566889.586 5  81352621.460 5       353.293          31.000
R15  20059691.367 8 107192887.209 8      2164.434          51.000    20059693.328 8  83372278.623 8      1683.448          50.000
R20  23214000.305 5 124135711.616 5     -3850.734          34.000    23214002.125 7  96549995.584 7     -2995.016          43.000
C05  39777843.508 5 207133669.100 5       -14.398          35.000    39777842.141 6 160168877.928 6       -10.880          40.000
C19  21963958.188 8 114372076.180 8     -1133.027          51.000
E02  26256756.898 8 137980186.220 8      2986.777          49.000    26256756.164 8 105725105.847 8      2288.588          49.000
E03  23897476.133 8 125582068.807 8      -937.059          51.000    23897477.945 8  96225269.432 8      -717.973          51.000
E08  22307267.188 5 117225482.576 5      1279.133          31.000    22307267.891 6  89822113.654 6       980.264          39.000
E13                                                                  25622964.000 6 103173110.415 6      -961.830          36.000
E15  26655414.664 5 140075149.027 5     -2999.043          35.000    26655410.906 6 107330261.376 6     -2297.980          38.000
E24  25452074.805 5 133751557.536 5     -1678.883          34.000    25452089.883 5 102484998.935 5     -1286.120          32.000
E25  25188340.875 6 132365625.786 6       948.836          37.000    25188346.414 5 101423015.957 5       726.452          35.000
> 2020 05 05 01 45 30.0000000  0 18        .000000000000
G02  22460158.234 5 118028898.307 5      -688.766          33.000
G06  22459984.477 7 118028023.428 7     -2811.309          47.000    22459987.031 7  91969893.066 7     -2190.630          47.000
G07  20829320.016 8 109458796.329 8       535.676          51.000    20829318.555 8  85292559.473 8       417.410          51.000
G09  21272771.844 6 111789258.088 6     -1859.828          39.000    21272771.898 6  87108488.627 6     -1449.217          40.000
G30  21687299.508 8 113967582.547 8      2611.348          51.000    21687300.133 8  88805898.561 8      2034.816          51.000
R04  21437115.016 5 114794726.572 5     -2442.363          30.000    21437121.688 4  89284842.898 4     -1899.622          28.000
R05  19564369.375 6 104582732.729 6       441.055          37.000    19564376.203 5  81342175.307 5       343.043          30.000
R14  20935707.688 5 111599109.770 5     -2036.648          33.000
R15  20047611.359 8 107128333.452 8      2138.625          51.000    20047612.945 8  83322070.178 8      1663.375          50.000
R20  23235627.570 5 124251364.173 5     -3860.059          34.000    23235630.695 7  96639947.563 7     -3002.268          44.000
C05  39777927.664 5 207134107.611 5       -15.566          35.000    39777926.359 6 160169217.028 6       -12.212          40.000
C19  21970516.438 8 114406228.577 8     -1144.250          51.000
C20  26038147.570 4 135587471.154 4     -2764.105          28.000
E02  26239721.719 8 137890667.083 8      2980.680          49.000    26239721.172 8 105656513.275 8      2283.853          49.000
E03  23902844.117 8 125610277.083 8      -944.023          51.000    23902845.977 8  96246883.552 8      -723.298          51.000
E08  22299977.000 5 117187169.175 5      1274.062          32.000    22299980.125 6  89792765.134 6       975.814          38.000
E13                                                                  25630170.375 5 103202075.506 5      -973.638          30.000
E15  26672546.195 5 140165176.468 5     -3003.168          35.000    26672543.188 6 107399243.435 6     -2301.174          38.000
> 2020 05 05 01 46  0.0000000  0 16        .000000000000
G02  22464132.578 5 118049807.683 5      -700.715          32.000
G06  22476064.062 8 118112523.585 8     -2818.816          48.000    22476066.812 8  92035737.380 8     -2196.480          48.000
G07  20826305.156 8 109442953.629 8       523.758          51.000    20826303.727 8  85280214.505 8       408.123          51.000
G09  21283408.844 6 111845155.000 6     -1863.211          39.000    21283408.242 6  87152044.648 6     -1451.853          40.000
G30  21672423.977 8 113889409.871 8      2603.227          51.000    21672424.734 8  88744984.809 8      2028.488          51.000
R05  19561926.023 5 104569679.166 5       433.465          32.000    19561931.992 4  81332022.469 4       337.133          28.000
R15  20035669.414 8 107064519.103 8      2118.820          51.000    20035670.680 8  83272436.797 8      1647.971          48.000
R20  23257300.273 5 124367260.133 5     -3863.406          34.000    23257304.703 7  96730088.855 7     -3004.875          43.000
C05  39778014.172 5 207134557.867 5       -11.035          35.000    39778012.852 6 160169565.213 6        -8.651          40.000
C19  21977133.062 8 114440683.535 8     -1149.566          51.000
C20  26054087.211 4 135670468.901 4     -2763.230          28.000
C22  22590648.594 5 117635418.559 5      1606.457          33.000
E02  26222714.906 8 137801296.045 8      2980.652          50.000    26222715.109 8 105588034.156 8      2283.859          51.000
E03  23908244.062 8 125638653.866 8      -944.684          51.000    23908246.094 8  96268626.797 8      -723.804          51.000
E08                                                                  22292719.805 5  89763525.418 5       975.643          33.000
E15  26689695.578 5 140255296.554 5     -3001.496          34.000    26689692.266 6 107468296.472 6     -2299.905          37.000
> 2020 05 05 01 46 30.0000000  0 18        .000000000000
G02  22468190.906 5 118071158.686 5      -720.199          35.000
G04  23964161.188 5 125932510.857 5     -2944.383          34.000
G06  22492192.539 8 118197278.126 8     -2832.449          50.000    22492195.195 8  92101779.874 8     -2207.103          50.000
G07  20823364.875 8 109427503.301 8       505.449          51.000    20823363.398 8  85268175.285 8       393.853          51.000
G09  21294071.766 6 111901188.283 6     -1873.086          39.000    21294070.969 6  87195706.947 6     -1459.547          39.000
G30  21657600.641 8 113811511.971 8      2588.961          51.000    21657601.227 8  88684285.169 8      2017.372          51.000
R04  21464567.992 5 114941769.907 5     -2457.633          31.000    21464561.625 5  89399144.539 5     -1911.492          31.000
R05  19559532.773 6 104556888.921 6       419.090          40.000    19559529.617 4  81322033.436 4       325.959          29.000
R15  20023844.250 8 107001332.171 8      2092.672          51.000    20023845.867 8  83223291.388 8      1627.631          49.000
R20  23278995.336 5 124483279.513 5     -3872.695          30.000    23279000.844 6  96820326.140 6     -3012.096          41.000
C05  39778081.469 5 207134907.989 5       -13.449          35.000    39778080.125 6 160169835.919 6       -10.013          40.000
C19  21983786.508 8 114475329.227 8     -1161.012          51.000
C20  26070029.711 5 135753455.705 5     -2769.633          30.000
C22  22581426.383 5 117587365.860 5      1596.266          33.000
E02  26205715.461 8 137711962.081 8      2974.066          51.000    26205716.281 8 105519583.429 8      2278.839          51.000
E03  23913654.531 8 125667086.171 8      -951.645          51.000    23913656.750 8  96290412.592 8      -729.245          51.000
E13  25644803.398 6 134764357.992 6     -1294.742          36.000
E15  26706841.414 5 140345394.104 5     -3006.160          35.000    26706836.648 6 107537332.245 6     -2303.433          36.000
> 2020 05 05 01 47  0.0000000  0 17        .000000000000
G04  23980981.758 6 126020903.832 6     -2954.676          37.000
G06  22508404.445 8 118282470.272 8     -2852.629          51.000    22508406.586 8  92168163.352 8     -2222.828          51.000
G07  20820534.711 8 109412631.368 8       480.363          51.000    20820533.344 8  85256586.768 8       374.309          51.000
G09  21304795.836 6 111957543.330 6     -1889.707          40.000    21304794.883 6  87239619.928 6     -1472.496          40.000
G30  21642865.172 8 113734076.691 8      2567.789          51.000    21642865.508 8  88623946.016 8      2000.875          50.000
R05  19557224.922 6 104544552.581 6       398.082          40.000    19557224.172 5  81312439.542 5       309.619          31.000
R15  20012172.227 8 106938964.717 8      2059.566          49.000    20012174.695 8  83174783.329 8      1601.882          48.000
R20  23300746.719 5 124599563.573 5     -3888.426          31.000    23300754.492 6  96910804.210 6     -3024.331          41.000
C05  39778164.836 5 207135342.378 5       -21.652          35.000    39778163.578 6 160170171.826 6       -16.634          40.000
C19  21990511.758 8 114510350.266 8     -1179.234          51.000
C20  26086006.859 4 135836638.201 4     -2782.461          27.000
C22  22572261.070 4 117539618.801 4      1581.598          29.000
E02  26188758.969 8 137622853.322 8      2960.828          51.000    26188760.258 8 105451305.272 8      2268.654          51.000
E03  23919111.047 8 125695760.154 8      -965.520          51.000    23919113.398 8  96312383.568 8      -739.817          51.000
E13  25652238.930 6 134803439.778 6     -1316.402          37.000
E15  26724018.047 5 140435653.218 5     -3016.609          34.000    26724011.656 5 107606491.801 5     -2311.605          35.000
E25  25167347.172 5 132255303.539 5       883.055          34.000
> 2020 05 05 01 47 30.0000000  0 15        .000000000000
G04  23997811.727 6 126109344.045 6     -2947.605          36.000
G06  22524680.953 8 118368002.710 8     -2855.082          50.000    22524682.234 8  92234811.973 8     -2224.739          50.000
G07  20817796.688 8 109398243.199 8       473.352          51.000    20817795.656 8  85245375.210 8       368.845          51.000
G09  21315563.008 6 112014124.735 6     -1888.043          41.000    21315562.352 6  87283709.327 6     -1471.202          41.000
G30  21628199.836 8 113657011.277 8      2564.414          50.000    21628200.297 8  88563895.052 8      1998.245          50.000
R05  19554984.148 6 104532575.232 6       394.992          40.000    19554984.102 5  81303123.737 5       307.213          31.000
R15  20000636.031 8 106877323.173 8      2044.434          49.000    20000638.953 7  83126839.920 7      1590.118          46.000
R20  23322538.906 5 124716098.154 5     -3886.191          35.000    23322548.070 6  97001442.579 6     -3022.593          41.000
C05  39778246.445 5 207135767.431 5       -12.156          35.000    39778245.211 6 160170500.504 6        -9.482          40.000
C19  21997291.023 8 114545653.222 8     -1179.730          51.000
C20  26102003.844 4 135919977.621 4     -2776.215          29.000
E02  26171827.914 8 137533877.320 8      2965.418          51.000    26171829.250 8 105383128.834 8      2272.185          51.000
E03  23924595.625 8 125724581.404 8      -961.473          51.000    23924598.094 8  96334467.386 8      -736.677          51.000
E13  25659750.398 5 134842911.558 5     -1320.457          35.000
E15  26741207.672 5 140525991.388 5     -3009.816          35.000    26741199.008 5 107675728.248 5     -2306.498          32.000
> 2020 05 05 01 48  0.0000000  0 18        .000000000000
G02  22480982.266 4 118138342.349 4      -769.684          29.000
G04  24014646.555 6 126197810.221 6     -2948.430          37.000
G06  22541017.430 8 118453851.887 8     -2865.797          50.000    22541018.086 8  92301707.404 8     -2233.092          50.000
G07  20815146.789 8 109384317.981 8       457.453          51.000    20815145.914 8  85234524.405 8       356.457          51.000
G09  21326368.852 6 112070911.175 6     -1895.160          40.000    21326368.883 6  87327958.510 6     -1476.751          40.000
G30  21613601.273 8 113580296.838 8      2552.254          51.000    21613602.016 8  88504117.567 8      1988.769          51.000
R05  19552807.375 6 104520936.975 6       383.738          38.000    19552808.398 5  81294071.785 5       298.460          32.000
R14  20994612.547 5 111913098.340 5     -2149.926          34.000
R15  19989233.000 8 106816389.411 8      2020.363          51.000    19989235.469 7  83079447.006 7      1571.394          46.000
R20  23344366.570 5 124832815.331 5     -3892.332          35.000    23344376.594 6  97092222.604 6     -3027.369          41.000
C05  39778322.250 5 207136162.855 5       -11.570          35.000    39778321.125 6 160170806.249 6        -8.983          40.000
C19  22004120.766 8 114581217.807 8     -1188.797          51.000
C20  26118015.867 4 136003361.171 4     -2779.559          29.000
E02  26154918.648 8 137445015.568 8      2961.137          51.000    26154919.484 8 105315039.946 8      2268.980          51.000
E03  23930104.250 8 125753529.380 8      -965.969          51.000    23930106.773 8  96356648.313 8      -740.152          51.000
E08  22263887.594 5 116997522.838 5      1256.070          34.000    22263881.438 5  89647425.733 5       961.833          33.000
E15  26758405.078 5 140616363.940 5     -3011.508          33.000    26758395.711 5 107744969.190 5     -2307.752          30.000
E25  25157334.500 5 132202686.401 5       864.543          34.000
> 2020 05 05 01 48 30.0000000  0 18        .000000000000
G02  22485431.602 5 118161751.274 5      -785.652          33.000
G04  24031489.906 5 126286320.058 5     -2948.723          35.000
G06  22557416.852 8 118540033.122 8     -2876.215          50.000    22557417.688 8  92368861.589 8     -2241.206          50.000
G07  20812588.664 8 109370873.858 8       442.043          51.000    20812587.734 8  85224048.467 8       344.452          51.000
G09  21337216.961 6 112127920.039 6     -1901.988          41.000    21337217.273 6  87372381.002 6     -1482.069          41.000
G30  21599073.289 8 113503953.230 8      2540.586          51.000    21599074.547 8  88444629.029 8      1979.677          51.000
R04  21520050.586 4 115238892.645 4     -2490.797          29.000    21520055.070 4  89630262.342 4     -1937.286          27.000
R05  19550697.594 6 104509657.807 6       371.895          39.000    19550697.234 5  81285299.067 5       289.251          33.000
R15  19977966.688 8 106756184.510 8      1996.641          51.000    19977968.734 7  83032620.980 7      1552.943          47.000
R20  23366231.258 5 124949728.310 5     -3898.695          31.000    23366241.836 6  97183154.969 6     -3032.316          40.000
C05  39778396.055 5 207136546.616 5       -10.988          35.000    39778394.812 6 160171102.986 6        -8.249          40.000
C19  22011004.086 8 114617062.237 8     -1197.617          51.000
C22  22544980.445 5 117397638.138 5      1569.520          32.000
E02  26138034.719 8 137356288.218 8      2957.234          51.000    26138034.703 8 105247054.060 8      2265.960          50.000
E03  23935640.320 8 125782622.337 8      -970.309          51.000    23935642.883 8  96378940.319 8      -743.501          51.000
E08                                                                  22256732.844 5  89618635.822 5       959.516          34.000
E15                                                                  26775607.453 5 107814272.993 5     -2308.438          30.000
E25                                                                  25152442.930 6 101278470.672 6       652.026          36.000
> 2020 05 05 01 49  0.0000000  0 15        .000000000000
G02  22489992.875 6 118185729.773 6      -811.133          37.000
G06  22573896.570 8 118626636.471 8     -2895.680          50.000    22573898.398 8  92436344.698 8     -2256.371          50.000
G07  20810139.648 8 109358003.615 8       417.426          51.000    20810138.898 8  85214019.721 8       325.270          51.000
G09  21348124.914 7 112185243.498 7     -1918.254          42.000    21348125.141 7  87417048.669 7     -1494.740          42.000
G30  21584634.156 8 113428075.087 8      2519.461          51.000    21584635.719 8  88385503.174 8      1963.216          51.000
R05  19548672.547 6 104498833.212 6       351.184          40.000    19548671.625 5  81276879.952 5       273.143          33.000
R15  19966854.516 8 106696805.604 8      1963.562          51.000    19966856.469 8  82986437.389 8      1527.215          48.000
R20  23388148.188 5 125066926.747 5     -3913.082          30.000    23388160.266 6  97274309.368 6     -3043.505          37.000
C05  39778485.227 5 207137010.861 5       -18.414          35.000    39778483.969 6 160171462.011 6       -14.369          40.000
C19  22017959.266 8 114653278.770 8     -1215.398          51.000
E02  26121194.164 8 137267790.293 8      2944.051          51.000    26121193.016 8 105179243.957 8      2255.807          49.000
E03  23941221.633 8 125811953.233 8      -983.691          51.000    23941224.047 8  96401414.641 8      -753.720          51.000
E08                                                                  22249623.805 5  89590009.036 5       950.106          35.000
E15                                                                  26792849.180 5 107883698.332 5     -2316.687          31.000
E25  25147655.133 6 132151818.073 6       828.113          36.000    25147650.922 5 101259189.691 5       634.480          35.000
> 2020 05 05 01 49 30.0000000  0 16        .000000000000
G02  22494636.141 5 118210141.057 5      -823.750          34.000    22494617.242 5  92111697.063 5      -641.883          34.000
G06  22590426.367 8 118713502.050 8     -2902.234          50.000    22590429.383 8  92504032.158 8     -2261.481          50.000
G07  20807769.992 8 109345550.194 8       405.797          51.000    20807769.344 8  85204315.769 8       316.205          51.000
G09  21359062.914 7 112242723.800 7     -1920.816          42.000    21359062.977 6  87461838.528 6     -1496.737          41.000
G30  21570254.273 8 113352507.059 8      2511.406          51.000    21570255.859 8  88326619.010 8      1956.940          51.000
R04  21548102.445 5 115389116.891 5     -2512.672          33.000    21548109.203 5  89747092.892 5     -1954.297          30.000
R05  19546703.133 6 104488304.822 6       343.645          41.000    19546702.328 5  81268691.167 5       267.279          34.000
R15  19955868.023 8 106638095.693 8      1943.422          51.000    19955869.977 8  82940774.111 8      1511.553          49.000
R20  23410087.414 5 125184246.688 5     -3915.094          32.000    23410102.070 5  97365558.276 5     -3045.073          32.000
C05  39778559.961 5 207137400.188 5       -14.332          35.000    39778558.711 6 160171763.049 6       -10.717          40.000
C19  22024955.766 8 114689712.073 8     -1220.352          51.000
E02  26104367.297 8 137179366.877 8      2943.805          50.000    26104365.211 7 105111490.974 7      2255.568          46.000
E03  23946818.461 8 125841365.192 8      -984.113          51.000    23946820.758 8  96423951.083 8      -754.076          51.000
E08  22242527.758 5 116885319.299 5      1239.867          35.000    22242524.875 5  89561425.388 5       950.142          32.000
E15                                                                  26810088.352 5 107953102.251 5     -2314.520          33.000
E25                                                                  25142928.836 6 101240184.706 6       626.881          36.000
> 2020 05 05 01 50  0.0000000  0 17        .000000000000
G06  22607035.711 8 118800784.297 8     -2911.215          49.000    22607039.617 8  92572044.303 8     -2268.479          49.000
G07  20805509.602 8 109333670.719 8       391.578          51.000    20805508.867 8  85195059.030 8       305.129          51.000
G09  21370060.906 6 112300517.533 6     -1926.805          37.000    21370060.883 6  87506872.614 6     -1501.409          39.000
G30  21555963.602 8 113277408.150 8      2500.539          51.000    21555965.109 8  88268100.410 8      1948.472          51.000
R04  21562208.977 5 115464674.304 5     -2519.102          35.000    21562213.844 4  89805859.860 4     -1959.301          26.000
R05  19544819.156 6 104478233.710 6       333.098          40.000    19544819.102 5  81260858.023 5       259.073          35.000
R14  21044115.844 6 112176949.940 6     -2241.730          36.000    21044085.734 4  87248641.330 4     -1743.577          28.000
R15  19945037.023 8 106580217.153 8      1920.637          51.000    19945039.461 8  82895757.489 8      1493.829          50.000
R20  23432079.164 5 125301843.748 5     -3919.375          33.000    23432099.227 4  97457082.733 4     -3048.400          28.000
C05  39778650.281 5 207137870.482 5       -11.555          35.000    39778649.008 6 160172126.704 6        -9.179          40.000
C19  22032023.969 8 114726518.148 8     -1228.008          51.000
E02  26087584.359 8 137091177.326 8      2940.836          48.000    26087581.438 7 105043917.208 7      2253.296          45.000
E03  23952460.711 8 125871015.590 8      -987.309          51.000    23952462.977 8  96446670.224 8      -756.488          51.000
E08  22235470.773 5 116848185.969 5      1237.906          33.000
E13  25698437.812 5 135046204.101 5     -1386.055          31.000
E15  26827331.711 5 140978587.125 5     -3020.598          32.000
E25                                                                  25138310.391 6 101221576.940 6       617.566          38.000
> 2020 05 05 01 50 30.0000000  0 18        .000000000000
G06  22623672.250 8 118888207.957 8     -2915.234          50.000    22623676.406 8  92640166.655 8     -2271.611          50.000
G07  20803306.383 8 109322092.863 8       382.098          51.000    20803305.852 8  85186037.351 8       297.738          51.000
G09  21381066.586 6 112358351.661 6     -1927.258          38.000    21381066.195 6  87551938.110 6     -1501.762          38.000
G30  21541710.672 8 113202507.732 8      2494.578          50.000    21541711.984 8  88209736.481 8      1943.827          50.000
R04  21576330.258 4 115540304.629 4     -2521.738          28.000
R05  19542969.812 7 104468344.097 7       327.723          43.000    19542968.977 5  81253166.110 5       254.895          35.000
R14  21056787.578 5 112244477.089 5     -2258.121          33.000    21056799.320 4  87301329.060 4     -1756.316          27.000
R15  19934310.398 8 106522895.792 8      1902.547          51.000    19934313.094 8  82851174.221 8      1479.759          49.000
R20  23454070.750 5 125419435.878 5     -3918.672          32.000    23454058.523 4  97548414.472 4     -3047.856          27.000
C05  39778704.289 5 207138150.944 5        -5.285          35.000    39778703.086 6 160172344.322 6        -3.749          40.000
C19  22039112.180 8 114763427.321 8     -1230.781          51.000
C22  22509223.734 4 117211434.453 4      1544.305          29.000
E02  26070794.102 7 137002951.354 7      2942.613          46.000    26070791.641 7 104976315.518 7      2254.700          45.000
E03  23958096.594 8 125900632.192 8      -985.496          51.000    23958098.836 8  96469363.460 8      -755.132          51.000
E08  22228403.641 5 116811038.490 5      1240.852          34.000
E15  26844569.594 5 141069162.133 5     -3015.898          34.000
E24  25561640.609 5 134327316.413 5     -1801.605          35.000    25561652.297 6 102926169.795 6     -1380.568          36.000
E25                                                                  25133739.789 6 101203158.309 6       611.841          37.000
> 2020 05 05 01 51  0.0000000  0 19        .000000000000
G02  22509134.711 6 118286300.903 6      -875.484          37.000
G04  24115876.188 5 126729784.444 5     -2963.012          33.000
G06  22640397.750 8 118976098.020 8     -2937.227          50.000    22640401.562 8  92708652.441 8     -2288.745          50.000
G07  20801223.023 8 109311144.222 8       354.586          51.000    20801222.531 8  85177505.945 8       276.301          51.000
G09  21392142.188 6 112416553.214 6     -1945.773          39.000    21392142.133 6  87597289.952 6     -1516.187          39.000
G30  21527558.008 8 113128135.422 8      2470.598          49.000    21527559.172 8  88151784.014 8      1925.141          49.000
R04  21590531.320 6 115616341.786 6     -2540.953          38.000    21590540.617 4  89923828.621 4     -1976.294          26.000
R05  19541216.961 7 104458970.872 7       304.035          45.000    19541215.086 5  81245875.846 5       236.472          35.000
R14  21069608.031 5 112312865.216 5     -2291.031          33.000    21069601.320 4  87354446.679 4     -1781.919          29.000
R15  19923750.727 8 106466467.507 8      1866.242          51.000    19923753.688 8  82807285.577 8      1451.522          49.000
R20  23476123.617 5 125537352.326 5     -3935.508          33.000    23476113.008 4  97640146.196 4     -3060.954          27.000
C05  39778784.508 5 207138569.503 5       -15.719          35.000    39778783.273 6 160172667.259 6       -12.463          40.000
C19  22046282.383 8 114800764.646 8     -1251.500          51.000
E02  26054060.188 7 136915018.848 7      2926.504          46.000    26054059.648 7 104908938.699 7      2242.338          47.000
E03  23963788.477 8 125930542.948 8     -1001.594          51.000    23963790.750 8  96492282.084 8      -767.446          51.000
E13  25714406.047 6 135130115.416 6     -1415.973          36.000
E15  26861843.359 6 141159943.371 6     -3029.152          36.000
E24  25572008.711 6 134381805.389 6     -1824.039          36.000    25572020.695 6 102967921.046 6     -1397.398          36.000
E25  25129267.930 5 132055192.001 5       772.664          32.000
> 2020 05 05 01 51 30.0000000  0 17        .000000000000
G02  22514186.086 6 118312843.951 6      -885.223          40.000    22514177.281 4  92191792.247 4      -689.784          27.000
G06  22657200.594 8 119064395.225 8     -2940.805          49.000    22657203.898 8  92777455.467 8     -2291.536          49.000
G07  20799248.516 8 109300768.275 8       345.512          51.000    20799247.969 8  85169420.795 8       269.230          51.000
G09  21403276.703 6 112475065.047 6     -1946.027          37.000    21403276.688 6  87642883.574 6     -1516.385          37.000
G30  21513494.688 8 113054236.414 8      2464.613          49.000    21513496.109 8  88094200.337 8      1920.478          49.000
R04  21604796.031 5 115692727.996 5     -2542.570          33.000
R05  19539549.445 7 104450057.833 7       298.680          42.000    19539546.586 5  81238943.495 5       232.306          34.000
R15  19913347.750 8 106410877.371 8      1848.422          51.000    19913350.594 8  82764048.816 8      1437.661          48.000
R20  23498229.547 5 125655610.242 5     -3933.859          32.000    23498221.328 5  97732089.530 5     -3059.671          32.000
C05  39778880.102 5 207139067.328 5        -8.965          35.000    39778878.891 6 160173052.174 6        -6.757          41.000
C19  22053524.180 8 114838474.415 8     -1254.078          51.000
E02  26037372.336 7 136827325.485 7      2928.328          46.000    26037374.047 8 104841745.088 8      2243.742          48.000
E03  23969525.641 8 125960691.590 8      -999.746          51.000    23969528.109 8  96515382.983 8      -766.015          51.000
E13  25722528.898 5 135172808.572 5     -1421.566          35.000
E15  26879143.594 6 141250861.389 6     -3023.816          36.000
E24  25582458.992 6 134436725.482 6     -1828.754          36.000    25582471.477 5 103010002.673 5     -1401.097          35.000
E25  25124904.555 5 132032255.978 5       765.301          35.000    25124904.688 5 101167561.707 5       586.312          34.000
> 2020 05 05 01 52  0.0000000  0 18        .000000000000
G02  22519305.383 6 118339746.877 6      -902.113          37.000
G06  22674037.477 8 119152872.430 8     -2951.250          48.000    22674040.203 8  92846398.750 8     -2299.675          48.000
G07  20797340.133 8 109290740.749 8       329.328          51.000    20797339.836 8  85161607.147 8       256.619          51.000
G09  21414428.008 6 112533662.352 6     -1953.625          38.000    21414426.516 6  87688543.711 6     -1522.308          37.000
G30  21499479.492 8 112980588.149 8      2451.711          50.000    21499480.883 8  88036812.057 8      1910.424          50.000
R04  21619084.312 5 115769234.560 5     -2552.129          30.000    21619099.406 4  90042765.466 4     -1984.989          28.000
R05  19537925.125 7 104441378.158 7       286.242          42.000    19537922.438 6  81232192.608 6       222.630          36.000
R15  19903058.961 8 106355899.931 8      1823.238          50.000    19903062.203 8  82721288.616 8      1418.074          48.000
R20  23520337.695 5 125773818.771 5     -3940.215          30.000    23520334.430 5  97824029.441 5     -3064.612          34.000
C05  39778948.438 5 207139423.387 5        -9.051          35.000    39778947.289 6 160173327.484 6        -6.606          40.000
C19  22060795.180 8 114876334.650 8     -1263.684          51.000
C22  22482913.117 5 117074361.506 5      1516.699          33.000
E02  26020687.703 7 136739649.144 7      2923.125          44.000    26020691.242 8 104774564.494 8      2239.917          49.000
E03  23975265.453 8 125990854.013 8     -1004.773          51.000    23975268.078 8  96538494.432 8      -769.852          51.000
E13  25730695.781 5 135215719.167 5     -1434.699          32.000
E15  26896427.047 5 141341678.071 5     -3025.758          35.000    26896427.594 5 108300769.357 5     -2318.264          33.000
E24                                                                  25592961.867 5 103052241.770 5     -1410.190          33.000
E25  25120596.188 5 132009609.344 5       750.496          33.000    25120604.867 6 101150209.121 6       575.528          36.000
> 2020 05 05 01 52 30.0000000  0 15        .000000000000
G06  22690933.156 8 119241659.942 8     -2965.945          49.000    22690935.289 8  92915583.840 8     -2311.126          48.000
G07  20795523.234 8 109281194.128 8       308.816          50.000    20795523.328 8  85154168.209 8       240.636          50.000
G09  21425620.914 6 112592477.455 6     -1965.371          40.000    21425618.938 6  87734373.668 6     -1531.458          38.000
G30  21485538.398 8 112907325.433 8      2434.242          51.000    21485539.812 8  87979724.255 8      1896.812          51.000
R04  21633431.742 5 115846008.392 5     -2564.703          33.000
R05  19536370.719 7 104433068.279 7       269.453          45.000    19536368.383 6  81225729.371 6       209.575          36.000
R15  19892910.508 8 106301672.999 8      1793.574          49.000    19892914.273 8  82679112.088 8      1394.999          48.000
R20  23542475.266 5 125892187.864 5     -3949.336          30.000    23542475.688 5  97916094.287 5     -3071.703          35.000
C05  39779014.961 5 207139768.780 5       -13.133          35.000    39779013.836 6 160173595.326 6        -9.494          40.000
C19  22068120.523 8 114914477.517 8     -1277.570          51.000
E02  26004031.492 7 136652125.076 7      2913.438          42.000    26004036.812 8 104707500.607 8      2232.554          49.000
E03  23981033.281 8 126021163.531 8     -1013.984          51.000    23981035.859 8  96561718.601 8      -776.922          51.000
E15  26913718.836 5 141432552.550 5     -3031.242          35.000    26913721.586 5 108370400.491 5     -2322.679          34.000
E24                                                                  25603516.188 5 103094749.280 5     -1421.834          30.000
E25  25116368.141 5 131987404.828 5       732.000          33.000    25116374.766 5 101133186.111 5       561.173          33.000
> 2020 05 05 01 53  0.0000000  0 15        .000000000000
G02  22529843.055 5 118395124.018 5      -934.832          34.000    22529849.062 5  92255959.736 5      -728.437          31.000
G04  24183568.844 5 127085490.654 5     -2962.020          35.000
G06  22707906.695 8 119330856.856 8     -2972.109          49.000    22707907.719 8  92985087.927 8     -2315.929          49.000
G07  20793817.219 8 109272230.900 8       296.926          49.000    20793817.547 8  85147183.858 8       231.371          50.000
G09  21436873.594 5 112651611.659 5     -1968.652          34.000    21436873.039 5  87780452.202 5     -1534.021          33.000
G30  21471690.625 8 112834551.898 8      2425.520          51.000    21471692.180 8  87923017.622 8      1890.015          51.000
R05  19534905.102 7 104425233.530 7       261.207          45.000    19534903.555 6  81219635.691 6       203.161          38.000
R15  19882922.680 8 106248302.676 8      1772.844          50.000    19882927.086 8  82637601.831 8      1378.878          49.000
C05  39779098.977 5 207140206.534 5        -8.180          35.000    39779097.938 6 160173933.882 6        -6.473          40.000
C19  22075519.188 8 114953004.241 8     -1282.715          51.000
C20  26279244.297 4 136842924.129 4     -2812.172          28.000
E02  25987424.414 7 136564857.363 7      2912.641          43.000    25987430.438 8 104640633.137 8      2231.749          48.000
E03  23986848.328 8 126051722.247 8     -1014.953          51.000    23986851.172 8  96585133.709 8      -777.682          51.000
E15  26931037.547 5 141523557.850 5     -3028.242          31.000    26931043.172 5 108440141.823 5     -2320.398          34.000
E25                                                                  25112246.758 5 101116571.457 5       553.248          35.000
> 2020 05 05 01 53 30.0000000  0 16        .000000000000
G02  22535255.680 6 118423557.998 6      -960.129          37.000    22535259.102 5  92278116.168 5      -748.149          34.000
G06  22724930.148 8 119420316.129 8     -2991.449          49.000    22724929.773 8  93054796.418 8     -2331.002          48.000
G07  20792194.781 8 109263706.198 8       271.559          50.000    20792195.000 8  85140541.221 8       211.604          50.000
G09  21448158.328 5 112710834.164 5     -1985.223          34.000    21448158.773 5  87826666.695 5     -1546.915          34.000
G30  21457908.742 8 112762125.052 8      2403.211          51.000    21457910.203 8  87866581.140 8      1872.632          51.000
R04  21662272.047 5 116000460.380 5     -2587.031          30.000    21662266.648 4  90222575.571 4     -2012.135          26.000
R05  19533500.773 7 104417728.128 7       239.406          44.000    19533500.922 6  81213798.143 6       186.205          38.000
R14  21135567.695 5 112664468.550 5     -2403.820          31.000
R15  19873068.750 8 106195644.538 8      1738.141          51.000    19873073.000 8  82596645.514 8      1351.890          48.000
C05  39779173.188 5 207140593.038 5       -17.414          35.000    39779172.156 6 160174232.726 6       -13.173          40.000
C19  22082964.102 8 114991772.134 8     -1301.469          51.000
C22  22456960.273 4 116939283.059 4      1485.070          29.000
E02  25970839.656 7 136477703.905 7      2897.891          44.000    25970844.758 8 104573853.201 8      2220.617          48.000
E03  23992683.242 8 126082386.103 8     -1029.039          51.000    23992686.281 8  96608629.375 8      -788.481          51.000
E15                                                                  26948365.188 5 108509881.419 5     -2328.644          35.000
E25  25108197.703 5 131944468.902 5       698.039          34.000    25108196.312 5 101100255.355 5       534.864          33.000
> 2020 05 05 01 54  0.0000000  0 13        .000000000000
G02  22540769.445 6 118452524.054 6      -971.453          38.000    22540768.883 5  92300687.073 5      -756.967          34.000
G06  22742019.086 7 119510120.524 7     -2996.496          47.000    22742017.852 7  93124773.820 7     -2334.935          46.000
G07  20790672.406 8 109255706.136 8       260.500          51.000    20790672.414 8  85134307.404 8       202.987          51.000
G09  21459492.750 6 112770401.777 6     -1987.352          36.000    21459492.508 6  87873083.093 6     -1548.589          37.000
G30  21444209.070 8 112690132.198 8      2395.191          51.000    21444210.633 8  87810482.828 8      1866.383          51.000
R05  19532174.055 7 104410641.008 7       231.898          44.000    19532175.398 6  81208285.930 6       180.365          39.000
R15  19863364.820 8 106143788.143 8      1717.793          51.000    19863368.445 8  82556312.763 8      1336.058          49.000
C05                                                                  39779252.797 6 160174557.570 6        -9.279          40.000
C19  22090471.867 8 115030866.270 8     -1306.105          51.000
E02  25954293.695 7 136390752.398 7      2897.613          45.000    25954297.086 8 104507228.018 8      2220.222          48.000
E03  23998554.562 8 126113240.959 8     -1029.102          51.000    23998557.555 8  96632271.388 8      -788.532          51.000
E15                                                                  26965702.492 5 108579683.362 5     -2326.025          35.000
E25                                                                  25104232.633 4 101084341.769 4       527.399          29.000
> 2020 05 05 01 54 30.0000000  0 13        .000000000000
G02  22546368.359 6 118481939.382 6      -987.430          39.000    22546365.961 4  92323608.101 4      -769.426          28.000
G06  22759157.312 7 119600185.953 7     -3006.523          44.000    22759156.500 7  93194954.652 7     -2342.746          44.000
G07  20789234.367 8 109248148.810 8       244.492          51.000    20789234.000 8  85128418.578 8       190.513          51.000
G09  21470861.836 6 112830147.027 6     -1994.500          41.000    21470862.641 6  87919637.822 6     -1554.159          39.000
G30  21430576.586 8 112618493.848 8      2381.875          51.000    21430578.430 8  87754660.746 8      1856.006          51.000
R05  19530910.359 7 104403890.426 7       219.418          43.000    19530913.172 6  81203035.467 6       170.655          41.000
R15  19853795.828 8 106092653.169 8      1692.293          51.000    19853799.555 8  82516541.158 8      1316.231          51.000
C05  39779325.594 5 207141386.622 5       -11.434          35.000    39779324.555 6 160174846.403 6        -9.019          40.000
C19  22098026.727 8 115070206.438 8     -1315.555          51.000
E02  25937771.898 8 136303923.837 8      2892.215          48.000    25937773.414 8 104440697.039 8      2216.026          48.000
E03  24004447.000 8 126144205.786 8     -1034.086          51.000    24004449.602 8  96655997.684 8      -792.361          51.000
E15                                                                  26983039.656 5 108649484.007 5     -2326.663          35.000
E25  25100346.922 6 131903213.527 6       674.242          39.000    25100342.750 5 101068683.086 5       516.364          31.000
> 2020 05 05 01 55  0.0000000  0 15        .000000000000
G02  22552055.930 6 118511822.742 6     -1003.875          38.000    22552051.492 5  92346893.808 5      -782.243          31.000
G06  22776348.445 7 119690529.170 7     -3016.297          44.000    22776349.016 7  93265351.996 7     -2350.358          44.000
G07  20787884.328 8 109241053.588 8       228.668          51.000    20787883.602 8  85122889.842 8       178.183          51.000
G09  21482268.625 6 112890088.671 6     -2001.363          39.000    21482271.133 6  87966345.574 6     -1559.507          38.000
G30  21417015.383 8 112547231.233 8      2368.965          51.000    21417017.625 8  87699131.429 8      1845.947          51.000
R05  19529714.547 7 104397497.870 7       206.938          45.000    19529717.594 6  81198063.467 6       160.951          41.000
R15  19844365.953 8 106042262.246 8      1667.137          51.000    19844369.836 8  82477348.224 8      1296.662          51.000
C05  39779392.078 5 207141733.101 5       -10.938          35.000    39779391.062 6 160175114.305 6        -8.621          40.000
C19  22105632.500 8 115109812.268 8     -1324.812          51.000
C20  26344305.648 5 137181718.660 5     -2827.914          31.000
E02  25921278.117 8 136217239.956 8      2886.855          51.000    25921278.328 8 104374276.907 8      2212.051          49.000
E03  24010364.281 8 126175300.385 8     -1038.781          51.000    24010366.242 8  96679823.408 8      -795.919          51.000
E13  25781294.969 6 135481639.308 6     -1513.324          36.000
E15  27000364.328 5 141887871.811 5     -3037.574          31.000    27000380.375 5 108719296.951 5     -2327.510          35.000
E25  25096537.805 6 131883206.440 6       659.984          39.000    25096534.961 5 101053347.964 5       505.574          35.000
> 2020 05 05 01 55 30.0000000  0 18        .000000000000
G02  22557829.922 5 118542196.618 5     -1021.035          32.000    22557826.250 5  92370539.886 5      -795.603          32.000
G04  24268352.664 5 127531023.971 5     -2973.211          34.000
G06  22793591.711 7 119781143.438 7     -3026.480          45.000    22793593.484 7  93335960.492 7     -2358.296          45.000
G07  20786621.445 8 109234415.914 8       211.973          51.000    20786620.164 8  85117717.633 8       165.173          51.000
G09  21493712.047 6 112950222.111 6     -2009.801          38.000    21493712.734 6  88013202.850 6     -1566.075          37.000
G30  21403525.180 8 112476342.082 8      2355.035          50.000    21403527.602 8  87643893.084 8      1835.089          50.000
R04  21720507.320 5 116312315.919 5     -2616.523          35.000    21720509.328 4  90465149.596 4     -2035.071          28.000
R05  19528585.508 7 104391460.366 7       193.695          46.000    19528588.492 7  81193367.626 7       150.649          42.000
R15  19835074.508 8 105992613.254 8      1640.883          51.000    19835079.125 8  82438732.346 8      1276.239          51.000
C05  39779452.727 5 207142048.740 5       -11.527          35.000    39779451.688 6 160175358.383 6        -9.113          40.000
C19  22113288.375 8 115149680.033 8     -1334.996          51.000
C20  26360606.984 4 137266603.799 4     -2832.316          29.000
C22  22422973.234 4 116762322.176 4      1459.316          29.000
E02  25904811.398 8 136130698.844 8      2880.621          51.000    25904810.477 8 104307966.179 8      2207.220          49.000
E03  24016305.461 8 126206520.966 8     -1044.375          51.000    24016306.664 8  96703745.671 8      -800.271          50.000
E13  25789964.430 6 135527209.069 6     -1526.527          36.000
E15                                                                  27017723.719 6 108789117.572 6     -2328.659          36.000
E25                                                                  25092804.836 6 101038333.799 6       493.948          37.000
> 2020 05 05 01 56  0.0000000  0 15        .000000000000
G04  24285332.859 5 127620250.789 5     -2976.059          32.000
G06  22810898.227 7 119872088.098 7     -3037.184          44.000    22810900.961 7  93406826.431 7     -2366.637          44.000
G07  20785457.625 8 109228298.927 8       195.098          51.000    20785455.953 8  85112951.159 8       152.024          51.000
G09  21505203.523 6 113010608.955 6     -2017.215          37.000    21505204.305 6  88060257.512 6     -1571.859          38.000
G30  21390118.438 8 112405890.206 8      2340.953          50.000    21390120.297 8  87588995.498 8      1824.119          51.000
R05  19527535.078 7 104385842.800 7       180.074          46.000    19527537.430 7  81188998.394 7       140.058          42.000
R14  21204629.352 4 113032605.998 4     -2508.207          29.000
R15  19825934.250 8 105943771.902 8      1614.367          49.000    19825939.539 8  82400744.579 8      1255.619          51.000
C05  39779519.305 5 207142395.364 5       -12.402          35.000    39779518.227 6 160175626.406 6        -9.512          41.000
C19  22121006.391 8 115189871.607 8     -1345.219          51.000
E02  25888383.852 8 136044364.918 8      2874.223          51.000    25888382.016 8 104241814.194 8      2202.314          50.000
E03  24022282.391 8 126237930.010 8     -1050.297          51.000    24022283.250 8  96727812.336 8      -804.809          51.000
E13  25798713.219 5 135573186.286 5     -1539.930          35.000
E15                                                                  27035078.969 5 108858992.178 5     -2330.060          35.000
E25  25089168.688 6 131844468.186 6       629.309          41.000    25089165.703 6 101023683.876 6       482.227          40.000
> 2020 05 05 01 56 30.0000000  0 15        .000000000000
G04  24302333.406 5 127709623.944 5     -2985.160          32.000
G06  22828276.641 6 119963411.072 6     -3054.723          41.000    22828280.375 6  93477987.204 6     -2380.300          40.000
G07  20784402.422 8 109222752.719 8       170.840          51.000    20784400.562 8  85108629.459 8       133.122          51.000
G09  21516752.500 5 113071299.478 5     -2032.355          34.000    21516755.344 5  88107548.804 5     -1583.657          33.000
G30  21376805.352 8 112335928.104 8      2319.375          51.000    21376806.031 8  87534479.587 8      1807.308          51.000
R05  19526573.352 7 104380697.963 7       159.051          47.000    19526574.992 7  81184996.854 7       123.706          43.000
R14  21218817.008 5 113108234.213 5     -2537.844          32.000
R15  19816955.383 8 105895792.161 8      1580.277          50.000    19816960.805 8  82363426.970 8      1229.102          49.000
C05  39779601.789 5 207142824.533 5       -19.926          35.000    39779600.422 6 160175957.493 6       -15.441          40.000
C19  22128796.570 8 115230437.620 8     -1362.984          51.000
E02  25872005.234 8 135958291.168 8      2860.270          51.000    25872003.258 8 104175861.596 8      2191.554          50.000
E03  24028304.922 8 126269578.551 8     -1063.453          51.000    24028306.086 8  96752062.499 8      -814.917          51.000
E13  25807549.523 5 135619620.287 5     -1560.176          33.000
E15                                                                  27052455.320 5 108928958.336 5     -2337.273          35.000
E25  25085626.125 6 131825875.761 6       606.191          36.000    25085627.820 7 101009437.751 7       464.463          42.000
> 2020 05 05 01 57  0.0000000  0 13        .000000000000
G06  22845706.922 6 120055008.942 6     -3056.711          41.000    22845711.742 7  93549362.244 7     -2381.850          42.000
G07  20783436.539 8 109217676.309 8       162.469          51.000    20783434.023 8  85104673.822 8       126.599          51.000
G09  21528339.562 5 113132192.512 5     -2032.465          35.000    21528345.742 6  88154997.912 6     -1583.736          36.000
G30  21363566.883 8 112266356.849 8      2313.660          51.000    21363566.734 8  87480268.257 8      1802.855          51.000
R05  19525680.945 8 104375924.917 8       153.992          48.000    19525681.945 7  81181284.489 7       119.772          42.000
R15  19808119.375 8 105848573.597 8      1562.395          51.000    19808124.195 7  82326701.428 7      1215.199          47.000
C05  39779680.508 5 207143234.849 5       -12.102          35.000    39779679.250 6 160176274.793 6        -9.614          40.000
C19  22136639.625 8 115271278.675 8     -1364.828          51.000
E02  25855657.258 8 135872379.215 8      2862.113          51.000    25855655.133 8 104110032.961 8      2193.072          50.000
E03  24034354.125 8 126301366.269 8     -1060.754          51.000    24034355.555 8  96776419.309 8      -812.794          51.000
E13  25816453.328 5 135666377.250 5     -1565.074          30.000    25816458.062 5 103952169.325 5     -1198.683          34.000
E15                                                                  27069833.984 5 108998937.494 5     -2332.032          35.000
E25  25082168.531 6 131807710.365 6       599.551          40.000    25082171.805 7 100995518.839 7       459.447          43.000
> 2020 05 05 01 57 30.0000000  0 13        .000000000000
G06  22863184.766 7 120146855.164 7     -3066.051          44.000    22863189.789 7  93620930.774 7     -2389.127          43.000
G07  20782555.414 8 109213045.830 8       146.445          51.000    20782552.469 8  85101065.673 8       114.113          51.000
G09  21539960.805 6 113193263.640 6     -2039.719          36.000    21539966.492 6  88202585.806 6     -1589.391          37.000
G30  21350398.578 8 112197154.254 8      2300.191          51.000    21350398.242 8  87426344.181 8      1792.360          51.000
R05  19524853.453 8 104371500.727 8       141.137          48.000    19524853.750 7  81177843.469 7       109.776          43.000
R15  19799421.758 8 105802094.184 8      1536.504          51.000    19799425.836 7  82290550.823 7      1195.062          46.000
C05  39779751.234 5 207143602.841 5       -11.887          35.000    39779750.109 6 160176560.102 6        -9.497          40.000
C19  22144531.312 8 115312371.346 8     -1374.352          51.000
E02  25839335.484 8 135786607.330 8      2856.266          50.000    25839333.578 8 104044311.660 8      2188.534          50.000
E03  24040425.188 8 126333269.556 8     -1065.957          51.000    24040427.055 8  96800864.683 8      -816.733          51.000
E13                                                                  25825424.766 5 103988273.626 5     -1208.168          34.000
E15                                                                  27087210.047 5 109068909.987 5     -2332.915          35.000
E25  25078788.688 6 131789949.013 6       584.887          39.000    25078792.422 7 100981909.465 7       448.079          43.000
> 2020 05 05 01 58  0.0000000  0 16        .000000000000
G02  22588172.039 5 118701667.495 5     -1103.605          35.000
G06  22880726.125 7 120239032.940 7     -3076.816          45.000    22880730.281 7  93692757.615 7     -2397.516          45.000
G07  20781775.359 8 109208946.935 8       129.055          51.000    20781772.688 8  85097871.749 8       100.565          51.000
G09  21551632.016 5 113254598.317 5     -2047.500          33.000    21551634.672 5  88250379.133 5     -1595.452          33.000
G30  21337316.867 8 112128408.029 8      2285.250          51.000    21337316.797 8  87372775.702 8      1780.717          51.000
R04  21794451.336 5 116708294.134 5     -2661.910          35.000
R05  19524107.219 7 104367514.310 7       126.852          47.000    19524108.117 7  81174742.918 7        98.662          44.000
R15  19790879.500 8 105756443.820 8      1509.121          51.000    19790882.484 7  82255045.059 7      1173.764          46.000
R16  22570441.938 5 120567257.370 5      4487.156          34.000
C05  39779830.562 5 207144015.885 5       -12.832          35.000    39779829.391 6 160176879.524 6       -10.361          40.000
C19  22152487.492 8 115353801.148 8     -1385.332          51.000
E02  25823056.602 8 135701063.735 8      2848.898          48.000    25823055.281 8 103978765.271 8      2182.967          49.000
E03  24046534.453 8 126365374.723 8     -1072.266          50.000    24046536.875 8  96825464.728 8      -821.567          51.000
E13                                                                  25834473.031 5 104024695.717 5     -1218.288          34.000
E15                                                                  27104598.602 5 109138940.290 5     -2334.388          35.000
E25  25075502.523 6 131772678.231 6       568.922          37.000    25075505.633 7 100968676.033 7       435.810          42.000
> 2020 05 05 01 58 30.0000000  0 16        .000000000000
G02  22594514.086 5 118734981.795 5     -1118.965          34.000
G06  22898309.344 7 120331430.207 7     -3084.891          45.000    22898311.977 7  93764755.485 7     -2403.811          45.000
G07  20781075.508 8 109205269.804 8       114.191          51.000    20781072.820 8  85095006.468 8        88.980          51.000
G09  21563332.875 6 113316086.864 6     -2053.035          36.000    21563335.750 5  88298292.328 5     -1599.768          35.000
G30  21324301.344 8 112060010.635 8      2272.715          51.000    21324301.539 8  87319479.021 8      1770.947          51.000
R04  21809385.609 5 116788227.342 5     -2668.941          31.000
R05  19523422.188 7 104363855.832 7       115.035          47.000    19523424.016 7  81171897.441 7        89.472          44.000
R15  19782471.555 8 105711513.381 8      1484.344          51.000    19782474.164 8  82220099.223 8      1154.490          48.000
R16  22545251.742 5 120432694.817 5      4482.156          35.000
C05  39779897.602 5 207144365.158 5       -12.105          35.000    39779896.453 6 160177149.569 6        -9.291          40.000
C19  22160487.734 8 115395460.114 8     -1393.758          51.000
E02  25806800.766 8 135615641.409 8      2844.059          49.000    25806799.648 8 103913311.810 8      2179.178          49.000
E03  24052661.383 8 126397572.825 8     -1076.098          50.000    24052664.195 8  96850136.006 8      -824.536          51.000
E13                                                                  25843575.844 5 104061350.849 5     -1226.884          35.000
E15                                                                  27121981.375 5 109208943.344 5     -2334.143          35.000
E25  25072289.438 5 131755789.640 5       555.887          35.000    25072291.773 6 100955735.460 6       425.625          40.000
> 2020 05 05 01 59  0.0000000  0 16        .000000000000
G06  22915945.070 7 120424102.886 7     -3091.301          45.000    22915945.961 7  93836967.970 7     -2408.806          44.000
G07  20780467.273 8 109202073.782 8       100.855          51.000    20780464.539 8  85092516.048 8        78.589          51.000
G09  21575074.594 6 113377787.549 6     -2057.906          39.000    21575076.984 6  88346370.722 6     -1603.566          40.000
G30  21311363.586 8 111992022.420 8      2261.723          51.000    21311363.883 8  87266501.184 8      1762.381          51.000
R05  19522810.047 7 104360586.588 7       104.734          47.000    19522812.969 7  81169354.670 7        81.460          44.000
R14  21291503.406 5 113495692.156 5     -2632.023          33.000
R15  19774209.883 8 105667364.804 8      1460.844          51.000    19774212.742 8  82185761.449 8      1136.212          49.000
R16  22520098.703 6 120298329.841 6      4478.047          36.000
C05  39779963.617 5 207144708.947 5        -9.129          35.000    39779962.500 6 160177415.412 6        -7.122          40.000
C19  22168543.055 8 115437406.736 8     -1400.730          51.000
C22  22365346.406 5 116462213.941 5      1403.344          31.000
E02  25790579.734 8 135530401.298 8      2840.551          49.000    25790578.289 8 103847997.965 8      2176.499          48.000
E03  24058817.305 8 126429922.921 8     -1078.672          50.000    24058820.312 8  96874923.745 8      -826.566          50.000
E13                                                                  25852747.203 5 104098283.060 5     -1233.559          33.000
E15                                                                  27139369.344 5 109278962.732 5     -2332.616          35.000
E25  25069160.742 5 131739327.798 5       543.312          34.000    25069161.484 6 100943133.242 6       416.421          36.000
> 2020 05 05 01 59 30.0000000  0 15        .000000000000
G06  22933631.117 7 120517041.005 7     -3103.586          43.000    22933630.414 7  93909387.300 7     -2418.379          43.000
G07  20779949.234 8 109199351.079 8        81.641          51.000    20779946.562 8  85090394.463 8        63.616          51.000
G09  21586855.234 6 113439692.567 6     -2068.234          40.000    21586856.930 6  88394608.399 6     -1611.614          39.000
G30  21298502.609 8 111924437.825 8      2244.844          51.000    21298503.156 8  87213837.885 8      1749.229          51.000
R05  19522269.656 7 104357700.480 7        88.555          47.000    19522273.102 7  81167109.911 7        68.873          44.000
R14  21306380.344 4 113575008.121 4     -2656.016          29.000
R15  19766093.281 8 105623992.801 8      1431.609          51.000    19766096.578 8  82152027.646 8      1113.474          50.000
R16  22494981.203 5 120164159.666 5      4467.559          35.000
C05  39780027.352 5 207145041.510 5       -11.898          35.000    39780026.180 6 160177671.806 6        -9.560          41.000
C19  22176652.008 8 115479634.140 8     -1413.512          51.000
E02  25774392.359 8 135445338.375 8      2831.242          50.000    25774390.641 8 103782819.908 8      2169.336          49.000
E03  24065000.984 8 126462418.069 8     -1086.797          49.000    24065003.945 8  96899822.639 8      -832.758          51.000
E13                                                                  25861986.484 4 104135503.087 4     -1245.806          29.000
E15                                                                  27156759.352 5 109348991.627 5     -2335.358          34.000
E25                                                                  25066112.344 5 100930864.446 5       402.557          33.000
