     3.04           OBSERVATION DATA    M (MIXED)           RINEX VERSION / TYPE
Convert 2.6.2       NovAtel             20200518 121249 UTC PGM / RUN BY / DATE 
Rinex Version 3.04 Observation File                         COMMENT             
                                                            MARKER NAME         
                                                            MARKER NUMBER       
                                                            MARKER TYPE         
                                                            OBSERVER / AGENCY   
                    NovAtel GPSCard                         REC # / TYPE / VERS 
                                                            ANT # / TYPE        
        0.0000        0.0000        0.0000                  APPROX POSITION XYZ 
        0.0000        0.0000        0.0000                  ANTENNA: DELTA H/E/N
G    8 C1C L1C D1C S1C C2W L2W D2W S2W                      SYS / # / OBS TYPES 
R    8 C1C L1C D1C S1C C2P L2P D2P S2P                      SYS / # / OBS TYPES 
E    8 C1C L1C D1C S1C C7Q L7Q D7Q S7Q                      SYS / # / OBS TYPES 
C    8 C2I L2I D2I S2I C7I L7I D7I S7I                      SYS / # / OBS TYPES 
DBHZ                                                        SIGNAL STRENGTH UNIT
    30.000                                                  INTERVAL            
  2020    05    16    16    00    0.0000000     GPS         TIME OF FIRST OBS   
  2020    05    16    16    59   30.0000000     GPS         TIME OF LAST OBS    
G L1C  0.00000  12 G10 G16 G27 G21 G20 G26 G32 G01 G08 G11  SYS / PHASE SHIFT   
                   G22 G14                                  SYS / PHASE SHIFT   
G L2W  0.00000  11 G10 G16 G27 G26 G21 G32 G08 G11 G22 G14  SYS / PHASE SHIFT   
                   G20                                      SYS / PHASE SHIFT   
R L1C  0.00000  05 R09 R03 R05 R04 R10                      SYS / PHASE SHIFT   
R L2P  0.25000  04 R09 R03 R05 R04                          SYS / PHASE SHIFT   
E L1C  0.50000  05 E27 E15 E08 E13 E21                      SYS / PHASE SHIFT   
E L7Q -0.25000  05 E27 E15 E08 E13 E21                      SYS / PHASE SHIFT   
C L2I  0.00000  05 C29 C20 C19 C05 C30                      SYS / PHASE SHIFT   
C L7I  0.00000  01 C05                                      SYS / PHASE SHIFT   
  5 R09 -2 R03  5 R05  1 R04  6 R10 -7                      GLONASS SLOT / FRQ #
 C1C  -71.950 C2C  -71.950 C2P  -71.950                     GLONASS COD/PHS/BIS 
     0     0     0     0GPS                                 LEAP SECONDS        
                                                            END OF HEADER       
> 2020 05 16 16 00  0.0000000  0 14      -0.000000000000
G10  20944810.281 8 110065725.950 8       384.281          51.000    20944811.664 8  85765523.210 8       299.440          51.000  
G16  21738898.102 8 114238656.205 8     -2729.875          51.000    21738896.820 7  89017119.286 7     -2127.176          47.000  
G27  20293776.508 8 106644511.842 8       263.129          51.000    20293777.000 8  83099626.304 8       205.036          51.000  
R09  22350603.539 5 119350620.495 5     -3845.652          31.000    22350598.000 5  92828207.728 5     -2991.070          34.000  
R03  22590436.578 5 120927928.160 5     -2689.098          31.000    22590443.398 4  94055134.021 4     -2091.530          24.000  
R05  22144256.148 8 118373324.788 8      4097.477          48.000    22144258.641 7  92068240.636 7      3186.930          45.000  
R04  20590479.906 6 110260731.267 6       976.711          38.000    20590488.484 4  85758312.540 4       759.670          28.000  
E27  25638453.438 7 134730956.332 7     -2759.016          47.000    25638459.344 8 103235414.650 8     -2114.073          51.000  
E15  23672904.695 8 124401948.556 8     -1081.309          51.000    23672907.992 8  95321051.710 8      -828.515          51.000  
E08  25498129.078 6 133993568.277 6      2958.246          36.000    25498138.227 6 102670417.946 6      2266.616          36.000  
C29  21580010.016 8 112372764.512 8       -32.457          51.000                                                                  
C20  23086107.312 8 120215463.987 8      1460.055          51.000                                                                  
C19  24883731.703 6 129576118.915 6      3372.867          38.000                                                                  
C05  39627476.570 6 206350669.194 6       -12.203          36.000                                                                  
> 2020 05 16 16 00 30.0000000  0 12      -0.000000000000
G10  20942673.172 8 110054494.043 8       364.816          51.000    20942674.195 8  85756771.108 8       284.273          51.000  
G16  21754522.656 8 114320761.734 8     -2743.488          51.000    21754521.203 8  89081097.578 8     -2137.784          48.000  
G27  20292314.984 8 106636831.162 8       249.168          51.000    20292315.406 8  83093641.351 8       194.157          51.000  
R03  22605565.781 5 121008915.023 5     -2709.648          35.000                                                                  
R05  22121287.312 7 118250550.481 7      4087.758          46.000    22121292.125 7  91972749.596 7      3179.371          45.000  
R04  20585086.672 6 110231845.991 6       949.453          39.000    20585089.891 4  85735875.367 4       738.467          27.000  
E27  25654224.961 7 134813839.247 7     -2766.230          46.000    25654231.508 8 103298922.312 8     -2119.542          51.000  
E15  23679091.883 8 124434462.055 8     -1086.047          51.000    23679095.273 8  95345964.645 8      -832.139          51.000  
E08  25481245.344 6 133904837.458 6      2957.359          39.000    25481253.531 5 102602429.408 5      2266.386          35.000  
C29  21580223.531 8 112373875.159 8       -41.367          51.000                                                                  
C20  23077741.289 8 120171901.789 8      1444.320          50.000                                                                  
C19  24864311.156 6 129474991.450 6      3369.000          37.000                                                                  
> 2020 05 16 16 01  0.0000000  0 15      -0.000000000000
G10  20940648.688 8 110043854.179 8       347.449          51.000    20940649.438 8  85748480.344 8       270.743          51.000  
G16  21770226.664 8 114403286.937 8     -2755.000          50.000    21770225.273 7  89145402.903 7     -2146.754          47.000  
G27  20290935.234 8 106629580.234 8       237.109          51.000    20290935.641 8  83087991.276 8       184.761          51.000  
R09  22393921.344 6 119581856.096 6     -3862.652          38.000    22393927.406 5  93008132.742 5     -3004.286          33.000  
R03  22620811.953 6 121090521.881 6     -2727.879          36.000                                                                  
R05  22098376.008 7 118128081.230 7      4079.828          47.000    22098382.148 7  91877495.805 7      3173.200          45.000  
R04  20579845.641 7 110203788.659 7       924.004          42.000    20579846.961 5  85714045.083 5       718.670          31.000  
E27  25670038.711 7 134896943.697 7     -2771.125          46.000    25670045.859 8 103362599.724 8     -2123.241          50.000  
E15  23685307.430 8 124467124.854 8     -1088.512          51.000    23685310.906 8  95370991.984 8      -834.097          51.000  
E08  25464368.367 6 133816145.560 6      2958.441          40.000    25464375.570 6 102534470.705 6      2266.727          36.000  
C30  24104462.383 5 125518242.712 5     -2313.074          35.000                                                                  
C29  21580490.055 8 112375262.287 8       -48.184          51.000                                                                  
C20  23069467.797 8 120128820.925 8      1430.660          51.000                                                                  
C19  24844912.805 5 129373980.961 5      3367.613          35.000                                                                  
C05  39627626.078 6 206351446.380 6       -10.988          36.000                                                                  
> 2020 05 16 16 01 30.0000000  0 15      -0.000000000000
G10  20938722.070 8 110033729.235 8       329.016          51.000    20938722.391 8  85740590.798 8       256.379          51.000  
G16  21785994.891 8 114486151.500 8     -2767.711          50.000    21785993.875 7  89209972.672 7     -2156.658          46.000  
G27  20289622.727 8 106622682.697 8       224.086          51.000    20289623.266 8  83082616.566 8       174.612          51.000  
R09  22415654.773 7 119697884.292 7     -3870.941          42.000    22415661.797 5  93098376.868 5     -3010.736          35.000  
R03  22636158.820 5 121172666.895 5     -2746.535          33.000                                                                  
R05  22075508.117 7 118005842.511 7      4070.824          45.000    22075515.117 7  91782421.333 7      3166.200          46.000  
R04  20574747.078 6 110176482.086 6       897.961          39.000    20574750.383 5  85692806.714 5       698.420          34.000  
E27  25685880.219 7 134980190.633 7     -2777.168          47.000    25685887.359 8 103426386.322 8     -2127.970          48.000  
E15  23691536.609 8 124499859.509 8     -1092.324          51.000    23691540.195 8  95396074.390 8      -836.886          51.000  
E08  25447484.141 6 133727417.363 6      2958.527          41.000    25447490.469 6 102466484.260 6      2266.584          38.000  
C30  24117812.234 4 125587719.584 4     -2316.047          28.000                                                                  
C29  21580794.938 8 112376849.861 8       -56.117          51.000                                                                  
C20  23061272.883 8 120086146.293 8      1415.789          51.000                                                                  
C19  24825522.828 5 129273013.231 5      3364.840          35.000                                                                  
C05  39627691.977 6 206351790.38526       -10.273          37.000                                                                  
> 2020 05 16 16 02  0.0000000  0 15      -0.000000000000
G10  20936917.008 8 110024243.601 8       303.191          51.000    20936917.570 8  85733199.425 8       236.253          51.000  
G16  21801850.672 8 114569477.641 8     -2787.438          49.000    21801850.242 7  89274902.113 7     -2172.030          44.000  
G27  20288401.336 8 106616263.756 8       203.754          51.000    20288401.875 8  83077614.796 8       158.769          51.000  
R09  22437448.625 7 119814250.244 7     -3886.785          43.000    22437454.266 6  93188883.661 6     -3023.059          36.000  
R03  22651628.977 4 121255473.185 4     -2773.824          29.000                                                                  
R05  22052708.414 7 117883965.609 7      4054.109          46.000    22052716.086 7  91687628.225 7      3153.197          47.000  
R04  20569812.781 5 110150054.571 5       863.719          35.000    20569815.023 5  85672251.977 5       671.781          33.000  
E27  25701772.594 8 135063702.476 8     -2790.402          48.000    25701779.258 7 103490375.855 7     -2138.120          46.000  
E15  23697803.094 8 124532790.053 8     -1103.254          51.000    23697806.812 8  95421306.891 8      -845.321          51.000  
E08  25430616.758 6 133638779.228 6      2950.715          41.000    25430622.789 6 102398566.789 6      2260.969          40.000  
C30  24131183.469 5 125657380.823 5     -2328.547          31.000                                                                  
C29  21581161.844 8 112378761.496 8       -71.445          51.000                                                                  
C20  23053179.609 8 120044002.373 8      1393.578          51.000                                                                  
C19  24806165.086 5 129172213.733 5      3354.887          33.000                                                                  
C05  39627770.562 6 206352199.091 6       -16.961          36.000                                                                  
> 2020 05 16 16 02 30.0000000  0 16      -0.000000000000
G10  20935209.656 8 110015272.218 8       289.648          51.000    20935210.836 8  85726208.774 8       225.703          51.000  
G16  21817770.102 8 114653137.978 8     -2795.047          49.000    21817769.633 6  89340091.958 6     -2177.959          41.000  
G21  24147904.289 5 126898098.124 5     -2558.742          32.000                                                                  
G27  20287247.430 8 106610199.235 8       195.219          51.000    20287247.750 8  83072889.205 8       152.122          51.000  
R09  22459279.164 7 119930822.193 7     -3890.078          45.000    22459284.109 6  93279550.641 6     -3025.620          37.000  
R03  22667198.062 5 121338809.861 5     -2788.000          34.000    22667203.008 4  94374719.975 4     -2168.442          26.000  
R05  22029954.461 8 117762327.769 8      4049.688          49.000    22029961.922 7  91593021.047 7      3149.760          47.000  
R04  20565017.867 5 110124379.964 5       842.395          33.000    20565021.000 6  85652282.893 6       655.196          37.000  
E27  25717691.227 8 135147352.215 8     -2791.363          48.000    25717697.094 7 103554471.039 7     -2138.892          43.000  
E15  23704082.984 8 124565791.160 8     -1102.137          51.000    23704086.844 8  95446593.451 8      -844.474          51.000  
E08  25413743.258 7 133550108.007 7      2955.430          42.000    25413749.289 6 102330624.033 6      2264.482          40.000  
C30  24144596.812 5 125727153.097 5     -2327.797          34.000                                                                  
C29  21581567.281 8 112380873.720 8       -74.703          51.000                                                                  
C20  23045164.844 8 120002266.632 8      1383.453          51.000                                                                  
C19  24786816.453 5 129071460.884 5      3356.547          33.000                                                                  
C05  39627838.188 6 206352552.077 6       -11.418          36.000                                                                  
> 2020 05 16 16 03  0.0000000  0 15      -0.000000000000
G10  20933620.117 8 110006919.832 8       268.785          51.000    20933621.742 8  85719700.425 8       209.443          51.000  
G16  21833772.930 8 114737234.762 8     -2809.559          49.000    21833771.078 6  89405621.849 6     -2189.267          38.000  
G21  24162525.273 5 126974921.926 5     -2561.277          30.000                                                                  
G20  21659401.914 5 113820925.00425     -2032.594          35.000                                                                  
G27  20286181.000 8 106604594.670 8       179.844          51.000    20286181.188 8  83068522.013 8       140.138          51.000  
R09  22481166.398 7 120047702.013 7     -3900.316          44.000    22481170.766 5  93370457.069 5     -3033.586          35.000  
R03  22682886.922 5 121422780.244 5     -2809.078          33.000    22682887.961 4  94440030.376 4     -2184.836          26.000  
R05  22007266.781 8 117641040.001 8      4037.840          51.000    22007272.719 7  91498686.181 7      3140.546          45.000  
E27  25733655.414 8 135231242.632 8     -2799.555          48.000    25733658.562 6 103618750.602 6     -2145.378          38.000  
E15  23710396.188 8 124598967.228 8     -1107.996          51.000    23710400.094 8  95472014.079 8      -848.999          51.000  
E08  25396884.172 7 133461510.472 7      2952.719          42.000    25396890.289 6 102262737.732 6      2262.459          40.000  
C29  21582031.281 8 112383290.741 8       -84.977          51.000                                                                  
C20  23037248.734 8 119961044.145 8      1366.293          51.000                                                                  
C19  24767496.977 5 128970860.683 5      3351.117          31.000                                                                  
C05  39627914.734 6 206352950.620 6       -13.652          36.000                                                                  
> 2020 05 16 16 03 30.0000000  0 15      -0.000000000000
G10  20932137.227 8 109999128.072 8       249.730          51.000    20932139.328 8  85713628.925 8       194.595          51.000  
G16  21849847.555 8 114821707.279 8     -2822.520          49.000    21849844.922 6  89471444.500 6     -2199.370          39.000  
G21  24177144.734 5 127051745.862 5     -2561.461          32.000                                                                  
G27  20285191.086 8 106599392.547 8       166.145          51.000    20285191.273 8  83064468.413 8       129.463          51.000  
R09  22503098.953 7 120164826.099 7     -3908.664          42.000    22503103.289 5  93461553.495 5     -3040.076          35.000  
R03  22698683.352 5 121507321.867 5     -2828.109          31.000    22698684.617 4  94505784.807 4     -2199.653          24.000  
R05  21984634.109 8 117520047.281 8      4027.559          51.000    21984637.602 7  91404580.850 7      3132.549          42.000  
R04  20555900.938 6 110075501.461 6       786.488          38.000    20555906.328 5  85614303.745 5       611.710          31.000  
E27  25749653.641 7 135315313.482 7     -2806.055          47.000    25749651.281 6 103683168.320 6     -2150.035          38.000  
E15  23716731.594 8 124632259.740 8     -1112.328          50.000    23716735.352 8  95497523.928 8      -852.313          51.000  
E08  25380028.547 6 133372930.234 6      2951.711          41.000    25380034.898 6 102194864.677 6      2261.708          40.000  
C29  21582542.812 8 112385955.227 8       -93.609          51.000                                                                  
C20  23029419.836 8 119920278.418 8      1350.609          51.000                                                                  
C19  24748195.758 5 128870357.591 5      3348.668          30.000                                                                  
C05  39627989.117 6 206353337.918 6       -13.176          37.000                                                                  
> 2020 05 16 16 04  0.0000000  0 16      -0.000000000000
G26  24010822.117 5 126177718.725 5     -3682.285          31.000    24010832.141 5  98320312.190 5     -2869.326          30.000  
G10  20930767.680 8 109991932.361 8       229.801          51.000    20930770.266 8  85708021.884 8       179.066          51.000  
G16  21866000.164 8 114906588.990 8     -2836.266          49.000    21865997.812 6  89537586.037 6     -2210.078          41.000  
G21  24191770.656 5 127128605.438 5     -2562.367          31.000                                                                  
G27  20284284.656 8 106594629.275 8       151.156          51.000    20284284.922 8  83060756.773 8       117.784          51.000  
R09  22525083.117 6 120282225.644 6     -3918.148          40.000    22525087.023 5  93552864.172 5     -3047.452          34.000  
R03  22714592.414 5 121592466.655 5     -2847.965          35.000                                                                  
R05  21962063.312 8 117399390.216 8      4015.992          50.000    21962064.508 7  91310736.574 7      3123.553          42.000  
R04  20551576.898 6 110052331.608 6       757.621          38.000                                                                  
E27  25765692.609 7 135399598.313 7     -2813.168          47.000    25765689.414 6 103747750.078 6     -2155.489          40.000  
E15  23723095.789 8 124665703.851 8     -1117.504          51.000    23723099.391 8  95523149.939 8      -856.204          51.000  
E08  25363183.391 6 133284404.743 6      2949.820          40.000    25363189.453 6 102127033.579 6      2260.394          38.000  
C30  24184974.477 5 125937554.340 5     -2344.723          30.000                                                                  
C29  21583108.758 8 112388902.746 8      -103.141          51.000                                                                  
C20  23021685.641 8 119880005.921 8      1333.832          50.000                                                                  
C05  39628068.062 6 206353749.177 6       -14.320          36.000                                                                  
> 2020 05 16 16 04 30.0000000  0 16      -0.000000000000
G26  24031846.844 5 126288210.865 5     -3683.617          33.000    24031855.203 5  98406409.783 5     -2870.355          31.000  
G10  20929507.266 8 109985310.031 8       211.578          51.000    20929510.188 8  85702861.621 8       164.866          51.000  
G16  21882225.664 8 114991853.644 8     -2848.211          50.000    21882224.094 7  89604025.985 7     -2219.386          43.000  
G20  21694585.508 6 114005816.21426     -2076.598          36.000                                                                  
G27  20283457.633 8 106590282.961 8       138.434          51.000    20283457.938 8  83057370.034 8       107.870          51.000  
R09  22547113.961 6 120399873.399 6     -3925.309          37.000    22547117.609 5  93644367.858 5     -3053.021          33.000  
R03  22730607.422 5 121678188.386 5     -2866.312          35.000                                                                  
R05  21939550.859 8 117279050.277 8      4006.406          49.000    21939552.234 7  91217138.929 7      3116.094          43.000  
R04  20547401.883 6 110029980.629 6       731.664          39.000                                                                  
E27  25781767.578 7 135484072.580 7     -2818.605          46.000    25781766.945 7 103812477.011 7     -2159.535          43.000  
E15  23729484.539 8 124699276.736 8     -1120.844          50.000    23729488.078 8  95548874.605 8      -858.817          51.000  
E08  25346344.734 6 133195913.418 6      2949.430          41.000    25346350.422 5 102059228.624 5      2260.143          35.000  
C30  24198494.719 5 126007956.688 5     -2348.820          33.000                                                                  
C29  21583724.805 8 112392111.356 8      -110.988          51.000                                                                  
C20  23014042.062 8 119840205.466 8      1319.125          50.000                                                                  
C05  39628147.352 6 206354161.980 6       -13.598          36.000                                                                  
> 2020 05 16 16 05  0.0000000  0 14      -0.000000000000
G26  24052881.359 5 126398744.937 5     -3685.527          31.000    24052885.781 5  98492540.103 5     -2871.844          32.000  
G10  20928351.359 8 109979236.488 8       193.129          51.000    20928354.367 8  85698128.971 8       150.490          51.000  
G16  21898519.109 8 115077474.987 8     -2860.129          50.000    21898518.102 7  89670743.894 7     -2228.673          44.000  
G27  20282705.398 8 106586330.009 8       125.012          51.000    20282705.820 8  83054289.810 8        97.412          51.000  
R03  22746723.508 5 121764458.473 5     -2884.879          34.000                                                                  
R05  21917093.461 8 117159007.091 8      3996.270          50.000    21917096.031 7  91123772.031 7      3108.213          44.000  
R04  20543375.781 6 110008424.758 6       705.133          41.000    20543376.953 5  85562119.626 5       548.440          32.000  
E27  25797873.273 7 135568709.843 7     -2824.105          44.000    25797876.055 7 103877328.901 7     -2163.944          45.000  
E15  23735892.992 8 124732953.628 8     -1124.457          49.000    23735896.719 8  95574678.971 8      -861.591          51.000  
E08  25329507.562 7 133107433.765 7      2949.066          42.000    25329514.852 5 101991432.563 5      2259.406          35.000  
C30  24212036.875 5 126078477.959 5     -2352.457          32.000                                                                  
C29  21584386.477 8 112395557.208 8      -119.031          51.000                                                                  
C20  23006484.453 8 119800854.062 8      1303.980          48.000                                                                  
C05  39628222.148 6 206354551.981 6       -12.395          36.000                                                                  
> 2020 05 16 16 05 30.0000000  0 15      -0.000000000000
G26  24073924.648 5 126509325.427 5     -3685.852          33.000    24073927.172 5  98578706.523 5     -2872.099          32.000  
G10  20927301.328 8 109973718.644 8       175.574          51.000    20927304.242 8  85693829.347 8       136.811          51.000  
G16  21914881.477 8 115163457.821 8     -2870.996          51.000    21914880.562 7  89737743.477 7     -2237.140          45.000  
G27  20282029.484 8 106582778.190 8       112.727          51.000    20282029.984 8  83051522.145 8        87.839          51.000  
R09  22591285.844 5 120635820.64125     -3939.488          30.000                                                                  
R03  22762941.414 5 121851280.703 5     -2901.559          31.000                                                                  
R05  21894694.383 8 117039272.422 8      3986.973          50.000    21894697.266 7  91030645.088 7      3100.979          45.000  
R04  20539500.094 6 109987672.196 6       679.617          38.000    20539499.461 5  85545978.769 5       528.588          32.000  
E27  25814010.789 7 135653515.192 7     -2828.777          43.000    25814016.375 7 103942309.560 7     -2167.452          45.000  
E15  23742322.477 8 124766741.289 8     -1127.090          48.000    23742326.555 8  95600568.204 8      -863.609          51.000  
E08  25312673.938 7 133018974.821 7      2949.316          42.000    25312683.391 6 101923652.351 6      2259.990          36.000  
E13  23899073.297 4 125590476.848 4      1058.031          29.000    23899080.320 6  96231692.743 6       811.152          36.000  
C29  21585095.258 8 112399247.670 8      -126.117          51.000                                                                  
C20  22999014.102 7 119761959.895 7      1289.859          47.000                                                                  
C05  39628294.039 6 206354926.296 6       -11.309          36.000                                                                  
> 2020 05 16 16 06  0.0000000  0 15      -0.000000000000
G26  24094993.445 5 126620040.205 5     -3701.266          35.000    24094996.594 5  98664977.658 5     -2884.110          35.000  
G10  20926374.219 8 109968846.726 8       143.055          51.000    20926376.898 8  85690033.049 8       111.471          51.000  
G16  21931329.336 8 115249889.557 8     -2896.973          51.000    21931328.102 7  89805092.846 7     -2257.385          45.000  
G27  20281447.297 8 106579718.787 8        85.125          51.000    20281447.773 8  83049138.186 8        66.331          51.000  
R09  22613468.008 5 120754216.280 5     -3960.430          33.000    22613474.250 5  93920001.371 5     -3080.335          35.000  
R05  21872370.875 8 116919942.481 8      3962.105          51.000    21872374.195 7  90937832.995 7      3081.641          45.000  
R04  20535791.508 6 109967816.412 6       638.137          39.000    20535792.820 5  85530535.452 5       496.329          35.000  
E27  25830197.367 7 135738577.070 7     -2848.203          42.000    25830203.930 7 104007486.822 7     -2182.373          45.000  
E15  23748790.250 7 124800729.886 7     -1144.883          47.000    23748794.422 8  95626611.410 8      -877.257          50.000  
E08  25295861.750 6 132930628.948 6      2934.176          41.000    25295872.797 6 101855958.810 6      2248.374          36.000  
E13  23893069.242 5 125558925.418 5      1040.258          31.000    23893070.344 5  96207500.251 5       797.201          35.000  
C29  21585868.359 8 112403272.830 8      -148.297          51.000                                                                  
C20  22991649.867 8 119723613.760 8      1260.445          50.000                                                                  
C19  24652034.781 5 128369601.857 5      3316.871          34.000                                                                  
C05  39628380.078 6 206355374.418 6       -24.230          36.000                                                                  
> 2020 05 16 16 06 30.0000000  0 16      -0.000000000000
G26  24116077.633 5 126730838.756 5     -3690.449          35.000    24116081.641 5  98751313.955 5     -2875.682          33.000  
G10  20925560.898 8 109964572.503 8       136.820          51.000    20925563.109 8  85686702.478 8       106.613          51.000  
G16  21947852.930 8 115336719.999 8     -2896.719          50.000    21947851.328 7  89872752.879 7     -2257.187          46.000  
G27  20280949.773 8 106577104.397 8        83.957          51.000    20280950.320 8  83047100.997 8        65.421          51.000  
R09  22635693.109 5 120872867.783 5     -3955.281          33.000    22635693.812 5  94012285.697 5     -3076.337          35.000  
R05  21850114.617 8 116800972.852 8      3963.902          51.000    21850118.219 7  90845301.134 7      3083.039          45.000  
R04  20532241.906 6 109948809.437 6       623.707          36.000    20532243.219 5  85515752.316 5       485.112          34.000  
E27  25846424.078 7 135823845.450 7     -2841.355          42.000    25846429.414 7 104072822.302 7     -2177.180          44.000  
E15  23755287.031 7 124834871.035 7     -1136.379          47.000    23755291.109 8  95652771.508 8      -870.708          49.000  
E08  25279062.602 6 132842350.015 6      2945.781          41.000    25279073.391 6 101788316.565 6      2257.066          38.000  
E13                                                                  23887092.867 5  96183437.840 5       803.172          34.000  
C30  24252863.719 5 126291042.16925     -2365.988          32.000                                                                  
C29  21586696.648 8 112407585.435 8      -144.234          50.000                                                                  
C20  22984382.828 8 119685769.169 8      1257.355          51.000                                                                  
C19  24632889.062 6 128269883.732 6      3325.652          40.000                                                                  
C05  39628471.141 6 206355848.625 6       -12.035          36.000                                                                  
> 2020 05 16 16 07  0.0000000  0 16      -0.000000000000
G26  24137151.164 6 126841580.048 6     -3694.055          38.000    24137154.195 6  98837605.711 6     -2878.491          38.000  
G10  20924835.062 8 109960757.532 8       115.738          51.000    20924836.867 8  85683729.790 8        90.189          51.000  
G16  21964425.062 8 115423808.148 8     -2910.805          48.000    21964423.586 7  89940613.732 7     -2268.163          45.000  
G27  20280510.742 8 106574797.608 8        68.055          51.000    20280511.383 8  83045303.487 8        53.030          51.000  
R09  22657933.594 5 120991629.522 5     -3964.121          33.000    22657933.461 5  94104655.760 5     -3083.215          32.000  
R05  21827900.250 8 116682227.293 8      3950.621          51.000    21827904.234 7  90752943.551 7      3072.709          46.000  
R04  20528825.672 5 109930511.542 5       594.027          30.000    20528826.727 5  85501520.681 5       462.030          34.000  
E27  25862664.180 7 135909180.114 7     -2849.406          42.000    25862667.281 7 104138208.538 7     -2183.229          43.000  
E15  23761786.539 7 124869026.225 7     -1142.461          47.000    23761790.391 8  95678942.374 8      -875.396          48.000  
E08  25262250.555 7 132754001.764 7      2942.340          42.000    25262259.266 6 101720621.238 6      2254.330          39.000  
E13                                                                  23881122.359 5  96159399.556 5       798.009          34.000  
C30  24266507.297 5 126362101.283 5     -2373.625          30.000                                                                  
C29  21587553.789 8 112412048.906 8      -154.992          50.000                                                                  
C20  22977186.258 8 119648290.231 8      1239.477          51.000                                                                  
C19  24613743.148 7 128170179.091 7      3319.574          42.000                                                                  
C05  39628540.898 5 206356211.51825       -14.430          35.000                                                                  
> 2020 05 16 16 07 30.0000000  0 16      -0.000000000000
G26  24158240.258 6 126952401.910 6     -3691.910          36.000    24158241.227 6  98923960.305 6     -2876.817          36.000  
G10  20924223.297 8 109957541.784 8       100.590          51.000    20924224.883 8  85681224.022 8        78.382          51.000  
G16  21981072.070 7 115511291.936 7     -2919.098          47.000    21981071.102 7  90008782.886 7     -2274.625          45.000  
G27  20280157.125 8 106572939.381 8        57.820          51.000    20280157.734 8  83043855.512 8        45.055          51.000  
R03  22828891.234 5 122204437.085 5     -2975.293          32.000                                                                  
R05  21805755.758 8 116563852.959 8      3943.051          51.000    21805759.906 7  90660874.702 7      3066.821          47.000  
R04  20525569.539 5 109913066.566 5       570.359          35.000    20525567.523 5  85487952.440 5       443.610          32.000  
E27  25878943.266 7 135994719.297 7     -2851.258          42.000    25878944.359 7 104203751.474 7     -2184.677          42.000  
E15  23768315.523 7 124903335.457 7     -1142.863          47.000    23768318.797 8  95705231.257 8      -875.632          48.000  
E08  25245452.352 6 132665726.392 6      2944.691          41.000    25245458.680 6 101652981.731 6      2256.404          39.000  
E13                                                                  23875185.758 5  96135492.744 5       797.569          35.000  
C30  24280198.492 5 126433364.43725     -2373.848          31.000                                                                  
C29  21588466.625 8 112416802.605 8      -159.949          50.000                                                                  
C20  22970087.156 8 119611317.142 8      1227.328          51.000                                                                  
C19  24594625.984 7 128070629.123 7      3318.949          44.000                                                                  
C05  39628615.797 6 206356601.450 6        -9.863          36.000                                                                  
> 2020 05 16 16 08  0.0000000  0 16      -0.000000000000
G26  24179336.273 5 127063263.226 5     -3700.691          34.000    24179337.586 5  99010345.597 5     -2883.663          33.000  
G10  20923718.125 8 109954886.375 8        74.121          51.000    20923719.344 8  85679154.896 8        57.760          51.000  
G16  21997786.586 7 115599129.723 7     -2938.598          47.000    21997785.945 7  90077227.883 7     -2289.820          44.000  
G27  20279881.609 8 106571491.788 8        36.410          51.000    20279882.164 8  83042727.524 8        28.372          51.000  
R03  22845634.797 5 122294053.449 5     -3000.758          35.000                                                                  
R05  21783674.680 8 116445814.896 8      3923.809          51.000    21783678.727 7  90569067.434 7      3051.858          46.000  
R04  20522464.641 6 109896436.057 6       535.535          40.000    20522462.609 5  85475017.699 5       416.527          33.000  
E27  25895253.305 6 136080422.367 6     -2864.469          41.000    25895253.234 6 104269420.015 6     -2194.950          40.000  
E15  23774866.367 7 124937759.829 7     -1154.473          47.000    23774869.305 8  95731608.372 8      -884.626          48.000  
E08  25228660.961 6 132577487.208 6      2935.660          41.000    25228665.742 6 101585370.011 6      2249.176          39.000  
E13  23869273.812 5 125433878.064 5      1028.273          33.000    23869275.414 6  96111687.839 6       787.820          36.000  
C30  24293889.219 5 126504721.974 5     -2385.488          32.000                                                                  
C29  21589427.812 8 112421808.658 8      -176.184          49.000                                                                  
C20  22963077.750 8 119574812.738 8      1204.031          51.000                                                                  
C19  24575531.266 7 127971197.751 7      3307.258          45.000                                                                  
C05  39628689.078 6 206356982.793 6       -17.562          36.000                                                                  
> 2020 05 16 16 08 30.0000000  0 17      -0.000000000000
G26  24200453.125 5 127174233.836 5     -3703.188          34.000    24200455.344 5  99096816.040 5     -2885.611          34.000  
G10  20923333.297 8 109952863.515 8        54.758          51.000    20923333.891 8  85677578.647 8        42.671          51.000  
G16  22014582.398 8 115687391.546 8     -2951.082          49.000    22014581.477 7  90146003.287 7     -2299.548          43.000  
G20  21792078.773 6 114518109.572 6     -2195.258          39.000                                                                  
G27  20279698.031 8 106570528.069 8        21.949          51.000    20279698.734 8  83041976.570 8        17.100          51.000  
R09  22724907.914 4 121349362.785 4     -3989.098          27.000                                                                  
R03  22862490.016 6 122384279.741 6     -3019.797          36.000    22862487.680 4  95187787.346 4     -2348.728          28.000  
R05  21761671.391 8 116328191.315 8      3911.621          49.000    21761674.859 7  90477582.557 7      3042.375          46.000  
R04  20519526.805 5 109880694.912 5       508.141          34.000    20519522.547 4  85462786.60524       395.221          28.000  
E27  25911607.273 6 136166359.800 6     -2870.633          41.000    25911607.492 6 104335268.144 6     -2199.715          39.000  
E15  23781452.820 7 124972371.496 7     -1158.992          46.000    23781455.477 8  95758128.992 8      -888.092          48.000  
E08  25211890.273 7 132489358.662 7      2933.430          42.000    25211894.602 6 101517842.990 6      2247.948          38.000  
E13  23863400.977 5 125403015.869 5      1023.031          34.000    23863404.898 5  96088040.195 5       783.950          35.000  
C29  21590451.312 8 112427139.275 8      -185.312          50.000                                                                  
C20  22956171.727 8 119538849.886 8      1187.539          51.000                                                                  
C19  24556473.039 7 127871959.094 7      3302.426          45.000                                                                  
C05  39628774.180 6 206357425.629 6       -17.906          36.000                                                                  
> 2020 05 16 16 09  0.0000000  0 17      -0.000000000000
G26  24221548.617 5 127285089.207 5     -3701.383          33.000    24221549.406 5  99183196.760 5     -2884.195          32.000  
G10  20923026.484 8 109951250.914 8        38.457          51.000    20923027.055 8  85676322.099 8        29.967          51.000  
G16  22031416.602 8 115775853.117 8     -2960.465          50.000    22031415.109 7  90214934.300 7     -2306.856          43.000  
G20  21804598.469 6 114583910.783 6     -2206.203          38.000                                                                  
G27  20279564.383 8 106569827.014 8        10.359          51.000    20279565.414 8  83041430.277 8         8.072          51.000  
R09  22747298.492 5 121468896.912 5     -3994.102          30.000    22747297.086 4  94475803.751 4     -3106.530          29.000  
R03  22879416.430 5 122474885.795 5     -3035.051          35.000    22879411.672 5  95258258.701 5     -2360.599          30.000  
R05  21739703.281 7 116210761.104 7      3902.488          43.000    21739707.336 7  90386248.052 7      3035.272          45.000  
R04  20516710.516 6 109865617.616 6       482.953          39.000    20516707.430 5  85451059.813 5       375.630          31.000  
E27  25927962.477 7 136252307.675 7     -2873.465          42.000    25927964.367 6 104401124.285 6     -2201.942          37.000  
E15  23788032.562 7 125006948.290 7     -1160.574          46.000    23788035.250 8  95784622.894 8      -889.155          48.000  
E08  25195098.305 7 132401120.764 7      2934.566          42.000    25195101.258 6 101450232.168 6      2248.562          39.000  
E13                                                                  23857529.961 5  96064379.646 5       782.523          34.000  
C29  21591495.156 8 112432574.938 8      -191.504          50.000                                                                  
C20  22949327.516 8 119503209.782 8      1174.172          51.000                                                                  
C19  24537409.773 7 127772695.405 7      3300.742          45.000                                                                  
C05  39628828.875 6 206357710.129 6       -14.891          36.000                                                                  
> 2020 05 16 16 09 30.0000000  0 18      -0.000000000000
G26  24242707.195 5 127396278.193 5     -3702.656          35.000    24242706.117 5  99269837.299 5     -2885.194          35.000  
G10  20922883.500 8 109950499.506 8        20.305          51.000    20922884.172 8  85675736.598 8        15.822          51.000  
G16  22048374.102 8 115864962.854 8     -2971.527          49.000    22048372.422 7  90284370.392 7     -2315.479          44.000  
G20  21817222.695 4 114650278.61224     -2218.680          29.000                                                                  
G27  20279566.812 8 106569840.524 8        -2.832          51.000    20279568.070 8  83041440.792 8        -2.207          51.000  
R09  22769777.812 5 121588925.404 5     -3999.227          31.000    22769776.828 5  94569176.157 5     -3110.513          31.000  
R03  22896500.914 5 122566328.053 5     -3051.398          33.000    22896494.820 5  95329380.401 5     -2373.313          31.000  
R05  21717855.047 6 116093987.370 6      3891.402          40.000    21717862.688 7  90295424.051 7      3026.647          45.000  
R04  20514104.250 6 109851664.866 6       455.992          38.000    20514102.453 4  85440207.687 4       354.658          29.000  
E27  25944404.680 6 136338715.269 6     -2878.605          41.000    25944409.859 6 104467332.596 6     -2205.575          36.000  
E15  23794691.406 7 125041941.153 7     -1163.953          46.000    23794694.398 8  95811435.613 8      -891.759          48.000  
E08  25178371.227 7 132313226.757 7      2933.691          43.000    25178372.969 6 101382884.880 6      2247.715          41.000  
E13                                                                  23851736.477 5  96041052.037 5       779.254          34.000  
C30  24335186.594 5 126719696.089 5     -2396.613          31.000                                                                  
C29  21592645.117 8 112438563.165 8      -199.273          51.000                                                                  
C20  22942630.859 8 119468340.583 8      1158.938          51.000                                                                  
C19  24518428.312 7 127673856.146 7      3297.094          45.000                                                                  
C05  39628938.984 6 206358283.396 6       -14.504          36.000                                                                  
> 2020 05 16 16 10  0.0000000  0 15      -0.000000000000
G26  24263857.016 5 127507419.820 5     -3706.934          34.000    24263854.773 5  99356440.978 5     -2888.536          33.000  
G10  20922832.188 8 109950230.701 8        -1.883          51.000    20922833.180 8  85675527.160 8        -1.467          51.000  
G16  22065382.031 8 115954340.030 8     -2986.551          48.000    22065381.000 7  90354014.901 7     -2327.186          46.000  
G27  20279633.391 8 106570191.110 8       -20.176          51.000    20279634.805 8  83041713.965 8       -15.721          51.000  
R09  22792275.492 5 121709062.215 5     -4009.148          31.000    22792277.141 5  94662615.712 5     -3118.230          31.000  
R05  21696060.781 7 115977489.810 7      3875.730          44.000    21696069.367 7  90204814.877 7      3014.461          44.000  
R04  20511636.453 6 109838452.067 6       425.367          37.000    20511634.633 5  85429930.980 5       330.841          30.000  
E27  25960861.164 6 136425202.304 6     -2886.836          39.000    25960871.117 6 104533601.796 6     -2212.085          36.000  
E15  23801357.477 7 125076971.625 7     -1171.168          45.000    23801360.555 8  95838277.157 8      -897.296          48.000  
E08  25161638.039 7 132225300.392 7      2928.520          43.000    25161639.469 7 101315512.769 7      2244.079          43.000  
E13  23845945.039 5 125311285.179 5      1009.543          34.000    23845951.852 5  96017767.462 5       773.064          32.000  
C29  21593829.398 8 112444729.606 8      -211.348          51.000                                                                  
C20  22936010.312 8 119433868.577 8      1139.664          50.000                                                                  
C19  24499456.461 7 127575068.754 7      3289.227          43.000                                                                  
C05  39629032.531 6 206358770.514 6       -17.453          36.000                                                                  
> 2020 05 16 16 10 30.0000000  0 16      -0.000000000000
G26  24285008.695 5 127618570.076 5     -3703.520          31.000    24285005.633 4  99443051.371 4     -2885.863          28.000  
G10  20922883.891 8 109950502.495 8       -16.621          51.000    20922885.125 8  85675738.961 8       -12.952          51.000  
G16  22082451.086 7 116044040.496 7     -2994.102          46.000    22082451.359 7  90423911.358 7     -2333.067          46.000  
G20  21842733.305 6 114784311.420 6     -2245.383          37.000                                                                  
G27  20279775.359 8 106570937.789 8       -30.117          51.000    20279776.891 8  83042295.767 8       -23.471          51.000  
R09  22814797.758 5 121829352.46825     -4011.238          33.000    22814803.508 5  94756188.87525     -3119.853          31.000  
R05  21674331.914 8 115861332.057 8      3867.711          48.000    21674339.258 7  90114470.016 7      3008.223          44.000  
R04  20509317.602 5 109826039.371 5       402.039          35.000    20509318.664 5  85420276.602 5       312.697          30.000  
E27  25977342.758 6 136511825.149 6     -2888.227          36.000    25977357.398 6 104599975.061 6     -2213.184          36.000  
E15  23808041.898 7 125112097.806 7     -1171.078          46.000    23808045.016 8  95865192.027 8      -897.257          48.000  
E08  25144910.656 7 132137401.915 7      2930.969          44.000    25144912.320 7 101248162.074 7      2245.710          45.000  
E13  23840184.992 5 125281013.185 5      1008.828          34.000    23840187.430 5  95994555.582 5       772.771          31.000  
C29  21595059.273 8 112451132.436 8      -215.977          51.000                                                                  
C20  22929477.508 8 119399852.570 8      1127.688          51.000                                                                  
C19  24480505.461 6 127476393.236 6      3288.637          40.000                                                                  
C05  39629120.648 6 206359229.384 6       -13.695          36.000                                                                  
> 2020 05 16 16 11  0.0000000  0 17      -0.000000000000
G26  24306151.430 5 127729676.677 5     -3704.801          34.000                                                                  
G10  20923028.797 8 109951264.791 8       -35.602          51.000    20923029.992 8  85676332.972 8       -27.741          51.000  
G16  22099571.656 7 116134011.987 7     -3005.547          47.000    22099573.008 7  90494019.013 7     -2341.985          47.000  
G20  21855586.789 6 114851858.145 6     -2259.055          37.000                                                                  
G27  20279983.461 8 106572031.578 8       -44.348          51.000    20279984.945 8  83043148.052 8       -34.557          51.000  
R09  22837345.898 5 121949738.882 5     -4017.293          34.000    22837354.273 5  94849835.086 5     -3124.568          31.000  
R03  22948264.898 5 122843391.694 5     -3104.398          30.000    22948265.836 5  95544902.840 5     -2414.536          30.000  
R05  21652658.383 8 115745468.321 8      3855.117          50.000    21652664.633 7  90024353.820 7      2998.425          45.000  
R04  20507138.297 5 109814376.704 5       373.988          34.000    20507139.141 5  85411205.498 5       290.877          33.000  
E27  25993839.914 5 136598531.992 5     -2893.477          35.000    25993858.430 6 104666412.778 6     -2217.123          37.000  
E15  23814735.000 7 125147269.767 7     -1175.203          46.000    23814738.141 7  95892141.949 7      -900.424          47.000  
E08  25128180.117 7 132049483.676 7      2928.977          46.000    25128182.281 7 101180796.220 7      2244.264          46.000  
E13  23834436.555 5 125250803.813 5      1004.246          35.000    23834436.172 4  95971397.184 4       769.353          29.000  
C29  21596324.969 8 112457722.852 8      -224.855          51.000                                                                  
C20  22923022.719 8 119366244.379 8      1111.457          49.000                                                                  
C19  24461567.250 6 127377782.677 6      3283.941          39.000                                                                  
C05  39629193.969 6 206359610.727 6       -13.625          36.000                                                                  
> 2020 05 16 16 11 30.0000000  0 16      -0.000000000000
G26  24327292.047 5 127840769.972 5     -3701.836          34.000                                                                  
G10  20923273.320 8 109952550.104 8       -50.301          51.000    20923274.352 8  85677334.517 8       -39.195          51.000  
G16  22116750.055 8 116224284.543 8     -3012.816          50.000    22116751.469 7  90564361.259 7     -2347.650          46.000  
G27  20280264.039 8 106573506.093 8       -54.316          51.000    20280265.383 8  83044297.004 8       -42.324          51.000  
R09  22859917.664 5 122070302.705 5     -4019.133          34.000    22859934.664 5  94943601.725 5     -3126.002          32.000  
R03  22965701.469 5 122936710.050 5     -3117.074          32.000    22965699.398 5  95617483.661 5     -2424.395          31.000  
R05  21631046.758 8 115629936.340 8      3846.766          50.000    21631052.656 7  89934495.660 7      2991.929          46.000  
R04  20505107.055 4 109803498.331 4       350.223          29.000    20505108.070 5  85402744.551 5       272.395          32.000  
E27  26010360.742 5 136685353.876 5     -2894.410          35.000    26010380.297 6 104732938.649 6     -2218.170          37.000  
E15  23821442.945 7 125182520.142 7     -1175.164          46.000    23821446.117 7  95919151.976 7      -900.388          47.000  
E08  25111452.602 7 131961580.558 7      2930.980          46.000    25111455.461 7 101113441.935 7      2245.842          46.000  
E13  23828706.688 5 125220691.983 5      1003.418          34.000    23828708.641 5  95948333.533 5       768.635          30.000  
C29  21597632.961 8 112464533.860 8      -229.516          51.000                                                                  
C20  22916652.680 8 119333077.566 8      1099.438          49.000                                                                  
C19  24442649.195 6 127279271.872 6      3283.379          38.000                                                                  
C05  39629258.500 6 206359947.045 6        -8.887          36.000                                                                  
> 2020 05 16 16 12  0.0000000  0 16      -0.000000000000
G10  20923639.273 8 109954474.024 8       -74.359          51.000    20923640.672 8  85678833.693 8       -57.942          51.000  
G16  22134007.742 8 116314971.935 8     -3029.387          51.000    22134008.586 7  90635026.735 7     -2360.562          46.000  
G21  24426010.586 5 128359555.598 5     -2566.949          31.000                                                                  
G27  20280639.289 8 106575478.027 8       -73.711          51.000    20280640.633 8  83045833.564 8       -57.437          51.000  
R09  22882542.875 5 122191099.070 5     -4030.344          35.000    22882558.047 5  95037554.282 5     -3134.719          33.000  
R03  22983246.250 5 123030621.123 5     -3139.492          33.000    22983244.438 5  95690525.456 5     -2441.834          30.000  
R05  21609519.727 8 115514858.859 8      3828.648          50.000    21609525.711 7  89844990.960 7      2977.841          47.000  
R04  20503229.930 5 109793478.65425       317.965          31.000    20503240.164 6  85394970.10026       247.306          37.000  
E27  26026926.828 6 136772404.912 6     -2904.910          36.000    26026944.375 6 104799640.072 6     -2225.812          36.000  
E15  23828187.758 7 125217964.789 7     -1184.434          45.000    23828190.773 7  95946310.858 7      -907.503          46.000  
E08  25094750.438 7 131873810.532 7      2923.957          46.000    25094753.727 7 101046189.645 7      2240.340          46.000  
E13  23823017.555 5 125190799.640 5       993.684          35.000                                                                  
C29  21599005.469 8 112471680.858 8      -243.441          51.000                                                                  
C20  22910390.203 8 119300468.186 8      1078.078          49.000                                                                  
C19  24423773.664 6 127180978.071 6      3273.430          36.000                                                                  
C05  39629336.594 6 206360353.502 6       -14.207          36.000                                                                  
> 2020 05 16 16 12 30.0000000  0 17      -0.000000000000
G10  20924116.477 8 109956982.164 8       -93.031          51.000    20924118.070 8  85680788.080 8       -72.492          51.000  
G16  22151333.570 8 116406017.254 8     -3040.562          51.000    22151333.656 7  90705971.089 7     -2369.273          46.000  
G21  24440663.758 5 128436548.569 5     -2566.832          31.000                                                                  
G20  21894618.492 5 115056996.57025     -2300.125          34.000                                                                  
G27  20281099.094 8 106577894.071 8       -87.680          51.000    20281100.516 8  83047716.164 8       -68.325          51.000  
R09  22905202.781 6 122312086.793 6     -4036.039          36.000    22905216.133 5  95131655.709 5     -3139.145          33.000  
R03  23000888.562 5 123125065.799 5     -3156.832          34.000    23000887.422 4  95763982.352 4     -2455.317          26.000  
R05  21588067.500 8 115400185.017 8      3815.922          50.000    21588073.922 7  89755800.244 7      2967.940          47.000  
R04  20501547.031 5 109784414.023 5       290.238          30.000    20501539.406 6  85387884.807 6       225.735          38.000  
E27  26043526.695 6 136859629.086 6     -2910.113          38.000    26043541.922 5 104866474.181 5     -2230.038          35.000  
E15  23834959.023 7 125253549.423 7     -1188.141          44.000    23834961.703 7  95973577.024 7      -910.547          46.000  
E08  25078063.719 7 131786121.667 7      2922.008          45.000    25078067.336 7 100978999.540 7      2238.745          47.000  
E13  23817359.234 5 125161060.814 5       988.613          35.000    23817370.359 5  95902658.382 5       757.967          33.000  
C29  21600432.203 8 112479110.749 8      -252.152          51.000                                                                  
C20  22904224.383 8 119268363.679 8      1062.055          49.000                                                                  
C19  24404931.320 6 127082850.099 6      3268.281          36.000                                                                  
C05  39629417.789 6 206360776.409 6       -13.824          36.000                                                                  
> 2020 05 16 16 13  0.0000000  0 17      -0.000000000000
G10  20924701.617 8 109960057.594 8      -110.363          51.000    20924703.273 8  85683184.523 8       -85.997          51.000  
G16  22168723.758 8 116497401.533 8     -3050.141          51.000    22168723.281 7  90777179.554 7     -2376.737          45.000  
G21  24455317.852 5 128513545.262 5     -2565.309          31.000                                                                  
G20  21907783.297 6 115126188.958 6     -2312.195          36.000                                                                  
G27  20281640.531 8 106580738.492 8      -100.406          51.000    20281641.734 8  83049932.582 8       -78.239          51.000  
R09  22927896.117 6 122433244.506 6     -4039.965          38.000    22927907.438 5  95225889.360 5     -3142.202          33.000  
R05  21566688.523 8 115285902.542 8      3804.363          51.000    21566694.539 7  89666913.952 7      2958.953          44.000  
R04  20499999.164 5 109776149.304 5       264.078          30.000    20499992.500 6  85381445.876 6       205.391          40.000  
E27  26060156.023 6 136947007.927 6     -2913.633          41.000    26060169.812 5 104933503.738 5     -2232.193          31.000  
E15  23841753.758 7 125289257.474 7     -1190.742          43.000    23841756.242 7  96000937.738 7      -912.453          45.000  
E08  25061389.688 7 131698499.521 7      2921.078          45.000    25061393.711 8 100911860.562 8      2238.329          48.000  
E13  23811728.219 6 125131464.814 6       985.602          36.000    23811738.484 5  95879980.980 5       755.133          35.000  
C30  24432475.492 5 127226314.252 5     -2427.176          32.000                                                                  
C29  21601910.062 8 112486807.714 8      -259.434          51.000                                                                  
C20  22898152.711 8 119236748.756 8      1047.215          50.000                                                                  
C19  24386119.336 5 126984873.873 5      3264.578          34.000                                                                  
C05  39629499.016 6 206361199.539 6       -12.699          36.000                                                                  
> 2020 05 16 16 13 30.0000000  0 14      -0.000000000000
G10  20925393.328 8 109963692.844 8      -131.285          51.000    20925395.453 8  85686017.188 8      -102.300          51.000  
G16  22186176.500 8 116589114.986 8     -3063.273          51.000    22186175.781 7  90848644.514 7     -2386.970          45.000  
G21  24469969.523 5 128590537.733 5     -2567.184          32.000                                                                  
G27  20282262.258 8 106584004.923 8      -116.641          51.000    20282263.195 8  83052477.846 8       -90.889          51.000  
R09  22950619.031 6 122554560.646 6     -4047.258          39.000    22950628.211 5  95320246.271 5     -3147.871          31.000  
R05  21545382.258 8 115172008.678 8      3789.238          51.000    21545386.703 7  89578329.919 7      2947.189          42.000  
E27  26076813.445 7 137034532.480 7     -2920.695          42.000    26076807.406 6 105000497.745 6     -2237.973          36.000  
E15  23848570.695 7 125325081.669 7     -1196.742          43.000    23848573.406 7  96028387.446 7      -917.146          45.000  
E08  25044727.531 7 131610939.016 7      2916.895          46.000    25044731.586 7 100844768.849 7      2234.929          47.000  
E13  23806122.773 5 125102004.679 5       979.277          35.000    23806129.977 5  95857407.707 5       749.916          33.000  
C29  21603438.094 8 112494765.173 8      -270.258          51.000                                                                  
C20  22892174.383 8 119205617.372 8      1029.004          51.000                                                                  
C19  24367335.922 5 126887044.548 5      3257.781          31.000                                                                  
C05  39629579.094 6 206361615.955 6       -14.242          36.000                                                                  
> 2020 05 16 16 14  0.0000000  0 16      -0.000000000000
G10  20926229.656 8 109968087.037 8      -155.082          51.000    20926231.852 8  85689441.234 8      -120.843          51.000  
G16  22203729.203 8 116681354.953 8     -3079.250          50.000    22203728.477 7  90920519.742 7     -2399.419          46.000  
G21  24484638.945 5 128667645.82325     -2572.336          30.000                                                                  
G27  20283002.406 8 106587893.636 8      -135.965          51.000    20283003.297 8  83055508.009 8      -105.947          51.000  
R09  22973408.164 6 122676233.778 6     -4057.461          38.000    22973418.734 5  95414880.805 5     -3155.807          30.000  
R05  21524187.438 8 115058710.987 8      3770.887          51.000    21524190.367 6  89490209.645 6      2932.918          40.000  
R10  21681571.984 6 115574597.924 6     -2443.684          36.000                                                                  
R04  20497404.984 5 109762264.608 5       201.852          34.000    20497395.930 6  85370634.473 6       156.990          40.000  
E27  26093536.234 7 137122400.356 7     -2930.418          43.000    26093529.281 6 105067825.009 6     -2245.476          37.000  
E15  23855447.586 7 125361221.423 7     -1205.805          43.000    23855450.969 7  96056078.946 7      -923.848          45.000  
E08  25028115.484 7 131523641.828 7      2909.758          46.000    25028119.195 7 100777878.887 7      2229.571          47.000  
E13  23800580.383 5 125072893.102 5       969.715          30.000                                                                  
C29  21605054.305 8 112503181.378 8      -284.074          51.000                                                                  
C20  22886327.180 8 119175168.279 8      1007.602          51.000                                                                  
C19  24348616.781 5 126789562.328 5      3247.832          34.000                                                                  
C05  39629695.820 6 206362224.516 6       -19.328          36.000                                                                  
> 2020 05 16 16 14 30.0000000  0 14      -0.000000000000
G10  20927137.992 8 109972859.902 8      -171.852          51.000    20927139.859 8  85693160.352 8      -133.910          51.000  
G16  22221309.016 8 116773738.825 8     -3088.121          49.000    22221308.398 7  90992507.121 7     -2406.329          45.000  
G27  20283788.781 8 106592025.582 8      -148.219          51.000    20283789.789 8  83058727.695 8      -115.495          51.000  
R09  22996190.258 5 122797873.483 5     -4060.582          34.000    22996201.945 4  95509594.38624     -3158.231          26.000  
R05  21503032.742 8 114945627.706 8      3759.363          50.000    21503033.227 6  89402256.120 6      2923.956          39.000  
R10  21695351.203 6 115648061.917 6     -2462.477          36.000                                                                  
R04  20496317.000 5 109756420.906 5       175.926          35.000    20496313.172 6  85366119.776 6       136.825          40.000  
E27  26110251.086 7 137210229.821 7     -2933.309          42.000    26110244.445 6 105135122.837 6     -2247.506          37.000  
E15  23862312.281 7 125397296.869 7     -1207.922          43.000    23862316.086 7  96083721.147 7      -925.371          44.000  
E08  25011481.602 7 131436230.254 7      2909.121          46.000    25011484.727 7 100710901.277 7      2229.209          45.000  
C29  21606686.539 8 112511680.462 8      -290.922          51.000                                                                  
C20  22880539.188 8 119145026.114 8       993.273          51.000                                                                  
C19  24329890.492 6 126692053.374 6      3244.414          36.000                                                                  
C05  39629776.914 6 206362646.830 6       -17.344          36.000                                                                  
> 2020 05 16 16 15  0.0000000  0 14      -0.000000000000
G10  20928167.250 8 109978268.075 8      -181.117          51.000    20928169.109 8  85697374.509 8      -141.130          51.000  
G16  22238964.297 7 116866521.293 7     -3089.699          47.000    22238964.125 7  91064805.101 7     -2407.562          45.000  
G21  24513967.242 5 128821783.49625     -2559.535          31.000                                                                  
G27  20284670.492 8 106596658.525 8      -152.945          51.000    20284671.539 8  83062337.778 8      -119.178          51.000  
R05  21481967.805 8 114833024.503 8      3755.332          50.000    21481967.867 6  89314675.932 6      2920.814          41.000  
R10  21709257.367 6 115722202.054 6     -2472.703          38.000                                                                  
E27  26127006.227 6 137298276.052 6     -2928.609          39.000    26127000.898 6 105202586.792 6     -2244.040          38.000  
E15  23869213.789 7 125433564.894 7     -1202.277          44.000    23869217.609 7  96111510.927 7      -921.349          44.000  
E08  24994875.102 7 131348963.420 7      2916.230          47.000    24994877.750 7 100644034.581 7      2234.468          45.000  
C30  24488695.078 4 127519079.915 4     -2440.328          29.000                                                                  
C29  21608383.867 8 112520517.644 8      -290.582          51.000                                                                  
C20  22874859.328 8 119115446.567 8       986.258          51.000                                                                  
C19  24311206.859 6 126594774.611 6      3248.410          38.000                                                                  
C05  39629871.391 6 206363138.777 6        -8.152          36.000                                                                  
> 2020 05 16 16 15 30.0000000  0 16      -0.000000000000
G10  20929269.117 8 109984058.049 8      -208.105          51.000    20929271.109 8  85701886.187 8      -162.160          51.000  
G16  22256646.719 7 116959446.670 7     -3108.746          46.000    22256646.898 7  91137214.446 7     -2422.400          44.000  
G21  24528602.953 5 128898676.976 5     -2568.801          33.000                                                                  
G27  20285599.500 8 106601540.188 8      -175.711          51.000    20285600.461 8  83066141.672 8      -136.918          51.000  
R05  21460945.625 8 114720648.769 8      3733.016          48.000    21460947.203 7  89227272.587 7      2903.460          46.000  
R10  21723241.758 6 115796758.201 6     -2500.926          39.000                                                                  
R04  20494612.906 5 109747290.060 5       121.207          32.000    20494609.883 6  85359017.099 6        94.266          37.000  
E27  26143752.914 6 137386284.125 6     -2942.367          37.000    26143750.336 6 105270021.486 6     -2254.195          39.000  
E15  23876103.977 7 125469772.399 7     -1214.793          44.000    23876107.805 7  96139254.316 7      -930.795          44.000  
E08  24978248.281 8 131261590.424 8      2905.223          48.000    24978251.094 7 100577086.522 7      2226.117          44.000  
E13  23784005.703 6 124985783.394 6       958.324          36.000    23784001.273 5  95768315.590 5       734.343          30.000  
C30  24502784.852 4 127592443.954 4     -2454.414          26.000                                                                  
C29  21610098.055 8 112529442.732 8      -307.711          51.000                                                                  
C20  22869239.609 8 119086179.907 8       961.562          51.000                                                                  
C19  24292518.781 6 126497477.706 6      3234.625          40.000                                                                  
C05  39629931.266 6 206363450.699 6       -16.375          36.000                                                                  
> 2020 05 16 16 16  0.0000000  0 17      -0.000000000000
G10  20930504.734 8 109990551.356 8      -224.887          51.000    20930506.758 8  85706945.902 8      -175.236          51.000  
G16  22274417.477 7 117052834.488 7     -3117.375          47.000    22274417.852 7  91209984.146 7     -2429.124          45.000  
G21  24543263.094 5 128975710.680 5     -2566.555          33.000                                                                  
G27  20286637.242 8 106606993.283 8      -188.078          51.000    20286637.945 8  83070390.849 8      -146.554          51.000  
R09  23064693.992 5 123163776.87925     -4071.531          32.000    23064688.203 4  95794046.13224     -3166.750          29.000  
R03  23127046.750 4 123800506.34324     -3273.352          29.000                                                                  
R05  21440027.875 8 114608832.540 8      3721.121          48.000    21440031.828 8  89140304.464 8      2894.209          48.000  
R10  21737365.117 6 115872053.095 6     -2518.926          37.000                                                                  
R04  20493993.164 5 109744024.524 5        95.652          33.000    20493999.562 5  85356477.230 5        74.399          35.000  
E27  26160553.617 6 137474573.988 6     -2944.238          36.000    26160553.789 6 105337672.196 6     -2256.233          40.000  
E15  23883044.062 7 125506241.306 7     -1216.762          43.000    23883048.109 7  96167198.003 7      -932.369          44.000  
E08  24961662.680 7 131174435.353 7      2904.801          47.000    24961665.922 7 100510305.442 7      2225.719          43.000  
E13  23778544.422 5 124957069.310 5       955.641          35.000    23778538.023 4  95746318.901 4       732.595          29.000  
C29  21611890.508 8 112538775.287 8      -314.719          51.000                                                                  
C20  22863741.352 8 119057546.149 8       947.012          51.000                                                                  
C19  24273889.336 7 126400483.997 7      3231.320          43.000                                                                  
C05  39630017.508 6 206363900.30826       -14.371          36.000                                                                  
> 2020 05 16 16 16 30.0000000  0 17      -0.000000000000
G10  20931846.422 8 109997601.792 8      -245.020          51.000    20931848.414 8  85712439.754 8      -190.924          51.000  
G16  22292248.445 8 117146536.543 8     -3129.320          48.000    22292248.906 7  91282998.689 7     -2438.435          44.000  
G21  24557920.992 5 129052738.895 5     -2568.824          33.000                                                                  
G27  20287756.078 8 106612872.829 8      -203.719          51.000    20287756.734 8  83074972.321 8      -158.742          51.000  
R09  23087579.297 5 123286003.611 5     -4077.727          35.000    23087582.664 4  95889121.68824     -3171.563          25.000  
R03  23145452.133 5 123899019.649 5     -3290.938          33.000    23145462.969 4  96365961.092 4     -2559.615          27.000  
R05  21419187.602 7 114497431.971 7      3705.691          46.000    21419193.227 8  89053659.606 8      2882.205          50.000  
R10  21751598.336 5 115947935.172 5     -2539.957          33.000                                                                  
R04  20493536.602 6 109741587.407 6        66.820          37.000    20493543.602 5  85354581.495 5        51.965          35.000  
E27  26177381.562 6 137562998.343 6     -2950.289          39.000    26177382.359 6 105405425.842 6     -2260.592          38.000  
E15  23890006.203 7 125542825.811 7     -1222.207          43.000    23890010.508 7  96195230.242 7      -936.392          45.000  
E08  24945091.047 7 131087354.663 7      2900.840          47.000    24945094.344 7 100443581.336 7      2222.606          42.000  
E13  23773101.102 5 124928496.430 5       949.598          33.000                                                                  
C29  21613733.461 8 112548371.479 8      -324.891          50.000                                                                  
C20  22858336.898 8 119029401.921 8       929.285          51.000                                                                  
C19  24255291.805 7 126303651.540 7      3224.270          45.000                                                                  
C05  39630102.617 6 206364342.781 6       -15.387          36.000                                                                  
> 2020 05 16 16 17  0.0000000  0 17      -0.000000000000
G10  20933298.578 8 110005233.328 8      -263.172          51.000    20933300.562 8  85718386.415 8      -205.072          51.000  
G16  22310143.648 8 117240574.699 8     -3139.293          50.000    22310144.156 7  91356275.128 7     -2446.206          43.000  
G21  24572582.906 5 129129785.761 5     -2567.793          32.000    24572575.422 4 100620587.635 4     -2000.878          28.000  
G27  20288960.812 8 106619204.012 8      -217.715          51.000    20288961.781 8  83079905.711 8      -169.648          51.000  
R09  23110497.906 6 123408399.403 6     -4082.035          37.000                                                                  
R03  23163941.328 4 123997984.195 4     -3305.477          29.000    23163949.484 4  96442933.491 4     -2570.930          27.000  
R05  21398430.422 8 114386476.442 8      3691.895          49.000    21398437.367 8  88967360.893 8      2871.477          50.000  
R10  21765944.523 5 116024425.077 5     -2558.961          32.000                                                                  
R04  20493240.328 6 109739976.523 6        39.180          36.000    20493248.273 6  85353355.698 6        30.473          36.000  
E27  26194239.391 7 137651579.682 7     -2954.609          42.000    26194239.500 6 105473299.755 6     -2263.692          36.000  
E15  23896994.883 7 125579550.342 7     -1225.586          44.000    23896999.797 7  96223369.786 7      -939.140          45.000  
E08  24928538.609 7 131000374.910 7      2898.566          47.000    24928541.859 7 100376934.526 7      2220.894          42.000  
E13  23767692.312 5 124900079.641 5       945.141          35.000                                                                  
C29  21615631.531 8 112558256.106 8      -333.477          51.000                                                                  
C20  22853030.898 8 119001772.352 8       913.199          51.000                                                                  
C19  24236731.211 7 126207006.934 7      3218.949          46.000                                                                  
C05  39630191.195 5 206364804.053 5       -14.988          35.000                                                                  
> 2020 05 16 16 17 30.0000000  0 15      -0.000000000000
G10  20934854.477 8 110013409.465 8      -283.109          51.000    20934856.062 8  85724757.419 8      -220.605          51.000  
G16  22328095.758 8 117334910.548 8     -3150.961          51.000    22328095.992 7  91429783.540 7     -2455.298          44.000  
G27  20290244.711 8 106625951.606 8      -233.355          51.000    20290245.953 8  83085163.576 8      -181.835          51.000  
R09  23133439.758 6 123530907.423 6     -4086.715          36.000                                                                  
R03  23182518.977 5 124097409.715 5     -3323.473          30.000    23182521.617 4  96520264.390 4     -2584.927          28.000  
R05  21377751.602 8 114275934.002 8      3676.301          51.000    21377758.180 8  88881383.462 8      2859.346          49.000  
R10  21780401.164 5 116101482.956 5     -2579.406          35.000                                                                  
R04  20493107.477 6 109739210.179 6        10.355          39.000    20493103.188 5  85352759.502 5         8.045          34.000  
E27  26211119.820 7 137740280.059 7     -2960.023          42.000    26211118.055 5 105541264.940 5     -2268.077          34.000  
E15  23904003.281 7 125616378.808 7     -1230.812          43.000    23904008.789 7  96251588.981 7      -943.156          45.000  
E08  24911998.898 7 130913462.279 7      2894.512          46.000    24912003.023 7 100310339.147 7      2218.036          42.000  
C29  21617578.281 8 112568393.998 8      -343.582          50.000                                                                  
C20  22847817.094 8 118974622.741 8       895.504          51.000                                                                  
C19  24218200.742 7 126110516.844 7      3212.254          46.000                                                                  
C05  39630276.414 6 206365248.018 6       -16.141          36.000                                                                  
> 2020 05 16 16 18  0.0000000  0 15      -0.000000000000
G10  20936539.789 8 110022266.160 8      -296.977          51.000    20936541.281 8  85731658.748 8      -231.410          51.000  
G16  22346130.000 8 117429677.779 8     -3156.621          51.000    22346129.883 7  91503628.078 7     -2459.708          44.000  
G27  20291633.992 8 106633252.824 8      -243.082          51.000    20291635.172 8  83090852.844 8      -189.415          51.000  
R09  23156427.633 6 123653662.125 6     -4086.137          37.000                                                                  
R05  21357177.344 8 114165947.857 8      3666.625          51.000    21357182.422 7  88795838.739 7      2851.823          46.000  
R10  21794990.102 5 116179244.012 5     -2594.234          34.000                                                                  
R04  20493137.852 5 109739399.856 5       -12.426          34.000    20493138.203 6  85352907.106 6        -9.655          37.000  
E27  26228047.961 7 137829234.236 7     -2959.844          43.000    26228045.156 5 105609468.572 5     -2268.299          32.000  
E15  23911057.508 7 125653447.736 7     -1230.145          44.000    23911063.016 7  96279992.420 7      -942.543          45.000  
E08  24895498.039 7 130826755.389 7      2896.195          43.000    24895503.320 6 100243901.465 6      2219.236          39.000  
C30  24573778.633 5 127962093.478 5     -2471.121          33.000                                                                  
C29  21619599.922 8 112578921.008 8      -347.945          51.000                                                                  
C20  22842721.219 8 118948089.305 8       883.562          51.000                                                                  
C19  24199726.688 7 126014319.012 7      3211.184          46.000                                                                  
C05  39630384.297 6 206365810.135 6       -11.305          36.000                                                                  
> 2020 05 16 16 18 30.0000000  0 14      -0.000000000000
G10  20938297.977 8 110031505.603 8      -329.992          51.000    20938299.414 8  85738858.318 8      -257.137          51.000  
G16  22364189.102 8 117524576.774 8     -3181.094          50.000    22364188.891 7  91577575.294 7     -2478.778          44.000  
G27  20293072.195 8 106640811.079 8      -271.871          51.000    20293073.203 8  83096742.396 8      -211.848          51.000  
R09  23179404.562 6 123776357.228 6     -4104.629          36.000                                                                  
R05  21336651.375 8 114056220.212 8      3637.293          51.000    21336654.648 7  88710495.111 7      2829.009          45.000  
R10  21809652.352 4 116257336.329 4     -2628.316          29.000                                                                  
R04  20493296.570 5 109740243.560 5       -54.609          35.000    20493296.133 6  85353563.178 6       -42.480          37.000  
E27  26244966.828 7 137918143.006 7     -2978.562          42.000    26244964.227 4 105677594.402 4     -2282.501          29.000  
E15  23918100.734 7 125690459.774 7     -1248.625          44.000    23918106.180 7  96308352.275 7      -956.694          45.000  
E08  24878980.062 7 130739959.084 7      2878.918          43.000    24878981.609 5 100177395.420 5      2205.635          34.000  
C29  21621639.969 8 112589543.091 8      -371.207          51.000                                                                  
C20  22837687.102 8 118921878.364 8       852.699          51.000                                                                  
C19  24181252.664 7 125918121.198 7      3191.066          45.000                                                                  
C05  39630458.328 6 206366195.958 6       -25.824          36.000                                                                  
> 2020 05 16 16 19  0.0000000  0 16      -0.000000000000
G32  24668689.828 7 129634845.668 7      3012.512          42.000    24668692.953 7 101014175.069 7      2347.412          42.000  
G10  20940199.477 8 110041497.914 8      -335.891          51.000    20940201.031 8  85746644.549 8      -261.730          51.000  
G16  22382342.859 7 117619975.600 7     -3178.457          47.000    22382342.961 7  91651911.994 7     -2476.724          45.000  
G20  22071675.023 5 115987454.608 5     -2465.629          35.000                                                                  
G27  20294629.945 8 106648997.808 8      -273.629          51.000    20294630.867 8  83103121.655 8      -213.217          51.000  
R09  23202440.844 5 123899365.070 5     -4095.223          35.000                                                                  
R05  21316244.047 7 113947132.426 7      3635.492          47.000    21316247.273 7  88625649.187 7      2827.609          46.000  
R04  20493642.523 5 109742144.414 5       -69.430          31.000    20493647.219 6  85354999.511 6       -54.004          37.000  
E27  26261946.836 7 138007375.204 7     -2969.949          43.000                                                                  
E15  23925203.578 7 125727785.578 7     -1239.781          43.000    23925208.633 7  96336952.533 7      -949.930          45.000  
E08  24862516.227 7 130653446.251 7      2888.848          43.000    24862512.211 6 100111106.517 6      2213.381          37.000  
E13  23746358.938 5 124787975.283 5       928.461          34.000                                                                  
C29  21623768.750 8 112600628.129 8      -367.516          51.000                                                                  
C20  22832785.742 8 118896358.123 8       848.812          51.000                                                                  
C19  24162849.320 7 125822293.133 7      3197.723          43.000                                                                  
C05  39630569.086 6 206366772.945 6       -12.914          36.000                                                                  
> 2020 05 16 16 19 30.0000000  0 19      -0.000000000000
G32  24651498.875 6 129544508.031 6      3009.703          40.000    24651500.516 6 100943782.183 6      2345.227          41.000  
G10  20942172.609 8 110051866.738 8      -355.770          51.000    20942174.531 8  85754724.160 8      -277.223          51.000  
G16  22400519.375 7 117715495.974 7     -3189.758          46.000    22400520.258 7  91726343.420 7     -2485.526          44.000  
G20  22085789.531 5 116061617.558 5     -2478.648          33.000                                                                  
G27  20296235.914 8 106657437.893 8      -289.402          51.000    20296237.031 8  83109698.333 8      -225.511          51.000  
R09  23225467.203 5 124022316.78725     -4099.930          32.000                                                                  
R03  23257715.031 5 124499957.387 5     -3383.270          32.000    23257720.141 4  96833310.409 4     -2631.429          25.000  
R05  21295882.938 7 113838307.068 7      3619.375          43.000    21295889.875 7  88541007.204 7      2815.067          47.000  
R10  21839337.852 4 116415563.173 4     -2654.840          28.000                                                                  
R04  20494115.719 5 109744642.093 5       -98.465          32.000    20494116.023 6  85356961.484 6       -76.587          37.000  
E27  26278916.492 7 138096553.153 7     -2975.527          43.000                                                                  
E15  23932294.531 7 125765049.322 7     -1244.809          43.000    23932299.242 7  96365505.254 7      -953.935          44.000  
E08  24846035.375 7 130566843.272 7      2884.484          44.000    24846032.773 6 100044748.449 6      2210.200          41.000  
E13  23741075.305 5 124760204.859 5       922.902          34.000                                                                  
C30  24616673.609 4 128185478.578 4     -2488.160          29.000                                                                  
C29  21625914.984 8 112611804.285 8      -377.824          51.000                                                                  
C20  22827945.609 8 118871157.088 8       830.895          51.000                                                                  
C19  24144444.211 6 125726464.841 6      3190.738          40.000                                                                  
C05  39630645.141 6 206367168.870 6       -13.996          36.000                                                                  
> 2020 05 16 16 20  0.0000000  0 17      -0.000000000000
G32  24634320.023 6 129454232.857 6      3008.406          40.000    24634321.688 6 100873438.006 6      2344.216          40.000  
G10  20944256.602 8 110062817.760 8      -374.230          51.000    20944258.633 8  85763257.436 8      -291.608          51.000  
G16  22418757.719 7 117811341.658 7     -3199.738          46.000    22418759.508 7  91801028.307 7     -2493.303          44.000  
G27  20297929.648 8 106666338.371 8      -303.840          51.000    20297930.953 8  83116633.758 8      -236.758          51.000  
R09  23248516.578 4 124145396.45524     -4103.438          28.000                                                                  
R03  23276720.156 5 124601692.674 5     -3398.871          30.000                                                                  
R05  21275614.328 8 113729958.070 8      3604.148          49.000    21275621.414 8  88456735.738 8      2803.227          48.000  
R10  21854329.516 5 116495465.283 5     -2673.117          31.000                                                                  
R04  20494738.492 6 109748024.798 6      -126.352          36.000    20494749.938 6  85359592.580 6       -98.276          38.000  
E27  26295915.008 7 138185881.323 7     -2979.422          43.000    26295907.727 5 105882725.458 5     -2283.225          33.000  
E15  23939412.953 7 125802457.361 7     -1248.824          44.000    23939417.258 7  96394168.535 7      -956.940          44.000  
E08  24829577.539 7 130480358.603 7      2881.250          45.000    24829578.703 7  99978481.038 7      2207.751          45.000  
E13  23735822.414 5 124732587.605 5       917.543          32.000    23735824.141 5  95574327.777 5       703.948          31.000  
C29  21628118.031 8 112623276.576 8      -386.895          51.000                                                                  
C20  22823206.445 8 118846480.578 8       814.383          51.000                                                                  
C19  24126078.711 6 125630843.182 6      3184.383          40.000                                                                  
C05  39630725.758 6 206367588.337 6       -13.969          36.000                                                                  
> 2020 05 16 16 20 30.0000000  0 16      -0.000000000000
G32  24617150.625 7 129364005.761 7      3004.551          43.000    24617153.992 7 100803131.277 7      2341.212          43.000  
G10  20946447.891 8 110074332.926 8      -395.312          51.000    20946449.953 8  85772230.296 8      -308.036          51.000  
G16  22437054.352 7 117907492.536 7     -3212.000          47.000    22437056.297 7  91875951.025 7     -2502.861          43.000  
G21  24675204.227 5 129669051.802 5     -2569.406          33.000                                                                  
G27  20299707.797 8 106675682.465 8      -321.039          51.000    20299709.070 8  83123914.839 8      -250.160          51.000  
R03  23295811.289 5 124703889.734 5     -3416.559          30.000                                                                  
R05  21255433.375 8 113622072.260 8      3586.312          51.000    21255438.703 8  88372824.593 8      2789.358          48.000  
R10  21869428.828 6 116575935.607 6     -2693.535          38.000                                                                  
R04  20495530.172 6 109752248.644 6      -156.859          36.000    20495538.531 6  85362877.755 6      -122.002          37.000  
E27  26312938.664 7 138275340.411 7     -2986.105          43.000    26312931.531 5 105951269.948 5     -2287.862          34.000  
E15  23946555.461 7 125839992.204 7     -1255.312          44.000    23946559.242 7  96422928.964 7      -961.807          44.000  
E08  24813139.922 7 130393976.843 7      2875.680          45.000    24813144.227 7  99912292.488 7      2203.333          47.000  
E13                                                                  23730597.117 5  95553285.591 5       697.414          33.000  
C29  21630374.750 8 112635028.218 8      -398.473          51.000                                                                  
C20  22818565.266 8 118822312.130 8       795.059          51.000                                                                  
C19  24107752.172 7 125535413.134 7      3175.852          43.000                                                                  
> 2020 05 16 16 21  0.0000000  0 17      -0.000000000000
G32  24600001.344 7 129273883.019 7      3003.277          44.000    24600006.289 7 100732905.844 7      2340.220          44.000  
G10  20948756.523 8 110086464.711 8      -413.770          51.000    20948758.500 8  85781683.646 8      -322.415          51.000  
G16  22455419.086 8 118003999.259 8     -3221.918          48.000    22455420.516 7  91951151.034 7     -2510.589          43.000  
G21  24689869.148 5 129746111.824 5     -2568.133          30.000                                                                  
G27  20301580.594 8 106685523.971 8      -335.375          51.000    20301581.758 8  83131583.513 8      -261.331          51.000  
R03  23314998.133 4 124806599.187 4     -3431.766          29.000    23315006.906 4  97071857.85824     -2669.152          25.000  
R05  21235349.875 8 113514708.295 8      3570.984          51.000    21235353.109 7  88289319.338 7      2777.433          47.000  
R10  21884642.781 6 116657024.212 6     -2712.457          37.000                                                                  
R04  20496487.602 6 109757367.821 6      -184.746          39.000    20496494.062 6  85366859.421 6      -143.691          36.000  
E27  26329997.055 7 138364981.756 7     -2990.121          42.000    26329990.844 5 106019956.134 5     -2291.265          34.000  
E15  23953732.297 7 125877706.985 7     -1259.277          43.000    23953735.758 7  96451827.273 7      -964.871          44.000  
E08  24796732.820 7 130307753.430 7      2872.273          46.000    24796738.844 8  99846225.236 8      2200.927          49.000  
E13                                                                  23725410.273 5  95532403.215 5       694.026          34.000  
C29  21632695.516 8 112647112.471 8      -407.477          51.000                                                                  
C20  22814032.188 8 118798705.199 8       778.492          51.000                                                                  
C19  24089474.289 7 125440229.772 7      3169.598          45.000                                                                  
C05  39630900.594 6 206368498.143 6       -15.902          36.000                                                                  
> 2020 05 16 16 21 30.0000000  0 15      -0.000000000000
G32  24582892.766 7 129183974.946 7      2999.016          43.000    24582898.820 7 100662847.665 7      2336.899          43.000  
G10  20951202.836 8 110099319.816 8      -434.820          51.000    20951204.828 8  85791700.610 8      -338.821          51.000  
G16  22473871.750 8 118100966.715 8     -3234.148          48.000    22473872.648 7  92026710.046 7     -2520.116          43.000  
G27  20303568.695 8 106695970.915 8      -352.668          51.000    20303569.297 8  83139723.966 8      -274.806          51.000  
R05  21215384.641 8 113407979.815 8      3552.785          51.000    21215386.953 8  88206308.377 8      2763.281          48.000  
R10  21899991.023 5 116738836.349 5     -2732.922          35.000                                                                  
R04  20497632.758 6 109763491.721 6      -215.359          38.000    20497637.328 5  85371622.442 5      -167.499          33.000  
E27  26347110.273 6 138454910.775 6     -2996.688          41.000    26347105.469 5 106088862.745 5     -2296.012          33.000  
E15  23960963.797 7 125915709.005 7     -1265.785          44.000    23960967.203 7  96480945.689 7      -970.011          43.000  
E08  24780376.656 7 130221797.759 7      2866.363          47.000    24780383.352 8  99780363.174 8      2196.300          49.000  
E13                                                                  23720283.938 5  95511758.103 5       688.351          34.000  
C29  21635100.523 8 112659636.191 8      -419.109          51.000                                                                  
C20  22809627.523 8 118775766.982 8       759.074          51.000                                                                  
C19  24071265.016 7 125345401.839 7      3160.672          47.000                                                                  
C05  39631025.695 6 206369148.870 6       -18.695          36.000                                                                  
> 2020 05 16 16 22  0.0000000  0 15      -0.000000000000
G32  24565748.844 7 129093882.030 7      2999.559          44.000    24565755.430 7 100592645.433 7      2337.319          44.000  
G10  20953709.984 8 110112494.850 8      -450.957          51.000    20953711.883 8  85801966.878 8      -351.395          51.000  
G16  22492335.047 8 118197989.637 8     -3241.504          49.000    22492335.344 6  92102312.256 6     -2525.851          41.000  
G27  20305595.469 8 106706621.214 8      -364.832          51.000    20305595.562 8  83148022.879 8      -284.285          51.000  
R05  21195462.062 8 113301481.382 8      3539.500          51.000    21195464.547 8  88123476.364 8      2752.948          48.000  
R10  21915396.789 5 116820959.386 5     -2749.121          33.000                                                                  
R04  20498888.266 6 109770209.598 6      -240.301          41.000    20498891.328 5  85376847.488 5      -186.904          31.000  
E27  26364201.461 7 138544722.957 7     -2998.375          42.000    26364198.453 5 106157693.880 5     -2297.455          34.000  
E15  23968173.305 7 125953595.576 7     -1267.406          44.000    23968176.742 7  96509975.633 7      -971.127          43.000  
E08  24763995.406 8 130135709.367 8      2865.266          49.000    24764001.539 8  99714399.393 8      2195.498          49.000  
E13                                                                  23715139.508 5  95491041.797 5       686.737          34.000  
C29  21637513.367 8 112672200.929 8      -425.875          51.000                                                                  
C20  22805274.773 8 118753099.207 8       744.672          51.000                                                                  
C19  24053047.461 7 125250532.655 7      3156.602          46.000                                                                  
C05  39631105.938 5 206369567.330 5       -16.035          35.000                                                                  
> 2020 05 16 16 22 30.0000000  0 15      -0.000000000000
G32  24548629.406 7 129003919.648 7      2998.152          43.000    24548636.375 7 100522544.906 7      2336.226          43.000  
G10  20956337.328 8 110126301.480 8      -469.250          51.000    20956339.023 8  85812725.290 8      -365.649          51.000  
G16  22510867.727 8 118295377.620 8     -3250.816          49.000    22510867.219 6  92178198.940 6     -2533.104          40.000  
G27  20307720.414 8 106717787.934 8      -379.242          51.000    20307720.531 8  83156724.193 8      -295.517          51.000  
R05  21175643.055 8 113195535.247 8      3523.852          51.000    21175645.578 7  88041073.904 7      2740.777          47.000  
R10  21930919.836 5 116903706.177 5     -2766.930          32.000                                                                  
R04  20500314.016 6 109777839.564 6      -268.195          39.000                                                                  
E27  26381329.445 7 138634728.749 7     -3001.844          42.000    26381330.500 6 106226659.361 6     -2300.226          37.000  
E15  23975420.336 7 125991679.056 7     -1271.203          43.000    23975423.906 7  96539156.458 7      -974.054          43.000  
E08  24747648.406 8 130049802.726 8      2862.066          48.000    24747653.430 8  99648574.890 8      2192.953          48.000  
E13                                                                  23710036.203 5  95470493.765 5       683.155          34.000  
C29  21639993.484 8 112685116.738 8      -434.934          51.000                                                                  
C20  22801033.398 8 118731012.184 8       728.051          51.000                                                                  
C19  24034881.375 7 125155934.188 7      3150.270          46.000                                                                  
C05  39631200.852 5 206370061.367 5       -15.992          35.000                                                                  
> 2020 05 16 16 23  0.0000000  0 15      -0.000000000000
G32  24531517.328 7 128913996.808 7      2996.898          43.000    24531524.430 7 100452475.214 7      2335.246          43.000  
G10  20959066.758 8 110140644.794 8      -487.027          51.000    20959068.492 8  85823901.906 8      -379.499          51.000  
G16  22529451.102 8 118393034.040 8     -3259.688          48.000    22529449.742 6  92254294.776 6     -2540.020          41.000  
G27  20309925.852 8 106729377.478 8      -393.281          51.000    20309926.297 8  83165754.979 8      -306.453          51.000  
R05  21155910.188 8 113090050.356 8      3508.461          51.000    21155912.586 7  87959030.155 7      2728.807          46.000  
R10  21946542.250 6 116986977.495 6     -2784.391          37.000                                                                  
R04  20501892.578 6 109786285.603 6      -295.234          38.000                                                                  
E27  26398475.992 6 138724832.164 6     -3004.871          41.000    26398480.961 6 106295699.570 6     -2302.576          39.000  
E15  23982687.188 7 126029865.257 7     -1274.602          45.000    23982690.656 7  96568415.996 7      -976.661          43.000  
E08  24731317.930 8 129963985.826 8      2858.984          48.000    24731322.188 8  99582819.153 8      2190.678          48.000  
E13                                                                  23704955.578 5  95450033.905 5       680.156          32.000  
C29  21642523.312 8 112698290.799 8      -443.383          51.000                                                                  
C20  22796885.617 8 118709413.321 8       711.824          51.000                                                                  
C19  24016749.016 7 125061515.432 7      3144.250          45.000                                                                  
C05  39631292.422 6 206370538.599 6       -15.422          36.000                                                                  
> 2020 05 16 16 23 30.0000000  0 17      -0.000000000000
G32  24514413.711 7 128824116.488 7      3000.934          44.000    24514420.000 7 100382438.653 7      2338.394          44.000  
G10  20961898.211 8 110155524.040 8      -499.242          51.000    20961899.586 8  85835496.127 8      -389.020          51.000  
G16  22548084.789 7 118490956.299 7     -3262.836          47.000    22548082.820 6  92330597.741 6     -2542.473          41.000  
G21  24763197.055 5 130131467.24525     -2561.453          31.000                                                                  
G27  20312212.016 8 106741390.471 8      -401.918          51.000    20312212.570 8  83175115.722 8      -313.183          51.000  
R05  21136262.930 7 112985030.789 7      3498.629          47.000    21136265.734 7  87877348.332 7      2721.156          43.000  
R10  21962263.047 6 117070769.279 6     -2795.754          37.000                                                                  
R04  20503623.375 5 109795547.274 5      -316.328          32.000    20503634.195 4  85396614.307 4      -246.033          26.000  
E27  26415640.750 6 138815031.325 6     -3002.719          40.000    26415647.391 6 106364813.141 6     -2300.630          40.000  
E15  23989973.664 7 126068154.148 7     -1272.285          45.000    23989976.930 7  96597754.236 7      -974.952          43.000  
E08  24715004.766 7 129878260.802 7      2861.527          47.000    24715008.648 8  99517133.809 8      2192.651          48.000  
E13                                                                  23699899.273 5  95429675.416 5       681.401          31.000  
C30  24732226.992 4 128787205.798 4     -2518.938          29.000                                                                  
C29  21645102.938 8 112711723.664 8      -446.504          51.000                                                                  
C20  22792831.734 8 118688303.395 8       701.191          51.000                                                                  
C19  23998650.969 7 124967278.795 7      3143.883          44.000                                                                  
C05  39631381.047 6 206370999.312 6        -9.258          36.000                                                                  
> 2020 05 16 16 24  0.0000000  0 16      -0.000000000000
G32  24497296.789 7 128734166.438 7      2995.594          45.000    24497302.188 7 100312347.793 7      2334.236          45.000  
G10  20964809.508 8 110170823.070 8      -520.930          51.000    20964810.719 8  85847417.461 8      -405.919          51.000  
G16  22566746.781 8 118589026.502 8     -3275.418          48.000    22566744.680 7  92407016.009 7     -2552.278          42.000  
G21  24777826.195 5 130208360.332 5     -2564.539          33.000                                                                  
G27  20314556.992 8 106753712.131 8      -419.855          51.000    20314557.461 8  83184717.016 8      -327.160          51.000  
R05  21116678.867 7 112880363.809 7      3479.035          44.000    21116683.500 7  87795940.682 7      2705.920          42.000  
R10  21978057.336 5 117154959.931 5     -2816.801          32.000                                                                  
R04  20505485.086 5 109805506.857 5      -347.816          30.000    20505482.047 4  85404326.49324      -270.536          27.000  
E27  26432801.289 6 138905208.968 6     -3009.660          37.000    26432808.664 6 106433910.228 6     -2306.116          41.000  
E15  23997257.578 7 126106430.449 7     -1279.633          43.000    23997261.156 7  96627082.781 7      -980.567          43.000  
E08  24698687.562 7 129792514.435 7      2854.516          47.000    24698691.180 8  99451432.124 8      2187.266          49.000  
C30  24746754.586 4 128862844.59024     -2526.141          27.000                                                                  
C29  21647710.531 8 112725301.558 8      -458.996          51.000                                                                  
C20  22788849.789 8 118667568.762 8       680.992          51.000                                                                  
C19  23980566.102 7 124873112.322 7      3133.844          43.000                                                                  
C05  39631444.477 6 206371330.332 6       -12.906          36.000                                                                  
> 2020 05 16 16 24 30.0000000  0 14      -0.000000000000
G32  24480219.922 7 128644426.236 7      2988.375          47.000    24480223.984 7 100242420.449 7      2328.608          47.000  
G10  20967853.164 8 110186817.550 8      -544.109          51.000    20967854.547 8  85859880.697 8      -423.981          51.000  
G16  22585489.289 8 118687518.445 8     -3289.484          49.000    22585487.500 7  92483762.920 7     -2563.235          44.000  
G21  24792481.938 5 130285372.577 5     -2569.320          34.000                                                                  
G27  20317013.312 8 106766619.499 8      -439.422          51.000    20317013.664 8  83194774.701 8      -342.407          51.000  
R05  21097215.656 7 112776334.856 7      3457.496          45.000    21097222.305 7  87715029.326 7      2689.164          43.000  
R10  21993965.211 4 117239871.537 4     -2839.395          28.000                                                                  
E27  26450009.672 5 138995639.653 5     -3017.934          35.000    26450017.953 7 106503201.207 7     -2312.384          42.000  
E15  24004591.398 7 126144970.473 7     -1288.289          44.000    24004595.273 7  96656613.419 7      -987.209          42.000  
E08  24682419.594 8 129707025.300 8      2846.008          48.000    24682422.812 8  99385927.531 8      2180.732          49.000  
C29  21650398.852 8 112739298.929 8      -473.004          51.000                                                                  
C20  22784992.570 8 118647484.003 8       659.207          51.000                                                                  
C19  23962547.883 7 124779292.172 7      3122.273          43.000                                                                  
C05  39631535.359 5 206371804.02825       -17.254          35.000                                                                  
> 2020 05 16 16 25  0.0000000  0 14      -0.000000000000
G32  24463159.422 7 128554771.267 7      2988.270          47.000    24463162.391 7 100172559.530 7      2328.525          47.000  
G10  20971004.633 8 110203378.984 8      -560.434          51.000    20971006.023 8  85872785.722 8      -436.702          51.000  
G16  22604287.430 8 118786301.714 8     -3296.504          50.000    22604286.031 7  92560736.844 7     -2568.705          44.000  
G21  24807141.570 6 130362406.042 6     -2566.406          37.000                                                                  
G27  20319556.859 8 106779985.510 8      -452.129          51.000    20319557.125 8  83205189.762 8      -352.308          51.000  
R05  21077851.148 8 112672818.269 8      3443.070          50.000    21077858.164 7  87634516.443 7      2677.944          46.000  
R10  22009992.656 5 117325237.097 5     -2854.516          34.000                                                                  
E27  26467241.594 6 139086193.870 6     -3019.277          36.000    26467250.523 6 106572586.831 6     -2313.566          41.000  
E15  24011951.039 7 126183646.603 7     -1290.344          45.000    24011954.492 7  96686248.364 7      -988.628          42.000  
E08  24666176.750 8 129621667.933 8      2844.223          48.000    24666179.820 8  99320523.907 8      2179.269          50.000  
C29  21653143.383 8 112753589.780 8      -480.168          51.000                                                                  
C20  22781236.047 8 118627923.260 8       644.363          51.000                                                                  
C19  23944573.406 7 124685694.272 7      3117.449          45.000                                                                  
C05  39631629.469 6 206372293.711 6       -15.641          36.000                                                                  
> 2020 05 16 16 25 30.0000000  0 14      -0.000000000000
G32  24446110.164 8 128465174.084 8      2985.387          48.000    24446112.148 7 100102743.634 7      2326.282          46.000  
G10  20974258.039 8 110220475.975 8      -579.098          51.000    20974259.602 8  85886108.059 8      -451.245          51.000  
G16  22623134.938 8 118885343.552 8     -3305.949          51.000    22623133.602 7  92637912.242 7     -2576.065          45.000  
G21  24821797.469 6 130439421.850 6     -2566.898          36.000    24821801.297 5 101641125.358 5     -2000.181          32.000  
G27  20322182.039 8 106793780.160 8      -467.266          51.000    20322182.258 8  83215938.835 8      -364.103          51.000  
R05  21058578.758 8 112569787.435 8      3425.918          51.000    21058585.531 8  87554381.413 8      2664.606          49.000  
R10  22026115.555 6 117411152.843 6     -2872.742          39.000                                                                  
E27  26484490.562 5 139176938.112 5     -3022.867          34.000    26484499.742 6 106642042.248 6     -2316.544          41.000  
E15  24019330.875 7 126222428.305 7     -1294.840          43.000    24019333.672 7  96715964.208 7      -992.193          42.000  
E08  24649953.656 8 129536413.850 8      2839.754          48.000    24649956.648 8  99255199.429 8      2175.893          51.000  
C29  21655938.414 8 112768144.307 8      -489.820          51.000                                                                  
C20  22777574.625 8 118608856.952 8       627.004          51.000                                                                  
C19  23926636.969 7 124592290.673 7      3109.914          46.000                                                                  
C05  39631721.055 6 206372770.720 6       -16.621          36.000                                                                  
> 2020 05 16 16 26  0.0000000  0 15      -0.000000000000
G32  24429077.094 8 128375661.334 8      2984.043          48.000    24429077.742 7 100032993.541 7      2325.232          46.000  
G10  20977617.703 8 110238131.211 8      -595.996          51.000    20977619.508 8  85899865.398 8      -464.413          51.000  
G16  22642035.430 8 118984664.485 8     -3313.578          50.000    22642034.133 7  92715305.112 7     -2582.013          46.000  
G21  24836454.164 5 130516446.555 5     -2565.371          35.000                                                                  
G20  22275667.102 5 117059420.25825     -2632.645          32.000                                                                  
G27  20324893.352 8 106808027.536 8      -480.738          51.000    20324893.641 8  83227040.684 8      -374.601          51.000  
R05  21039402.680 8 112467270.577 8      3410.445          51.000    21039409.102 8  87474646.164 8      2652.572          49.000  
R10  22042335.250 6 117497595.635 6     -2888.441          40.000                                                                  
E27                                                                  26501770.422 6 106711584.053 6     -2318.250          41.000  
E15  24026735.250 7 126261339.105 7     -1297.387          44.000    24026738.211 7  96745778.941 7      -994.120          42.000  
E08  24633755.273 7 129451288.744 7      2836.980          47.000    24633757.984 8  99189973.773 8      2173.878          51.000  
C29  21658788.828 8 112782986.401 8      -497.777          51.000                                                                  
C20  22774012.758 8 118590308.978 8       611.402          51.000                                                                  
C19  23908742.719 7 124499106.971 7      3104.184          47.000                                                                  
C05  39631814.562 6 206373257.868 6       -14.578          36.000                                                                  
> 2020 05 16 16 26 30.0000000  0 15      -0.000000000000
G32  24412059.898 8 128286232.349 8      2980.492          49.000    24412058.875 7  99963308.730 7      2322.468          46.000  
G10  20981082.672 8 110256340.084 8      -615.160          51.000    20981084.555 8  85914054.125 8      -479.349          51.000  
G16  22660987.383 8 119084258.158 8     -3323.281          49.000    22660986.320 7  92792910.512 7     -2589.574          44.000  
G21  24851110.602 5 130593468.260 5     -2565.531          35.000                                                                  
G27  20327690.125 8 106822724.403 8      -496.352          51.000    20327690.469 8  83238492.786 8      -386.768          51.000  
R05  21020321.867 8 112365268.319 8      3392.496          51.000    21020327.609 8  87395311.127 8      2638.612          48.000  
R10  22058651.172 6 117584557.565 6     -2905.906          37.000                                                                  
R04  20517275.586 5 109868692.81425      -488.586          33.000                                                                  
E27                                                                  26519061.109 6 106781207.932 6     -2321.253          40.000  
E15  24034163.484 7 126300375.261 7     -1302.191          44.000    24034167.117 7  96775689.723 7      -997.748          42.000  
E08  24617580.742 7 129366290.963 7      2832.301          45.000    24617583.531 8  99124845.680 8      2170.191          51.000  
C29  21661694.047 8 112798112.817 8      -507.910          51.000                                                                  
C20  22770549.617 8 118572276.259 8       593.488          51.000                                                                  
C19  23890890.383 8 124406141.860 8      3096.262          49.000                                                                  
C05  39631909.383 6 206373751.780 6       -15.633          36.000                                                                  
> 2020 05 16 16 27  0.0000000  0 15      -0.000000000000
G32  24395057.352 8 128196880.468 8      2976.910          48.000    24395055.297 7  99893683.995 7      2319.674          46.000  
G10  20984650.992 8 110275091.872 8      -634.309          51.000    20984652.969 8  85928665.911 8      -494.267          51.000  
G16  22679988.352 8 119184112.207 8     -3332.980          48.000    22679987.992 7  92870718.834 7     -2597.128          44.000  
G21  24865765.641 5 130670480.805 5     -2566.375          35.000                                                                  
G27  20330570.555 8 106837861.520 8      -512.094          51.000    20330570.805 8  83250287.932 8      -399.034          51.000  
R05  21001334.859 7 112263774.945 7      3374.293          47.000    21001340.797 7  87316371.867 7      2624.451          47.000  
R10  22075060.617 5 117672024.255 5     -2923.898          34.000                                                                  
E27                                                                  26536369.438 6 106850904.940 6     -2324.527          40.000  
E15  24041613.883 7 126339527.023 7     -1307.188          44.000    24041617.844 7  96805689.070 7     -1001.603          42.000  
E08  24601427.984 7 129281412.928 7      2827.004          43.000    24601432.094 8  99059809.330 8      2166.162          51.000  
C30  24834655.445 4 129320568.16124     -2555.789          26.000                                                                  
C29  21664652.086 8 112813514.419 8      -518.160          51.000                                                                  
C20  22767183.594 8 118554749.644 8       575.543          51.000                                                                  
C19  23873078.516 8 124313387.941 8      3088.121          49.000                                                                  
C05  39632003.562 6 206374241.782 6       -17.219          36.000                                                                  
> 2020 05 16 16 27 30.0000000  0 14      -0.000000000000
G32  24378072.492 7 128107622.262 7      2974.852          46.000    24378070.547 7  99824132.246 7      2318.070          46.000  
G10  20988324.906 8 110294399.175 8      -651.527          51.000    20988327.164 8  85943710.562 8      -507.684          51.000  
G16  22699041.070 8 119284237.555 8     -3340.781          49.000    22699041.383 7  92948738.548 7     -2603.207          44.000  
G21  24880422.016 5 130747497.820 5     -2566.215          34.000                                                                  
G27  20333537.367 8 106853452.894 8      -526.074          51.000    20333537.680 8  83262437.037 8      -409.928          51.000  
R05  20982445.398 7 112162808.334 7      3358.023          47.000    20982452.258 7  87237842.271 7      2611.797          47.000  
R10  22091566.852 6 117760005.625 6     -2939.977          36.000                                                                  
E27                                                                  26553697.734 6 106920683.970 6     -2326.449          39.000  
E15  24049088.609 7 126378807.807 7     -1310.348          43.000    24049092.711 7  96835787.306 7     -1003.988          42.000  
E08  24585299.625 6 129196670.242 6      2823.676          40.000    24585306.852 8  98994876.668 8      2163.570          51.000  
C29  21667665.492 8 112829205.007 8      -526.590          51.000                                                                  
C20  22763917.633 8 118537743.091 8       559.438          51.000                                                                  
C19  23855310.047 8 124220860.883 8      3081.715          49.000                                                                  
C05  39632099.797 6 206374743.291 6       -15.438          36.000                                                                  
> 2020 05 16 16 28  0.0000000  0 15      -0.000000000000
G32  24361104.758 7 128018454.091 7      2970.969          42.000    24361103.578 7  99754650.674 7      2315.047          42.000  
G10  20992103.141 8 110314254.349 8      -670.809          51.000    20992105.320 8  85959182.108 8      -522.708          51.000  
G16  22718144.273 8 119384625.276 8     -3350.434          50.000    22718144.781 7  93026962.697 7     -2610.731          44.000  
G21  24895077.859 5 130824516.328 5     -2566.762          35.000                                                                  
G27  20336589.500 8 106869492.304 8      -541.902          51.000    20336589.883 8  83274935.265 8      -422.262          51.000  
R05  20963655.891 8 112062366.167 8      3339.559          50.000    20963662.062 7  87159720.599 7      2597.438          47.000  
R10  22108165.625 5 117848490.673 5     -2957.180          33.000                                                                  
E27                                                                  26571045.211 6 106990538.424 6     -2329.735          38.000  
E15  24056586.711 7 126418210.943 7     -1315.203          43.000    24056590.281 6  96865979.278 6     -1007.825          41.000  
E08  24569196.148 6 129112058.300 6      2818.324          39.000    24569206.367 8  98930044.152 8      2159.547          51.000  
E13  23655642.922 5 124311253.145 5       838.734          33.000    23655647.664 5  95251499.193 5       643.086          32.000  
C29  21670733.305 8 112845178.452 8      -536.957          51.000                                                                  
C20  22760750.336 8 118521250.465 8       541.359          51.000                                                                  
C19  23837583.594 7 124128556.382 7      3073.262          47.000                                                                  
C05  39632197.055 6 206375248.792 6       -16.516          36.000                                                                  
> 2020 05 16 16 28 30.0000000  0 15      -0.000000000000
G32  24344156.133 6 127929383.806 6      2967.102          36.000    24344155.438 6  99685245.367 6      2312.031          36.000  
G10  20995986.273 8 110334661.122 8      -689.785          51.000    20995988.469 8  85975083.474 8      -537.495          51.000  
G16  22737297.828 8 119485276.789 8     -3359.785          50.000    22737298.359 7  93105392.386 7     -2618.018          43.000  
G21  24909733.922 5 130901533.212 5     -2568.141          34.000                                                                  
G27  20339727.875 8 106885984.984 8      -557.785          51.000    20339728.328 8  83287786.689 8      -434.638          51.000  
R05  20944967.070 8 111962457.481 8      3320.988          51.000    20944971.492 7  87082013.903 7      2582.994          45.000  
R10  22124844.719 5 117937578.782 5     -2974.762          31.000                                                                  
E27                                                                  26588412.719 6 107060470.525 6     -2332.624          37.000  
E15  24064109.086 7 126457741.121 7     -1320.117          43.000    24064112.875 7  96896268.611 7     -1011.582          42.000  
E08  24553121.289 6 129027583.931 6      2813.258          41.000    24553131.688 8  98865317.080 8      2155.528          51.000  
E13                                                                  23650871.266 5  95232277.793 5       638.402          33.000  
C29  21673856.055 8 112861439.975 8      -547.156          51.000                                                                  
C20  22757682.516 8 118505276.987 8       523.453          51.000                                                                  
C19  23819900.344 7 124036481.441 7      3065.023          45.000                                                                  
C05  39632295.875 6 206375763.263 6       -17.875          36.000                                                                  
> 2020 05 16 16 29  0.0000000  0 14      -0.000000000000
G10  20999974.172 8 110355618.052 8      -705.945          51.000    20999976.562 8  85991413.553 8      -550.087          51.000  
G16  22756500.992 8 119586188.953 8     -3366.203          50.000    22756501.352 7  93184025.177 7     -2623.019          42.000  
G21  24924390.023 5 130978552.574 5     -2565.711          32.000                                                                  
G27  20342952.531 8 106902930.870 8      -570.562          51.000    20342953.148 8  83300991.262 8      -444.594          51.000  
R05  20926378.789 8 111863086.031 8      3305.168          51.000    20926380.609 7  87004725.074 7      2570.690          44.000  
R10  22141632.867 5 118027067.410 5     -2989.281          34.000                                                                  
E27                                                                  26605799.617 6 107130478.369 6     -2333.330          36.000  
E15  24071655.312 7 126497397.928 7     -1322.125          42.000    24071660.039 7  96926654.939 7     -1013.033          42.000  
E08  24537074.180 7 128943248.750 7      2810.625          46.000    24537083.008 8  98800696.664 8      2153.642          51.000  
E13                                                                  23646121.633 5  95213172.324 5       636.256          32.000  
C29  21677033.945 8 112877989.532 8      -554.598          51.000                                                                  
C20  22754714.414 8 118489822.623 8       508.246          51.000                                                                  
C19  23802261.023 7 123944637.908 7      3059.332          45.000                                                                  
C05  39632396.320 6 206376286.128 6       -15.473          36.000                                                                  
> 2020 05 16 16 29 30.0000000  0 14      -0.000000000000
G10  21004060.969 8 110377093.994 8      -725.125          51.000    21004063.078 8  86008148.043 8      -565.036          51.000  
G16  22775747.516 8 119687329.352 8     -3375.734          50.000    22775747.375 6  93262835.815 6     -2630.446          40.000  
G21  24939041.234 5 131055545.67425     -2566.383          33.000                                                                  
G27  20346257.711 8 106920300.350 8      -586.711          51.000    20346258.383 8  83314525.914 8      -457.177          51.000  
R05  20907885.273 8 111764225.088 8      3286.254          51.000    20907885.352 7  86927833.323 7      2555.979          43.000  
R10  22158509.688 6 118117021.226 6     -3006.645          37.000                                                                  
E27                                                                  26623199.945 6 107200537.496 6     -2336.458          36.000  
E15  24079220.047 7 126537151.209 7     -1327.211          42.000    24079224.836 6  96957115.194 6     -1016.796          40.000  
E08  24521048.414 7 128859024.739 7      2805.031          47.000    24521054.969 8  98736161.446 8      2149.347          49.000  
E13                                                                  23641396.469 5  95194109.801 5       631.859          32.000  
C29  21680261.570 8 112894797.790 8      -565.105          51.000                                                                  
C20  22751840.867 8 118474858.087 8       490.070          51.000                                                                  
C19  23784661.867 7 123852998.172 7      3050.566          47.000                                                                  
C05  39632492.695 6 206376789.26726       -16.891          36.000                                                                  
> 2020 05 16 16 30  0.0000000  0 14      -0.000000000000
G32  24293439.281 6 127662910.754 6      2954.879          41.000    24293443.922 6  99477583.896 6      2302.507          41.000  
G10  21008281.484 8 110399272.784 8      -746.188          51.000    21008283.555 8  86025430.223 8      -581.445          51.000  
G16  22795072.281 8 119788880.131 8     -3387.051          51.000    22795071.648 6  93341966.205 6     -2639.264          39.000  
G27  20349678.719 8 106938278.702 8      -604.520          51.000    20349679.445 8  83328535.007 8      -471.054          51.000  
R05  20889522.453 8 111666067.195 8      3265.199          51.000    20889522.938 7  86851488.384 7      2539.600          44.000  
R10  22175508.141 6 118207623.242 6     -3026.051          37.000                                                                  
E27                                                                  26640648.336 6 107270788.048 6     -2341.073          37.000  
E15  24086838.117 6 126577185.850 6     -1334.281          41.000    24086841.672 6  96987791.074 6     -1022.378          40.000  
E08  24505079.156 8 128775098.921 8      2797.477          48.000    24505083.375 8  98671854.725 8      2143.436          48.000  
E13                                                                  23636732.547 5  95175325.982 5       625.873          33.000  
C29  21683574.297 8 112912048.390 8      -577.512          51.000                                                                  
C20  22749096.289 8 118460566.987 8       469.871          50.000                                                                  
C19  23767138.852 8 123761747.629 8      3040.000          49.000                                                                  
C05  39632620.062 6 206377452.529 6       -20.164          36.000    39632621.570 5 159584149.956 5       -15.456          35.000  
> 2020 05 16 16 30 30.0000000  0 14      -0.000000000000
G32  24276553.195 7 127574181.925 7      2956.930          45.000    24276559.797 7  99408444.623 7      2304.105          45.000  
G10  21012567.398 8 110421794.642 8      -758.762          51.000    21012569.461 8  86042979.725 8      -591.243          51.000  
G16  22814406.461 8 119890479.850 8     -3389.734          50.000    22814405.438 6  93421134.705 6     -2641.355          39.000  
G27  20353147.477 8 106956507.650 8      -614.121          51.000    20353148.227 8  83342739.380 8      -478.536          51.000  
R05  20871224.172 8 111568251.468 8      3252.363          51.000    20871225.062 7  86775409.533 7      2529.616          46.000  
R10  22192559.258 6 118298505.179 6     -3036.207          40.000                                                                  
E27                                                                  26658075.438 6 107340953.666 6     -2339.122          37.000  
E15  24094441.500 7 126617143.113 7     -1332.992          42.000    24094444.680 6  97018407.631 6     -1021.264          41.000  
E08  24489098.680 8 128691114.679 8      2798.043          50.000    24489100.430 7  98607503.215 7      2143.968          46.000  
E13                                                                  23632061.625 6  95156508.178 6       626.121          36.000  
C29  21686903.938 8 112929386.303 8      -581.707          51.000                                                                  
C20  22746412.531 8 118446594.206 8       458.160          49.000                                                                  
C19  23749623.227 8 123670533.182 8      3037.633          50.000                                                                  
C05  39632710.445 6 206377922.897 6       -14.836          36.000    39632712.102 5 159584507.671 5       -11.545          35.000  
> 2020 05 16 16 31  0.0000000  0 16      -0.000000000000
G32  24259691.539 8 127485574.222 8      2951.719          48.000    24259698.906 8  99339399.715 8      2300.044          48.000  
G10  21016958.742 8 110444870.680 8      -778.371          51.000    21016960.359 8  86060961.046 8      -606.523          51.000  
G16  22833789.742 8 119992338.379 8     -3399.582          48.000    22833788.719 6  93500504.886 6     -2649.029          41.000  
G27  20356704.328 8 106975199.742 8      -630.676          51.000    20356705.000 8  83357304.636 8      -491.436          51.000  
G01  24149061.258 6 126904193.280 6      3136.590          36.000                                                                  
R05  20853031.367 8 111470997.980 8      3232.504          51.000    20853032.086 7  86699767.940 7      2514.173          46.000  
R10  22209702.320 6 118389878.187 6     -3053.863          37.000                                                                  
R04  20548246.742 4 110034538.19724      -737.203          29.000                                                                  
E27                                                                  26675520.477 6 107411195.491 6     -2342.384          37.000  
E15  24102070.516 6 126657235.131 6     -1338.445          40.000    24102074.352 7  97049127.473 7     -1025.569          42.000  
E08  24473147.469 8 128607286.240 8      2791.805          50.000    24473147.211 7  98543271.088 7      2139.260          45.000  
E13                                                                  23627422.023 6  95137813.030 6       621.215          37.000  
C29  21690290.742 8 112947022.241 8      -592.633          51.000                                                                  
C20  22743830.898 8 118433150.437 8       439.457          50.000                                                                  
C19  23732155.227 8 123579567.312 8      3028.125          50.000                                                                  
C05  39632804.125 6 206378410.256 6       -16.559          36.000    39632805.469 5 159584883.498 5       -12.593          35.000  
> 2020 05 16 16 31 30.0000000  0 15      -0.000000000000
G32  24242844.859 7 127397043.735 7      2947.352          47.000    24242852.102 8  99270414.986 8      2296.641          48.000  
G10  21021446.312 8 110468452.793 8      -796.730          51.000    21021447.922 8  86079336.748 8      -620.826          51.000  
G16  22853211.875 7 120094405.209 7     -3407.941          45.000    22853211.898 7  93580037.428 7     -2655.540          42.000  
G27  20360340.508 8 106994308.429 8      -646.270          51.000    20360341.352 8  83372194.502 8      -503.587          51.000  
G01  24131156.305 5 126810114.694 5      3132.328          35.000                                                                  
R05  20834935.094 8 111374263.186 8      3213.496          48.000    20834936.328 7  86624529.812 7      2499.386          46.000  
R10  22226926.180 5 118481690.165 5     -3070.016          35.000                                                                  
E27                                                                  26692975.008 6 107481476.089 6     -2345.117          36.000  
E15  24109716.586 6 126697415.024 6     -1342.988          40.000    24109721.117 7  97079914.599 7     -1029.136          42.000  
E08  24457216.727 8 128523568.724 8      2786.457          50.000    24457214.906 7  98479123.979 7      2135.118          44.000  
E13  23622802.742 5 124138663.512 5       805.066          33.000    23622802.289 6  95119204.702 6       617.037          36.000  
C29  21693725.945 8 112964910.146 8      -602.738          51.000                                                                  
C20  22741342.016 8 118420189.510 8       421.727          50.000                                                                  
C19  23714726.055 8 123488805.737 8      3019.730          50.000                                                                  
C05  39632892.078 5 206378868.231 5       -17.551          35.000    39632893.516 5 159585237.598 5       -13.170          35.000  
> 2020 05 16 16 32  0.0000000  0 15      -0.000000000000
G32  24226031.969 8 127308691.473 8      2942.926          48.000    24226038.945 8  99201569.139 8      2293.193          48.000  
G10  21026048.602 8 110492637.839 8      -815.426          51.000    21026050.023 8  86098182.237 8      -635.397          51.000  
G16  22872691.008 7 120196775.935 7     -3416.680          44.000    22872692.781 6  93659806.817 6     -2662.349          41.000  
G27  20364074.758 8 107013931.986 8      -661.945          51.000    20364075.766 8  83387485.564 8      -515.805          51.000  
R05  20816954.602 8 111278150.502 8      3194.070          49.000    20816956.469 7  86549775.490 7      2484.277          46.000  
R10  22244248.852 5 118574036.740 5     -3086.707          34.000                                                                  
R04  20556810.086 4 110080386.769 4      -793.074          27.000    20556813.008 4  85618087.492 4      -616.836          28.000  
E27                                                                  26710457.203 6 107551868.973 6     -2347.556          36.000  
E15  24117398.180 6 126737780.573 6     -1347.734          41.000    24117402.133 6  97110844.055 6     -1032.785          41.000  
E08  24441326.023 8 128440062.164 8      2780.891          51.000    24441323.523 7  98415138.508 7      2130.897          45.000  
E13                                                                  23618221.266 5  95100758.300 5       613.056          34.000  
C29  21697228.062 8 112983147.453 8      -612.957          51.000                                                                  
C20  22738964.750 8 118407808.809 8       403.758          51.000                                                                  
C19  23697354.734 8 123398347.770 8      3010.871          48.000                                                                  
C05  39632993.102 6 206379393.872 6       -17.605          36.000    39632994.500 5 159585645.044 5       -13.505          35.000  
> 2020 05 16 16 32 30.0000000  0 16      -0.000000000000
G32  24209246.570 7 127220482.533 7      2939.133          47.000    24209252.773 7  99132834.975 7      2290.237          47.000  
G10  21030758.008 8 110517386.521 8      -832.973          51.000    21030759.070 8  86117466.934 8      -649.070          51.000  
G16  22892220.984 7 120299409.995 7     -3424.062          44.000    22892223.656 6  93739781.382 6     -2668.102          41.000  
G27  20367899.852 8 107034032.707 8      -676.688          51.000    20367900.844 8  83403148.443 8      -527.289          51.000  
R05  20799084.336 8 111182625.552 8      3175.641          51.000    20799086.500 7  86475478.307 7      2469.943          47.000  
R10  22261662.805 5 118666874.434 5     -3101.207          30.000                                                                  
R04  20561325.781 5 110104611.595 5      -820.105          35.000    20561329.219 5  85636928.921 5      -637.863          30.000  
E27                                                                  26727960.031 5 107622343.485 5     -2349.505          35.000  
E15  24125107.539 6 126778293.759 6     -1351.582          39.000    24125111.031 7  97141886.622 7     -1035.589          42.000  
E08  24425468.609 8 128356730.531 8      2776.109          51.000    24425466.320 7  98351287.119 7      2127.114          45.000  
E13                                                                  23613673.109 5  95082475.849 5       609.144          33.000  
C30  24998164.438 4 130171993.014 4     -2604.293          27.000                                                                  
C29  21700790.242 8 113001696.869 8      -622.195          51.000                                                                  
C20  22736691.789 8 118395970.904 8       386.848          51.000                                                                  
C19  23680034.023 7 123308157.884 7      3003.082          46.000                                                                  
C05  39633099.836 6 206379949.523 6       -17.461          36.000                                                                  
> 2020 05 16 16 33  0.0000000  0 15      -0.000000000000
G32  24192472.141 7 127132331.086 7      2938.113          46.000    24192477.234 7  99064145.618 7      2289.443          46.000  
G10  21035557.602 8 110542608.895 8      -847.859          51.000    21035558.844 8  86137120.736 8      -660.670          51.000  
G16  22911784.273 7 120402215.676 7     -3428.988          45.000    22911787.180 6  93819889.676 6     -2671.943          41.000  
G27  20371798.891 8 107054522.090 8      -688.758          51.000    20371799.844 8  83419114.175 8      -536.695          51.000  
R05  20781307.633 8 111087602.008 8      3159.660          50.000    20781310.688 8  86401571.134 8      2457.514          48.000  
R10  22279152.781 5 118760108.993 5     -3114.227          33.000                                                                  
R04  20565991.617 5 110129593.115 5      -844.531          34.000    20565998.492 5  85656359.086 5      -656.852          31.000  
E27                                                                  26745465.391 5 107692830.115 5     -2348.861          34.000  
E15  24132828.125 6 126818865.799 6     -1352.516          39.000    24132831.461 6  97172974.254 6     -1036.413          41.000  
E08  24409627.961 8 128273487.075 8      2773.973          51.000    24409626.070 7  98287503.258 7      2125.603          46.000  
C30  25013179.117 4 130250183.71824     -2605.527          29.000                                                                  
C29  21704395.406 8 113020470.802 8      -628.887          51.000                                                                  
C20  22734505.992 8 118384588.098 8       372.504          51.000                                                                  
C19  23662747.820 7 123218150.327 7      2998.051          45.000                                                                  
C05  39633195.547 6 206380448.287 6       -14.996          36.000    39633196.438 5 159586457.55925       -11.303          34.000  
> 2020 05 16 16 33 30.0000000  0 16      -0.000000000000
G32  24175716.359 8 127044277.969 8      2935.574          48.000    24175720.203 8  98995532.893 8      2287.464          48.000  
G10  21040454.180 8 110568341.518 8      -864.117          51.000    21040455.820 8  86157172.144 8      -673.338          51.000  
G16  22931387.359 7 120505228.014 7     -3435.000          45.000    22931389.570 6  93900158.985 6     -2676.627          39.000  
G20  22508242.164 5 118281610.73325     -2790.457          31.000                                                                  
G27  20375779.102 8 107075438.232 8      -702.188          51.000    20375779.969 8  83435412.455 8      -547.159          51.000  
R05  20763632.148 8 110993122.174 8      3142.383          51.000    20763636.844 8  86328086.899 8      2444.079          49.000  
R10  22296724.992 5 118853774.486 5     -3127.129          35.000                                                                  
R04  20570807.086 6 110155368.606 6      -870.254          36.000    20570808.836 5  85676406.551 5      -676.864          31.000  
E27                                                                  26762980.250 5 107763356.329 5     -2349.529          31.000  
E15  24140566.945 6 126859534.385 6     -1355.094          39.000    24140570.320 7  97204135.864 7     -1038.355          42.000  
E08  24393811.609 8 128190371.599 8      2770.477          50.000    24393810.992 8  98223817.459 8      2122.885          48.000  
C30  25028217.461 4 130328488.995 4     -2609.391          27.000                                                                  
C29  21708051.078 8 113039507.071 8      -636.855          51.000                                                                  
C20  22732414.891 8 118373698.087 8       356.898          51.000                                                                  
C19  23645505.188 7 123128364.728 7      2991.258          47.000                                                                  
C05  39633287.203 6 206380925.595 6       -13.391          36.000    39633288.078 5 159586826.652 5       -10.092          34.000  
> 2020 05 16 16 34  0.0000000  0 14      -0.000000000000
G32  24159000.766 8 126956436.210 8      2927.777          50.000    24159003.758 8  98927084.863 8      2281.389          50.000  
G10  21045468.625 8 110594693.117 8      -885.461          51.000    21045470.188 8  86177705.862 8      -689.970          51.000  
G16  22951050.352 7 120608554.166 7     -3446.211          46.000    22951050.898 5  93980672.809 5     -2685.363          35.000  
G27  20379861.516 8 107096891.389 8      -720.812          51.000    20379862.586 8  83452129.190 8      -561.672          51.000  
R05  20746080.992 8 110899302.013 8      3119.602          51.000    20746086.133 7  86255115.729 7      2426.360          47.000  
R10  22314397.672 6 118947978.070 6     -3145.871          36.000                                                                  
R04  20575790.547 6 110182048.600 6      -901.188          36.000    20575795.875 5  85697157.780 5      -700.921          32.000  
E27                                                                  26780525.297 5 107834077.831 5     -2354.333          31.000  
E15  24148345.430 6 126900409.377 6     -1362.496          41.000    24148348.727 7  97235455.668 7     -1044.153          43.000  
E08  24378040.758 8 128107496.136 8      2761.801          49.000    24378042.273 8  98160315.554 8      2116.129          50.000  
C29  21711777.945 8 113058915.067 8      -649.934          50.000                                                                  
C20  22730439.133 8 118363410.050 8       336.047          51.000                                                                  
C19  23628327.406 8 123038912.127 8      2979.348          49.000                                                                  
C05  39633396.000 5 206381491.504 5       -16.840          35.000                                                                  
> 2020 05 16 16 34 30.0000000  0 14      -0.000000000000
G32  24142304.492 8 126868696.157 8      2930.215          49.000    24142307.008 8  98858716.066 8      2283.288          49.000  
G10  21050579.258 8 110621549.751 8      -896.461          51.000    21050581.047 8  86198633.097 8      -698.541          51.000  
G16  22970751.367 7 120712078.996 7     -3446.977          46.000    22970749.695 6  94061341.378 6     -2685.963          37.000  
G27  20384024.727 8 107118769.094 8      -729.270          51.000    20384026.172 8  83469176.733 8      -568.265          51.000  
R05  20728633.656 8 110806031.005 8      3107.074          51.000    20728637.664 7  86182571.658 7      2416.614          44.000  
R10  22332149.023 6 119042601.016 6     -3153.805          38.000                                                                  
R04  20580920.102 6 110209517.208 6      -921.617          37.000    20580923.406 4  85718522.186 4      -716.820          29.000  
E27  26798079.914 5 140824853.964 5     -3068.176          33.000                                                                  
E15  24156142.047 6 126941378.127 6     -1360.082          40.000    24156145.250 7  97266847.248 7     -1042.010          43.000  
E08  24362293.930 7 128024749.970 7      2763.305          47.000    24362297.703 8  98096912.695 8      2117.363          51.000  
C29  21715554.789 8 113078583.441 8      -652.840          50.000                                                                  
C20  22728557.664 8 118353612.545 8       325.430          51.000                                                                  
C19  23611192.625 8 122949683.084 8      2977.609          50.000                                                                  
C05  39633500.297 6 206382035.357 6       -10.820          36.000    39633500.711 5 159587682.974 5        -8.077          34.000  
> 2020 05 16 16 35  0.0000000  0 15      -0.000000000000
G32  24125616.695 8 126781001.834 8      2916.012          48.000    24125619.523 8  98790382.908 8      2272.221          49.000  
G10  21055774.492 8 110648851.061 8      -923.828          51.000    21055776.484 8  86219906.867 8      -719.863          51.000  
G16  22990478.617 7 120815740.788 7     -3463.984          47.000    22990475.094 5  94142116.672 5     -2699.209          33.000  
G27  20388257.562 8 107141012.605 8      -753.914          51.000    20388259.289 8  83486509.333 8      -587.466          51.000  
R05  20711278.422 8 110713252.787 8      3077.891          51.000    20711280.742 7  86110410.862 7      2393.918          44.000  
R10  22349967.609 7 119137578.885 7     -3178.121          42.000                                                                  
R04  20586186.984 5 110237712.770 5      -958.309          31.000    20586188.438 4  85740452.065 4      -745.348          29.000  
E27  26815631.078 5 140917091.381 5     -3080.371          34.000                                                                  
E15  24163945.086 7 126982381.503 7     -1373.867          42.000    24163949.062 7  97298265.388 7     -1052.593          44.000  
E08  24346559.984 7 127942076.159 7      2748.137          45.000    24346566.312 8  98033565.252 8      2105.716          51.000  
E13  23591294.406 5 123973084.195 5       768.570          34.000                                                                  
C29  21719370.859 8 113098454.092 8      -672.012          50.000                                                                  
C20  22726759.258 8 118344247.276 8       298.703          51.000                                                                  
C19  23594089.805 8 122860621.302 8      2959.621          51.000                                                                  
C05  39633588.945 5 206382496.701 5       -20.801          35.000    39633589.234 5 159588039.671 5       -15.414          34.000  
> 2020 05 16 16 35 30.0000000  0 15      -0.000000000000
G32  24108964.555 7 126693496.771 7      2914.211          47.000    24108968.328 7  98722197.219 7      2270.817          47.000  
G10  21061080.984 8 110676736.303 8      -938.695          51.000    21061082.562 8  86241635.607 8      -731.451          51.000  
G16  23010257.984 7 120919676.865 7     -3468.555          46.000    23010253.805 5  94223105.698 5     -2702.774          35.000  
G27  20392586.805 8 107163762.626 8      -766.211          51.000    20392588.680 8  83504236.614 8      -597.048          51.000  
R05  20694041.953 8 110621114.440 8      3061.094          48.000    20694043.820 7  86038747.732 7      2380.851          44.000  
R10  22367879.062 7 119233050.328 7     -3190.082          42.000                                                                  
R04  20591611.922 6 110266776.995 6      -982.781          37.000    20591616.445 4  85763057.635 4      -764.389          28.000  
E27  26833205.820 5 141009446.333 5     -3079.770          34.000    26833206.250 5 108046201.853 5     -2359.924          30.000  
E15  24171781.352 6 127023559.956 6     -1374.945          41.000    24171785.906 7  97329817.705 7     -1053.596          43.000  
E08  24330866.570 7 127859617.214 7      2745.582          44.000    24330875.516 8  97970382.393 8      2103.771          51.000  
E13  23586904.055 5 123950006.781 5       766.477          34.000    23586915.031 5  94974733.291 5       587.372          33.000  
C29  21723252.594 8 113118666.659 8      -678.832          50.000                                                                  
C20  22725070.242 8 118335453.626 8       284.098          49.000                                                                  
C19  23577045.953 8 122771868.177 8      2953.816          51.000                                                                  
C05  39633688.578 5 206383016.731 5       -17.715          35.000    39633688.883 5 159588441.039 5       -13.559          34.000  
> 2020 05 16 16 36  0.0000000  0 18      -0.000000000000
G32  24092343.312 7 126606153.920 7      2912.543          47.000    24092347.656 7  98654137.924 7      2269.518          47.000  
G08  20736398.750 6 108970529.599 6      1433.145          37.000                                                                  
G10  21066492.469 8 110705173.961 8      -953.254          51.000    21066494.484 8  86263794.835 8      -742.795          51.000  
G16  23030082.852 7 121023854.308 7     -3472.566          44.000    23030078.883 6  94304282.813 6     -2705.900          36.000  
G27  20397006.812 8 107186989.280 8      -778.355          51.000    20397008.859 8  83522335.281 8      -606.511          51.000  
G01  23971251.672 5 125969774.862 5      3095.750          33.000                                                                  
R05  20676919.531 8 110529589.223 8      3044.398          48.000    20676922.492 7  85967561.479 7      2367.866          45.000  
R10  22385876.320 6 119328979.918 6     -3201.457          41.000                                                                  
R04  20597197.164 5 110296677.851 5     -1007.051          34.000                                                                  
E27  26850797.586 5 141101892.658 5     -3079.344          34.000                                                                  
E15  24179644.977 6 127064883.358 6     -1376.051          37.000    24179650.234 7  97361481.042 7     -1054.347          44.000  
E08  24315209.828 7 127777344.909 7      2743.051          46.000    24315220.039 8  97907342.595 8      2101.852          51.000  
E13                                                                  23582553.727 5  94957182.216 5       585.987          30.000  
C30  25103766.562 4 130721883.17024     -2630.102          29.000                                                                  
C29  21727194.398 8 113139191.587 8      -685.609          51.000                                                                  
C20  22723485.305 8 118327201.834 8       269.766          50.000                                                                  
C19  23560055.695 8 122683395.909 8      2948.199          51.000                                                                  
C05  39633793.625 6 206383563.669 6       -14.984          36.000    39633793.883 5 159588863.94125       -11.348          34.000  
> 2020 05 16 16 36 30.0000000  0 15      -0.000000000000
G32  24075753.203 8 126518973.723 8      2904.652          48.000    24075757.430 8  98586205.377 8      2263.369          48.000  
G08  20728277.797 5 108927852.232 5      1417.043          34.000    20728295.312 5  84878864.584 5      1104.187          33.000  
G10  21072008.398 8 110734160.154 8      -974.102          51.000    21072010.688 8  86286381.475 8      -759.040          51.000  
G16  23049951.719 6 121128268.049 6     -3482.914          40.000    23049948.758 6  94385644.087 6     -2713.960          38.000  
G27  20401517.148 8 107210690.152 8      -796.680          51.000    20401519.305 8  83540803.479 8      -620.790          51.000  
R05  20659911.781 8 110438678.111 8      3021.297          50.000    20659915.633 7  85896852.870 7      2349.898          46.000  
R10  22403956.633 6 119425360.531 6     -3218.867          37.000                                                                  
R04  20602936.594 6 110327410.877 6     -1036.855          36.000    20602947.602 4  85810212.277 4      -806.440          26.000  
E27  26868405.891 5 141194422.755 5     -3084.578          35.000    26868412.898 5 108187964.090 5     -2363.087          30.000  
E15  24187535.188 6 127106348.983 6     -1383.750          38.000    24187541.695 7  97393253.356 7     -1059.899          44.000  
E08  24299589.891 8 127695258.623 8      2734.379          49.000    24299599.414 8  97844445.352 8      2095.198          51.000  
C29  21731195.688 8 113160026.640 8      -698.422          51.000                                                                  
C20  22722004.227 8 118319489.484 8       249.379          49.000                                                                  
C19  23543119.188 8 122595204.116 8      2936.297          50.000                                                                  
C05  39633903.516 6 206384135.000 6       -18.750          36.000    39633903.664 5 159589305.479 5       -13.635          34.000  
> 2020 05 16 16 37  0.0000000  0 16      -0.000000000000
G32  24059180.742 8 126431884.871 8      2899.734          49.000    24059183.578 8  98518344.008 8      2259.537          49.000  
G08  20720218.203 5 108885503.012 5      1404.703          32.000    20720234.914 5  84845865.164 5      1094.559          33.000  
G10  21077614.266 8 110763619.190 8      -991.320          49.000    21077616.422 8  86309336.540 8      -772.458          49.000  
G16  23069850.031 6 121232840.815 6     -3490.180          37.000    23069848.922 5  94467129.303 5     -2719.621          35.000  
G27  20406103.703 8 107234791.094 8      -811.660          51.000    20406105.852 8  83559583.416 8      -632.466          51.000  
R05  20643006.023 8 110348309.629 8      3001.680          51.000    20643009.461 7  85826566.283 7      2334.640          45.000  
R10  22422105.422 6 119522112.837 6     -3233.109          38.000                                                                  
R04  20608817.758 5 110358899.207 5     -1064.211          32.000                                                                  
E27  26886015.820 5 141286962.324 5     -3086.602          35.000                                                                  
E15  24195437.492 6 127147882.487 6     -1387.258          36.000    24195444.984 7  97425077.700 7     -1062.985          44.000  
E08  24283992.422 8 127613286.151 8      2728.844          51.000    24284000.141 8  97781635.309 8      2090.921          51.000  
E13  23573915.602 5 123881729.173 5       751.574          31.000    23573906.930 5  94922352.078 5       576.154          32.000  
C29  21735242.352 8 113181098.549 8      -708.012          51.000                                                                  
C20  22720612.094 8 118312242.955 8       232.203          49.000                                                                  
C19  23526222.250 8 122507221.307 8      2927.715          48.000                                                                  
C05  39634004.141 6 206384658.943 6       -18.172          36.000    39634004.297 5 159589710.637 5       -14.034          34.000  
> 2020 05 16 16 37 30.0000000  0 17      -0.000000000000
G32  24042635.672 8 126344939.686 8      2895.488          48.000    24042636.812 8  98450594.603 8      2256.225          48.000  
G08  20712229.672 5 108843532.514 5      1392.047          31.000    20712246.422 5  84813186.750 5      1084.697          32.000  
G10  21083319.211 8 110793598.914 8     -1008.141          50.000    21083321.602 8  86332697.384 8      -785.564          50.000  
G16  23089787.234 5 121337619.045 5     -3496.121          35.000    23089788.320 5  94548774.599 5     -2724.251          34.000  
G27  20410775.703 8 107259341.598 8      -826.141          51.000    20410777.625 8  83578713.655 8      -643.746          51.000  
R05  20626212.641 8 110258537.679 8      2982.230          51.000    20626215.914 7  85756743.703 7      2319.513          45.000  
R10  22440332.328 6 119619282.158 6     -3246.016          39.000                                                                  
R04  20614847.055 6 110391191.084 6     -1090.020          36.000                                                                  
E27  26903635.906 5 141379558.663 5     -3088.000          34.000                                                                  
E15  24203362.719 5 127189533.161 5     -1390.512          35.000    24203369.719 7  97456991.796 7     -1065.476          44.000  
E08  24268426.453 8 127531478.725 8      2723.855          50.000    24268432.211 8  97718951.750 8      2087.087          50.000  
E13                                                                  23569627.516 5  94905114.251 5       572.287          32.000  
C30  25149388.062 4 130959461.632 4     -2647.312          28.000                                                                  
C29  21739344.086 8 113202456.466 8      -716.914          51.000                                                                  
C20  22719319.367 8 118305511.216 8       215.609          50.000                                                                  
C19  23509374.586 7 122419498.437 7      2919.449          46.000                                                                  
C05  39634104.945 6 206385183.509 6       -17.809          36.000                                                                  
> 2020 05 16 16 38  0.0000000  0 17      -0.000000000000
G32  24026126.477 8 126258182.891 8      2889.582          48.000    24026127.125 8  98382991.994 8      2251.623          48.000  
G08  20704322.141 5 108801950.496 5      1378.547          32.000    20704335.258 4  84780802.749 4      1074.199          28.000  
G10  21089131.039 8 110824139.758 8     -1026.418          50.000    21089133.477 8  86356495.419 8      -799.806          50.000  
G16  23109771.703 5 121442641.858 5     -3503.977          34.000    23109774.141 5  94630610.541 5     -2730.372          35.000  
G27  20415541.148 8 107284383.510 8      -842.027          51.000    20415542.742 8  83598226.813 8      -656.128          51.000  
G11  21986553.906 6 115540147.143 6      2791.680          37.000                                                                  
R05  20609540.039 8 110169408.691 8      2961.129          51.000    20609543.148 7  85687421.226 7      2303.104          46.000  
R10  22458645.773 6 119716905.987 6     -3260.613          41.000                                                                  
R04  20621034.836 5 110424327.562 5     -1117.730          34.000                                                                  
E27  26921273.789 5 141472250.530 5     -3090.840          35.000                                                                  
E15  24211319.336 6 127231342.562 6     -1395.301          39.000    24211324.695 7  97489027.555 7     -1069.229          45.000  
E08  24252899.766 8 127449880.040 8      2717.375          50.000    24252904.047 8  97656428.169 8      2082.113          49.000  
E13                                                                  23565381.742 5  94888027.077 5       568.202          32.000  
C29  21743508.805 8 113224142.070 8      -727.387          51.000                                                                  
C20  22718133.344 8 118299335.631 8       197.539          50.000                                                                  
C19  23492585.742 7 122332078.931 7      2909.879          47.000                                                                  
C05  39634213.812 6 206385749.992 6       -18.602          36.000                                                                  
> 2020 05 16 16 38 30.0000000  0 16      -0.000000000000
G32  24009637.852 8 126171534.818 8      2887.484          48.000    24009639.102 8  98315474.097 8      2249.991          48.000  
G10  21095033.641 8 110855157.444 8     -1040.750          50.000    21095035.773 8  86380665.051 8      -810.974          50.000  
G16  23129787.383 6 121547823.777 6     -3507.914          36.000    23129789.703 6  94712570.375 6     -2733.440          36.000  
G27  20420384.398 8 107309834.253 8      -854.070          51.000    20420385.758 8  83618058.555 8      -665.510          51.000  
R05  20592972.773 8 110080841.921 8      2943.949          51.000    20592975.391 7  85618536.033 7      2289.742          46.000  
R10  22477028.305 7 119814896.126 7     -3271.379          43.000                                                                  
R04  20627363.938 5 110458222.719 5     -1141.473          33.000                                                                  
E27  26938913.234 5 141564955.126 5     -3089.270          35.000                                                                  
E15  24219290.281 6 127273227.912 6     -1396.422          38.000    24219294.570 7  97521121.562 7     -1069.810          45.000  
E08  24237396.391 7 127368409.375 7      2714.715          47.000    24237399.836 8  97594002.681 8      2080.134          48.000  
E13                                                                  23561155.602 5  94871009.344 5       566.621          32.000  
C30  25179928.625 4 131118507.951 4     -2651.887          29.000                                                                  
C29  21747720.703 8 113246073.758 8      -733.996          51.000                                                                  
C20  22717038.633 8 118293634.299 8       183.297          50.000                                                                  
C19  23475840.523 8 122244882.890 8      2903.973          48.000                                                                  
C05  39634314.984 6 206386277.95226       -16.371          36.000    39634314.812 5 159590961.322 5       -12.007          34.000  
> 2020 05 16 16 39  0.0000000  0 16      -0.000000000000
G32  23993183.500 7 126085068.149 7      2877.270          47.000    23993185.898 7  98248097.547 7      2242.032          47.000  
G08  20688718.766 5 108719941.891 5      1351.195          34.000                                                                  
G10  21101039.977 8 110886720.236 8     -1062.855          51.000    21101042.039 8  86405259.441 8      -828.199          51.000  
G16  23149846.555 6 121653231.377 6     -3519.207          36.000    23149848.383 6  94794706.046 6     -2742.249          36.000  
G27  20425318.609 8 107335763.585 8      -874.094          51.000    20425319.938 8  83638263.208 8      -681.112          51.000  
G11  21954742.617 6 115372929.413 6      2776.879          36.000                                                                  
R05  20576524.398 8 109992912.270 8      2918.512          51.000    20576526.336 7  85550146.357 7      2269.954          45.000  
R10  22495492.625 7 119913318.863 7     -3289.699          44.000                                                                  
R04  20633847.523 6 110492945.602 6     -1172.945          37.000                                                                  
E15  24227288.898 5 127315262.038 5     -1404.941          33.000    24227293.125 7  97553327.112 7     -1076.751          46.000  
E08  24221929.945 7 127287138.335 7      2703.953          45.000    24221933.125 7  97531730.095 7      2071.837          47.000  
E13                                                                  23556962.922 5  94854127.404 5       559.285          32.000  
C29  21751993.008 8 113268320.805 8      -748.578          51.000                                                                  
C20  22716047.938 8 118288476.168 8       161.105          49.000                                                                  
C19  23459152.250 8 122157981.447 8      2890.059          48.000                                                                  
C05  39634421.625 5 206386832.820 5       -21.090          35.000    39634421.547 5 159591390.743 5       -15.595          35.000  
> 2020 05 16 16 39 30.0000000  0 17      -0.000000000000
G32  23976747.406 7 125998698.367 7      2881.309          46.000    23976751.148 7  98180796.504 7      2245.179          46.000  
G08  20681018.898 5 108679487.44725      1347.094          32.000                                                                  
G10  21107133.125 8 110918739.208 8     -1071.035          50.000    21107135.250 8  86430209.280 8      -834.573          50.000  
G16  23169931.969 6 121758774.428 6     -3516.574          37.000    23169931.078 5  94876947.260 5     -2740.192          34.000  
G27  20430327.180 8 107362084.131 8      -879.957          51.000    20430328.438 8  83658772.706 8      -685.681          51.000  
G11  21938883.109 5 115289587.540 5      2779.883          32.000                                                                  
R05  20560178.805 8 109905534.519 8      2907.316          51.000    20560180.609 7  85482185.939 7      2261.247          45.000  
R10  22514020.328 7 120012080.874 7     -3293.660          42.000                                                                  
R04  20640472.414 4 110528405.262 4     -1190.375          28.000    20640477.352 4  85966546.754 4      -925.847          27.000  
E15  24235297.195 6 127357351.028 6     -1399.996          37.000    24235303.062 7  97585577.133 7     -1072.785          46.000  
E08  24206485.117 7 127205981.371 7      2707.152          45.000    24206488.125 8  97469544.905 8      2074.310          48.000  
E13  23552797.945 5 123770786.475 5       733.914          32.000    23552786.664 5  94837310.377 5       562.203          34.000  
C30  25210543.477 5 131277884.564 5     -2655.684          34.000                                                                  
C29  21756309.398 8 113290796.819 8      -749.148          51.000                                                                  
C20  22715145.148 8 118283774.549 8       152.961          50.000                                                                  
C19  23442504.523 8 122071290.002 8      2890.031          49.000                                                                  
C05  39634517.172 6 206387330.426 6       -11.547          36.000                                                                  
> 2020 05 16 16 40  0.0000000  0 15      -0.000000000000
G32  23960358.867 7 125912578.435 7      2867.527          45.000    23960363.547 7  98113690.128 7      2234.441          45.000  
G10  21113341.234 8 110951362.663 8     -1096.457          49.000    21113342.906 8  86455630.184 8      -854.382          49.000  
G16  23190071.812 5 121864600.022 5     -3531.215          34.000    23190067.836 5  94959408.668 5     -2751.594          32.000  
G27  20435438.781 8 107388945.861 8      -903.422          51.000    20435439.859 8  83679703.926 8      -703.965          51.000  
R05  20543965.422 8 109818864.492 8      2878.180          51.000    20543966.711 7  85414775.924 7      2238.585          46.000  
R10  22532639.133 6 120111329.802 6     -3315.449          41.000                                                                  
R04  20647257.344 6 110564752.437 6     -1225.508          38.000    20647263.641 4  85994816.863 4      -953.176          27.000  
E15  24243345.820 5 127399640.993 5     -1412.504          34.000    24243352.117 7  97617986.439 7     -1082.207          46.000  
E08  24191091.719 8 127125090.297 8      2692.977          48.000    24191094.391 8  97407563.476 8      2063.475          49.000  
E13                                                                  23548657.570 5  94820674.179 5       552.365          35.000  
C30  25225905.258 5 131357857.713 5     -2668.473          33.000                                                                  
C29  21760698.148 8 113313650.652 8      -767.180          51.000                                                                  
C20  22714358.492 8 118279677.913 8       127.496          49.000                                                                  
C19  23425926.297 8 121984959.172 8      2872.613          50.000                                                                  
C05  39634630.195 6 206387918.888 6       -20.203          36.000    39634630.195 5 159592230.574 5       -15.580          34.000  
> 2020 05 16 16 40 30.0000000  0 16      -0.000000000000
G32  23943985.219 7 125826534.137 7      2866.297          47.000    23943990.000 7  98046642.691 7      2233.482          47.000  
G10  21119630.375 8 110984412.074 8     -1109.371          50.000    21119631.812 8  86481382.953 8      -864.445          50.000  
G16  23210234.703 5 121970528.445 5     -3533.457          35.000                                                                  
G27  20440619.625 8 107416171.676 8      -914.176          51.000    20440620.812 8  83700918.837 8      -712.345          51.000  
G11  21907288.289 6 115123560.696 6      2762.887          38.000                                                                  
R05  20527851.180 8 109732725.972 8      2861.711          49.000    20527852.305 7  85347779.301 7      2225.776          45.000  
R10  22551314.898 7 120210881.486 7     -3324.020          42.000                                                                  
R04  20654177.789 5 110601805.130 5     -1247.891          34.000    20654181.211 5  86023626.507 5      -970.585          30.000  
E15  24251401.234 5 127441971.610 5     -1412.242          35.000    24251406.773 7  97650419.206 7     -1081.920          46.000  
E08  24175716.422 8 127044289.949 8      2691.211          50.000    24175718.570 8  97345651.568 8      2062.140          49.000  
E13                                                                  23544539.344 5  94804083.183 5       551.787          35.000  
C30  25241270.750 5 131437866.919 5     -2668.699          32.000                                                                  
C29  21765125.805 8 113336707.002 8      -772.527          51.000                                                                  
C20  22713653.906 8 118276010.615 8       114.418          48.000                                                                  
C19  23409383.852 8 121898815.407 8      2867.734          50.000                                                                  
C05  39634726.867 6 206388422.540 6       -16.277          36.000    39634726.914 5 159592620.006 5       -12.408          35.000  
> 2020 05 16 16 41  0.0000000  0 18      -0.000000000000
G32  23927648.242 8 125740680.929 8      2858.445          49.000    23927652.625 8  97979744.157 8      2227.364          48.000  
G08  20658381.891 5 108560529.35325      1301.906          31.000                                                                  
G10  21126021.539 8 111017998.220 8     -1128.512          48.000    21126023.539 8  86507553.994 8      -879.360          48.000  
G16  23230437.672 6 122076668.836 6     -3541.637          39.000                                                                  
G27  20445891.117 8 107443874.111 8      -931.570          51.000    20445892.461 8  83722505.120 8      -725.899          51.000  
G11  21891547.250 6 115040827.860 6      2754.273          37.000                                                                  
G01  23796009.922 4 125048875.33424      3045.164          29.000                                                                  
R05  20511857.922 8 109647236.910 8      2838.652          49.000    20511859.234 7  85281287.809 7      2207.841          44.000  
R10  22570068.328 6 120310845.320 6     -3339.102          41.000                                                                  
R04  20661248.516 5 110639675.523 5     -1276.219          33.000    20661254.219 5  86053081.436 5      -992.606          30.000  
E15  24259483.758 6 127484442.085 6     -1418.105          37.000    24259489.445 7  97682961.522 7     -1086.682          46.000  
E08  24160380.352 8 126963694.638 8      2682.961          51.000    24160381.594 8  97283896.765 8      2055.785          49.000  
E13                                                                  23540450.789 5  94787623.512 5       545.990          32.000  
C30  25256662.555 5 131518022.970 5     -2674.293          30.000                                                                  
C29  21769613.750 8 113360077.594 8      -784.340          51.000                                                                  
C20  22713053.695 8 118272884.033 8        95.066          48.000                                                                  
C19  23392898.789 8 121812972.158 8      2856.324          49.000                                                                  
C05  39634828.711 6 206388952.799 6       -18.195          36.000    39634828.828 5 159593031.01125       -13.961          34.000  
> 2020 05 16 16 41 30.0000000  0 15      -0.000000000000
G32  23911347.852 8 125655019.591 8      2853.465          48.000    23911352.000 8  97912995.147 8      2223.483          48.000  
G10  21132514.148 8 111052117.400 8     -1144.844          48.000    21132516.281 7  86534140.388 7      -892.086          47.000  
G16  23250676.805 6 122183016.887 6     -3546.961          40.000    23250662.984 5  95207559.851 5     -2763.876          31.000  
G27  20451252.938 8 107472050.929 8      -945.691          51.000    20451254.359 8  83744461.066 8      -736.903          51.000  
G11  21875847.859 5 114958314.227 5      2748.473          35.000                                                                  
R05  20495987.133 8 109562398.697 8      2818.457          51.000    20495988.984 7  85215302.593 7      2192.137          45.000  
R10  22588897.570 7 120411214.543 7     -3351.008          43.000                                                                  
R04  20668471.875 6 110678359.924 6     -1301.938          38.000    20668475.711 5  86083169.152 5     -1012.621          30.000  
E15  24267592.898 6 127527053.415 6     -1421.340          37.000    24267598.891 7  97715611.680 7     -1089.094          46.000  
E08  24145083.188 8 126883304.147 8      2677.637          50.000    24145083.891 8  97222298.903 8      2051.733          49.000  
E13  23536396.961 5 123684597.902 5       708.652          32.000    23536391.812 5  94771296.458 5       543.263          32.000  
C29  21774161.766 8 113383760.476 8      -793.293          51.000                                                                  
C20  22712556.883 7 118270295.810 7        78.672          47.000                                                                  
C19  23376471.469 8 121727429.328 8      2847.703          50.000                                                                  
C05  39634935.281 6 206389507.433 6       -17.613          36.000    39634935.484 5 159593459.874 5       -13.417          35.000  
> 2020 05 16 16 42  0.0000000  0 14      -0.000000000000
G32  23895078.406 8 125569521.109 8      2841.234          49.000    23895082.148 8  97846373.025 8      2213.949          49.000  
G10  21139101.703 7 111086736.044 7     -1168.270          47.000    21139103.820 7  86561115.959 7      -910.340          47.000  
G16  23270947.523 7 122289536.823 7     -3559.391          43.000    23270934.961 5  95290562.252 5     -2773.558          35.000  
G27  20456698.961 8 107500670.193 8      -967.402          51.000    20456700.336 8  83766761.777 8      -753.820          51.000  
R05  20480233.102 8 109478182.341 8      2790.695          51.000    20480235.172 8  85149801.021 8      2170.547          48.000  
R10  22607795.977 7 120511951.720 7     -3370.035          44.000                                                                  
R04  20675841.914 6 110717823.432 6     -1334.598          37.000    20675845.711 5  86113862.999 5     -1038.024          32.000  
E15  24275722.078 6 127569773.256 6     -1431.879          38.000    24275728.461 7  97748345.062 7     -1097.038          46.000  
E08  24129818.625 8 126803088.361 8      2664.887          48.000    24129819.406 8  97160834.936 8      2041.945          49.000  
E13  23532369.594 6 123663430.358 6       697.484          36.000    23532361.578 5  94755069.739 5       534.371          33.000  
C29  21778763.773 8 113407724.246 8      -809.441          51.000                                                                  
C20  22712157.188 7 118268214.140 7        55.102          47.000                                                                  
C19  23360096.055 8 121642157.223 8      2831.910          49.000                                                                  
C05  39635040.328 6 206390054.656 6       -24.027          36.000    39635040.617 5 159593884.049 5       -18.872          35.000  
> 2020 05 16 16 42 30.0000000  0 16      -0.000000000000
G32  23878852.305 8 125484251.015 8      2841.832          50.000    23878855.875 8  97779928.843 8      2214.418          50.000  
G08  20636434.727 5 108445215.18725      1263.230          34.000                                                                  
G22  24486445.000 6 128677157.63826      3604.375          36.000                                                                  
G10  21145795.961 7 111121915.078 7     -1178.637          47.000    21145798.508 7  86588528.195 7      -918.419          47.000  
G16  23291261.711 7 122396288.820 7     -3558.957          43.000    23291248.984 5  95373745.542 5     -2773.217          33.000  
G27  20462241.086 8 107529794.377 8      -976.016          51.000    20462242.516 8  83789455.921 8      -760.532          51.000  
R05  20464607.625 8 109394655.083 8      2776.059          51.000    20464610.125 8  85084835.427 8      2159.160          48.000  
R10  22626774.578 7 120613116.162 7     -3375.793          45.000                                                                  
R04  20683369.180 5 110758127.702 5     -1354.043          34.000    20683372.031 5  86145210.779 5     -1053.142          33.000  
E15  24283884.109 6 127612664.271 6     -1429.559          38.000    24283889.531 7  97781209.555 7     -1095.173          45.000  
E08  24114599.133 8 126723111.753 8      2665.133          48.000    24114600.414 8  97099554.239 8      2042.095          49.000  
E13  23528377.898 5 123642455.666 5       699.039          34.000    23528371.445 5  94738998.230 5       535.867          34.000  
C29  21783431.461 8 113432031.097 8      -812.629          51.000                                                                  
C20  22711865.992 7 118266700.744 7        44.148          45.000                                                                  
C19  23343784.422 8 121557219.722 8      2828.906          49.000                                                                  
C05  39635155.906 6 206390656.435 6       -17.566          36.000    39635156.172 5 159594348.34725       -13.484          35.000  
> 2020 05 16 16 43  0.0000000  0 17      -0.000000000000
G32  23862655.477 8 125399136.439 8      2833.008          49.000    23862659.609 8  97713605.880 8      2207.542          49.000  
G08  20629272.398 5 108407557.60825      1247.652          32.000                                                                  
G22  24465890.336 5 128569143.745 5      3596.977          34.000                                                                  
G10  21152582.078 7 111157576.950 7     -1198.555          45.000    21152584.570 7  86616316.661 7      -933.939          45.000  
G16  23311603.953 7 122503193.923 7     -3567.770          43.000    23311592.484 5  95457048.144 5     -2780.081          30.000  
G27  20467864.805 8 107559347.514 8      -993.875          51.000    20467866.367 8  83812484.325 8      -774.448          51.000  
R05  20449097.281 8 109311743.143 8      2751.766          51.000    20449099.891 8  85020348.383 8      2140.266          48.000  
R10  22645818.078 7 120714626.430 7     -3390.918          44.000                                                                  
R04  20691036.898 6 110799193.277 6     -1383.227          40.000    20691041.234 5  86177150.660 5     -1075.843          34.000  
E27                                                                  27098108.852 5 109112854.963 5     -2380.399          32.000  
E15  24292064.469 7 127655650.281 7     -1436.203          42.000    24292068.773 7  97814146.860 7     -1100.381          46.000  
E08  24099411.102 8 126643300.314 8      2655.836          48.000    24099413.422 8  97038400.059 8      2034.974          49.000  
E13  23524405.977 5 123621594.040 5       691.059          33.000    23524404.391 5  94723021.875 5       529.635          33.000  
C29  21788150.734 8 113456605.971 8      -825.258          51.000                                                                  
C20  22711669.930 7 118265680.177 7        24.062          47.000                                                                  
C19  23327523.234 8 121472543.660 8      2816.484          49.000                                                                  
C05  39635267.531 6 206391237.503 6       -21.160          36.000                                                                  
> 2020 05 16 16 43 30.0000000  0 16      -0.000000000000
G32  23846489.250 7 125314184.221 7      2829.902          47.000    23846493.859 7  97647409.424 7      2205.122          47.000  
G08  20622181.914 5 108370319.95025      1236.641          33.000                                                                  
G10  21159460.648 7 111193724.104 7     -1212.086          46.000    21159462.906 7  86644483.250 7      -944.483          46.000  
G16  23331975.055 7 122610253.416 7     -3570.309          43.000    23331965.477 5  95540471.026 5     -2782.060          30.000  
G27  20473570.852 8 107589333.655 8     -1005.773          51.000    20473572.656 8  83835850.133 8      -783.720          51.000  
R05  20433703.195 8 109229454.241 8      2733.496          51.000    20433706.211 8  84956345.940 8      2126.056          48.000  
R10  22664925.727 7 120816481.906 7     -3399.934          44.000                                                                  
R04  20698849.906 5 110841022.098 5     -1406.012          34.000    20698853.188 6  86209684.182 6     -1093.559          36.000  
E27                                                                  27115834.688 5 109184233.504 5     -2379.076          33.000  
E15  24300264.039 6 127698735.296 6     -1437.012          41.000    24300267.531 7  97847160.063 7     -1101.001          46.000  
E08  24084255.516 8 126563659.948 8      2652.758          48.000    24084259.273 8  96977376.987 8      2032.637          48.000  
E13  23520460.336 5 123600852.725 5       689.621          34.000    23520460.781 5  94707148.852 5       528.190          31.000  
C29  21792922.367 8 113481453.171 8      -831.867          51.000                                                                  
C20  22711569.773 8 118265156.300 8        10.086          48.000                                                                  
C19  23311313.430 8 121388135.062 8      2810.164          50.000                                                                  
C05  39635375.945 6 206391802.819 6       -17.828          36.000    39635376.141 5 159595235.014 5       -13.973          35.000  
> 2020 05 16 16 44  0.0000000  0 16      -0.000000000000
G32  23830348.312 7 125229366.045 7      2822.137          47.000    23830353.523 7  97581317.407 7      2199.068          46.000  
G08  20615160.688 5 108333384.53325      1221.527          34.000                                                                  
G10  21166425.297 7 111230323.507 7     -1230.527          46.000    21166427.914 7  86673002.263 7      -958.853          46.000  
G16  23352368.492 7 122717433.157 7     -3577.387          42.000    23352360.914 5  95623987.604 5     -2787.578          33.000  
G27  20479353.242 8 107619721.339 8     -1022.543          51.000    20479355.305 8  83859528.841 8      -796.787          51.000  
R05  20418419.977 8 109147759.709 8      2710.250          51.000    20418423.461 8  84892805.779 8      2107.976          48.000  
R10  22684091.000 7 120918646.097 7     -3413.660          43.000                                                                  
R04  20706796.227 6 110883580.129 6     -1433.824          36.000    20706801.242 5  86242784.932 5     -1115.197          35.000  
E27                                                                  27133559.562 5 109255594.132 5     -2380.777          34.000  
E15  24308476.016 6 127741887.905 6     -1442.430          40.000    24308479.633 7  97880225.005 7     -1105.233          46.000  
E08  24069126.914 8 126484161.115 8      2644.676          48.000    24069131.703 8  96916462.377 8      2026.408          48.000  
E13  23516534.516 5 123580226.383 5       683.102          32.000    23516535.234 4  94691342.073 4       523.230          29.000  
C29  21797740.344 8 113506541.827 8      -843.227          51.000                                                                  
C20  22711558.641 8 118265097.708 8        -8.691          49.000                                                                  
C19  23295149.156 8 121303964.761 8      2798.797          50.000                                                                  
C05  39635475.086 6 206392319.159 6       -19.051          36.000    39635475.164 5 159595633.27625       -15.009          34.000  
> 2020 05 16 16 44 30.0000000  0 16      -0.000000000000
G32  23814242.016 8 125144728.489 8      2817.582          48.000    23814247.633 8  97515366.127 8      2195.522          48.000  
G08  20608209.398 5 108296879.40825      1209.902          35.000                                                                  
G10  21173484.062 8 111267417.078 8     -1245.301          48.000    21173486.461 8  86701906.315 8      -970.368          48.000  
G16  23372792.992 7 122824774.287 7     -3581.598          42.000    23372786.688 5  95707629.929 5     -2790.865          31.000  
G27  20485220.273 8 107650554.089 8     -1035.922          51.000    20485222.805 8  83883554.337 8      -807.212          51.000  
G11  21782432.297 5 114467437.559 5      2708.113          31.000                                                                  
R05  20403256.578 8 109066707.522 8      2690.227          50.000    20403260.922 8  84829765.242 8      2092.402          48.000  
R10  22703321.711 7 121021158.591 7     -3423.664          44.000                                                                  
R04  20714887.297 6 110926909.624 6     -1457.902          39.000    20714892.180 5  86276485.658 5     -1133.927          35.000  
E27                                                                  27151289.766 5 109326976.758 5     -2380.199          34.000  
E15  24316708.297 6 127785151.578 6     -1444.562          40.000    24316712.703 7  97913375.053 7     -1107.002          45.000  
E08  24054034.188 8 126404849.343 8      2640.023          48.000    24054039.484 7  96855691.098 7      2022.876          47.000  
C29  21802612.961 8 113531915.342 8      -851.246          51.000                                                                  
C20  22711645.133 8 118265547.356 8       -24.129          50.000                                                                  
C19  23279038.945 8 121220077.907 8      2790.711          49.000                                                                  
C05  39635573.477 6 206392830.712 6       -17.691          36.000    39635573.453 5 159596028.833 5       -13.602          35.000  
> 2020 05 16 16 45  0.0000000  0 16      -0.000000000000
G32  23798185.305 8 125060349.168 8      2810.422          49.000    23798191.086 8  97449616.094 8      2189.943          49.000  
G08  20601350.992 6 108260848.526 6      1195.598          36.000    20601353.906 6  84359092.021 6       931.632          36.000  
G10  21180650.805 8 111305077.879 8     -1262.727          48.000    21180653.039 8  86731252.338 8      -983.946          48.000  
G16  23393261.734 6 122932348.293 6     -3587.695          40.000                                                                  
G27  20491186.320 8 107681906.521 8     -1051.672          51.000    20491189.047 8  83907984.784 8      -819.485          51.000  
G11  21766996.328 5 114386351.658 5      2700.543          34.000                                                                  
R05  20388228.492 8 108986377.186 8      2667.816          50.000    20388233.500 8  84767286.138 8      2074.969          48.000  
R10  22722631.523 7 121124090.443 7     -3436.043          44.000                                                                  
R04  20723136.641 6 110971084.402 6     -1484.336          38.000    20723141.062 5  86310843.824 5     -1154.481          35.000  
E15  24324976.773 7 127828600.893 7     -1449.309          42.000    24324980.234 7  97946667.357 7     -1110.414          45.000  
E08  24038991.586 7 126325801.183 7      2632.621          47.000    24038997.047 7  96795121.844 7      2017.177          45.000  
C30  25380678.195 5 132163858.892 5     -2706.031          30.000                                                                  
C29  21807554.414 8 113557647.963 8      -861.656          51.000                                                                  
C20  22711843.578 8 118266578.991 8       -41.996          50.000                                                                  
C19  23262997.891 8 121136550.532 8      2780.246          49.000                                                                  
C05  39635685.211 6 206393411.438 6       -18.312          36.000    39635685.508 6 159596479.897 6       -14.574          36.000  
> 2020 05 16 16 45 30.0000000  0 15      -0.000000000000
G32  23782173.438 8 124976204.703 8      2800.746          50.000    23782179.133 8  97384049.067 8      2182.403          50.000  
G08  20594576.836 5 108225254.413 5      1179.246          33.000    20594579.625 5  84331356.406 5       918.893          33.000  
G10  21187920.078 8 111343277.700 8     -1282.402          49.000    21187922.281 8  86761018.458 8      -999.275          49.000  
G16  23413769.695 6 123040125.450 6     -3595.809          38.000                                                                  
G27  20497246.375 8 107713752.172 8     -1069.871          51.000    20497249.000 8  83932799.567 8      -833.666          51.000  
R05  20373331.383 8 108906745.157 8      2642.602          49.000    20373336.703 7  84705350.148 7      2055.357          47.000  
R10  22742014.203 7 121227410.416 7     -3450.574          43.000                                                                  
R04  20731538.328 6 111016075.177 6     -1513.316          39.000    20731542.734 5  86345836.692 5     -1177.021          35.000  
E27                                                                  27186794.742 5 109469957.286 5     -2384.275          31.000  
E15  24333275.820 6 127872209.361 6     -1456.453          41.000    24333278.273 7  97980081.651 7     -1115.841          45.000  
E08  24023994.789 8 126246992.165 8      2622.867          49.000    24023998.594 7  96734735.779 7      2009.710          44.000  
C29  21812559.922 8 113583713.784 8      -874.539          51.000                                                                  
C20  22712148.664 8 118268166.210 8       -62.305          50.000                                                                  
C19  23247021.281 8 121053358.425 8      2767.336          49.000                                                                  
C05  39635805.219 6 206394035.163 6       -21.617          36.000    39635805.578 6 159596962.177 6       -16.755          36.000  
> 2020 05 16 16 46  0.0000000  0 15      -0.000000000000
G32  23766174.039 8 124892126.299 8      2796.621          48.000    23766179.531 8  97318533.479 8      2179.186          48.000  
G10  21195258.922 8 111381843.186 8     -1296.551          49.000    21195260.922 8  86791069.434 8     -1010.303          49.000  
G16  23434283.859 6 123147931.269 6     -3598.555          36.000                                                                  
G27  20503367.695 8 107745919.153 8     -1082.555          51.000    20503370.156 8  83957864.716 8      -843.549          51.000  
G11  21736247.523 5 114224752.752 5      2685.613          34.000                                                                  
R05  20358532.641 8 108827640.181 8      2623.031          48.000    20358538.266 7  84643824.084 7      2040.136          47.000  
R10  22761436.164 7 121330939.743 7     -3459.613          43.000                                                                  
R04  20740059.727 6 111061704.643 6     -1536.363          38.000    20740062.391 5  86381326.210 5     -1194.949          34.000  
E27  27204525.773 5 142960746.811 5     -3110.168          35.000    27204533.117 5 109541381.147 5     -2383.303          32.000  
E15  24341571.570 6 127915805.223 6     -1457.746          41.000    24341574.508 7  98013486.217 7     -1117.113          44.000  
E08  24009011.719 8 126168252.379 8      2618.664          49.000    24009011.758 7  96674402.711 7      2006.450          45.000  
C29  21817597.023 8 113609942.717 8      -881.898          51.000                                                                  
C20  22712527.352 8 118270138.430 8       -76.988          50.000                                                                  
C19  23231077.250 8 120970333.263 8      2759.902          50.000                                                                  
C05  39635900.758 6 206394531.610 6       -19.199          36.000    39635901.133 6 159597346.042 6       -14.816          36.000  
> 2020 05 16 16 46 30.0000000  0 17      -0.000000000000
G32  23750224.672 7 124808314.254 7      2789.988          45.000    23750230.570 7  97253225.424 7      2174.018          45.000  
G08  20581225.805 5 108155075.26525      1153.496          32.000                                                                  
G10  21202704.492 8 111420969.922 8     -1312.871          50.000    21202706.781 8  86821557.798 8     -1023.017          50.000  
G16  23454841.289 6 123255960.588 6     -3603.398          36.000    23454839.805 4  96043642.796 4     -2807.844          28.000  
G27  20509587.734 8 107778604.698 8     -1097.445          51.000    20509590.289 8  83983333.937 8      -855.156          51.000  
G11  21720933.195 5 114144273.62825      2678.848          30.000                                                                  
R05  20343871.148 8 108749266.327 8      2600.844          49.000    20343876.398 7  84582866.663 7      2022.882          46.000  
R10  22780934.695 7 121434873.991 7     -3470.523          44.000                                                                  
R04  20748737.594 6 111108171.527 6     -1562.023          38.000    20748740.266 5  86417467.178 5     -1214.910          35.000  
E27  27222281.328 5 143054054.408 5     -3111.066          34.000    27222289.055 5 109612876.421 5     -2384.033          32.000  
E15  24349902.062 6 127959585.668 6     -1461.555          41.000    24349905.578 7  98047032.250 7     -1120.085          44.000  
E08  23994079.945 8 126089781.134 8      2611.875          50.000    23994077.938 7  96614275.413 7      2001.269          46.000  
C30  25427557.062 5 132407967.192 5     -2718.770          31.000                                                                  
C29  21822703.289 8 113636530.635 8      -891.609          51.000                                                                  
C20  22713017.445 8 118272690.896 8       -94.137          49.000                                                                  
C19  23215203.664 8 120887672.641 8      2749.953          50.000                                                                  
C05  39636009.266 6 206395100.315 6       -19.555          36.000    39636009.695 6 159597784.700 6       -15.151          36.000  
> 2020 05 16 16 47  0.0000000  0 17      -0.000000000000
G32  23734324.469 7 124724762.071 7      2782.977          45.000    23734331.156 7  97188119.865 7      2168.554          45.000  
G08  20574686.117 5 108120702.694 5      1140.332          34.000    20574687.328 5  84249902.378 5       888.574          35.000  
G10  21210254.680 8 111460646.746 8     -1329.359          50.000    21210257.055 8  86852474.781 8     -1035.865          50.000  
G16  23475439.703 6 123364201.127 6     -3609.668          36.000    23475436.328 5  96128001.037 5     -2812.729          34.000  
G27  20515904.617 8 107811799.266 8     -1112.715          51.000    20515907.203 8  84009199.778 8      -867.051          51.000  
G11  21705669.625 5 114064063.26325      2671.727          32.000                                                                  
R05  20329345.797 8 108671617.036 8      2578.535          51.000    20329349.844 7  84522472.806 7      2005.528          45.000  
R10  22800506.820 7 121539198.751 7     -3481.629          43.000                                                                  
R04  20757568.781 6 111155463.989 6     -1588.008          39.000    20757571.609 5  86454250.190 5     -1235.117          35.000  
E27  27240052.555 5 143147439.757 5     -3111.660          34.000    27240059.203 5 109684430.233 5     -2384.099          31.000  
E15  24358266.289 7 128003541.224 7     -1465.684          42.000    24358270.164 7  98080712.441 7     -1123.111          43.000  
E08  23979197.703 8 126011570.790 8      2604.977          49.000    23979195.016 7  96554347.989 7      1996.019          47.000  
C30  25443234.930 5 132489629.180 5     -2723.055          30.000                                                                  
C29  21827876.594 8 113663468.325 8      -901.438          51.000                                                                  
C20  22713617.133 8 118275813.916 8      -111.289          49.000                                                                  
C19  23199398.602 8 120805369.115 8      2739.672          50.000                                                                  
C05  39636128.984 6 206395723.758 6       -19.953          36.000    39636129.367 5 159598266.758 5       -15.160          35.000  
> 2020 05 16 16 47 30.0000000  0 17      -0.000000000000
G32  23718453.039 8 124641357.202 8      2777.797          48.000    23718459.953 8  97123129.084 8      2164.518          48.000  
G08  20568212.578 6 108086684.745 6      1128.160          40.000    20568214.781 6  84223394.887 6       879.089          37.000  
G10  21217887.305 8 111500756.359 8     -1344.016          50.000    21217889.258 8  86883729.033 8     -1047.285          50.000  
G16  23496056.406 6 123472534.404 6     -3612.453          38.000    23496058.781 5  96212420.403 5     -2814.902          35.000  
G27  20522296.250 8 107845387.134 8     -1126.016          51.000    20522298.945 8  84035372.114 8      -877.418          51.000  
G11  21690432.930 5 113983981.955 5      2665.844          33.000                                                                  
R05  20314934.984 8 108594578.461 8      2557.898          51.000    20314937.539 7  84462553.941 7      1989.477          45.000  
R10  22820129.266 7 121643792.388 7     -3490.738          43.000                                                                  
R04  20766532.641 6 111203461.655 6     -1611.309          38.000    20766535.492 6  86491581.724 6     -1253.237          36.000  
E27  27257815.383 5 143240785.278 5     -3110.363          34.000    27257820.766 5 109755948.654 5     -2383.264          31.000  
E15  24366642.172 6 128047556.206 6     -1467.871          40.000    24366646.367 7  98114438.210 7     -1124.772          43.000  
E08  23964343.328 8 125933507.620 8      2599.840          50.000    23964341.148 8  96494533.349 8      1992.152          50.000  
C30  25458925.820 4 132571350.484 4     -2724.879          28.000                                                                  
C29  21833095.133 8 113690641.491 8      -909.473          51.000                                                                  
C20  22714304.344 8 118279392.577 8      -126.672          48.000                                                                  
C19  23183640.312 8 120723310.091 8      2731.293          50.000                                                                  
C05  39636238.016 6 206396291.413 6       -18.020          36.000    39636238.391 6 159598706.692 6       -13.756          36.000  
> 2020 05 16 16 48  0.0000000  0 16      -0.000000000000
G32  23702621.125 8 124558157.302 8      2770.617          48.000    23702627.648 8  97058298.035 8      2158.926          48.000  
G08  20561817.211 6 108053077.479 6      1113.820          37.000    20561819.883 6  84197207.381 6       867.909          38.000  
G10  21225612.375 8 111541351.785 8     -1360.629          49.000    21225614.180 8  86915361.836 8     -1060.231          49.000  
G16  23516700.766 6 123581012.177 6     -3617.590          38.000    23516701.719 5  96296948.468 5     -2818.905          33.000  
G27  20528772.992 8 107879422.918 8     -1141.309          51.000    20528775.672 8  84061893.485 8      -889.335          51.000  
G11  21675238.766 5 113904136.692 5      2658.629          33.000    21675241.664 5  88756490.274 5      2071.659          33.000  
R05  20300649.414 8 108518209.132 8      2535.168          51.000    20300650.969 7  84403155.590 7      1971.798          47.000  
R10  22839811.141 7 121748705.978 7     -3501.738          43.000                                                                  
R04  20775637.930 6 111252217.925 6     -1637.230          36.000    20775640.328 5  86529503.262 5     -1273.399          35.000  
E27  27275580.945 5 143334143.729 5     -3111.559          34.000                                                                  
E15  24375040.008 6 128091685.461 6     -1472.414          38.000    24375043.844 7  98148251.461 7     -1127.987          43.000  
E08  23949528.062 8 125855648.260 8      2592.461          51.000    23949527.039 8  96434874.904 8      1986.399          51.000  
C29  21838369.398 8 113718104.598 8      -919.621          51.000                                                                  
C20  22715088.969 7 118283480.806 7      -143.980          46.000                                                                  
C19  23167939.406 8 120641551.728 8      2720.918          49.000                                                                  
C05  39636346.695 6 206396857.553 6       -18.133          36.000    39636347.094 6 159599144.449 6       -13.828          36.000  
> 2020 05 16 16 48 30.0000000  0 15      -0.000000000000
G32  23686838.250 8 124475215.327 8      2759.754          49.000    23686844.234 8  96993668.007 8      2150.461          49.000  
G08  20555509.734 6 108019932.026 6      1096.445          37.000    20555513.523 6  84171379.731 6       854.373          36.000  
G10  21233439.094 8 111582481.164 8     -1380.508          50.000    21233440.641 8  86947410.721 8     -1075.721          48.000  
G16  23537381.539 6 123689681.569 6     -3625.773          36.000    23537379.508 4  96381625.876 4     -2825.279          24.000  
G27  20535344.320 8 107913956.366 8     -1160.020          51.000    20535346.953 8  84088802.640 8      -903.912          51.000  
R05  20286498.969 8 108442563.504 8      2508.812          51.000    20286500.281 8  84344320.134 8      1951.299          48.000  
R10  22859561.023 7 121853985.567 7     -3515.934          42.000                                                                  
R04  20784893.555 7 111301781.150 7     -1666.309          42.000    20784895.359 5  86568052.426 5     -1296.024          33.000  
E27  27293358.219 5 143427562.982 5     -3115.738          34.000                                                                  
E15  24383468.867 6 128135978.662 6     -1479.965          40.000    24383473.328 7  98182190.381 7     -1133.913          42.000  
E08  23934760.641 8 125778044.491 8      2581.746          50.000    23934761.867 8  96375412.324 8      1978.240          51.000  
C29  21843709.016 8 113745907.296 8      -933.102          51.000                                                                  
C20  22715981.102 7 118288127.688 7      -164.793          44.000                                                                  
C19  23152305.750 8 120560145.471 8      2707.039          48.000                                                                  
C05  39636464.570 6 206397471.590 6       -22.004          36.000    39636465.008 6 159599619.266 6       -17.066          36.000  
> 2020 05 16 16 49  0.0000000  0 16      -0.000000000000
G32  23671087.016 7 124392441.806 7      2759.461          47.000    23671092.375 7  96929169.221 7      2150.233          46.000  
G08  20549273.094 6 107987157.683 6      1089.715          37.000    20549276.523 6  84145841.265 6       849.126          36.000  
G10  21241349.469 8 111624050.357 8     -1389.699          50.000    21241350.734 7  86979802.289 7     -1082.883          47.000  
G16  23558079.805 6 123798447.388 6     -3623.727          36.000    23558077.141 5  96466378.440 5     -2823.684          31.000  
G27  20541992.773 8 107948894.862 8     -1168.016          51.000    20541995.461 8  84116027.410 8      -910.142          51.000  
G11  21644982.570 5 113745138.45825      2647.836          31.000                                                                  
R05  20272466.203 8 108367550.507 8      2493.230          51.000    20272467.859 8  84285976.739 8      1939.183          48.000  
R10  22879361.086 7 121959532.443 7     -3519.348          43.000                                                                  
R04  20794283.312 6 111352054.648 6     -1684.070          37.000    20794282.891 5  86607153.979 5     -1309.833          34.000  
E27  27311129.156 5 143520950.661 5     -3108.785          33.000                                                                  
E15  24391910.945 6 128180343.377 6     -1476.801          39.000    24391916.203 6  98216184.140 6     -1131.683          41.000  
E08  23920023.453 8 125700605.767 8      2581.852          50.000    23920027.602 8  96316076.240 8      1978.255          51.000  
C29  21849096.062 8 113773958.200 8      -935.957          51.000                                                                  
C20  22716963.078 7 118293241.205 7      -174.898          45.000                                                                  
C19  23136722.531 8 120479001.568 8      2703.699          49.000                                                                  
C05  39636574.016 6 206398041.867 6       -14.938          36.000    39636574.375 6 159600060.222 6       -11.832          36.000  
> 2020 05 16 16 49 30.0000000  0 17      -0.000000000000
G32  23655380.883 7 124309908.518 7      2745.199          46.000    23655385.938 7  96864857.646 7      2139.117          45.000  
G08  20543120.719 6 107954824.802 6      1068.418          39.000    20543122.672 6  84120646.872 6       832.537          39.000  
G22  24200937.922 4 127176786.50524      3534.879          29.000                                                                  
G10  21249356.148 8 111666126.279 8     -1412.914          48.000    21249357.453 7  87012588.761 7     -1100.972          47.000  
G16  23578808.656 6 123907375.744 6     -3635.539          38.000    23578805.023 5  96551257.483 5     -2832.876          34.000  
G27  20548731.484 8 107984307.055 8     -1190.316          51.000    20548734.086 8  84143621.311 8      -927.520          51.000  
R05  20258565.398 8 108293243.486 8      2463.059          51.000    20258567.203 8  84228182.399 8      1915.713          48.000  
R10  22899223.625 7 122065411.866 7     -3536.758          44.000                                                                  
R04  20803815.805 6 111403105.875 6     -1716.559          38.000    20803816.148 5  86646860.568 5     -1335.101          32.000  
E27  27328907.148 5 143614374.494 5     -3116.488          33.000                                                                  
E15  24400379.930 6 128224848.468 6     -1487.758          37.000    24400384.625 6  98250285.423 6     -1140.103          39.000  
E08  23905331.141 8 125623402.794 8      2567.551          50.000    23905337.406 8  96256920.780 8      1967.315          51.000  
E13  23475312.141 5 123363596.778 5       626.465          33.000    23475322.273 5  94525388.156 5       479.917          35.000  
C29  21854543.680 8 113802325.736 8      -952.840          51.000                                                                  
C20  22718047.297 7 118298889.109 7      -199.055          44.000                                                                  
C19  23121203.539 8 120398190.177 8      2686.203          50.000                                                                  
C05  39636688.273 6 206398636.542 6       -22.367          36.000    39636688.531 5 159600520.024 5       -16.897          35.000  
> 2020 05 16 16 50  0.0000000  0 16      -0.000000000000
G32  23639713.266 7 124227577.528 7      2741.152          46.000    23639717.922 7  96800703.682 7      2135.964          46.000  
G08  20537044.539 6 107922893.541 6      1058.160          41.000    20537045.523 6  84095765.370 6       824.541          40.000  
G10  21257451.211 8 111708666.305 8     -1425.605          48.000    21257451.867 7  87045736.851 7     -1110.862          45.000  
G16  23599559.992 6 124016422.580 6     -3636.270          40.000    23599555.672 5  96636234.012 5     -2833.448          31.000  
G27  20555552.555 8 108020151.803 8     -1201.812          51.000    20555555.156 8  84171552.260 8      -936.478          51.000  
R05  20244789.500 8 108219604.079 8      2443.777          51.000    20244791.852 8  84170907.343 8      1900.719          48.000  
R10  22919140.234 7 122171577.761 7     -3543.344          45.000                                                                  
R04  20813486.688 6 111454890.937 6     -1738.086          39.000    20813487.195 5  86687137.784 5     -1351.845          33.000  
E27  27346683.961 5 143707788.577 5     -3112.922          34.000                                                                  
E15  24408868.539 6 128269452.865 6     -1488.355          38.000    24408871.781 6  98284462.817 6     -1140.249          38.000  
E08  23890676.766 8 125546396.510 8      2563.836          51.000    23890683.633 8  96197915.989 8      1964.463          51.000  
E13  23471735.164 5 123344788.736 5       624.984          34.000    23471741.805 5  94510976.819 5       479.130          34.000  
C29  21860044.344 8 113830969.493 8      -959.160          51.000                                                                  
C20  22719226.078 7 118305030.320 7      -212.730          44.000                                                                  
C19  23105741.094 8 120317672.686 8      2679.211          50.000                                                                  
C05  39636799.336 6 206399214.996 6       -18.676          36.000    39636799.547 5 159600966.340 5       -14.819          35.000  
> 2020 05 16 16 50 30.0000000  0 17      -0.000000000000
G32  23624084.047 7 124145445.134 7      2733.473          47.000    23624088.195 7  96736704.464 7      2129.979          47.000  
G08  20531043.562 6 107891358.807 6      1043.395          37.000    20531044.531 6  84071192.858 6       813.035          38.000  
G10  21265632.898 7 111751661.930 7     -1441.750          47.000    21265633.883 7  87079239.974 7     -1123.442          44.000  
G16  23620331.711 6 124125578.563 6     -3641.391          41.000    23620326.172 4  96721290.422 4     -2837.451          29.000  
G27  20562454.688 8 108056422.284 8     -1216.973          51.000    20562457.219 8  84199814.952 8      -948.291          51.000  
R05  20231137.945 8 108146628.690 8      2420.445          51.000    20231140.617 8  84114148.752 8      1882.569          48.000  
R10  22939108.438 7 122278019.000 7     -3553.566          44.000                                                                  
R04  20823292.812 6 111507400.144 6     -1763.309          36.000    20823292.422 5  86727978.268 5     -1371.463          32.000  
E27  27364456.586 5 143801179.243 5     -3114.031          33.000                                                                  
E15  24417374.789 6 128314149.790 6     -1492.168          37.000    24417377.859 6  98318711.186 6     -1143.548          38.000  
E08  23876059.508 8 125469582.145 8      2556.312          51.000    23876065.758 8  96139058.231 8      1958.713          51.000  
E13  23468178.891 5 123326104.966 5       619.344          34.000    23468186.531 5  94496660.665 5       474.951          34.000  
C30  25553565.680 5 133064109.470 5     -2748.434          30.000                                                                  
C29  21865596.898 8 113859883.093 8      -969.238          51.000                                                                  
C20  22720499.062 7 118311657.886 7      -230.059          45.000                                                                  
C19  23090334.312 8 120237444.391 8      2668.500          49.000                                                                  
C05  39636906.109 6 206399770.637 6       -19.105          36.000    39636906.172 6 159601395.957 6       -14.813          36.000  
> 2020 05 16 16 51  0.0000000  0 17      -0.000000000000
G32  23608508.609 8 124063593.569 8      2726.715          48.000    23608512.344 8  96672924.088 8      2124.717          48.000  
G08  20525132.984 6 107860301.484 6      1030.695          38.000    20525134.461 6  84046992.280 6       803.139          38.000  
G22  24140472.578 5 126859040.69625      3525.121          31.000                                                                  
G10  21273916.164 7 111795190.661 7     -1456.637          46.000    21273917.273 7  87113158.498 7     -1135.042          45.000  
G16  23641138.688 6 124234919.998 6     -3644.543          41.000    23641134.852 4  96806491.418 4     -2839.914          29.000  
G27  20569452.867 8 108093197.550 8     -1231.051          51.000    20569455.266 8  84228470.998 8      -959.261          51.000  
R05  20217626.227 8 108074400.810 8      2398.273          51.000    20217628.547 8  84057971.537 8      1865.327          48.000  
R10  22959142.359 7 122384811.360 7     -3562.324          42.000                                                                  
R04  20833247.703 5 111560711.573 5     -1787.512          34.000    20833248.672 5  86769442.812 5     -1390.281          32.000  
E27  27382240.070 5 143894640.818 5     -3112.910          33.000                                                                  
E15  24425912.852 6 128359018.655 6     -1495.797          36.000    24425918.086 6  98353091.232 6     -1145.775          38.000  
E08  23861494.531 8 125393040.806 8      2549.938          51.000    23861499.312 8  96080409.672 8      1953.861          51.000  
E13  23464662.922 6 123307624.828 6       615.609          36.000    23464670.906 5  94482500.568 5       471.875          35.000  
C29  21871216.250 8 113889145.316 8      -978.062          51.000                                                                  
C20  22721880.500 7 118318849.786 7      -246.094          47.000                                                                  
C19  23074998.070 8 120157585.677 8      2658.910          49.000                                                                  
C05  39637023.602 6 206400381.997 6       -18.074          36.000    39637023.547 5 159601867.679 5       -13.991          35.000  
> 2020 05 16 16 51 30.0000000  0 19      -0.000000000000
G32  23592968.922 8 123981929.364 8      2718.211          48.000    23592972.586 8  96609289.734 8      2118.090          48.000  
G08  20519295.398 6 107829626.754 6      1015.328          38.000    20519297.352 6  84023089.851 6       791.162          38.000  
G22  24120363.586 5 126753395.180 5      3518.965          35.000    24120366.867 5  98768870.625 5      2742.051          32.000  
G10  21282282.148 7 111839154.237 7     -1473.324          46.000    21282282.266 7  87147415.857 7     -1148.045          44.000  
G16  23661961.992 6 124344348.016 6     -3649.941          41.000    23661959.414 5  96891759.928 5     -2844.111          30.000  
G20  23116650.688 5 121478787.000 5     -3108.184          35.000                                                                  
G27  20576528.625 8 108130380.942 8     -1246.965          51.000    20576531.219 8  84257445.074 8      -971.661          51.000  
R05  20204236.492 8 108002825.948 8      2374.301          51.000    20204238.898 8  84002302.222 8      1846.679          48.000  
R10  22979222.883 6 122491852.196 6     -3573.004          41.000                                                                  
R04  20843334.125 5 111614724.557 5     -1812.516          34.000    20843333.477 5  86811452.759 5     -1409.741          30.000  
E27  27400016.008 5 143988054.896 5     -3113.527          32.000                                                                  
E15                                                                  24434470.969 6  98387529.087 6     -1149.241          37.000  
E08  23846963.609 8 125316677.933 8      2541.816          51.000    23846966.898 8  96021897.858 8      1947.663          50.000  
E13  23461167.477 6 123289252.015 6       609.945          38.000    23461175.062 6  94468422.730 6       467.409          36.000  
C30  25585289.219 4 133229316.10524     -2755.781          28.000                                                                  
C29  21876884.117 8 113918660.807 8      -988.754          51.000                                                                  
C20  22723352.367 8 118326510.135 8      -263.871          48.000                                                                  
C19  23059714.945 8 120078002.972 8      2647.430          49.000                                                                  
C05  39637133.383 6 206400954.410 6       -18.613          36.000    39637133.297 5 159602309.507 5       -14.296          35.000  
> 2020 05 16 16 52  0.0000000  0 17      -0.000000000000
G32  23577481.461 7 123900541.060 7      2709.855          47.000    23577484.820 7  96545870.348 7      2111.579          47.000  
G08  20513547.422 6 107799421.079 6      1000.688          40.000    20513549.031 6  83999552.976 6       779.754          40.000  
G22  24100297.891 6 126647951.692 6      3513.129          39.000    24100302.711 5  98686683.949 5      2737.501          31.000  
G10  21290746.922 7 111883636.354 7     -1489.840          47.000    21290747.219 7  87182077.269 7     -1160.915          44.000  
G16  23682817.281 6 124453945.184 6     -3654.352          41.000    23682815.570 5  96977160.190 5     -2847.551          32.000  
G20  23134422.648 5 121572180.099 5     -3116.387          35.000                                                                  
G27  20583698.227 8 108168057.758 8     -1262.574          51.000    20583700.875 8  84286803.631 8      -983.824          51.000  
R05  20190985.320 8 107931993.662 8      2350.219          51.000    20190988.320 8  83947210.466 8      1827.948          48.000  
R10  22999365.477 6 122599224.107 6     -3582.996          41.000                                                                  
R04  20853563.156 6 111669507.333 6     -1838.004          36.000    20853569.172 5  86854074.150 5     -1429.562          31.000  
E15  24443048.094 6 128449082.127 6     -1504.406          37.000    24443053.312 6  98422090.233 6     -1153.018          39.000  
E08  23832483.078 8 125240580.909 8      2533.695          51.000    23832485.836 8  95963589.780 8      1941.362          48.000  
E13  23457708.438 6 123271072.259 6       604.008          37.000    23457715.008 6  94454492.784 6       462.949          36.000  
C29  21882616.906 8 113948514.447 8      -999.273          51.000                                                                  
C20  22724929.484 7 118334723.010 7      -281.504          47.000                                                                  
C19  23044501.383 8 119998782.842 8      2636.070          48.000                                                                  
C05  39637251.836 6 206401570.756 6       -19.617          37.000    39637251.852 6 159602786.079 6       -14.946          36.000  
> 2020 05 16 16 52 30.0000000  0 18      -0.000000000000
G32  23562026.562 7 123819325.316 7      2703.109          45.000    23562029.414 7  96482585.421 7      2106.323          45.000  
G08  20507869.219 6 107769580.319 6       987.539          41.000    20507870.008 6  83976300.459 6       769.514          41.000  
G22  24080251.164 6 126542605.826 6      3508.781          39.000    24080254.805 5  98604596.331 5      2734.110          30.000  
G10  21299289.703 7 111928528.839 7     -1504.262          45.000    21299291.227 7  87217058.437 7     -1172.152          46.000  
G16  23703684.234 6 124563602.270 6     -3657.172          39.000    23703683.352 5  97062607.225 5     -2849.745          31.000  
G20  23152222.898 5 121665727.282 5     -3121.492          34.000                                                                  
G27  20590941.469 8 108206121.422 8     -1276.395          51.000    20590944.062 8  84316463.615 8      -994.593          51.000  
R05  20177853.328 8 107861798.937 8      2328.152          51.000    20177856.938 7  83892614.599 7      1810.786          47.000  
R10  23019549.758 6 122706814.171 6     -3590.961          41.000                                                                  
R04  20863926.391 5 111724981.041 5     -1860.926          34.000    20863924.719 4  86897220.272 4     -1447.393          29.000  
E15  24451643.172 5 128494241.847 5     -1507.621          35.000    24451645.727 6  98456693.112 6     -1155.011          40.000  
E08  23818032.789 8 125164645.233 8      2527.461          50.000    23818034.727 7  95905405.359 7      1936.612          44.000  
E13  23454264.742 5 123252979.243 5       600.852          34.000    23454270.273 6  94440629.327 6       460.342          36.000  
C30  25617099.109 4 133394954.012 4     -2763.238          29.000                                                                  
C29  21888394.727 8 113978601.056 8     -1007.836          51.000                                                                  
C20  22726592.758 8 118343382.656 8      -297.145          48.000                                                                  
C19  23029337.703 8 119919821.814 8      2626.543          48.000                                                                  
C05  39637358.516 6 206402126.481 6       -18.809          36.000    39637358.477 5 159603216.778 5       -14.148          35.000  
> 2020 05 16 16 53  0.0000000  0 17      -0.000000000000
G32  23546630.000 7 123738417.394 7      2693.762          45.000    23546632.242 7  96419540.345 7      2099.036          45.000  
G08  20502285.875 6 107740237.902 6       971.938          41.000    20502286.641 6  83953436.235 6       757.351          41.000  
G22  24060248.688 6 126437491.863 6      3501.898          41.000    24060253.047 5  98522689.481 5      2728.759          30.000  
G10  21307935.430 7 111973962.126 7     -1521.492          45.000    21307937.211 7  87252461.030 7     -1185.579          45.000  
G16  23724586.875 6 124673448.490 6     -3663.082          36.000                                                                  
G20  23170076.938 5 121759558.593 5     -3130.871          34.000                                                                  
G27  20598283.641 8 108244704.008 8     -1292.762          51.000    20598285.898 8  84346527.958 8     -1007.347          51.000  
R05  20164866.445 8 107792379.696 8      2303.109          49.000    20164870.406 7  83838621.870 7      1791.308          46.000  
R10  23039798.852 6 122814752.126 6     -3601.621          41.000                                                                  
R04  20874437.766 4 111781277.501 4     -1887.969          28.000    20874434.305 4  86940993.992 4     -1468.417          28.000  
E15  24460271.828 5 128539598.473 5     -1512.680          35.000    24460274.047 6  98491439.195 6     -1159.220          41.000  
E08  23803638.336 8 125089005.120 8      2518.281          49.000    23803637.938 7  95847447.458 7      1929.632          43.000  
E13  23450863.047 5 123235117.606 5       593.891          35.000    23450866.977 6  94426933.908 6       455.233          36.000  
C29  21894242.523 8 114009051.972 8     -1019.180          51.000                                                                  
C20  22728366.641 7 118352619.575 7      -315.547          47.000                                                                  
C19  23014249.297 8 119841252.935 8      2614.391          48.000                                                                  
C05  39637478.867 6 206402752.759 6       -20.289          36.000                                                                  
> 2020 05 16 16 53 30.0000000  0 17      -0.000000000000
G32  23531272.789 7 123657713.869 7      2685.758          45.000    23531274.617 7  96356654.521 7      2092.802          46.000  
G08  20496777.250 7 107711288.633 7       957.535          42.000    20496778.375 7  83930878.362 7       746.132          42.000  
G22  24040270.578 6 126332505.033 6      3496.754          41.000    24040275.391 5  98440881.621 5      2724.750          31.000  
G10  21316663.453 7 112019827.988 7     -1537.031          43.000    21316664.820 7  87288200.655 7     -1197.690          43.000  
G16  23745504.758 6 124783375.082 6     -3666.828          37.000                                                                  
G20  23187965.016 5 121853565.340 5     -3137.652          32.000                                                                  
G27  20605704.250 8 108283698.847 8     -1307.594          51.000    20605706.219 8  84376913.493 8     -1018.905          51.000  
R05  20152005.094 8 107723630.364 8      2279.570          50.000    20152009.312 7  83785150.208 7      1773.003          46.000  
R10  23060091.453 6 122922925.878 6     -3610.531          40.000                                                                  
R04  20885080.812 5 111838243.28325     -1912.152          31.000    20885079.336 4  86985315.34424     -1487.230          27.000  
E15  24468914.016 5 128585025.471 5     -1516.973          34.000    24468918.094 6  98526246.883 6     -1161.946          41.000  
E08  23789279.922 8 125013555.989 8      2510.945          49.000    23789279.148 7  95789635.912 7      1923.921          47.000  
E13  23447483.031 6 123217357.008 6       589.211          37.000    23447485.977 6  94413325.122 6       451.507          36.000  
C29  21900139.875 8 114039761.911 8     -1028.867          51.000                                                                  
C20  22730230.977 8 118362327.783 8      -332.348          48.000                                                                  
C19  22999216.352 8 119762972.599 8      2603.703          48.000                                                                  
C05  39637592.500 6 206403344.111 6       -20.156          37.000    39637592.484 5 159604158.321 5       -15.505          35.000  
> 2020 05 16 16 54  0.0000000  0 17      -0.000000000000
G32  23515963.680 7 123577264.085 7      2677.344          45.000    23515965.930 7  96293966.444 7      2086.242          45.000  
G08  20491352.219 7 107682780.304 7       942.469          43.000    20491353.289 7  83908664.076 7       734.394          43.000  
G22  24020326.328 6 126227693.691 6      3490.566          40.000    24020331.359 5  98359210.522 5      2719.923          35.000  
G10  21325482.016 7 112066170.917 7     -1552.801          43.000    21325484.172 7  87324312.056 7     -1209.975          43.000  
G16  23766446.750 6 124893425.275 6     -3670.391          38.000                                                                  
G14  24702210.039 7 129810984.840 7      2991.336          42.000    24702211.055 5 101151415.061 5      2330.918          31.000  
G20  23205895.391 5 121947802.495 5     -3144.781          33.000                                                                  
G27  20613212.086 8 108323152.014 8     -1322.840          51.000    20613213.602 8  84407656.186 8     -1030.785          51.000  
R05  20139278.648 8 107655601.136 8      2255.527          50.000    20139282.906 7  83732238.638 7      1754.299          47.000  
R10  23080436.461 7 123031377.148 7     -3619.887          42.000                                                                  
E15  24477583.523 6 128630579.305 6     -1520.914          36.000    24477586.539 7  98561151.749 7     -1165.146          42.000  
E08  23774966.758 7 124938346.083 7      2502.965          47.000    23774968.453 8  95732007.641 8      1917.854          50.000  
E13  23444133.609 5 123199755.985 5       583.750          34.000    23444136.102 6  94399838.585 6       447.624          36.000  
C29  21906095.797 8 114070777.043 8     -1038.969          51.000                                                                  
C20  22732194.469 7 118372552.754 7      -349.449          46.000                                                                  
C19  22984247.602 8 119685028.645 8      2592.543          48.000                                                                  
C05  39637708.141 6 206403946.483 6       -20.371          36.000    39637708.297 6 159604625.106 6       -15.924          36.000  
> 2020 05 16 16 54 30.0000000  0 18      -0.000000000000
G32  23500700.273 7 123497054.857 7      2673.125          44.000    23500703.227 7  96231465.790 7      2082.958          44.000  
G08  20486008.266 7 107654698.542 7       932.309          43.000    20486009.258 7  83886782.179 7       726.474          43.000  
G22  24000412.688 6 126123043.209 6      3489.215          40.000    24000415.266 4  98277664.828 4      2718.873          29.000  
G10  21334388.164 7 112112973.025 7     -1564.516          43.000    21334390.555 7  87360781.199 7     -1219.103          43.000  
G16  23787409.164 6 125003580.544 6     -3670.316          39.000                                                                  
G14  24685134.570 6 129721248.219 6      2994.258          41.000    24685135.312 5 101081490.546 5      2333.195          34.000  
G20  23223863.820 5 122042229.440 5     -3147.836          35.000    23223867.008 5  95097851.815 5     -2452.860          32.000  
G27  20620803.898 8 108363047.160 8     -1333.910          51.000    20620805.156 8  84438743.269 8     -1039.411          51.000  
R05  20126684.695 8 107588278.743 8      2235.695          51.000    20126688.742 8  83679876.782 8      1738.875          48.000  
R10  23100830.688 7 123140085.195 7     -3624.324          44.000                                                                  
E15  24486273.438 6 128676243.737 6     -1520.309          38.000    24486276.477 7  98596141.402 7     -1165.221          43.000  
E08  23760696.938 8 124863361.164 8      2499.059          48.000    23760700.719 8  95674551.703 8      1914.903          51.000  
E13  23440811.539 5 123182294.711 5       582.336          32.000    23440814.227 6  94386462.175 6       446.816          36.000  
C30  25680980.406 5 133727599.890 5     -2775.383          30.000                                                                  
C29  21912107.469 8 114102081.561 8     -1044.973          51.000                                                                  
C20  22734253.227 7 118383277.818 7      -362.465          43.000                                                                  
C19  22969340.953 8 119607406.941 8      2585.320          50.000                                                                  
C05  39637822.992 6 206404543.864 6       -16.324          36.000    39637823.023 6 159605087.021 6       -12.744          36.000  
> 2020 05 16 16 55  0.0000000  0 17      -0.000000000000
G32  23485479.016 7 123417066.922 7      2659.238          45.000    23485482.484 7  96169137.566 7      2072.137          44.000  
G08  20480741.211 7 107627022.441 7       912.082          42.000    20480742.891 6  83865216.400 6       710.714          41.000  
G22  23980525.664 6 126018533.183 6      3477.809          39.000    23980526.273 5  98196228.612 5      2709.997          31.000  
G10  21343377.031 6 112160209.961 6     -1585.305          38.000    21343379.336 6  87397589.195 6     -1235.303          38.000  
G16  23808386.844 6 125113816.036 6     -3679.078          38.000                                                                  
G14  24668058.000 6 129631505.867 6      2987.883          41.000    24668057.984 5 101011561.568 5      2328.227          35.000  
G20  23241866.570 5 122136832.672 5     -3159.359          34.000                                                                  
G27  20628475.438 8 108403361.637 8     -1354.059          51.000    20628476.711 8  84470157.105 8     -1055.114          51.000  
R05  20114219.391 8 107521643.097 8      2206.336          51.000    20114223.383 8  83628049.082 8      1716.039          48.000  
R10  23121268.148 7 123249022.816 7     -3638.293          45.000                                                                  
E15  24494978.664 5 128721996.521 5     -1529.969          33.000    24494983.383 7  98631198.746 7     -1172.276          44.000  
E08  23746466.711 8 124788580.739 8      2485.895          48.000    23746471.945 8  95617252.452 8      1904.768          51.000  
E13                                                                  23437516.766 6  94373178.898 6       438.888          37.000  
C29  21918170.773 8 114133653.516 8     -1060.176          51.000                                                                  
C20  22736404.477 7 118394480.384 7      -384.766          44.000                                                                  
C19  22954492.836 8 119530087.159 8      2568.992          51.000                                                                  
C05  39637932.617 6 206405114.222 6       -21.746          36.000    39637932.586 5 159605528.040 5       -16.692          35.000  
> 2020 05 16 16 55 30.0000000  0 17      -0.000000000000
G32  23470320.523 7 123337408.490 7      2653.148          43.000    23470324.141 7  96107066.121 7      2067.389          43.000  
G08  20475571.695 6 107599858.649 6       900.266          41.000    20475573.602 6  83844049.777 6       701.503          41.000  
G22  23960685.945 6 125914271.373 6      3474.656          39.000    23960685.289 4  98114985.737 4      2707.528          28.000  
G10  21352468.461 6 112207985.126 6     -1598.199          41.000    21352471.109 6  87434816.664 6     -1245.350          41.000  
G16  23829398.875 6 125224233.512 6     -3680.086          39.000    23829397.172 5  97577396.958 5     -2867.600          30.000  
G14  24651000.258 7 129541866.208 7      2989.516          42.000    24651000.523 5 100941712.617 5      2329.500          35.000  
G20  23259922.781 5 122231715.848 5     -3164.359          32.000                                                                  
G27  20636246.641 8 108444200.411 8     -1366.648          51.000    20636248.180 8  84501979.501 8     -1064.921          51.000  
R05  20101903.602 8 107455804.466 8      2184.754          51.000    20101906.930 8  83576841.284 8      1699.256          49.000  
R10  23141767.375 7 123358292.766 7     -3644.418          45.000                                                                  
E15                                                                  24503727.352 7  98666404.478 7     -1173.356          44.000  
E08  23732296.328 8 124714111.973 8      2480.477          48.000    23732302.242 8  95560192.016 8      1900.620          51.000  
E13  23434257.117 5 123147853.047 5       569.977          35.000    23434262.656 6  94360069.550 6       436.891          37.000  
C29  21924305.531 8 114165597.411 8     -1067.707          51.000                                                                  
C20  22738667.297 7 118406264.111 7      -399.211          43.000                                                                  
C19  22939723.492 8 119453175.578 8      2560.281          51.000                                                                  
C05  39638056.992 6 206405763.797 6       -19.719          37.000    39638056.906 6 159606028.770 6       -15.254          36.000  
> 2020 05 16 16 56  0.0000000  0 20      -0.000000000000
G32  23455202.523 7 123257962.792 7      2643.227          42.000    23455205.469 7  96045160.440 7      2059.658          42.000  
G08  20470477.414 7 107573088.865 7       884.449          44.000    20470478.844 7  83823190.233 7       689.184          44.000  
G22  23940870.969 6 125810139.404 6      3467.363          38.000    23940868.461 4  98033844.115 4      2701.845          29.000  
G10  21361639.234 6 112256177.055 6     -1614.719          40.000    21361641.320 6  87472368.748 6     -1258.223          40.000  
G16  23850422.523 6 125334710.615 6     -3684.602          36.000    23850424.633 5  97663480.933 5     -2871.119          30.000  
G14  24633939.523 7 129452212.193 7      2987.383          43.000    24633939.508 6 100871852.466 6      2327.834          36.000  
G20  23278009.812 4 122326763.864 4     -3172.617          29.000                                                                  
G27  20644094.750 8 108485443.423 8     -1382.867          51.000    20644096.211 8  84534116.889 8     -1077.559          51.000  
G01  23286973.414 5 122373874.390 5      2894.645          30.000                                                                  
R05  20089714.422 8 107390643.687 8      2159.238          51.000    20089717.312 8  83526160.704 8      1679.408          49.000  
R10  23162304.656 7 123467768.894 7     -3654.152          44.000                                                                  
R04  20940318.594 5 112134085.46525     -2033.277          34.000    20940324.219 4  87215410.04424     -1581.438          28.000  
E15  24512492.164 5 128814017.503 5     -1537.012          35.000    24512484.766 7  98701666.808 7     -1177.454          44.000  
E08  23718162.859 7 124639836.937 7      2471.172          47.000    23718168.547 8  95503279.989 8      1893.458          51.000  
E13  23431022.141 6 123130851.757 6       563.051          36.000    23431027.945 6  94347042.551 6       432.078          37.000  
C30  25729103.539 5 133978202.292 5     -2791.312          31.000                                                                  
C29  21930488.695 8 114197794.815 8     -1078.840          51.000                                                                  
C20  22741018.242 7 118418509.599 7      -417.012          42.000                                                                  
C19  22925009.953 8 119376555.290 8      2547.750          51.000                                                                  
C05  39638173.445 6 206406369.800 6       -20.949          36.000    39638173.352 6 159606497.374 6       -16.353          36.000  
> 2020 05 16 16 56 30.0000000  0 18      -0.000000000000
G32  23440130.508 6 123178760.076 6      2636.609          41.000    23440132.906 6  95983444.103 6      2054.504          41.000  
G08  20465463.758 7 107546741.736 7       872.031          44.000    20465465.297 7  83802659.963 7       679.505          44.000  
G22  23921086.281 6 125706166.315 6      3463.602          37.000                                                                  
G10  21370893.477 5 112304802.81225     -1627.609          34.000    21370895.797 5  87510265.30525     -1268.264          34.000  
G16  23871462.414 5 125445271.856 5     -3686.195          34.000                                                                  
G14  24616881.648 7 129362573.787 7      2988.367          44.000    24616881.477 5 100802004.397 5      2328.599          30.000  
G27  20652025.055 8 108527117.653 8     -1395.574          51.000    20652026.453 8  84566590.303 8     -1087.461          51.000  
G01  23270466.203 5 122287120.97225      2892.016          32.000                                                                  
R05  20077657.750 8 107326191.430 8      2137.324          51.000    20077660.180 8  83476031.194 8      1662.364          49.000  
R10  23182884.633 7 123577474.269 7     -3659.965          43.000                                                                  
E15                                                                  24521261.211 7  98737006.703 7     -1178.786          44.000  
E08  23704071.477 7 124565784.825 7      2465.312          47.000    23704076.828 8  95446538.744 8      1889.058          51.000  
E13  23427812.992 6 123113985.316 6       560.965          36.000    23427817.102 6  94334118.937 6       429.872          36.000  
C30  25745185.375 4 134061928.266 4     -2791.633          28.000                                                                  
C29  21936725.859 8 114230272.894 8     -1086.594          51.000                                                                  
C20  22743463.961 7 118431243.460 7      -431.871          42.000                                                                  
C19  22910357.672 8 119300255.247 8      2538.684          51.000                                                                  
C05  39638286.961 6 206406961.427 6       -18.660          36.000    39638286.883 6 159606954.842 6       -14.529          36.000  
> 2020 05 16 16 57  0.0000000  0 17      -0.000000000000
G32  23425113.625 6 123099848.551 6      2625.590          40.000    23425115.836 6  95921954.636 6      2045.915          40.000  
G08  20460539.516 7 107520863.909 7       854.609          45.000    20460541.102 7  83782495.405 7       665.930          45.000  
G22  23901340.641 5 125602399.515 5      3456.152          33.000                                                                  
G10  21380240.578 6 112353922.208 6     -1645.602          38.000    21380243.180 6  87548540.105 6     -1282.290          38.000  
G16  23892526.117 5 125555959.920 5     -3692.086          33.000                                                                  
G14  24599835.695 7 129272999.064 7      2984.461          43.000    24599834.484 5 100732205.974 5      2325.555          31.000  
G27  20660046.062 8 108569268.041 8     -1413.246          51.000    20660047.453 8  84599434.741 8     -1101.231          51.000  
G01  23253988.430 5 122200533.56525      2883.121          35.000                                                                  
R05  20065742.312 8 107262496.325 8      2110.336          51.000    20065744.867 8  83426490.593 8      1641.373          48.000  
R10  23203515.203 7 123687449.759 7     -3670.492          42.000                                                                  
E15                                                                  24530065.766 7  98772458.817 7     -1183.721          43.000  
E08  23690031.570 8 124492002.605 8      2454.723          50.000    23690036.391 8  95390004.363 8      1880.878          51.000  
E13  23424636.609 5 123097299.346 5       553.168          33.000    23424639.594 6  94321333.574 6       423.677          36.000  
C29  21943025.781 8 114263076.664 8     -1099.102          51.000                                                                  
C20  22746011.836 7 118444509.745 7      -451.297          42.000                                                                  
C19  22895775.664 8 119224322.110 8      2524.719          51.000                                                                  
C05  39638406.406 6 206407583.527 6       -21.602          36.000    39638406.461 6 159607436.864 6       -16.326          36.000  
> 2020 05 16 16 57 30.0000000  0 16      -0.000000000000
G32  23410150.320 6 123021218.636 6      2617.223          41.000    23410152.719 7  95860684.644 7      2039.398          42.000  
G08  20455702.586 7 107495444.094 7       840.598          46.000    20455703.836 7  83762687.756 7       655.008          46.000  
G10  21389677.281 5 112403512.264 5     -1659.527          33.000    21389679.719 5  87587181.845 5     -1293.129          34.000  
G16  23913610.617 6 125666759.628 6     -3693.684          36.000                                                                  
G14  24582799.570 6 129183478.373 6      2983.930          39.000    24582797.039 4 100662449.676 4      2325.138          29.000  
G27  20668155.133 8 108611881.683 8     -1427.043          51.000    20668156.562 8  84632640.152 8     -1111.982          51.000  
R05  20053966.000 8 107199548.730 8      2086.984          48.000    20053968.969 7  83377531.383 7      1623.210          46.000  
R10  23224193.469 7 123797678.402 7     -3677.160          43.000                                                                  
R04  20975075.125 5 112320189.15725     -2103.441          32.000                                                                  
E15  24538908.078 5 128952851.432 5     -1547.613          33.000    24538895.141 7  98807967.598 7     -1186.125          42.000  
E08  23676041.375 8 124418479.694 8      2447.555          51.000    23676044.664 8  95333668.644 8      1875.283          50.000  
E13  23421492.852 6 123080781.428 6       548.777          36.000    23421494.711 6  94308676.985 6       420.690          37.000  
C29  21949385.852 8 114296193.887 8     -1108.043          51.000                                                                  
C20  22748659.711 7 118458295.382 7      -466.824          44.000                                                                  
C19  22881262.086 8 119148745.256 8      2514.359          51.000                                                                  
C05  39638529.352 6 206408223.631 6       -20.543          36.000    39638529.453 6 159607931.825 6       -15.752          36.000  
> 2020 05 16 16 58  0.0000000  0 14      -0.000000000000
G32  23395233.039 7 122942827.863 7      2608.289          44.000    23395235.430 7  95799601.015 7      2032.437          44.000  
G08  20450944.680 7 107470438.698 7       825.879          47.000    20450945.336 7  83743203.036 7       643.542          47.000  
G10  21399195.438 6 112453526.078 6     -1674.984          40.000    21399196.820 6  87626153.587 6     -1305.183          40.000  
G16  23934706.836 6 125777622.545 6     -3697.180          37.000                                                                  
G14  24565764.609 6 129093969.066 6      2982.703          38.000    24565762.125 5 100592702.259 5      2324.176          31.000  
G27  20676343.656 8 108654912.805 8     -1442.145          51.000    20676345.273 8  84666170.863 8     -1123.749          51.000  
R05  20042321.539 8 107137305.041 8      2062.262          48.000    20042324.234 7  83329119.599 7      1603.982          44.000  
R10  23244910.133 7 123908109.738 7     -3685.125          43.000                                                                  
E08  23662091.969 8 124345172.383 8      2439.250          51.000    23662094.188 8  95277498.148 8      1869.013          51.000  
E13  23418372.609 6 123064386.279 6       543.641          39.000    23418374.398 6  94296114.494 6       416.763          37.000  
C29  21955797.391 8 114329579.676 8     -1118.062          51.000                                                                  
C20  22751398.875 7 118472554.710 7      -484.008          46.000                                                                  
C19  22866808.422 8 119073481.532 8      2502.840          50.000                                                                  
C05  39638646.953 6 206408836.685 6       -20.859          36.000    39638647.148 6 159608405.865 6       -15.979          36.000  
> 2020 05 16 16 58 30.0000000  0 18      -0.000000000000
G32  23380370.820 7 122864725.001 7      2597.918          43.000    23380372.422 7  95738741.722 7      2024.355          43.000  
G08  20446274.250 7 107445894.465 7       809.867          47.000    20446274.781 7  83724077.670 7       631.069          47.000  
G22  23842295.320 5 125292098.944 5      3436.379          33.000                                                                  
G10  21408802.086 7 112504007.245 7     -1691.148          42.000    21408803.289 7  87665489.580 7     -1317.778          42.000  
G16  23955823.164 6 125888591.749 6     -3701.082          36.000                                                                  
G14  24548741.133 6 129004519.759 6      2979.691          39.000    24548740.148 6 100523001.558 6      2321.841          36.000  
G27  20684620.188 8 108698406.732 8     -1458.160          51.000    20684622.172 8  84700062.219 8     -1136.229          51.000  
R05  20030818.336 8 107075814.295 8      2036.387          50.000    20030820.625 7  83281293.507 7      1583.857          45.000  
R10  23265672.852 7 124018785.401 7     -3693.988          43.000                                                                  
R04  20998911.891 5 112447833.18325     -2151.863          33.000                                                                  
E15  24556618.688 6 129045900.908 6     -1556.891          36.000    24556613.586 6  98879313.684 6     -1193.140          41.000  
E08  23648192.586 8 124272128.352 8      2429.797          51.000    23648194.289 8  95221529.404 8      1861.755          51.000  
E21  25950753.766 7 136372135.075 7     -1942.219          42.000    25950755.070 7 104492935.521 7     -1488.191          44.000  
E13  23415285.039 6 123048160.031 6       537.340          40.000    23415287.578 6  94283681.416 6       411.710          39.000  
C29  21962269.148 8 114363279.570 8     -1129.246          51.000                                                                  
C20  22754236.891 7 118487332.351 7      -501.992          45.000                                                                  
C19  22852423.469 8 118998578.078 8      2490.145          49.000                                                                  
C05  39638768.227 6 206409468.091 6       -22.281          36.000    39638768.406 6 159608894.085 6       -16.846          36.000  
> 2020 05 16 16 59  0.0000000  0 18      -0.000000000000
G32  23365558.133 6 122786885.042 6      2590.508          41.000    23365559.773 6  95678087.292 6      2018.584          40.000  
G08  20441686.266 7 107421785.065 7       796.531          47.000    20441687.031 7  83705291.110 7       620.674          47.000  
G22  23822688.281 6 125189051.663 6      3432.359          37.000                                                                  
G10  21418491.812 7 112554925.960 7     -1704.375          44.000    21418492.977 7  87705166.457 7     -1328.088          44.000  
G16  23976954.242 6 125999636.417 6     -3702.781          37.000                                                                  
G14  24531725.422 7 128915105.336 7      2979.980          42.000    24531726.352 6 100453328.039 6      2322.066          37.000  
G27  20692979.281 8 108742335.203 8     -1471.371          50.000    20692981.609 8  84734292.174 8     -1146.523          50.000  
G01  23188369.352 5 121855725.073 5      2862.594          34.000                                                                  
R05  20019451.422 8 107015050.628 8      2013.445          51.000    20019453.227 7  83234032.948 7      1566.016          45.000  
R10  23286475.164 7 124129672.305 7     -3699.492          44.000                                                                  
E15  24565509.359 5 129092627.249 5     -1559.562          32.000    24565505.211 6  98915120.755 6     -1194.840          40.000  
E08  23634337.961 8 124199321.439 8      2423.059          51.000    23634339.133 8  95165742.321 8      1856.591          50.000  
E21  25961866.031 7 136430525.521 7     -1951.484          43.000    25961866.312 7 104537676.217 7     -1495.345          43.000  
E13  23412224.906 6 123032074.860 6       534.012          41.000    23412228.156 6  94271356.437 6       409.235          40.000  
C29  21968795.977 8 114397266.022 8     -1137.520          51.000                                                                  
C20  22757168.930 7 118502599.856 7      -516.949          46.000                                                                  
C19  22838102.625 8 118924008.918 8      2480.312          48.000                                                                  
C05  39638887.758 6 206410090.160 6       -20.578          36.000    39638887.961 6 159609375.120 6       -15.958          36.000  
> 2020 05 16 16 59 30.0000000  0 17      -0.000000000000
G32  23350795.219 6 122709308.171 6      2581.254          41.000    23350798.602 6  95617637.856 6      2011.370          41.000  
G08  20437180.633 7 107398108.813 7       781.902          47.000    20437181.680 7  83686842.071 7       609.275          47.000  
G22  23803112.211 6 125086176.625 6      3426.324          40.000                                                                  
G10  21428263.672 7 112606277.407 7     -1718.715          43.000    21428264.656 7  87745180.528 7     -1339.262          43.000  
G16  23998098.711 5 126110751.032 5     -3704.801          34.000                                                                  
G14  24514717.414 7 128825725.845 7      2978.641          44.000    24514719.609 6 100383681.765 6      2321.022          38.000  
G27  20701420.594 8 108786694.964 8     -1485.863          51.000    20701423.000 8  84768858.211 8     -1157.816          51.000  
R05  20008220.125 8 106955014.264 8      1989.020          50.000    20008222.047 7  83187338.025 7      1547.016          46.000  
R10  23307315.875 7 124240763.903 7     -3706.414          45.000                                                                  
E15  24574420.320 6 129139455.173 6     -1563.055          37.000    24574419.469 6  98951007.208 6     -1197.513          40.000  
E08  23620527.758 8 124126750.672 8      2415.039          51.000    23620529.500 8  95110136.221 8      1850.435          51.000  
E21  25973034.062 6 136489224.498 6     -1961.570          41.000    25973036.242 7 104582653.311 7     -1503.103          43.000  
E13  23409190.914 6 123016128.234 6       529.422          41.000    23409194.484 6  94259137.598 6       405.625          40.000  
C29  21975377.172 8 114431536.391 8     -1147.090          51.000                                                                  
C20  22760194.547 7 118518353.755 7      -533.195          47.000                                                                  
C19  22823845.594 8 118849773.068 8      2468.938          49.000                                                                  
C05  39639004.914 6 206410700.076 6       -20.496          36.000    39639005.023 6 159609846.730 6       -15.604          36.000  
