     3.02           OBSERVATION DATA    M (MIXED)           RINEX VERSION / TYPE
SAVERINEX           SC600               20200501 075931 LCL PGM / RUN BY / DATE
       G = GPS       R = GLONASS       C = COMPASS          COMMENT
       S = SBAS      J = QZSS          E = GALILEO          COMMENT
BEAN                                                        MARKER NAME
1                                                           MARKER NUMBER
GEODETIC                                                    MARKER TYPE
Unige DICCA         GTER                                    OBSERVER / AGENCY
SC60291900056       SC600               2.12(191226)        REC # / TYPE / VERS
                    HEMA45          NONE                    ANT # / TYPE
  4509407.8091   693652.4678  4442337.6214                  APPROX POSITION XYZ
        0.0000        0.0000        0.0000                  ANTENNA: DELTA H/E/N
G    8 C1C L1C D1C S1C C2Y L2Y D2Y S2Y                      SYS / # / OBS TYPES
R    8 C1C L1C D1C S1C C2P L2P D2P S2P                      SYS / # / OBS TYPES
C    8 C1I L1I D1I S1I C7I L7I D7I S7I                      SYS / # / OBS TYPES
E    8 C1C L1C D1C S1C C7Q L7Q D7Q S7Q                      SYS / # / OBS TYPES
DBHZ                                                        COMMENT
     30.000                                                 INTERVAL
  2020    05    01    05    00    0.0000000     GPS         TIME OF FIRST OBS
  2020    05    01    05    59   30.0000000     GPS         TIME OF LAST OBS
     0                                                      RCV CLOCK OFFS APPL
G L1C  0.00000                                              SYS / PHASE SHIFT
G L2Y  0.00000                                              SYS / PHASE SHIFT
R L1C  0.00000                                              SYS / PHASE SHIFT
R L2P  0.25000                                              SYS / PHASE SHIFT
C L1I  0.00000                                              SYS / PHASE SHIFT
C L7I  0.00000                                              SYS / PHASE SHIFT
E L1C  0.50000                                              SYS / PHASE SHIFT
E L7Q -0.25000                                              SYS / PHASE SHIFT
 13 R01  1 R02 -4 R03  5 R07  5 R08  6 R10 -5 R11  0 R12 -1 GLONASS SLOT / FRQ #
    R13 -2 R14 -7 R21  4 R22 -3 R23  3                      GLONASS SLOT / FRQ #
 C1C   71.950 C2C   71.950 C2P   71.950                     GLONASS COD/PHS/BIS
    18                                                      LEAP SECONDS
*** Above antenna height is from mark to ANTENNA BOTTOM.    COMMENT
    17     4        0.0000        ANT MEASURE TYPE/HEIGT    COMMENT
    0.0000    0.0000    0.0458    0.0405    0.0000          COMMENT
                    BASE STATION                            COMMENT
                                                            END OF HEADER
> 2020 05 01 05 00  0.0000000  0 13        .000000000000
G05  21863872.703 8 114895423.667 8     -2743.285          50.000    21863871.852 8  89528901.462 8     -2137.625          50.000
G13  20359446.242 6 106989596.894 6       968.367          38.000    20359439.891 5  83368498.504 5       754.578          35.000
G28  20897804.250 8 109818713.734 8       364.457          51.000    20897802.078 7  85573062.466 7       283.992          47.000
G30  21610220.094 5 113562473.964 5     -2160.352          35.000    21610222.906 6  88490232.714 6     -1683.388          36.000
R02  19498577.547 8 104048136.285 8     -1849.199          51.000    19498582.867 8  80926359.205 8     -1438.266          51.000
R12  19767572.352 7 105594847.755 7     -2121.270          44.000    19767576.625 6  82129361.807 6     -1649.873          39.000
R13  19845971.297 6 105976383.707 6      1964.672          40.000    19845973.703 7  82426048.160 7      1528.078          44.000
C05  39776848.695 5 207128488.261 5         8.016          35.000    39776848.328 6 160164875.321 6         6.135          40.000
C23  22124832.750 8 115209835.346 8     -1092.492          51.000
E07  25903338.602 8 136122921.953 8     -2399.754          51.000    25903340.688 7 104302003.560 7     -1838.787          45.000
E21  25407161.594 8 133515609.117 8      2541.156          49.000    25407162.250 8 102304117.067 8      1947.141          51.000
E27  23317562.797 8 122534639.301 8        22.402          51.000    23317565.234 8  93890163.387 8        17.174          51.000
E30  24877686.250 5 130733118.200 5     -2453.523          35.000
> 2020 05 01 05 00 30.0000000  0 13        .000000000000
G05  21879565.469 8 114977893.979 8     -2754.004          50.000    21879566.430 8  89593164.067 8     -2145.977          50.000
G13  20353948.242 6 106960703.624 6       958.805          40.000    20353942.320 5  83345984.315 5       747.124          32.000
G28  20895773.453 8 109808041.817 8       347.809          51.000    20895771.320 8  85564746.696 8       271.020          48.000
G30  21622567.469 5 113627362.649 5     -2164.859          35.000    21622572.031 6  88540795.362 6     -1686.900          36.000
R02  19509031.133 8 104103914.529 8     -1868.578          51.000    19509035.898 8  80969742.258 8     -1453.339          51.000
R12  19779528.078 7 105658712.067 7     -2135.277          43.000    19779531.141 6  82179034.006 6     -1660.774          37.000
R13  19834984.078 6 105917711.221 6      1947.555          39.000    19834986.508 7  82380413.968 7      1514.765          45.000
C05  39776797.586 5 207128221.841 5        10.605          35.000    39776797.422 6 160164670.065 6         7.905          40.000
C23  22131154.500 8 115242753.375 8     -1101.156          51.000
E07  25917052.531 8 136194985.694 8     -2403.793          51.000    25917052.227 7 104357221.167 7     -1841.787          45.000
E21  25392672.750 8 133439471.492 8      2535.418          49.000    25392673.469 8 102245777.824 8      1942.774          51.000
E27  23317467.547 8 122534140.799 8        11.641          51.000    23317470.250 8  93889781.400 8         8.895          51.000
E30  24891707.750 6 130806796.274 6     -2457.480          37.000
> 2020 05 01 05 01  0.0000000  0 14        .000000000000
G05  21895284.617 8 115060499.854 8     -2766.004          51.000    21895286.656 8  89657532.302 8     -2155.328          51.000
G07  24220714.469 5 127280704.788 5     -2861.320          30.000    24220714.938 4  99179767.048 4     -2229.591          26.000
G13  20348470.539 6 106931917.402 6       947.332          37.000    20348466.070 6  83323553.479 6       738.178          36.000
G28  20893802.117 8 109797682.820 8       329.773          51.000    20893800.320 8  85556674.769 8       256.969          48.000
G30  21634911.289 4 113692225.739 4     -2173.121          29.000    21634915.750 4  88591341.351 4     -1693.335          26.000
R02  19519558.703 8 104160087.842 8     -1889.426          51.000    19519562.984 8  81013432.598 8     -1469.553          51.000
R12  19791527.250 7 105722810.303 7     -2151.074          44.000    19791530.398 6  82228888.179 6     -1673.058          39.000
R13  19824057.227 6 105859364.676 6      1928.770          37.000    19824059.961 7  82335033.292 7      1500.154          44.000
C05  39776698.727 5 207127706.994 5        10.949          35.000    39776698.820 6 160164272.729 6         8.482          40.000
C23  22137490.625 8 115275746.867 8     -1111.195          51.000
E07  25930753.961 8 136266984.391 8     -2409.098          51.000    25930752.562 7 104412388.899 7     -1845.917          45.000
E21  25378181.656 8 133363320.878 8      2528.266          50.000    25378182.477 8 102187428.635 8      1937.284          51.000
E27  23317398.625 8 122533780.713 8         -.484          51.000    23317401.773 8  93889505.470 8         -.389          51.000
E30  24905716.312 6 130880403.938 6     -2462.078          37.000
> 2020 05 01 05 01 30.0000000  0 13        .000000000000
G05  21911148.945 8 115143865.414 8     -2793.137          51.000    21911150.961 8  89722492.482 8     -2176.470          51.000
G13  20343132.156 6 106903866.294 6       921.367          38.000    20343128.352 6  83301695.431 6       717.948          36.000
G28  20892009.641 8 109788263.885 8       296.660          51.000    20892008.461 8  85549335.359 8       231.164          48.000
G30  21647371.398 5 113757695.178 5     -2193.898          34.000    21647372.414 5  88642370.396 5     -1709.531          35.000
R02  19530278.977 8 104217291.662 8     -1925.574          51.000    19530283.039 8  81057924.408 8     -1497.672          51.000
R12  19803689.430 7 105787776.651 7     -2181.590          44.000    19803692.852 6  82279417.538 6     -1696.795          38.000
R13  19813310.711 6 105801982.003 6      1895.199          38.000    19813313.336 7  82290402.331 7      1474.044          43.000
C05                                                                  39776671.664 6 160164163.643 6        -2.404          40.000
C23  22143960.172 8 115309435.658 8     -1136.172          51.000
E07  25944562.234 8 136339544.343 8     -2429.621          51.000    25944560.531 7 104467986.718 7     -1861.724          47.000
E21  25363807.781 8 133287785.129 8      2505.945          50.000    25363809.023 8 102129550.574 8      1920.140          51.000
E27  23317475.062 8 122534185.323 8       -27.824          50.000    23317478.797 8  93889815.496 8       -21.374          51.000
E30  24919830.281 5 130954566.527 5     -2483.039          34.000
> 2020 05 01 05 02  0.0000000  0 14        .000000000000
G05  21927017.914 8 115227254.203 8     -2785.898          51.000    21927019.281 8  89787470.747 8     -2170.830          51.000
G13  20337794.219 6 106875817.802 6       928.824          40.000    20337790.680 5  83279839.423 5       723.756          34.000
G28  20890256.289 8 109779051.392 8       297.781          51.000    20890255.617 8  85542156.779 8       232.037          49.000
G30  21659805.195 6 113823033.569 6     -2181.445          38.000    21659805.883 6  88693283.408 6     -1699.828          38.000
R02  19541052.125 8 104274780.218 8     -1926.941          51.000    19541056.203 8  81102637.679 8     -1498.732          49.000
R12  19815873.539 7 105852862.125 7     -2177.516          43.000    19815877.102 6  82330039.559 6     -1693.623          39.000
R13  19802605.406 6 105744818.202 6      1895.848          38.000    19802607.727 7  82245941.630 7      1474.551          43.000
C05  39776576.523 5 207127071.166 5        16.492          35.000    39776576.562 6 160163780.638 6        12.819          41.000
C23  22150423.484 8 115343091.408 8     -1127.082          51.000
C25  25541943.672 5 133003613.392 5     -2932.250          32.000
E07  25958337.438 8 136411931.189 8     -2415.855          51.000    25958336.906 8 104523451.908 8     -1851.137          49.000
E21  25349411.297 8 133212131.529 8      2517.914          50.000    25349413.430 8 102071582.214 8      1929.287          51.000
E27  23317557.391 8 122534620.305 8       -20.887          51.000    23317561.258 8  93890148.780 8       -15.977          51.000
E30  24933908.594 5 131028574.667 5     -2469.031          33.000
> 2020 05 01 05 02 30.0000000  0 14        .000000000000
G05  21943011.297 8 115311297.079 8     -2805.219          51.000    21943011.898 8  89852958.677 8     -2185.885          51.000
G13  20332577.898 6 106848406.441 6       910.039          41.000    20332574.789 6  83258479.939 6       709.121          36.000
G28  20888662.508 8 109770678.204 8       272.137          50.000    20888662.273 8  85535632.211 8       212.055          49.000
G30  21672333.414 6 113888872.336 6     -2195.906          39.000    21672335.055 6  88744586.351 6     -1711.096          39.000
R02  19551998.648 8 104333195.195 8     -1955.449          50.000    19552002.633 8  81148071.543 8     -1520.905          48.000
R12  19828200.328 7 105918707.238 7     -2200.285          43.000    19828203.484 6  82381252.403 6     -1711.333          38.000
R13  19792061.797 6 105688517.536 6      1869.672          37.000    19792064.836 7  82202152.222 7      1454.186          45.000
C05  39776533.977 5 207126850.129 5         9.766          35.000    39776533.875 6 160163608.957 6         7.391          40.000
C23  22157000.828 8 115377340.399 8     -1144.578          51.000
C25  25558890.469 5 133091870.029 5     -2940.418          31.000
E07  25972199.055 7 136484777.804 7     -2429.008          47.000    25972201.086 8 104579269.396 8     -1861.191          51.000
E21  25335112.625 8 133136994.481 8      2502.801          49.000    25335116.250 8 102014009.632 8      1917.739          51.000
E27  23317766.102 8 122535718.469 8       -40.770          51.000    23317770.070 8  93890990.205 8       -31.242          51.000
E30  24948067.430 5 131102978.027 5     -2481.578          31.000
> 2020 05 01 05 03  0.0000000  0 13        .000000000000
G05  21959059.766 8 115395630.260 8     -2818.184          51.000    21959059.531 8  89918672.798 8     -2195.987          51.000
G13  20327414.414 7 106821272.127 7       897.520          42.000    20327411.414 6  83237336.308 6       699.366          36.000
G28  20887159.930 8 109762783.391 8       252.988          49.000    20887160.039 8  85529480.390 8       197.134          48.000
G30  21684888.039 6 113954848.811 6     -2203.469          38.000    21684889.352 6  88795996.597 6     -1716.989          38.000
R02  19563049.844 8 104392168.841 8     -1977.277          51.000    19563053.828 8  81193939.918 8     -1537.882          49.000
R12  19840599.148 6 105984941.696 6     -2216.473          41.000    19840601.461 6  82432768.070 6     -1723.923          39.000
R13  19781611.320 6 105632713.716 6      1849.504          38.000    19781615.430 7  82158749.243 7      1438.503          46.000
C05  39776475.172 5 207126542.954 5         9.906          35.000    39776475.023 6 160163371.790 6         7.367          40.000
C23  22163623.008 8 115411823.303 8     -1155.562          51.000
C25  25575830.609 4 133180088.139 4     -2941.188          29.000
E07  25986077.586 7 136557722.187 7     -2435.352          43.000    25986083.273 8 104635161.906 8     -1866.031          51.000
E21  25320843.539 8 133062013.677 8      2494.477          49.000    25320848.625 8 101956556.748 8      1911.403          51.000
E27  23318032.383 8 122537117.833 8       -53.848          50.000    23318036.578 8  93892062.449 8       -41.308          51.000
> 2020 05 01 05 03 30.0000000  0 13        .000000000000
G05  21975177.562 8 115480328.805 8     -2827.750          51.000    21975176.258 8  89984671.596 8     -2203.442          51.000
G13  20322318.500 7 106794493.108 7       888.379          42.000    20322315.672 6  83216469.525 6       692.246          38.000
G28  20885762.961 8 109755443.923 8       237.008          49.000    20885763.102 8  85523761.304 8       184.681          48.000
G30  21697483.430 6 114021039.085 6     -2208.559          37.000    21697482.211 6  88847573.406 6     -1720.955          37.000
R02  19574220.812 8 104451778.706 8     -1995.980          51.000    19574224.273 8  81240303.106 8     -1552.429          48.000
R12  19853085.398 7 106051640.875 7     -2229.488          44.000    19853088.172 6  82484645.179 6     -1734.049          40.000
R13  19771269.352 6 105577485.416 6      1833.066          39.000    19771273.109 7  82115793.870 7      1425.715          44.000
C05  39776414.766 5 207126229.123 5        11.773          35.000    39776414.531 6 160163128.317 6         9.246          40.000
C23  22170304.562 8 115446615.296 8     -1163.344          51.000
C25  25592779.133 5 133268315.032 5     -2941.203          30.000
E07  25999989.977 7 136630841.097 7     -2438.691          45.000    25999998.234 8 104691188.134 8     -1868.620          51.000
E21  25306619.766 8 132987267.258 8      2489.043          51.000    25306625.195 8 101899283.484 8      1907.231          51.000
E27  23318370.867 8 122538895.012 8       -64.031          51.000    23318374.828 8  93893424.193 8       -49.069          51.000
> 2020 05 01 05 04  0.0000000  0 13        .000000000000
G05  21991364.602 8 115565392.716 8     -2841.605          50.000    21991362.430 8  90050955.107 8     -2214.238          50.000
G13  20317291.016 7 106768073.820 7       874.535          43.000    20317288.562 6  83195883.029 6       681.453          38.000
G28  20884472.539 8 109748662.956 8       216.844          50.000    20884472.625 8  85518477.430 8       168.969          49.000
G30  21710119.930 5 114087444.977 5     -2217.395          35.000    21710118.023 5  88899318.263 5     -1727.840          34.000
R02  19585511.945 8 104512026.518 8     -2018.871          51.000    19585513.914 7  81287162.500 7     -1570.233          47.000
R12  19865659.141 6 106118804.935 6     -2246.551          40.000    19865660.922 6  82536883.825 6     -1747.317          40.000
R13  19761035.812 6 105522837.144 6      1812.008          39.000    19761038.273 7  82073289.661 7      1409.339          43.000
C05  39776353.312 5 207125909.275 5        11.227          35.000    39776353.180 6 160162880.985 6         8.340          41.000
C23  22177045.922 8 115481718.345 8     -1175.242          51.000
C25  25609735.492 4 133356610.851 4     -2943.867          29.000
E07  26013938.422 8 136704137.282 8     -2446.156          48.000    26013946.742 8 104747350.133 8     -1874.345          51.000
E21  25292442.086 8 132912759.454 8      2479.652          51.000    25292446.875 8 101842193.085 8      1899.936          51.000
E27  23318782.141 8 122541052.672 8       -78.152          51.000    23318785.109 8  93895077.455 8       -59.928          51.000
> 2020 05 01 05 04 30.0000000  0 13        .000000000000
G05  22007626.188 8 115650850.716 8     -2855.293          48.000    22007624.086 8  90117545.725 8     -2224.904          48.000
G13  20312337.938 7 106742046.196 7       860.801          43.000    20312336.188 6  83175601.790 6       670.751          38.000
G28  20883294.461 8 109742471.244 8       196.355          50.000    20883294.562 8  85513652.732 8       153.004          49.000
G30  21722803.109 6 114154096.175 6     -2226.250          39.000    21722801.875 6  88951254.228 6     -1734.737          38.000
R02  19596927.914 8 104572942.481 8     -2041.859          51.000    19596929.383 8  81334541.547 8     -1588.116          48.000
R12  19878324.094 6 106186461.885 6     -2263.812          40.000    19878327.148 6  82589505.971 6     -1760.743          41.000
R13  19750916.875 6 105468800.755 6      1790.699          40.000    19750918.234 7  82031261.364 7      1392.766          43.000
C05  39776296.867 5 207125614.160 5         9.809          35.000    39776296.688 6 160162653.573 6         6.902          40.000
C23  22183852.562 8 115517161.749 8     -1187.332          51.000
C25  25626704.547 4 133444974.911 4     -2946.723          27.000
E07  26027926.875 8 136777641.015 8     -2453.734          51.000    26027934.547 8 104803671.140 8     -1880.125          51.000
E21  25278316.180 8 132838522.199 8      2469.859          51.000    25278319.750 8 101785309.993 8      1892.457          51.000
E27  23319271.430 8 122543621.050 8       -92.656          51.000    23319273.586 8  93897045.437 8       -70.987          51.000
> 2020 05 01 05 05  0.0000000  0 12        .000000000000
G05  22023970.109 7 115736744.568 7     -2865.512          47.000    22023969.117 7  90184476.013 7     -2232.866          47.000
G13  20307468.227 7 106716456.313 7       850.301          43.000    20307466.812 6  83155661.610 6       662.572          38.000
G28  20882236.891 8 109736913.367 8       179.395          50.000    20882236.758 8  85509321.930 8       139.788          49.000
G30  21735541.109 6 114221036.025 6     -2231.156          37.000    21735541.148 6  89003415.152 6     -1738.563          38.000
R02  19608476.641 8 104634570.567 8     -2061.156          50.000    19608478.633 8  81382474.472 8     -1603.122          48.000
R12  19891089.977 6 106254654.460 6     -2276.762          41.000    19891093.219 6  82642544.612 6     -1770.818          41.000
R13  19740921.125 6 105415422.112 6      1773.008          41.000    19740922.258 7  81989744.642 7      1379.006          44.000
C05  39776253.922 5 207125391.114 5        10.840          35.000    39776253.656 6 160162480.283 6         8.557          40.000
C23  22190732.820 8 115552988.544 8     -1195.875          51.000
E07  26041963.195 8 136851396.454 8     -2457.828          51.000    26041969.758 8 104860185.024 8     -1883.259          51.000
E21  25264250.352 8 132764601.203 8      2463.688          51.000    25264252.273 8 101728669.242 8      1887.749          51.000
E27  23319847.227 8 122546644.273 8      -103.410          51.000    23319848.867 8  93899361.944 8       -79.251          51.000
> 2020 05 01 05 05 30.0000000  0 13        .000000000000
G05  22040362.109 8 115822889.151 8     -2877.574          48.000    22040362.133 8  90251601.668 8     -2242.263          48.000
G13  20302647.289 7 106691122.724 7       838.031          43.000    20302646.242 6  83135921.166 6       653.011          39.000
G15  21561491.859 5 113306404.099 5      2421.480          30.000
G28  20881265.281 8 109731806.876 8       160.809          50.000    20881264.703 8  85505342.844 8       125.305          49.000
G30  21748299.430 6 114288080.799 6     -2238.477          37.000    21748300.023 6  89055657.839 6     -1744.264          37.000
R02  19620122.930 7 104696724.630 7     -2082.441          47.000    19620126.297 7  81430816.523 7     -1619.674          47.000
R12  19903920.562 7 106323193.658 7     -2292.395          42.000    19903923.836 7  82695852.887 7     -1782.974          42.000
R13  19731013.648 6 105362516.729 6      1753.504          40.000    19731015.109 7  81948595.991 7      1363.836          45.000
C05  39776189.586 5 207125056.225 5        11.371          35.000    39776189.422 6 160162221.331 6         8.657          40.000
C23  22197651.602 8 115589016.524 8     -1206.152          51.000
E07  26056012.477 8 136925220.432 8     -2463.805          51.000    26056017.594 8 104916751.423 8     -1887.826          51.000
E21  25250209.766 8 132690814.909 8      2455.422          51.000    25250210.117 8 101672131.724 8      1881.427          51.000
E27  23320474.836 8 122549939.180 8      -116.266          51.000    23320475.945 8  93901886.616 8       -89.063          51.000
> 2020 05 01 05 06  0.0000000  0 13        .000000000000
G05  22056800.820 8 115909275.527 8     -2886.250          49.000    22056801.312 8  90318915.731 8     -2249.026          49.000
G13  20297874.219 7 106666040.619 7       829.008          42.000    20297873.867 6  83116376.683 6       645.983          41.000
G28  20880378.164 8 109727145.482 8       145.242          49.000    20880377.781 8  85501710.597 8       113.176          49.000
G30  21761076.695 6 114355223.279 6     -2242.656          37.000    21761076.352 6  89107976.572 6     -1747.524          37.000
R02  19631867.492 8 104759396.819 8     -2100.457          51.000    19631870.805 7  81479561.584 7     -1633.689          46.000
R12  19916815.148 7 106392070.469 7     -2304.387          42.000    19916817.516 7  82749423.687 7     -1792.301          42.000
R13  19721193.148 6 105310078.060 6      1737.426          39.000    19721195.641 7  81907810.351 7      1351.331          45.000
C05  39776102.867 5 207124604.581 5        14.445          35.000    39776102.703 6 160161872.068 6        11.125          40.000
C23  22204607.617 8 115625238.412 8     -1213.297          51.000
E07  26070073.016 8 136999106.333 8     -2466.660          50.000    26070076.617 8 104973365.280 8     -1890.035          51.000
E21  25236193.641 8 132617158.256 8      2450.242          51.000    25236192.664 8 101615693.546 8      1877.479          51.000
E27  23321152.617 8 122553499.033 8      -125.852          51.000    23321153.367 8  93904614.297 8       -96.429          51.000
E30  25047996.484 5 131628114.022 5     -2516.184          34.000
> 2020 05 01 05 06 30.0000000  0 13        .000000000000
G05  22073337.555 8 115996174.734 8     -2901.848          51.000    22073338.023 8  90386629.395 8     -2261.180          51.000
G13  20293201.141 7 106641484.357 7       812.918          43.000    20293200.891 6  83097241.917 6       633.443          41.000
G28  20879627.875 8 109723202.348 8       122.730          49.000    20879627.547 8  85498638.005 8        95.634          49.000
G30  21773924.320 6 114422735.256 6     -2253.512          36.000    21773922.805 5  89160583.326 5     -1755.983          35.000
R02  19643762.102 8 104822863.888 8     -2125.637          51.000    19643764.688 7  81528924.829 7     -1653.273          47.000
R12  19929823.008 7 106461559.162 7     -2323.262          42.000    19929826.453 7  82803470.510 7     -1806.981          42.000
R13  19711512.547 6 105258384.808 6      1713.891          40.000    19711515.484 7  81867604.503 7      1333.026          45.000
C05  39776045.617 5 207124307.460 5        10.301          35.000    39776045.539 6 160161641.933 6         8.077          40.000
C23  22211652.711 8 115661923.711 8     -1227.387          51.000
E07  26084196.922 8 137073326.845 8     -2476.375          50.000    26084199.688 8 105030235.528 8     -1897.434          50.000
E21  25222253.875 8 132543905.494 8      2438.270          51.000    25222252.531 8 101559564.830 8      1868.255          51.000
E27  23321932.586 8 122557596.475 8      -142.355          51.000    23321933.133 8  93907753.895 8      -109.069          51.000
E30  25062399.305 5 131703802.857 5     -2525.480          35.000
> 2020 05 01 05 07  0.0000000  0 13        .000000000000
G05  22089935.352 8 116083394.045 8     -2913.766          51.000    22089935.258 8  90454592.483 8     -2270.470          51.000
G13  20288592.312 7 106617265.176 7       800.602          45.000    20288591.867 6  83078369.804 6       623.845          40.000
G28  20878978.047 8 109719786.916 8       103.809          48.000    20878977.648 8  85495976.624 8        80.887          48.000
G30  21786805.484 5 114490425.711 5     -2260.051          34.000    21786804.688 5  89213329.083 5     -1761.082          35.000
R02  19655769.344 8 104886931.505 8     -2146.836          51.000    19655771.523 8  81578755.157 8     -1669.761          49.000
R12  19942909.266 7 106531463.832 7     -2338.090          44.000    19942913.555 6  82857840.792 6     -1818.517          41.000
R13  19701936.242 6 105207244.893 6      1694.375          41.000    19701938.656 7  81827829.025 7      1317.847          45.000
C05  39775981.891 5 207123975.187 5        10.082          35.000    39775981.828 6 160161385.342 6         8.068          40.000
C23  22218750.305 8 115698882.818 8     -1237.746          51.000
E07  26098347.852 8 137147691.335 8     -2482.395          49.000    26098350.133 8 105087216.105 8     -1902.089          48.000
E21  25208354.133 8 132470867.596 8      2429.773          50.000    25208353.938 8 101503600.719 8      1861.795          51.000
E27  23322778.492 8 122562040.862 8      -155.148          51.000    23322778.961 8  93911159.327 8      -118.886          51.000
E30  25076827.570 5 131779623.227 5     -2530.809          34.000
> 2020 05 01 05 07 30.0000000  0 13        .000000000000
G05  22106601.164 8 116170971.313 8     -2923.812          51.000    22106600.438 8  90522834.481 8     -2278.295          51.000
G13  20284055.617 7 106593424.235 7       789.652          46.000    20284055.133 6  83059792.436 6       615.314          41.000
G28  20878436.188 8 109716939.108 8        86.719          50.000    20878435.688 8  85493757.544 8        67.573          49.000
G30  21799727.711 5 114558333.348 5     -2265.773          34.000    21799729.461 5  89266244.067 5     -1765.538          35.000
R02  19667896.094 8 104951638.789 8     -2166.230          51.000    19667898.195 8  81629083.027 8     -1684.849          50.000
R12  19956080.328 7 106601821.767 7     -2351.520          42.000    19956084.523 6  82912563.602 6     -1828.957          39.000
R13  19692471.086 6 105156699.546 6      1676.148          41.000    19692473.523 7  81788516.000 7      1303.671          46.000
C05  39775919.234 5 207123648.855 5        12.059          35.000    39775919.172 6 160161133.004 6         9.479          41.000
C23  22225907.914 8 115736154.114 8     -1246.320          51.000
E07  26112533.164 8 137222239.345 8     -2486.773          48.000    26112534.281 7 105144337.280 7     -1905.357          46.000
E21  25194502.891 8 132398085.547 8      2423.047          50.000    25194504.531 8 101447832.630 8      1856.662          51.000
E27  23323697.711 8 122566871.556 8      -166.117          51.000    23323698.305 8  93914860.766 8      -127.282          51.000
E30  25091288.195 5 131855608.636 5     -2534.645          33.000
> 2020 05 01 05 08  0.0000000  0 13        .000000000000
G05  22123331.891 8 116258890.386 8     -2943.305          50.000    22123330.391 8  90591342.822 8     -2293.484          50.000
G13  20279588.531 7 106569949.073 7       769.438          46.000    20279587.750 7  83041500.088 7       599.559          42.000
G28  20878000.125 8 109714645.770 8        60.379          49.000    20877999.047 8  85491970.496 8        47.045          49.000
G30  21812688.461 5 114626443.529 5     -2280.840          34.000    21812692.328 5  89319316.995 5     -1777.272          34.000
R02  19680139.531 8 105016970.812 8     -2195.180          51.000    19680141.734 8  81679896.821 8     -1707.365          51.000
R12  19969333.500 7 106672616.272 7     -2374.270          43.000    19969337.984 6  82967625.993 6     -1846.654          38.000
R13  19683114.461 6 105106735.240 6      1648.727          41.000    19683116.805 7  81749654.893 7      1282.343          45.000
C05  39775855.055 5 207123313.935 5         4.645          35.000    39775855.094 6 160160874.798 6         3.392          40.000
C23  22233122.680 8 115773723.159 8     -1264.141          51.000
E07  26126750.562 8 137296956.992 8     -2500.457          48.000    26126750.906 7 105201588.389 7     -1915.755          46.000
E21  25180698.766 8 132325547.016 8      2407.016          51.000    25180701.852 8 101392251.134 8      1844.298          51.000
E27  23324687.766 8 122572074.583 8      -186.547          51.000    23324688.438 8  93918847.503 8      -142.933          51.000
E30  25105778.375 5 131931755.188 5     -2547.508          32.000    25105784.914 5 101090584.847 5     -1952.394          33.000
> 2020 05 01 05 08 30.0000000  0 13        .000000000000
G05  22140147.766 8 116347258.211 8     -2936.410          50.000    22140145.711 8  90660200.837 8     -2288.112          50.000
G13  20275212.203 7 106546951.213 7       775.449          45.000    20275211.156 7  83023579.681 7       604.246          43.000
G28  20877690.117 8 109713016.357 8        59.961          49.000    20877689.070 8  85490700.836 8        46.723          49.000
G30  21825708.109 5 114694864.963 5     -2268.836          34.000    21825713.078 5  89372632.390 5     -1767.921          33.000
R02  19692520.836 8 105083037.833 8     -2197.480          51.000    19692523.031 8  81731282.302 8     -1709.151          51.000
R12  19982688.727 6 106743955.969 6     -2369.949          41.000    19982693.164 6  83023112.393 6     -1843.297          36.000
R13  19673887.531 6 105057463.893 6      1647.883          41.000    19673888.906 7  81711332.724 7      1281.687          44.000
C05  39775810.430 5 207123082.782 5        22.422          35.000    39775810.383 6 160160694.877 6        17.562          40.000
C23  22240415.266 8 115811697.489 8     -1255.957          51.000
E07  26141021.094 8 137371953.525 8     -2487.777          48.000    26141022.570 7 105259053.185 7     -1906.186          47.000
E21  25166962.906 8 132253362.745 8      2416.980          51.000    25166966.570 8 101336941.097 8      1851.939          51.000
E27  23325769.352 8 122577759.099 8      -180.785          51.000    23325769.977 8  93923203.155 8      -138.509          51.000
E30                                                                  25120321.719 5 101149127.408 5     -1941.843          32.000
> 2020 05 01 05 09  0.0000000  0 11        .000000000000
G05  22156980.898 8 116435717.593 8     -2960.082          50.000    22156978.961 8  90729130.208 8     -2306.557          50.000
G13  20270859.477 7 106524076.960 7       750.445          45.000    20270858.008 7  83005755.580 7       584.763          43.000
G28  20877438.914 8 109711695.837 8        28.832          50.000    20877437.938 8  85489671.839 8        22.467          49.000
R02  19704972.016 8 105149478.122 8     -2231.020          51.000    19704974.039 8  81782958.084 8     -1735.240          51.000
R12  19996077.516 7 106815477.341 7     -2397.047          43.000    19996080.859 5  83078740.080 5     -1864.373          34.000
R13  19664722.656 6 105008525.888 6      1615.547          39.000    19664724.164 7  81673269.844 7      1256.533          45.000
C05  39775717.812 5 207122599.508 5        10.312          35.000    39775717.719 6 160160321.575 6         8.086          40.000
C23  22247717.594 8 115849724.403 8     -1278.297          51.000
E07  26155277.664 8 137446873.662 8     -2506.062          48.000    26155281.422 8 105316459.475 8     -1920.131          48.000
E21  25153227.555 8 132181179.126 8      2396.191          51.000    25153231.188 8 101281631.559 8      1836.079          51.000
E27  23326874.719 8 122583569.809 8      -205.664          51.000    23326875.625 8  93927655.511 8      -157.599          51.000
> 2020 05 01 05 09 30.0000000  0 11        .000000000000
G05  22173925.938 8 116524766.386 8     -2978.379          49.000    22173924.680 8  90798518.870 8     -2320.815          49.000
G13  20266625.641 7 106501827.951 7       730.883          46.000    20266624.258 7  82988418.684 7       569.522          42.000
G28  20877341.523 8 109711184.208 8         3.270          50.000    20877340.500 8  85489273.167 8         2.548          48.000
R02  19717588.156 8 105216798.859 8     -2258.977          51.000    19717590.172 8  81835318.612 8     -1756.982          51.000
R12  20009594.891 7 106887685.926 7     -2418.449          42.000    20009598.742 6  83134902.259 6     -1881.016          36.000
R13  19655715.391 6 104960430.322 6      1589.129          39.000    19655717.711 7  81635862.171 7      1235.986          44.000
C05  39775672.273 5 207122362.585 5         3.746          35.000    39775672.203 6 160160138.379 6         2.637          40.000
C23  22255125.094 8 115888298.468 8     -1295.105          51.000
E07  26169615.148 8 137522217.302 8     -2518.836          48.000    26169620.953 8 105374190.284 8     -1930.059          49.000
E21  25139587.883 8 132109497.576 8      2380.664          51.000    25139591.117 8 101226706.737 8      1824.133          51.000
E27  23328099.227 8 122590006.501 8      -225.320          51.000    23328100.719 8  93932587.522 8      -172.660          51.000
> 2020 05 01 05 10  0.0000000  0 11        .000000000000
G05  22190920.758 8 116614077.228 8     -2980.824          49.000    22190920.305 8  90868111.742 8     -2322.720          49.000
G13  20262449.141 7 106479880.785 7       727.180          46.000    20262448.055 7  82971316.978 7       566.634          44.000
G28  20877336.352 8 109711157.060 8        -6.543          51.000    20877335.016 7  85489252.005 7        -5.098          47.000
R02  19730307.031 8 105284668.898 8     -2270.926          51.000    19730308.914 8  81888106.374 8     -1766.279          50.000
R12  20023178.773 7 106960248.707 7     -2423.906          43.000    20023183.711 6  83191340.014 6     -1885.260          37.000
R13  19646804.570 6 104912847.445 6      1577.863          39.000    19646806.375 7  81598853.245 7      1227.224          43.000
C05  39775612.250 5 207122050.007 5        12.402          35.000    39775612.125 6 160159896.650 6         9.611          40.000
C23  22262576.102 8 115927096.941 8     -1296.457          51.000
E07  26183971.414 7 137597659.356 7     -2515.750          47.000    26183978.148 8 105431996.488 8     -1927.587          48.000
E21  25125982.008 8 132037994.498 8      2381.121          51.000    25125984.781 8 101171918.660 8      1824.519          51.000
E27  23329380.992 8 122596743.972 8      -228.934          51.000    23329382.883 8  93937749.988 8      -175.390          51.000
> 2020 05 01 05 10 30.0000000  0 11        .000000000000
G05  22207972.727 8 116703686.103 8     -2993.258          50.000    22207972.016 8  90937936.841 8     -2332.409          50.000
G13  20258337.609 7 106458275.153 7       713.230          46.000    20258336.656 7  82954481.419 7       555.764          43.000
G28  20877430.688 8 109711652.375 8       -26.430          51.000    20877428.883 7  85489637.959 7       -20.595          46.000
R02  19743135.656 8 105353125.920 8     -2293.098          51.000    19743137.344 8  81941350.694 8     -1783.520          50.000
R12  20036835.562 6 107033201.814 6     -2439.727          41.000    20036839.758 6  83248081.293 6     -1897.565          36.000
R13  19637996.891 6 104865817.412 6      1556.754          38.000    19637998.766 7  81562274.346 7      1210.809          43.000
C05                                                                  39775544.945 6 160159625.998 6         8.452          40.000
C23  22270077.195 8 115966156.649 8     -1307.598          51.000
E07  26198353.852 8 137673237.766 8     -2522.945          48.000    26198359.695 8 105489907.188 8     -1933.178          48.000
E21  25112417.336 8 131966709.413 8      2371.141          51.000    25112419.789 8 101117297.615 8      1816.872          50.000
E27  23330727.234 8 122603820.052 8      -242.867          51.000    23330729.305 8  93943171.898 8      -186.090          51.000
> 2020 05 01 05 11  0.0000000  0 11        .000000000000
G05  22225090.938 8 116793640.191 8     -3004.008          51.000    22225088.828 8  91008030.896 8     -2340.785          51.000
G13  20254300.812 7 106437061.915 7       700.750          46.000    20254299.648 7  82937951.614 7       546.039          44.000
G28  20877633.828 8 109712719.676 8       -44.965          50.000    20877631.930 7  85490469.645 7       -35.038          46.000
R02  19756083.039 8 105422218.598 8     -2313.508          51.000    19756084.938 8  81995089.430 8     -1799.395          49.000
R12  20050574.078 7 107106592.419 7     -2453.539          44.000    20050577.531 6  83305162.872 6     -1908.311          37.000
R13  19629302.484 6 104819390.633 6      1537.660          40.000    19629305.344 7  81526164.640 7      1195.958          44.000
C05  39775480.148 5 207121361.837 5        11.445          35.000    39775480.031 6 160159364.525 6         8.953          40.000
C23  22277637.523 8 116005525.608 8     -1317.250          51.000
E07  26212771.578 8 137749001.673 8     -2528.320          48.000    26212775.289 8 105547960.027 8     -1937.222          48.000
E21  25098903.539 8 131895692.992 8      2363.047          51.000    25098905.305 8 101062882.423 8      1810.616          49.000
E27  23332147.289 8 122611283.762 8      -254.871          51.000    23332149.812 8  93948890.835 8      -195.339          51.000
> 2020 05 01 05 11 30.0000000  0 11        .000000000000
G05  22242269.875 8 116883912.186 8     -3014.367          51.000    22242266.203 8  91078372.650 8     -2348.858          51.000
G13  20250334.336 7 106416217.763 7       688.789          46.000    20250332.891 7  82921709.414 7       536.719          45.000
G28  20877941.078 8 109714333.978 8       -62.855          50.000    20877938.672 7  85491727.567 7       -48.978          46.000
R02  19769143.898 8 105491920.673 8     -2333.555          50.000    19769146.906 8  82049302.148 8     -1814.987          49.000
R12  20064390.117 7 107180392.713 7     -2466.980          42.000    20064392.992 6  83362563.013 6     -1918.763          37.000
R13  19620717.062 6 104773542.863 6      1518.633          39.000    19620720.242 7  81490505.216 7      1181.159          45.000
C05  39775412.844 5 207121011.766 5        11.723          35.000    39775412.648 6 160159093.425 6         9.164          40.000
C23  22285252.266 8 116045178.042 8     -1326.449          51.000
E07  26227219.656 8 137824925.722 8     -2533.523          48.000    26227221.680 8 105606135.603 8     -1941.193          49.000
E21  25085435.766 8 131824921.466 8      2355.012          51.000    25085436.648 7 101008654.881 7      1804.433          47.000
E27  23333636.250 8 122619109.703 8      -266.969          51.000    23333639.242 8  93954887.318 8      -204.516          51.000
> 2020 05 01 05 12  0.0000000  0 11        .000000000000
G05  22259509.523 8 116974503.907 8     -3026.441          51.000    22259505.000 8  91148963.559 8     -2358.266          51.000
G13  20246439.156 7 106395748.486 7       674.539          46.000    20246437.703 7  82905759.312 7       525.615          45.000
G28  20878353.227 8 109716499.466 8       -82.754          50.000    20878350.352 7  85493414.954 7       -64.484          46.000
R02  19782320.125 8 105562235.415 8     -2355.418          51.000    19782323.750 8  82103991.398 8     -1831.992          48.000
R12  20078282.141 6 107254603.821 6     -2481.836          40.000    20078285.016 6  83420282.807 6     -1930.317          36.000
R13  19612240.391 6 104728278.164 6      1497.609          39.000    19612244.156 7  81455299.331 7      1164.807          45.000
C05                                                                  39775343.891 6 160158816.322 6         8.340          40.000
C23  22292922.156 8 116085117.337 8     -1337.430          51.000
E07  26241698.609 8 137901014.045 8     -2540.289          48.000    26241700.461 8 105664437.069 8     -1946.425          50.000
E21  25072015.094 8 131754400.471 8      2345.168          51.000    25072015.227 7 100954619.299 7      1797.001          47.000
E27  23335194.938 8 122627301.824 8      -280.508          51.000    23335197.898 8  93961164.375 8      -214.875          51.000
> 2020 05 01 05 12 30.0000000  0 12        .000000000000
G05  22276812.273 8 117065429.078 8     -3035.172          51.000    22276808.078 8  91219814.306 8     -2365.069          51.000
G13  20242618.578 7 106375671.369 7       663.832          46.000    20242617.336 7  82890114.788 7       517.272          46.000
G28  20878873.062 8 109719231.694 8       -99.320          49.000    20878870.461 7  85495544.005 7       -77.389          47.000
G30  21931107.156 5 115248745.448 5     -2332.988          34.000
R02  19795614.406 8 105633177.547 8     -2373.922          51.000    19795618.172 7  82159168.596 7     -1846.384          46.000
R12  20092254.195 7 107329239.584 7     -2493.758          43.000    20092256.617 6  83478332.765 6     -1939.589          36.000
R13  19603876.586 6 104683614.104 6      1480.008          40.000    19603880.344 7  81420560.607 7      1151.117          45.000
C05  39775276.789 5 207120302.864 5        13.207          35.000    39775276.633 6 160158545.681 6         9.901          41.000
C23  22300650.047 8 116125358.355 8     -1345.180          51.000
E07  26256212.109 8 137977282.341 8     -2543.914          48.000    26256214.117 8 105722876.433 8     -1949.344          51.000
E21  25058645.281 8 131684147.208 8      2338.570          50.000    25058644.648 8 100900788.871 8      1791.862          48.000
E27  23336826.250 8 122635875.727 8      -290.867          51.000    23336829.203 8  93967733.970 8      -222.875          51.000
> 2020 05 01 05 13  0.0000000  0 11        .000000000000
G05  22294173.242 8 117156661.634 8     -3046.559          51.000    22294169.953 8  91290904.601 8     -2373.942          51.000
G13  20238868.406 8 106355964.011 8       650.309          48.000    20238867.281 7  82874758.383 7       506.734          46.000
G28  20879496.250 8 109722507.203 8      -118.625          50.000    20879493.727 7  85498096.352 7       -92.435          46.000
R02  19809021.727 8 105704722.077 8     -2395.246          51.000    19809024.484 7  82214814.295 7     -1862.972          43.000
R12  20106301.133 6 107404273.157 6     -2508.336          38.000    20106303.828 6  83536692.177 6     -1950.931          37.000
R13  19595620.695 6 104639527.206 6      1459.875          39.000    19595624.250 7  81386270.808 7      1135.458          45.000
C05  39775206.797 5 207119938.317 5        12.039          35.000    39775206.641 6 160158263.757 6         9.479          40.000
C23  22308431.148 8 116165876.697 8     -1355.555          51.000
E07  26270755.180 8 138053706.773 8     -2550.445          49.000    26270757.953 8 105781435.393 8     -1954.207          51.000
E21  25045322.648 8 131614139.279 8      2329.133          51.000    25045321.609 8 100847146.430 8      1784.681          48.000
E27  23338525.781 8 122644807.361 8      -304.047          51.000    23338528.984 8  93974577.679 8      -232.986          51.000
> 2020 05 01 05 13 30.0000000  0 12        .000000000000
G05  22311574.516 8 117248106.959 8     -3045.203          50.000    22311572.406 8  91362160.695 8     -2372.889          50.000
G13  20235171.422 8 106336536.075 8       649.375          48.000    20235170.438 7  82859619.730 7       506.006          45.000
G28  20880205.219 8 109726233.783 8      -125.215          49.000    20880203.125 7  85501000.172 7       -97.567          47.000
R02  19822524.328 8 105776773.843 8     -2403.566          51.000    19822526.398 7  82270854.444 7     -1869.444          44.000
R12  20120403.266 6 107479607.712 6     -2509.789          37.000    20120406.820 6  83595285.803 6     -1952.055          37.000
R13  19587455.055 6 104595924.359 6      1451.617          38.000    19587458.828 7  81352357.497 7      1129.036          45.000
C05  39775116.438 6 207119468.138 6        23.406          36.000    39775116.359 6 160157900.189 6        18.419          40.000
C23  22316247.688 8 116206580.097 8     -1353.422          51.000
E07  26285310.578 8 138130194.774 8     -2544.168          50.000    26285314.273 8 105840043.070 8     -1949.460          51.000
E21  25032029.867 8 131544285.755 8      2332.344          51.000    25032029.336 8 100793622.317 8      1787.127          50.000
E27  23340275.953 8 122654004.163 8      -304.516          51.000    23340279.273 8  93981624.568 8      -233.336          51.000
E30  25267034.359 5 132779159.271 5     -2582.555          34.000
> 2020 05 01 05 14  0.0000000  0 13        .000000000000
G05  22329049.094 8 117339938.465 8     -3069.441          49.000    22329048.047 8  91433717.693 8     -2391.773          49.000
G13  20231561.305 8 106317564.638 8       622.988          48.000    20231560.281 7  82844836.773 7       485.445          46.000
G28  20881033.492 8 109730586.879 8      -157.457          51.000    20881031.883 8  85504392.191 8      -122.694          48.000
R02  19836155.391 8 105849509.952 8     -2437.887          51.000    19836157.820 7  82327426.932 7     -1896.134          47.000
R12  20134595.719 6 107555419.202 6     -2536.891          40.000    20134598.820 6  83654250.268 6     -1973.137          38.000
R13  19579413.422 6 104552984.358 6      1418.246          39.000    19579417.359 7  81318959.698 7      1103.080          45.000
R14  23277397.453 6 124081624.023 6      3807.801          38.000    23277403.227 6  96507949.920 6      2961.620          38.000
C05                                                                  39775039.289 6 160157589.818 6         7.899          40.000
C23  22324133.094 8 116247641.512 8     -1376.652          51.000
E07  26299911.492 8 138206921.597 8     -2563.355          50.000    26299915.820 8 105898833.740 8     -1964.198          51.000
E21  25018800.422 8 131474763.347 8      2310.000          51.000    25018801.055 8 100740351.930 8      1769.931          51.000
E27  23342109.984 8 122663641.174 8      -330.480          51.000    23342113.055 8  93989008.761 8      -253.243          51.000
E30  25281848.641 5 132857011.040 5     -2600.375          35.000
> 2020 05 01 05 14 30.0000000  0 14        .000000000000
G05  22346597.258 8 117432157.589 8     -3077.801          49.000    22346596.883 8  91505576.728 8     -2398.286          48.000
G07  24664924.430 4 129615051.935 4     -2898.801          28.000
G13  20228039.117 8 106299055.202 8       611.812          49.000    20228037.789 7  82830413.840 7       476.737          46.000
G28  20881981.945 8 109735570.156 8      -174.016          50.000    20881980.234 8  85508275.234 8      -135.597          49.000
R02  19849915.000 8 105922932.944 8     -2456.207          51.000    19849917.898 8  82384533.700 8     -1910.383          49.000
R12  20148877.359 6 107631709.040 6     -2548.309          40.000    20148882.008 6  83713586.838 6     -1982.015          40.000
R13  19571497.008 6 104510711.925 6      1400.418          39.000    19571500.688 7  81286081.149 7      1089.214          45.000
R14  23255984.086 6 123967478.132 6      3802.684          39.000    23255988.516 6  96419169.749 6      2957.643          39.000
C05  39774976.375 5 207118738.519 5        12.207          35.000    39774976.258 6 160157336.011 6         9.542          40.000
C23  22332087.875 8 116289064.014 8     -1384.160          51.000
E07  26314558.469 8 138283891.044 8     -2566.969          50.000    26314563.320 8 105957810.283 8     -1966.958          50.000
E21  25005635.141 8 131405577.444 8      2303.125          51.000    25005637.102 8 100687339.371 8      1764.816          51.000
E27  23344028.609 8 122673722.074 8      -340.785          51.000    23344031.211 8  93996733.072 8      -261.133          51.000
E30  25296702.914 6 132935071.298 6     -2603.039          36.000
> 2020 05 01 05 15  0.0000000  0 13        .000000000000
G05  22364198.383 8 117524653.739 8     -3087.203          50.000    22364197.922 8  91577651.605 8     -2405.616          50.000
G13  20224584.453 8 106280900.651 8       599.711          49.000    20224582.758 7  82816267.435 7       467.307          46.000
G28  20883029.617 8 109741075.114 8      -191.582          51.000    20883028.000 8  85512564.800 8      -149.285          50.000
R02  19863782.617 8 105996932.063 8     -2475.691          51.000    19863785.891 8  82442088.611 8     -1925.535          50.000
R12  20163227.961 6 107708364.183 6     -2560.445          39.000    20163232.562 6  83773207.508 6     -1991.461          39.000
R13  19563685.352 6 104468997.598 6      1381.391          39.000    19563688.750 7  81253636.684 7      1074.415          46.000
R14  23234603.773 6 123853517.005 6      3795.957          38.000    23234608.141 6  96330533.274 6      2952.408          38.000
C05  39774906.844 5 207118376.927 5        13.184          35.000    39774906.773 6 160157056.004 6        10.324          40.000
C23  22340091.094 8 116330739.227 8     -1392.855          51.000
E07  26329231.180 8 138360994.341 8     -2571.742          50.000    26329236.180 8 106016889.399 8     -1970.565          49.000
E21  24992513.297 8 131336620.810 8      2295.332          51.000    24992516.445 8 100634502.475 8      1758.752          51.000
E27  23346011.070 8 122684138.032 8      -352.273          51.000    23346013.469 8  94004714.114 8      -269.870          51.000
E30  25311576.344 5 133013233.405 5     -2606.523          35.000
> 2020 05 01 05 15 30.0000000  0 13        .000000000000
G05  22381863.047 8 117617481.662 8     -3102.512          51.000    22381861.828 8  91649984.979 8     -2417.545          51.000
G13  20221208.555 8 106263159.974 8       581.777          49.000    20221206.664 7  82802443.513 7       453.333          47.000
G28  20884187.320 8 109747158.402 8      -215.273          51.000    20884185.945 8  85517305.012 8      -167.746          51.000
R02  19877768.734 8 106071563.158 8     -2501.035          51.000    19877771.961 8  82500135.059 8     -1945.250          50.000
R12  20177657.211 6 107785439.996 6     -2578.918          41.000    20177660.227 6  83833155.322 6     -2005.825          39.000
R13  19555989.102 6 104427899.831 6      1356.566          38.000    19555992.453 7  81221671.724 7      1055.107          45.000
R14  23213269.086 6 123739800.957 6      3783.500          41.000    23213273.945 6  96242087.390 6      2942.722          38.000
C05  39774841.977 5 207118038.579 5         8.086          35.000    39774841.742 6 160156793.977 6         6.373          40.000
C23  22348153.508 8 116372722.821 8     -1407.305          51.000
E07  26343939.766 8 138438288.379 8     -2582.348          49.000    26343944.953 8 106076114.646 8     -1978.577          49.000
E21  24979445.812 8 131267951.875 8      2281.531          51.000    24979449.875 8 100581886.001 8      1748.249          51.000
E27  23348067.875 8 122694945.739 8      -369.258          51.000    23348070.453 8  94012995.348 8      -283.022          51.000
E30  25326479.422 5 133091547.422 5     -2616.320          32.000
> 2020 05 01 05 16  0.0000000  0 12        .000000000000
G05  22399606.180 8 117710721.146 8     -3107.934          51.000    22399604.406 8  91722639.048 8     -2421.766          51.000
G13  20217927.242 8 106245916.314 8       573.211          50.000    20217925.203 7  82789006.907 7       446.658          47.000
G28  20885470.734 8 109753902.632 8      -229.000          51.000    20885469.383 8  85522560.247 8      -178.442          51.000
R02  19891888.562 8 106146908.331 8     -2516.461          51.000    19891891.688 8  82558736.827 8     -1957.250          49.000
R12  20192179.688 6 107863017.093 6     -2587.074          39.000    20192182.961 6  83893493.054 6     -2012.166          40.000
R13  19548424.219 6 104387502.519 6      1341.777          38.000    19548426.867 7  81190251.548 7      1043.602          45.000
R14  23191997.461 6 123626415.455 6      3780.938          41.000    23192002.539 6  96153898.642 6      2940.726          38.000
C05  39774797.094 5 207117804.827 5        13.219          35.000    39774796.836 6 160156613.245 6         9.756          40.000
C23  22356290.781 8 116415095.404 8     -1412.094          51.000
E07  26358699.461 8 138515855.186 8     -2583.258          48.000    26358704.969 8 106135548.888 8     -1979.415          48.000
E21  24966448.695 8 131199654.124 8      2277.234          50.000    24966453.406 8 100529553.935 8      1744.885          51.000
E27  23350214.766 8 122706227.076 8      -377.090          51.000    23350217.188 8  94021639.490 8      -288.969          51.000
> 2020 05 01 05 16 30.0000000  0 12        .000000000000
G05  22417376.023 8 117804101.928 8     -3118.465          49.000    22417374.328 8  91795403.228 8     -2429.973          49.000
G13  20214689.789 8 106228903.496 8       559.852          50.000    20214687.750 7  82775750.159 7       436.248          47.000
G28  20886828.883 8 109761039.484 8      -247.840          51.000    20886827.422 8  85528121.411 8      -193.122          51.000
R02  19906091.180 8 106222694.939 8     -2536.980          51.000    19906093.609 7  82617681.906 7     -1973.210          47.000
R12  20206744.500 6 107940820.552 6     -2600.242          40.000    20206748.047 6  83954006.876 6     -2022.414          39.000
R13  19540939.719 6 104347534.434 6      1321.582          39.000    19540941.688 7  81159165.262 7      1027.897          45.000
R14  23170737.883 7 123513091.232 7      3772.809          43.000    23170743.094 6  96065757.602 6      2934.407          39.000
C05  39774721.453 5 207117411.231 5        12.074          35.000    39774721.211 6 160156308.842 6         9.394          40.000
C23  22364451.578 8 116457590.563 8     -1421.922          51.000
E07  26373459.844 7 138593426.574 7     -2589.379          47.000    26373465.633 8 106194986.647 8     -1984.099          49.000
E21  24953471.656 8 131131460.840 8      2267.824          50.000    24953476.391 8 100477301.926 8      1737.683          51.000
E27  23352400.648 8 122717713.678 8      -389.805          51.000    23352402.789 8  94030440.920 8      -298.744          51.000
> 2020 05 01 05 17  0.0000000  0 13        .000000000000
G05  22435208.125 7 117897813.469 7     -3128.500          46.000    22435207.477 7  91868425.196 7     -2437.792          46.000
G13  20211532.953 8 106212314.581 8       546.738          50.000    20211531.078 8  82762823.724 8       426.030          48.000
G28  20888298.211 8 109768760.555 8      -266.266          51.000    20888296.789 8  85534137.813 8      -207.480          51.000
G30  22052509.719 5 115886723.512 5     -2391.242          35.000    22052511.398 6  90301341.611 6     -1863.306          36.000
R02  19920412.750 8 106299115.474 8     -2557.105          51.000    19920414.523 7  82677120.045 7     -1988.863          47.000
R12  20221387.438 6 108019042.627 6     -2613.605          40.000    20221390.930 6  84014846.237 6     -2032.807          39.000
R13  19533571.977 6 104308190.051 6      1301.695          39.000    19533573.422 7  81128564.055 7      1012.430          44.000
R14  23149527.344 7 123400024.773 7      3765.406          42.000    23149532.672 6  95977817.012 6      2928.649          39.000
C05  39774651.688 5 207117047.849 5        12.559          35.000    39774651.445 6 160156027.874 6         9.578          41.000
C23  22372672.094 8 116500397.156 8     -1431.238          51.000
E07  26388257.742 7 138671193.763 7     -2594.895          46.000    26388263.922 8 106254574.454 8     -1988.260          50.000
E21  24940551.406 8 131063564.853 8      2259.059          50.000    24940555.500 8 100425277.720 8      1730.871          51.000
E27  23354661.984 8 122729596.680 8      -401.902          51.000    23354664.156 8  94039546.091 8      -307.975          51.000
> 2020 05 01 05 17 30.0000000  0 12        .000000000000
G05  22453092.867 7 117991806.234 7     -3138.129          43.000    22453094.172 7  91941666.354 7     -2445.295          43.000
G13  20208448.164 8 106196104.154 8       533.465          50.000    20208446.492 8  82750192.212 8       415.684          48.000
G28  20889869.539 8 109777018.076 8      -284.727          51.000    20889868.172 8  85540572.245 8      -221.865          50.000
R02  19934843.953 8 106376120.792 8     -2577.113          51.000    19934845.641 8  82737013.019 8     -2004.424          49.000
R12  20236099.672 7 108097632.414 7     -2626.434          43.000    20236103.250 6  84075971.586 6     -2042.782          38.000
R13  19526312.188 6 104269422.166 6      1282.133          39.000    19526313.758 7  81098411.235 7       997.214          45.000
R14  23128356.977 6 123287170.706 6      3757.457          41.000    23128362.422 6  95890041.594 6      2922.467          40.000
C05  39774578.891 5 207116669.077 5        12.543          35.000    39774578.648 6 160155734.572 6         9.506          40.000
C23  22380943.422 8 116543467.641 8     -1440.605          51.000
E07  26403083.914 7 138749109.414 7     -2600.293          45.000    26403090.977 8 106314275.998 8     -1992.399          51.000
E21  24927679.023 8 130995920.253 8      2249.977          50.000    24927682.266 8 100373446.112 8      1724.080          51.000
E27  23356989.625 8 122741828.512 8      -414.098          51.000    23356991.906 8  94048918.544 8      -317.290          51.000
> 2020 05 01 05 18  0.0000000  0 13        .000000000000
G05  22471037.367 7 118086107.543 7     -3146.965          46.000    22471039.367 7  92015147.931 7     -2452.177          46.000
G13  20205441.281 8 106180303.083 8       521.328          50.000    20205439.859 8  82737879.678 8       406.230          49.000
G28  20891548.570 8 109785841.480 8      -302.086          51.000    20891547.273 8  85547447.615 8      -235.392          50.000
G30  22079884.266 5 116030571.322 5     -2402.941          33.000    22079888.141 4  90413448.040 4     -1872.425          29.000
R02  19949389.742 8 106453739.247 8     -2596.035          51.000    19949391.953 8  82797382.889 8     -2019.138          50.000
R12  20250885.891 6 108176617.315 6     -2637.852          38.000    20250888.773 6  84137404.271 6     -2051.659          36.000
R13  19519165.938 6 104231261.282 6      1263.496          40.000    19519168.047 7  81068730.555 7       982.719          45.000
R14  23107232.922 6 123174561.186 6      3751.207          41.000    23107238.023 6  95802456.362 6      2917.605          39.000
C05  39774508.680 5 207116303.094 5        13.426          35.000    39774508.469 6 160155451.937 6        10.454          41.000
C23  22389270.961 8 116586830.344 8     -1448.738          51.000
E07  26417944.172 7 138827202.739 7     -2604.645          45.000    26417951.898 8 106374113.728 8     -1995.698          51.000
E21  24914860.516 8 130928557.824 8      2242.277          51.000    24914862.922 8 100321830.715 8      1718.070          50.000
E27  23359389.234 8 122754438.321 8      -425.109          51.000    23359391.273 8  94058580.605 8      -325.694          51.000
> 2020 05 01 05 18 30.0000000  0 13        .000000000000
G05  22489033.820 8 118180676.846 8     -3157.305          49.000    22489035.375 8  92088838.289 8     -2460.240          49.000
G13  20202505.391 8 106164874.887 8       507.301          51.000    20202504.109 8  82725857.690 8       395.299          49.000
G28  20893327.969 8 109795192.657 8      -321.238          51.000    20893326.641 8  85554734.248 8      -250.316          49.000
G30  22093621.234 5 116102757.779 5     -2410.465          32.000    22093625.711 5  90469697.287 5     -1878.281          34.000
R02  19964042.773 8 106531931.299 8     -2616.590          51.000    19964045.477 8  82858198.933 8     -2035.125          50.000
R12  20265737.852 7 108255956.162 7     -2651.191          42.000    20265740.086 6  84199112.196 6     -2062.044          36.000
R13  19512125.922 6 104193669.511 6      1243.152          39.000    19512128.461 7  81039492.510 7       966.896          44.000
R14  23086147.656 6 123062159.952 6      3742.594          41.000    23086152.414 6  95715033.165 6      2910.906          37.000
C05  39774434.094 6 207115914.314 6        13.227          36.000    39774433.820 6 160155151.323 6         9.826          41.000
C23  22397647.078 8 116630446.908 8     -1458.738          51.000
E07  26432831.602 7 138905435.694 7     -2610.781          46.000    26432839.047 8 106434058.472 8     -2000.406          51.000
E21  24902089.289 8 130861440.953 8      2232.586          51.000    24902090.539 8 100270403.507 8      1710.680          50.000
E27  23361853.406 8 122767387.819 8      -437.859          51.000    23361855.344 8  94068502.957 8      -335.539          51.000
> 2020 05 01 05 19  0.0000000  0 13        .000000000000
G05  22507086.484 8 118275539.789 8     -3166.887          50.000    22507086.836 8  92162757.439 8     -2467.704          50.000
G13  20199646.125 8 106149849.226 8       494.211          51.000    20199644.883 8  82714149.378 8       385.099          49.000
G28  20895213.117 8 109805099.310 8      -339.430          51.000    20895211.523 8  85562453.714 8      -264.491          48.000
G30  22107394.109 5 116175132.788 5     -2416.023          32.000    22107397.188 5  90526093.377 5     -1882.619          32.000
R02  19978808.188 8 106610723.908 8     -2636.367          51.000    19978811.344 8  82919482.101 8     -2050.505          51.000
R12  20280662.023 6 108335674.958 6     -2663.453          40.000    20280666.039 6  84261115.634 6     -2071.575          39.000
R13  19505197.805 6 104156675.645 6      1222.977          40.000    19505200.898 7  81010719.513 7       951.204          45.000
R14  23065106.703 6 122949998.061 6      3734.812          41.000    23065110.734 6  95627796.093 6      2904.854          36.000
C05  39774360.492 5 207115531.611 5        12.188          35.000    39774360.164 6 160154854.574 6         9.753          40.000
C23  22406077.086 8 116674344.216 8     -1467.824          51.000
E07  26447751.578 7 138983836.073 7     -2616.086          47.000    26447757.750 8 106494131.494 8     -2004.524          51.000
E21  24889370.500 8 130794598.898 8      2223.512          51.000    24889370.938 8 100219186.901 8      1703.679          51.000
E27  23364387.477 8 122780704.633 8      -450.008          51.000    23364389.594 8  94078706.760 8      -344.808          51.000
> 2020 05 01 05 19 30.0000000  0 14        .000000000000
G05  22525172.047 8 118370575.463 8     -3170.352          51.000    22525170.648 8  92236811.168 8     -2470.407          51.000
G13  20196841.203 8 106135109.016 8       486.871          51.000    20196840.070 8  82702663.490 8       379.380          50.000
G28  20897181.273 8 109815442.497 8      -351.562          51.000    20897179.578 8  85570513.354 8      -273.945          48.000
G30  22121180.625 5 116247577.062 5     -2416.012          30.000    22121184.062 5  90582543.370 5     -1882.610          31.000
R02  19993663.125 8 106689994.960 8     -2649.941          51.000    19993666.898 8  82981137.394 8     -2061.066          50.000
R12  20295633.219 6 108415650.170 6     -2669.621          38.000    20295638.898 6  84323318.645 6     -2076.369          39.000
R13  19498359.578 6 104120159.435 6      1209.934          41.000    19498363.008 7  80982318.034 7       941.059          45.000
R14  23044088.258 6 122837957.262 6      3733.090          41.000    23044090.352 6  95540653.239 6      2903.514          36.000
C05  39774265.250 5 207115035.738 5        18.488          35.000    39774264.953 6 160154471.115 6        14.472          40.000
C23  22414538.445 8 116718403.736 8     -1470.961          51.000
E07  26462681.055 8 139062284.905 8     -2615.414          49.000    26462686.125 8 106554241.626 8     -2004.040          51.000
E21  24876681.547 8 130727914.250 8      2220.578          51.000    24876681.805 8 100168090.902 8      1701.437          51.000
E27  23366968.898 8 122794269.681 8      -455.961          51.000    23366971.211 8  94089100.750 8      -349.364          51.000
E30  25446544.234 5 133722491.350 5     -2639.547          35.000
> 2020 05 01 05 20  0.0000000  0 14        .000000000000
G05  22543326.234 8 118465972.496 8     -3187.465          50.000    22543323.086 8  92311146.455 8     -2483.742          50.000
G13  20194127.133 8 106120846.154 8       465.879          51.000    20194125.977 8  82691549.561 8       363.023          50.000
G28  20899268.836 8 109826412.481 8      -377.715          51.000    20899267.117 8  85579061.414 8      -294.320          48.000
G30  22135042.688 5 116320447.536 5     -2429.309          35.000    22135016.789 5  90639287.230 5     -1892.968          34.000
R02  20008644.047 8 106769935.857 8     -2677.391          51.000    20008648.047 8  83043313.640 8     -2082.415          50.000
R12  20310688.469 6 108496072.806 6     -2689.828          40.000    20310694.164 6  84385869.560 6     -2092.089          40.000
R13  19491647.000 6 104084314.710 6      1182.031          40.000    19491650.484 7  80954438.822 7       919.361          45.000
R14  23023129.461 6 122726232.962 6      3717.258          41.000    23023129.680 6  95453756.608 6      2891.204          38.000
C05  39774184.812 5 207114617.021 5        10.605          35.000    39774184.617 6 160154147.337 6         8.590          40.000
C23  22423067.047 8 116762813.500 8     -1487.664          51.000
E07  26477655.766 8 139140972.521 8     -2628.469          48.000    26477660.336 8 106614534.713 8     -2014.027          51.000
E21  24864058.320 8 130661578.806 8      2203.773          51.000    24864059.531 8 100117262.459 8      1688.573          51.000
E27  23369633.539 8 122808273.029 8      -475.727          51.000    23369636.039 8  94099830.592 8      -364.482          51.000
E30  25461648.352 6 133801872.707 6     -2651.184          36.000
> 2020 05 01 05 20 30.0000000  0 13        .000000000000
G05  22561543.742 8 118561703.769 8     -3194.613          51.000    22561539.680 8  92385742.195 8     -2489.309          51.000
G13  20191499.578 8 106107037.900 8       454.699          51.000    20191498.289 8  82680789.886 8       354.311          50.000
G28  20901471.070 8 109837984.634 8      -393.758          51.000    20901469.258 8  85588078.690 8      -306.824          48.000
R02  20023745.617 8 106850521.199 8     -2694.879          51.000    20023749.859 8  83105991.082 8     -2096.020          49.000
R12  20325822.453 6 108576915.641 6     -2699.582          37.000    20325828.023 6  84448747.337 6     -2099.675          39.000
R13  19485055.820 6 104049117.806 6      1164.449          40.000    19485058.805 7  80927063.460 7       905.683          44.000
R14  23002225.562 6 122614802.858 6      3711.355          39.000    23002226.250 6  95367088.729 6      2886.610          40.000
C05  39774114.641 6 207114251.844 6        12.840          36.000    39774114.477 6 160153864.955 6        10.185          40.000
C23  22431657.820 8 116807548.435 8     -1494.609          51.000
E07  26492670.711 8 139219874.266 8     -2631.609          49.000    26492675.469 8 106674991.855 8     -2016.404          51.000
E21  24851496.344 8 130595569.443 8      2196.832          51.000    24851499.445 8 100066683.844 8      1683.311          51.000
E27  23372376.984 8 122822689.924 8      -485.438          51.000    23372379.273 8  94110877.301 8      -372.004          51.000
E30  25476785.305 6 133881411.376 6     -2652.652          36.000
> 2020 05 01 05 21  0.0000000  0 13        .000000000000
G05  22579809.164 8 118657688.267 8     -3204.188          50.000    22579805.250 8  92460535.276 8     -2496.773          50.000
G13  20188943.719 8 106093606.711 8       440.824          51.000    20188942.445 8  82670324.003 8       343.499          50.000
G28  20903772.750 8 109850079.586 8      -412.367          51.000    20903770.820 7  85597503.341 7      -321.325          47.000
R02  20038952.367 8 106931669.374 8     -2714.762          51.000    20038956.883 8  83169106.276 8     -2111.481          49.000
R12  20341019.008 6 108658095.874 6     -2712.242          36.000    20341023.711 6  84511887.555 6     -2109.519          38.000
R13  19478571.102 6 104014487.981 6      1144.562          41.000    19478573.422 7  80900129.146 7       890.212          44.000
R14  22981361.047 6 122503589.272 6      3703.074          38.000    22981364.094 6  95280589.234 6      2880.166          41.000
C05  39774039.992 6 207113862.574 6        13.355          36.000    39774039.711 6 160153563.889 6        10.222          41.000
C23  22440295.805 8 116852529.574 8     -1503.961          51.000
E07  26507711.391 8 139298911.016 8     -2637.238          50.000    26507715.891 8 106735552.461 8     -2020.735          51.000
E21  24838981.445 8 130529808.538 8      2187.445          50.000    24838986.461 8 100016295.610 8      1676.100          51.000
E27  23375184.039 8 122837441.073 8      -497.719          51.000    23375186.320 8  94122180.120 8      -381.399          51.000
E30  25491940.633 6 133961059.496 6     -2656.641          36.000
> 2020 05 01 05 21 30.0000000  0 13        .000000000000
G05  22598127.844 8 118753954.864 8     -3213.051          49.000    22598125.172 8  92535548.179 8     -2503.676          49.000
G13  20186465.883 8 106080585.354 8       427.547          51.000    20186464.438 8  82660177.486 8       333.153          50.000
G28  20906179.766 8 109862728.412 8      -430.418          51.000    20906177.742 8  85607359.588 8      -335.388          48.000
R02  20054270.367 8 107013409.615 8     -2734.039          50.000    20054274.789 8  83232682.007 8     -2126.475          48.000
R12  20356284.602 6 108739642.460 6     -2723.781          39.000    20356287.984 6  84575312.645 6     -2118.497          38.000
R13  19472198.320 6 103980457.064 6      1124.738          41.000    19472200.688 7  80873660.655 7       874.796          45.000
R14  22960543.633 6 122392625.931 6      3694.887          40.000    22960548.445 6  95194284.424 6      2873.804          41.000
C05  39773966.625 5 207113480.465 5        13.375          35.000    39773966.391 6 160153268.454 6        10.095          41.000
C23  22448987.102 8 116897786.949 8     -1512.805          51.000
E07  26522783.625 8 139378113.751 8     -2642.453          51.000    26522787.023 8 106796240.230 8     -2024.695          50.000
E21  24826520.242 8 130464328.512 8      2178.391          50.000    24826526.641 8  99966122.586 8      1669.144          51.000
E27  23378060.320 8 122852557.208 8      -509.531          51.000    23378062.969 8  94133762.613 8      -390.420          51.000
E30  25507119.930 6 134040831.360 6     -2660.781          37.000
> 2020 05 01 05 22  0.0000000  0 13        .000000000000
G05  22616497.359 8 118850490.782 8     -3222.051          48.000    22616496.312 8  92610770.962 8     -2510.689          48.000
G13  20184064.367 8 106067965.017 8       414.223          51.000    20184062.734 8  82650343.457 8       322.771          51.000
G28  20908689.984 8 109875920.225 8      -448.527          51.000    20908687.867 8  85617638.916 8      -349.505          48.000
R02  20069696.336 8 107095730.559 8     -2753.469          48.000    20069701.383 8  83296709.383 8     -2141.587          48.000
R12  20371616.039 5 108821542.006 5     -2736.066          35.000    20371619.328 6  84639012.291 6     -2128.052          37.000
R13  19465936.039 6 103947015.702 6      1104.977          41.000    19465938.117 7  80847650.682 7       859.426          45.000
R14  22939772.484 7 122281904.609 7      3686.906          42.000    22939777.195 6  95108167.883 6      2867.597          39.000
C05  39773892.758 5 207113095.743 5        12.590          35.000    39773892.414 6 160152970.913 6        10.170          40.000
C23  22457729.328 8 116943309.313 8     -1521.590          51.000
E07  26537885.172 8 139457471.691 8     -2647.695          50.000    26537886.438 7 106857046.889 7     -2028.649          47.000
E21  24814111.328 8 130399120.073 8      2169.266          51.000    24814118.219 8  99916157.670 8      1662.141          51.000
E27  23381004.133 8 122868027.432 8      -521.340          51.000    23381006.672 8  94145616.417 8      -399.480          51.000
E30  25522320.930 6 134120715.346 6     -2664.355          37.000
> 2020 05 01 05 22 30.0000000  0 13        .000000000000
G05  22634916.055 7 118947285.536 7     -3230.973          47.000    22634916.211 7  92686195.436 7     -2517.641          47.000
G13  20181737.914 8 106055739.090 8       400.812          51.000    20181736.172 8  82640816.746 8       312.321          51.000
G28  20911301.922 8 109889646.685 8      -466.551          51.000    20911299.789 8  85628334.851 8      -363.546          49.000
R02  20085228.992 8 107178622.021 8     -2772.621          49.000    20085234.781 8  83361180.527 8     -2156.483          48.000
R12  20387011.805 6 108903784.082 6     -2747.184          36.000    20387015.281 6  84702978.324 6     -2136.698          37.000
R13  19459782.352 6 103914155.910 6      1085.391          41.000    19459784.000 7  80822093.048 7       844.193          44.000
R14  22919046.227 7 122171419.514 7      3678.828          42.000    22919049.812 6  95022235.122 6      2861.317          38.000
C05  39773816.922 6 207112700.985 6        12.855          36.000    39773816.602 6 160152665.673 6        10.255          41.000
C23  22466520.586 8 116989087.984 8     -1530.289          51.000
E07  26553014.391 8 139536976.650 8     -2652.676          49.000    26553013.180 7 106917966.180 7     -2032.621          46.000
E21  24801753.414 8 130334176.548 8      2160.254          51.000    24801759.797 8  99866395.739 8      1655.283          51.000
E27  23384013.789 8 122883843.372 8      -533.074          51.000    23384016.078 8  94157735.101 8      -408.427          51.000
E30  25537542.023 6 134200702.610 6     -2667.926          38.000
> 2020 05 01 05 23  0.0000000  0 13        .000000000000
G05  22653384.969 7 119044343.231 7     -3240.086          46.000    22653385.750 7  92761824.815 7     -2524.742          46.000
G13  20179487.961 8 106043915.347 8       386.891          51.000    20179486.031 8  82631603.438 8       301.473          51.000
G28  20914016.633 8 109903913.585 8      -485.023          51.000    20914014.875 8  85639451.898 8      -377.940          49.000
R02  20100870.672 8 107262088.787 8     -2792.223          50.000    20100876.391 8  83426099.122 8     -2171.729          48.000
R12  20402473.125 6 108986372.482 6     -2758.859          37.000    20402477.055 5  84767213.775 5     -2145.776          35.000
R13  19453738.711 6 103881884.139 6      1065.148          41.000    19453740.469 7  80796992.790 7       828.449          45.000
R14  22898365.648 7 122061179.320 7      3670.266          43.000    22898369.211 6  94936492.784 6      2854.651          38.000
C05  39773740.500 6 207112303.024 6        12.695          36.000    39773740.172 6 160152357.930 6         9.989          41.000
C23  22475362.023 8 117035128.320 8     -1539.508          51.000
E07  26568172.406 8 139616634.679 8     -2658.352          48.000    26568170.734 7 106979002.757 7     -2036.916          46.000
E21  24789447.625 8 130269505.439 8      2150.711          51.000    24789452.664 8  99816842.545 8      1647.920          51.000
E27  23387090.234 8 122900010.848 8      -545.281          51.000    23387092.547 8  94170123.151 8      -417.771          51.000
E30  25552784.023 6 134280798.434 6     -2672.031          38.000
> 2020 05 01 05 23 30.0000000  0 14        .000000000000
G05  22671902.859 7 119141656.845 7     -3247.980          46.000    22671903.906 7  92837653.615 7     -2530.894          46.000
G13  20177313.891 8 106032490.595 8       374.281          51.000    20177311.773 8  82622701.024 8       291.648          51.000
G28  20916833.320 8 109918715.861 8      -502.184          51.000    20916831.797 8  85650986.133 8      -391.312          50.000
G30  22232874.789 5 116834546.875 5     -2467.574          33.000
R02  20116619.602 8 107346124.383 8     -2810.461          51.000    20116625.039 8  83491460.101 8     -2185.914          48.000
R12  20417997.359 6 109069299.626 6     -2769.898          38.000    20418000.211 5  84831712.579 5     -2154.368          33.000
R13  19447804.547 6 103850195.794 6      1046.562          41.000    19447806.508 7  80772346.279 7       813.993          45.000
R14  22877729.320 7 121951181.428 7      3662.715          42.000    22877735.133 6  94850938.831 6      2848.775          40.000
C05  39773662.539 6 207111897.473 6        13.941          36.000    39773662.359 6 160152044.354 6        10.545          40.000
C23  22484252.734 8 117081424.694 8     -1547.395          51.000
E07  26583358.344 7 139696440.678 7     -2662.672          47.000    26583358.523 8 107040152.744 8     -2040.190          48.000
E21  24777192.891 8 130205103.106 8      2142.312          51.000    24777196.484 8  99767495.319 8      1641.440          51.000
E27  23390232.719 8 122916524.586 8      -556.203          51.000    23390234.977 8  94182776.527 8      -426.176          51.000
E30  25568045.641 6 134360997.072 6     -2675.113          38.000
> 2020 05 01 05 24  0.0000000  0 13        .000000000000
G05  22690474.039 7 119239247.845 7     -3256.391          47.000    22690475.016 7  92913698.547 7     -2537.447          47.000
G13  20175220.633 8 106021490.189 8       360.824          51.000    20175218.539 8  82614129.271 8       281.162          51.000
G24  24055268.336 6 126411319.611 6      3157.250          37.000
G28  20919756.422 8 109934077.053 8      -520.117          51.000    20919754.898 8  85662955.873 8      -405.286          50.000
R02  20132479.750 8 107430751.533 8     -2829.504          51.000    20132484.094 7  83557281.197 7     -2200.725          47.000
R13  19441984.156 7 103819115.217 7      1027.070          42.000    19441986.391 7  80748172.491 7       798.832          45.000
R14  22857143.141 7 121841452.370 7      3654.438          42.000    22857151.688 7  94765593.911 7      2842.340          42.000
C05  39773588.000 6 207111508.743 6        13.906          36.000    39773587.719 6 160151743.734 6        10.644          40.000
C23  22493197.195 8 117128000.000 8     -1555.930          51.000
E07  26598577.070 7 139776418.320 7     -2667.590          47.000    26598579.992 8 107101434.288 8     -2043.994          50.000
E21  24764993.617 8 130140994.750 8      2133.238          51.000    24764996.328 8  99718373.349 8      1634.598          51.000
E27  23393445.766 8 122933408.102 8      -567.723          51.000    23393447.789 8  94195713.229 8      -435.023          51.000
E30  25583330.969 6 134441321.526 6     -2678.391          38.000
> 2020 05 01 05 24 30.0000000  0 15        .000000000000
G05  22709089.586 7 119337071.100 7     -3264.918          47.000    22709090.320 7  92989924.452 7     -2544.092          47.000
G13  20173200.344 8 106010872.942 8       347.273          51.000    20173198.211 8  82605856.087 8       270.603          51.000
G15  21080763.992 5 110780162.391 5      1996.125          33.000
G24  24037257.453 5 126316670.261 5      3153.523          32.000
G28  20922777.641 8 109949953.582 8      -538.047          51.000    20922776.312 8  85675327.197 8      -419.257          51.000
R02  20148442.078 8 107515924.931 8     -2848.480          51.000    20148445.016 7  83623527.162 7     -2215.485          47.000
R12  20449250.070 5 109236242.477 5     -2792.105          34.000    20449249.727 5  84961513.477 5     -2171.638          35.000
R13  19436269.492 7 103788599.196 7      1007.387          42.000    19436272.086 7  80724437.802 7       783.523          45.000
R14  22836601.133 7 121731950.683 7      3646.195          44.000    22836610.484 7  94680425.897 7      2835.930          44.000
C05  39773508.438 5 207111094.812 5        13.855          35.000    39773508.203 6 160151423.640 6        10.768          40.000
C23  22502186.820 8 117174811.044 8     -1564.562          51.000
E07  26613820.039 7 139856524.608 7     -2672.672          46.000    26613825.766 8 107162814.407 8     -2047.876          51.000
E21  24752841.766 8 130077138.792 8      2123.980          51.000    24752844.055 8  99669444.760 8      1627.525          51.000
E27  23396720.930 8 122950618.156 8      -579.418          51.000    23396722.641 8  94208900.142 8      -443.919          51.000
E30  25598631.781 6 134521728.008 6     -2681.598          37.000
> 2020 05 01 05 25  0.0000000  0 14        .000000000000
G05  22727756.398 8 119435164.145 8     -3273.293          48.000    22727756.391 8  93066360.564 8     -2550.621          48.000
G13  20171260.773 8 106000680.077 8       333.559          51.000    20171258.617 8  82597913.593 8       259.916          51.000
G24  24019273.047 5 126222160.162 5      3149.312          32.000
G28  20925904.508 8 109966385.173 8      -556.086          51.000    20925903.141 8  85688131.027 8      -433.314          50.000
R02  20164513.336 8 107601683.745 8     -2867.395          51.000    20164515.859 7  83690228.435 7     -2230.196          46.000
R12  20464955.516 6 109320196.458 6     -2803.355          38.000    20464960.531 5  85026811.355 5     -2180.391          34.000
R13  19430668.141 7 103758688.362 7       987.895          42.000    19430670.539 7  80701173.828 7       768.362          44.000
R14  22816110.695 7 121622719.287 7      3637.582          46.000    22816118.984 7  94595468.180 7      2829.234          45.000
C05  39773431.828 6 207110695.816 6        13.473          36.000    39773431.625 6 160151115.074 6        10.717          40.000
C23  22511228.844 8 117221896.456 8     -1573.180          51.000
E07  26629095.383 7 139936799.134 7     -2677.867          47.000    26629102.977 8 107224323.440 8     -2051.756          51.000
E21  24740745.602 8 130013576.310 8      2114.738          51.000    24740748.125 8  99620741.026 8      1620.384          51.000
E27  23400065.711 8 122968194.122 8      -591.035          51.000    23400067.172 8  94222367.437 8      -452.883          51.000
E30  25613955.758 6 134602255.515 6     -2685.227          37.000
> 2020 05 01 05 25 30.0000000  0 13        .000000000000
G05  22746470.094 8 119533503.746 8     -3281.754          48.000    22746468.352 8  93142988.786 8     -2557.211          48.000
G13  20169398.141 8 105990891.822 8       319.801          51.000    20169396.109 8  82590286.367 8       249.192          51.000
G28  20929132.938 8 109983350.200 8      -574.145          51.000    20929131.430 8  85701350.513 8      -447.385          51.000
R02  20180689.461 8 107688004.484 8     -2886.375          51.000    20180692.281 7  83757366.755 7     -2244.958          45.000
R12  20480733.500 6 109404479.269 6     -2814.438          36.000    20480736.172 5  85092364.606 5     -2189.007          33.000
R13  19425176.359 7 103729361.899 7       967.887          42.000    19425178.469 7  80678364.369 7       752.801          45.000
R14  22795667.406 7 121513739.020 7      3628.961          45.000    22795674.047 7  94510705.800 7      2822.528          45.000
C05  39773354.219 6 207110292.192 6        13.969          36.000    39773354.039 6 160150802.215 6        10.623          40.000
C23  22520319.281 8 117269234.581 8     -1581.832          51.000
E07  26644399.188 8 140017220.539 8     -2682.871          48.000    26644407.734 8 107285945.018 8     -2055.817          51.000
E21  24728701.891 8 129950287.437 8      2105.324          51.000    24728704.836 8  99572246.935 8      1613.105          51.000
E27  23403476.172 8 122986114.509 8      -602.875          51.000    23403477.445 8  94236098.641 8      -461.967          51.000
E30  25629298.719 6 134682881.979 6     -2689.074          37.000
> 2020 05 01 05 26  0.0000000  0 14        .000000000000
G05  22765229.562 8 119632083.082 8     -3290.094          48.000    22765225.984 8  93219803.799 8     -2563.712          48.000
G13  20167612.023 8 105981505.705 8       306.027          51.000    20167610.195 8  82582972.500 8       238.463          51.000
G17  24595611.625 6 129250812.695 6      2823.262          37.000
G28  20932462.008 8 110000843.939 8      -592.250          51.000    20932460.617 8  85714982.000 8      -461.494          50.000
R02  20196970.516 8 107774881.047 8     -2905.363          51.000    20196972.805 7  83824937.361 7     -2259.727          44.000
R12  20496571.914 6 109489083.656 6     -2825.625          40.000    20496576.820 5  85158167.955 5     -2197.708          34.000
R13  19419793.109 7 103700615.746 7       948.395          42.000    19419795.406 7  80656006.242 7       737.640          45.000
R14  22775269.719 7 121405008.010 7      3620.023          43.000    22775275.531 7  94426137.253 7      2815.574          43.000
C05  39773274.867 5 207109878.570 5        13.477          35.000    39773274.617 6 160150482.345 6        10.502          40.000
C23  22529457.570 8 117316820.383 8     -1590.465          51.000
E07  26659730.375 8 140097784.374 8     -2688.098          48.000    26659739.094 8 107347675.733 8     -2059.750          51.000
E21  24716710.227 8 129887269.134 8      2095.848          51.000    24716713.242 8  99523960.177 8      1605.867          51.000
E27  23406951.172 8 123004374.636 8      -614.637          51.000    23406952.203 8  94250090.157 8      -470.922          51.000
E30  25644659.445 5 134763602.293 5     -2692.785          35.000
> 2020 05 01 05 26 30.0000000  0 14        .000000000000
G05  22784039.461 8 119730926.755 8     -3299.012          48.000    22784035.492 8  93296824.813 8     -2570.658          48.000
G13  20165907.859 8 105972549.977 8       291.410          51.000    20165906.086 8  82575994.003 8       227.070          51.000
G17  24579506.164 5 129166178.265 5      2820.223          34.000    24579499.969 5 100648946.499 5      2197.585          34.000
G28  20935896.703 8 110018892.707 8      -610.766          51.000    20935895.297 8  85729045.963 8      -475.921          50.000
R02  20213360.992 8 107862339.402 8     -2924.867          51.000    20213362.836 7  83892960.446 7     -2274.900          45.000
R12  20512475.234 6 109574034.391 6     -2837.402          39.000    20512482.438 5  85224240.760 5     -2206.865          34.000
R13  19414523.156 6 103672476.743 6       927.895          41.000    19414525.625 7  80634120.339 7       721.696          45.000
R14  22754922.992 7 121296555.554 7      3610.348          43.000    22754929.547 7  94341785.286 7      2808.048          43.000
C05  39773198.898 5 207109483.365 5        12.695          35.000    39773198.648 6 160150176.354 6         9.971          40.000
C23  22538648.586 8 117364679.666 8     -1599.684          51.000
E07  26675093.422 7 140178517.215 7     -2693.957          47.000    26675102.188 8 107409535.950 8     -2064.114          51.000
E21  24704775.781 8 129824549.413 8      2085.820          51.000    24704778.484 8  99475902.213 8      1598.187          51.000
E27  23410495.617 8 123023000.822 8      -626.848          51.000    23410496.383 8  94264362.159 8      -480.315          51.000
E30  25660042.664 5 134844434.302 5     -2696.664          35.000    25660052.047 5 103322395.118 5     -2066.437          35.000
> 2020 05 01 05 27  0.0000000  0 14        .000000000000
G05  22802892.234 8 119829995.300 8     -3305.879          48.000    22802888.766 8  93374021.050 8     -2576.010          48.000
G13  20164278.812 8 105963988.760 8       278.848          51.000    20164276.898 8  82569322.918 8       217.284          51.000
G28  20939429.695 8 110037458.586 8      -627.566          51.000    20939428.320 8  85743512.884 8      -489.013          50.000
G30  22332264.367 5 117356850.768 5     -2506.234          33.000    22332266.117 5  91446891.572 5     -1952.907          33.000
R02  20229853.039 8 107950339.686 8     -2942.379          51.000    20229854.008 7  83961405.070 7     -2288.517          47.000
R12  20528435.391 5 109659290.827 5     -2847.141          33.000    20528442.383 5  85290551.271 5     -2214.443          32.000
R13  19409360.094 7 103644907.183 7       909.355          42.000    19409362.602 7  80612677.341 7       707.276          45.000
R14  22734622.633 7 121188345.722 7      3602.773          45.000    22734629.500 7  94257622.071 7      2802.157          43.000
C05  39773119.422 6 207109068.729 6        13.598          36.000    39773119.102 6 160149856.089 6        10.808          40.000
C23  22547884.688 8 117412774.602 8     -1607.062          51.000
E07  26690481.203 7 140259381.380 7     -2697.598          47.000    26690489.938 8 107471496.818 8     -2067.089          51.000
E21  24692891.320 8 129762092.123 8      2077.504          51.000    24692893.516 8  99428045.331 8      1591.878          51.000
E27  23414102.617 8 123041955.301 8      -637.297          51.000    23414103.273 8  94278885.709 8      -488.324          51.000
E30  25675441.500 5 134925354.838 5     -2698.773          35.000    25675451.227 5 103384399.882 5     -2068.020          35.000
> 2020 05 01 05 27 30.0000000  0 15        .000000000000
G05  22821791.195 7 119929306.756 7     -3314.137          47.000    22821788.422 7  93451406.570 7     -2582.444          47.000
G13  20162728.961 8 105955843.701 8       264.801          51.000    20162726.891 8  82562976.113 8       206.338          51.000
G28  20943064.852 8 110056561.284 8      -645.535          51.000    20943063.492 8  85758398.095 8      -503.017          49.000
G30  22346593.109 6 117432142.306 6     -2512.219          37.000    22346593.180 5  91505560.299 5     -1957.573          34.000
R02  20246449.539 8 108038900.311 8     -2961.133          51.000    20246450.188 8  84030285.539 8     -2303.103          48.000
R03  19415306.414 6 103931669.593 6      1133.957          37.000    19415307.656 5  80835737.896 5       881.970          34.000
R12  20544455.531 5 109744871.030 5     -2857.500          34.000    20544459.117 5  85357113.627 5     -2222.500          31.000
R13  19404307.734 7 103617927.599 7       889.715          42.000    19404310.148 7  80591693.219 7       692.000          45.000
R14  22714373.266 8 121080401.374 8      3593.895          48.000    22714379.391 7  94173665.391 7      2795.251          44.000
C05  39773040.273 6 207108656.600 6        13.805          36.000    39773039.945 6 160149537.405 6        10.783          40.000
C23  22557169.695 8 117461124.354 8     -1615.648          51.000
E07  26705897.633 7 140340396.855 7     -2702.684          45.000    26705906.023 8 107533573.614 8     -2070.944          51.000
E21  24681060.672 8 129699918.654 8      2067.910          51.000    24681062.289 8  99380405.922 8      1584.509          51.000
E27  23417775.711 8 123061257.726 8      -648.957          51.000    23417776.461 8  94293675.877 8      -497.277          51.000
E30  25690859.867 5 135006377.077 5     -2702.125          35.000    25690869.688 5 103446485.851 5     -2070.834          35.000
> 2020 05 01 05 28  0.0000000  0 15        .000000000000
G05  22840731.711 7 120028837.141 7     -3321.613          45.000    22840729.289 7  93528962.696 7     -2588.270          46.000
G13  20161254.477 8 105948095.069 8       251.293          51.000    20161252.352 8  82556938.210 8       195.813          51.000
G28  20946797.992 8 110076179.255 8      -662.883          51.000    20946796.609 8  85773684.819 8      -516.532          48.000
G30  22360949.102 5 117507578.551 5     -2517.680          35.000    22360944.859 5  91564341.778 5     -1961.828          35.000
R02  20263145.547 8 108127997.647 8     -2979.148          50.000    20263147.227 8  84099583.471 8     -2317.115          49.000
R03  19409012.633 6 103897988.793 6      1110.746          36.000    19409015.312 5  80809541.704 5       863.914          33.000
R12  20560532.344 6 109830751.141 6     -2868.285          36.000    20560536.789 5  85423909.255 5     -2230.891          35.000
R13  19399361.711 7 103591516.569 7       870.492          42.000    19399364.711 7  80571151.310 7       677.046          45.000
R14  22694170.430 8 120972703.393 8      3585.480          48.000    22694175.469 7  94089900.326 7      2788.707          44.000
C05  39772957.648 6 207108227.090 6        14.211          36.000    39772957.242 6 160149204.514 6        10.965          41.000
C23  22566499.734 8 117509707.215 8     -1623.703          51.000
E07  26721338.766 7 140421542.247 7     -2707.414          45.000    26721346.719 8 107595749.910 8     -2074.449          50.000
E21  24669279.820 8 129638009.045 8      2058.914          51.000    24669281.148 8  99332968.689 8      1577.592          51.000
E27  23421510.805 8 123080886.526 8      -660.094          51.000    23421511.547 8  94308716.115 8      -505.744          51.000
E30  25706293.414 5 135087483.061 5     -2704.852          34.000    25706303.070 6 103508628.165 6     -2072.809          36.000
> 2020 05 01 05 28 30.0000000  0 15        .000000000000
G05  22859710.445 7 120128571.176 7     -3328.812          42.000    22859708.242 7  93606677.517 7     -2593.883          42.000
G13  20159853.234 8 105940731.333 8       238.129          51.000    20159851.070 8  82551200.226 8       185.555          51.000
G24  23894030.148 4 125563974.983 4      3121.801          28.000
G28  20950626.578 8 110096298.722 8      -679.910          50.000    20950625.062 7  85789362.315 7      -529.800          47.000
R02  20279938.516 8 108217617.320 8     -2996.969          48.000    20279942.453 8  84169287.675 8     -2330.976          50.000
R03  19402846.281 6 103864981.673 6      1088.137          39.000    19402849.570 5  80783869.503 5       846.329          35.000
R12  20576664.102 5 109916915.228 5     -2877.801          32.000    20576669.750 5  85490925.775 5     -2238.289          35.000
R13  19394520.047 7 103565661.073 7       851.656          42.000    19394523.117 7  80551041.468 7       662.399          45.000
R14  22674011.188 8 120865240.589 8      3577.230          48.000    22674015.508 7  94006318.170 7      2782.290          43.000
C05  39772869.039 6 207107765.736 6        14.852          36.000    39772868.633 6 160148847.746 6        11.442          40.000
C23  22575871.914 8 117558509.376 8     -1631.328          51.000
E07  26736802.203 7 140502804.137 7     -2711.441          45.000    26736809.516 8 107658015.481 8     -2077.706          50.000
E21  24657546.328 8 129576351.342 8      2050.125          51.000    24657547.836 8  99285724.473 8      1570.866          51.000
E27  23425305.508 8 123100828.097 8      -670.816          51.000    23425306.250 8  94323996.006 8      -514.056          51.000
E30                                                                  25721748.492 6 103570820.014 6     -2074.413          36.000
> 2020 05 01 05 29  0.0000000  0 13        .000000000000
G05  22878739.859 7 120228572.094 7     -3337.195          42.000    22878737.094 7  93684600.284 7     -2600.412          42.000
G13  20158538.008 8 105933819.286 8       223.395          51.000    20158535.672 8  82545814.209 8       174.074          51.000
G28  20954562.734 8 110116984.241 8      -698.312          49.000    20954561.375 7  85805480.921 7      -544.137          46.000
R02  20296842.242 8 108307823.750 8     -3016.117          49.000    20296847.391 8  84239448.259 8     -2345.869          49.000
R03  19396818.914 6 103832718.098 6      1063.504          38.000    19396824.359 6  80758775.593 6       827.167          36.000
R13  19389794.883 7 103540428.050 7       831.168          42.000    19389797.984 7  80531415.804 7       646.464          45.000
R14  22653908.391 8 120758081.559 8      3567.469          48.000    22653912.258 6  93922972.260 6      2774.698          41.000
C05  39772787.109 6 207107338.888 6        14.449          36.000    39772786.648 6 160148517.667 6        10.931          40.000
C23  22585298.320 8 117607594.824 8     -1640.371          51.000
E07  26752301.023 8 140584247.688 8     -2717.230          48.000    26752307.055 8 107720420.234 8     -2082.010          50.000
E21  24645872.953 8 129515012.128 8      2039.887          50.000    24645875.086 8  99238724.290 8      1563.063          51.000
E27  23429172.008 8 123121147.336 8      -683.016          51.000    23429173.195 8  94339565.285 8      -523.362          51.000
E30                                                                  25737218.219 6 103633110.903 6     -2077.451          37.000
> 2020 05 01 05 29 30.0000000  0 14        .000000000000
G05  22897813.172 6 120328802.322 6     -3343.430          41.000    22897809.688 6  93762701.697 6     -2605.273          41.000
G13  20157302.227 8 105927325.027 8       210.887          51.000    20157299.766 8  82540753.737 8       164.327          50.000
G28  20958599.750 8 110138200.027 8      -714.559          50.000    20958598.570 7  85822012.712 7      -556.799          45.000
R02  20313849.961 8 108398579.149 8     -3032.934          51.000    20313854.930 8  84310035.803 8     -2358.945          49.000
R03  19390924.852 6 103801164.749 6      1041.453          38.000    19390930.062 6  80734234.079 6       810.019          36.000
R12  20609138.359 6 110090265.689 6     -2897.855          38.000    20609113.344 4  85625746.691 4     -2253.894          29.000
R13  19385179.438 6 103515780.928 6       812.988          41.000    19385182.312 7  80512245.813 7       632.324          45.000
R14  22633856.344 8 120651192.384 8      3559.836          48.000    22633859.805 7  93839836.245 7      2768.761          42.000
C05  39772705.148 6 207106911.926 6        15.680          36.000    39772704.695 6 160148187.492 6        12.215          40.000
C23  22594772.172 8 117656927.625 8     -1647.117          51.000
E07  26767827.898 8 140665837.114 8     -2720.699          48.000    26767832.586 8 107782936.773 8     -2084.677          50.000
E21  24634253.680 8 129453957.081 8      2031.770          50.000    24634256.289 8  99191941.853 8      1556.867          51.000
E27  23433103.508 8 123141808.249 8      -692.992          51.000    23433105.266 8  94355396.381 8      -530.991          51.000
E30                                                                  25752705.445 6 103695472.980 6     -2078.801          39.000
> 2020 05 01 05 30  0.0000000  0 14        .000000000000
G05  22916930.969 6 120429266.959 6     -3352.102          38.000    22916927.867 6  93840985.781 6     -2612.027          38.000
G13  20156147.602 8 105921257.380 8       195.723          51.000    20156145.078 8  82536025.697 8       152.511          51.000
G28  20962739.188 8 110159953.103 8      -733.414          50.000    20962737.898 7  85838963.143 7      -571.491          46.000
R02  20330961.930 8 108489888.842 8     -3052.180          51.000    20330966.375 8  84381054.441 8     -2373.918          49.000
R03  19385165.312 6 103770332.643 6      1016.402          38.000    19385170.430 6  80710253.518 6       790.532          36.000
R12  20625450.758 6 110177402.136 6     -2909.125          37.000    20625426.203 4  85693519.302 4     -2262.662          28.000
R13  19380674.984 7 103491727.793 7       792.504          42.000    19380677.789 7  80493537.806 7       616.392          45.000
R14  22613857.078 8 120544583.147 8      3549.602          48.000    22613859.812 7  93756917.980 7      2760.804          42.000
C05  39772624.773 6 207106493.173 6        14.621          36.000    39772624.375 6 160147863.663 6        11.384          40.000
C23  22604294.867 8 117706514.689 8     -1656.508          51.000
E07  26783383.789 8 140747579.935 8     -2726.742          48.000    26783387.758 8 107845570.833 8     -2089.229          51.000
E21  24622690.891 8 129393195.104 8      2021.148          51.000    24622693.375 8  99145383.975 8      1548.663          51.000
E27  23437101.594 8 123162818.138 8      -705.512          51.000    23437103.617 8  94371494.853 8      -540.596          51.000
E30                                                                  25768211.609 6 103757911.497 6     -2082.097          39.000
> 2020 05 01 05 30 30.0000000  0 13        .000000000000
G05  22936089.484 5 120529949.984 5     -3360.539          32.000    22936088.023 5  93919440.101 5     -2618.602          32.000
G13  20155071.883 8 105915604.542 8       180.559          51.000    20155069.266 8  82531620.877 8       140.695          51.000
G28  20966978.125 8 110182229.196 8      -752.184          50.000    20966976.906 7  85856321.169 7      -586.117          46.000
R02  20348174.531 8 108581737.438 8     -3071.574          51.000    20348179.000 8  84452492.202 8     -2389.002          48.000
R03  19379539.000 6 103740210.054 6       991.133          39.000    19379542.703 6  80686824.844 6       770.881          36.000
R13  19376279.328 7 103468254.439 7       771.730          42.000    19376282.102 7  80475280.744 7       600.235          45.000
R14  22593907.492 7 120438242.210 7      3539.293          46.000    22593910.203 7  93674208.413 7      2752.783          43.000
C05  39772543.383 6 207106069.593 6        13.148          36.000    39772543.023 6 160147536.117 6        10.294          41.000
C23  22613863.727 8 117756341.643 8     -1665.801          51.000
E07  26798965.734 8 140829462.130 8     -2732.820          48.000    26798969.805 8 107908311.678 8     -2093.934          51.000
E21  24611182.117 8 129332713.616 8      2010.324          51.000    24611183.836 8  99099041.024 8      1540.387          51.000
E27  23441163.328 8 123184162.755 8      -718.082          51.000    23441165.594 8  94387849.813 8      -550.219          51.000
E30                                                                  25783734.016 6 103820415.291 6     -2085.191          39.000
> 2020 05 01 05 31  0.0000000  0 15        .000000000000
G05  22955289.883 5 120630865.163 5     -3370.406          31.000    22955292.305 4  93998075.395 4     -2626.291          29.000
G13  20154078.289 8 105910383.924 8       164.285          50.000    20154075.773 8  82527552.870 8       128.014          50.000
G24  23805311.633 5 125097756.127 5      3094.508          30.000
G28  20971319.672 8 110205043.884 8      -771.945          51.000    20971318.406 7  85874098.844 7      -601.516          46.000
R02  20365490.641 8 108674139.636 8     -3091.746          51.000    20365495.219 8  84524360.541 8     -2404.694          48.000
R03  19374048.180 6 103710816.918 6       965.387          38.000    19374051.250 6  80663963.509 6       750.853          37.000
R12  20658244.008 5 110352657.853 5     -2932.668          32.000    20658219.719 4  85829779.852 4     -2280.973          28.000
R13  19371995.156 6 103445377.362 6       750.195          41.000    19371997.797 7  80457487.454 7       583.482          45.000
R14  22574009.602 7 120332188.328 7      3527.969          42.000    22574015.102 7  93591722.042 7      2743.976          45.000
C05  39772464.352 6 207105657.784 6        11.402          36.000    39772463.977 6 160147217.667 6         8.790          41.000
C23  22623481.484 8 117806423.844 8     -1676.094          51.000
E07  26814577.023 8 140911499.730 8     -2739.590          48.000    26814581.328 8 107971171.601 8     -2099.112          51.000
E21  24599730.203 8 129272530.081 8      1998.773          51.000    24599731.227 8  99052926.373 8      1531.579          51.000
E27  23445291.859 8 123205857.920 8      -731.340          51.000    23445294.344 8  94404473.381 8      -560.419          51.000
E30                                                                  25799275.570 6 103882996.172 6     -2088.903          39.000
> 2020 05 01 05 31 30.0000000  0 15        .000000000000
G05  22974540.031 5 120732031.642 5     -3373.379          33.000    22974544.016 5  94076906.447 5     -2628.607          33.000
G13  20153171.180 8 105905618.428 8       154.523          49.000    20153169.008 8  82523839.483 8       120.408          49.000
G17  24419457.461 5 128325114.439 5      2785.793          33.000    24419465.789 5  99993617.287 5      2170.751          32.000
G28  20975767.688 8 110228417.994 8      -785.215          51.000    20975766.336 7  85892312.439 7      -611.856          47.000
R02  20382914.219 8 108767115.302 8     -3105.492          51.000    20382918.773 7  84596674.911 7     -2415.383          47.000
R03  19368698.750 7 103682177.426 7       945.367          42.000    19368701.320 6  80641688.325 6       735.286          37.000
R12  20674731.188 5 110440737.295 5     -2938.047          35.000
R13  19367826.570 6 103423118.571 6       735.035          41.000    19367829.414 7  80440175.067 7       571.694          44.000
R14  22554170.992 7 120226445.122 7      3522.832          44.000    22554178.883 7  93509477.339 7      2739.980          46.000
C05  39772391.703 6 207105279.594 6        15.434          36.000    39772391.352 6 160146925.238 6        11.756          40.000
C23  22633152.211 8 117856781.751 8     -1680.004          51.000
E07  26830222.008 8 140993713.844 8     -2740.332          48.000    26830226.000 8 108034166.800 8     -2099.672          50.000
E21  24588338.938 8 129212667.067 8      1993.207          51.000    24588340.055 8  99007057.333 8      1527.200          51.000
E27  23449491.070 8 123227924.563 8      -738.586          51.000    23449493.727 8  94421381.583 8      -565.923          51.000
E30                                                                  25814840.211 6 103945669.969 6     -2088.089          38.000
> 2020 05 01 05 32  0.0000000  0 14        .000000000000
G05  22993820.773 5 120833352.539 5     -3382.824          33.000    22993824.461 5  94155857.750 5     -2635.967          33.000
G13  20152332.859 8 105901214.269 8       138.676          50.000    20152331.031 8  82520407.657 8       108.059          49.000
G17  24403568.344 6 128241612.551 6      2780.418          36.000    24403570.625 5  99928551.101 5      2166.566          35.000
G28  20980303.984 8 110252255.561 8      -804.332          51.000    20980302.602 8  85910887.166 8      -626.752          48.000
R02  20400427.078 8 108860565.102 8     -3124.988          51.000    20400430.992 7  84669358.055 7     -2430.546          47.000
R03  19363472.695 7 103654197.811 7       919.461          43.000    19363473.945 6  80619926.418 6       715.136          38.000
R13  19363755.648 6 103401380.735 6       713.676          41.000    19363758.867 7  80423267.867 7       555.081          44.000
R14  22534374.719 7 120120918.210 7      3511.809          46.000    22534382.961 7  93427400.870 7      2731.410          45.000
C05  39772307.633 6 207104841.322 6        13.750          36.000    39772307.250 6 160146586.341 6        10.436          40.000
C23  22642857.727 8 117907320.336 8     -1689.715          51.000
E07  26845882.461 8 141076009.109 8     -2746.562          49.000    26845885.648 8 108097224.190 8     -2104.542          49.000
E21  24576990.172 8 129153030.579 8      1982.051          51.000    24576992.047 8  98961361.846 8      1518.696          51.000
E27  23453742.695 8 123250267.011 8      -751.383          51.000    23453745.273 8  94438501.113 8      -575.720          51.000
E30                                                                  25830409.758 6 104008363.084 6     -2091.570          37.000
> 2020 05 01 05 32 30.0000000  0 15        .000000000000
G05  23013140.102 5 120934874.656 5     -3387.137          34.000    23013143.758 5  94234965.863 5     -2639.327          34.000
G13  20151573.266 8 105897223.024 8       126.230          50.000    20151571.594 8  82517297.579 8        98.361          50.000
G17  24387700.719 5 128158225.212 5      2777.762          35.000    24387698.539 5  99863574.011 5      2164.493          32.000
G28  20984937.844 8 110276605.766 8      -819.938          51.000    20984936.367 8  85929861.362 8      -638.912          48.000
R02  20418038.234 8 108954538.857 8     -3141.000          51.000    20418041.203 7  84742448.725 7     -2443.000          47.000
R03  19358379.414 7 103626931.384 7       897.121          42.000    19358380.797 6  80598719.203 6       697.761          40.000
R12  20707861.867 5 110617660.537 5     -2957.711          35.000    20707833.883 5  86035908.263 5     -2300.445          33.000
R13  19359791.805 6 103380214.799 6       695.879          40.000    19359795.266 7  80406805.473 7       541.239          44.000
R14  22514629.906 8 120015660.513 8      3504.266          48.000    22514637.141 7  93345533.758 7      2725.540          46.000
C05  39772221.562 5 207104393.841 5        15.203          35.000    39772221.078 6 160146239.514 6        11.789          41.000
C23  22652607.180 8 117958088.134 8     -1695.961          50.000
E07  26861567.812 8 141158434.958 8     -2749.484          49.000    26861569.273 7 108160381.654 7     -2106.841          47.000
E21  24565693.531 8 129093671.580 8      1974.145          50.000    24565696.797 8  98915878.948 8      1512.668          51.000
E27  23458056.148 8 123272934.524 8      -760.840          51.000    23458058.570 8  94455869.719 8      -582.972          51.000
E30                                                                  25845993.664 6 104071113.011 6     -2092.420          37.000
> 2020 05 01 05 33  0.0000000  0 14        .000000000000
G05  23032499.375 6 121036604.422 6     -3395.715          37.000    23032504.367 6  94314235.840 6     -2646.009          37.000
G13  20150894.031 8 105893653.741 8       110.887          51.000    20150892.289 8  82514516.322 8        86.405          49.000
G28  20989670.578 8 110301476.107 8      -838.879          51.000    20989669.133 8  85949240.842 8      -653.672          48.000
R02  20435747.922 8 109049041.844 8     -3159.887          49.000    20435750.586 7  84815951.006 7     -2457.693          47.000
R03  19353420.938 7 103600388.966 7       871.535          44.000    19353422.367 6  80578075.080 6       677.861          40.000
R12  20724481.219 5 110706457.544 5     -2968.211          31.000
R13  19355936.688 6 103359628.887 6       675.508          40.000    19355940.180 7  80390794.192 7       525.395          43.000
R14  22494937.305 7 119910682.279 7      3493.543          46.000    22494943.516 7  93263883.996 7      2717.200          47.000
C05  39772135.102 5 207103943.697 5        13.723          35.000    39772134.609 6 160145891.436 6        10.554          41.000
C23  22662401.805 8 118009092.354 8     -1705.078          49.000
E07  26877279.594 8 141240999.214 8     -2755.594          50.000    26877278.992 7 108223645.161 7     -2111.480          46.000
E21  24554451.586 8 129034599.220 8      1963.145          51.000    24554455.797 8  98870615.679 8      1504.213          51.000
E27  23462432.945 8 123295934.652 8      -773.387          51.000    23462435.297 8  94473493.192 8      -592.583          51.000
E30                                                                  25861593.375 6 104133925.322 6     -2095.649          36.000
> 2020 05 01 05 33 30.0000000  0 14        .000000000000
G05  23051900.289 6 121138550.678 6     -3401.930          40.000    23051906.195 6  94393674.448 6     -2650.854          40.000
G13  20150297.602 8 105890519.400 8        97.039          50.000    20150295.672 8  82512073.974 8        75.612          49.000
G28  20994504.305 8 110326877.080 8      -855.727          51.000    20994502.812 8  85969033.796 8      -666.797          49.000
R02  20453557.305 7 109144083.958 7     -3177.055          44.000    20453561.219 7  84889872.644 7     -2471.043          46.000
R03  19348600.406 7 103574584.860 7       847.668          44.000    19348601.523 6  80558005.228 6       659.294          41.000
R12  20741182.266 5 110795683.980 5     -2977.109          34.000
R13  19352192.344 6 103339634.441 6       656.711          41.000    19352195.789 7  80375242.950 7       510.775          44.000
R14  22475298.500 7 119805997.344 7      3484.320          45.000    22475304.312 7  93182462.333 7      2710.027          47.000
C05  39772050.641 6 207103503.722 6        14.598          36.000    39772050.102 6 160145551.209 6        11.122          41.000
C23  22672243.859 8 118060343.550 8     -1712.688          49.000
E07  26893020.039 8 141323712.957 8     -2759.809          50.000    26893017.594 7 108287023.180 7     -2114.584          45.000
E21  24543267.523 8 128975825.977 8      1953.957          51.000    24543271.344 8  98825581.614 8      1497.149          51.000
E27  23466875.047 8 123319278.279 8      -784.008          51.000    23466877.375 8  94491379.867 8      -600.724          51.000
E30                                                                  25877210.883 5 104196808.120 5     -2097.481          35.000
> 2020 05 01 05 34  0.0000000  0 14        .000000000000
G05  23071335.703 6 121240678.652 6     -3407.281          41.000    23071341.711 6  94473254.647 6     -2655.024          41.000
G13  20149777.945 8 105887789.162 8        84.465          51.000    20149776.109 8  82509946.504 8        65.817          49.000
G28  20999432.570 8 110352775.527 8      -871.441          51.000    20999431.172 8  85989214.424 8      -679.045          48.000
R02  20471460.430 7 109239630.202 7     -3193.168          46.000    20471466.453 7  84964186.403 7     -2483.578          45.000
R03  19343912.078 7 103549488.583 7       824.980          45.000    19343913.336 6  80538485.904 6       641.651          41.000
R12  20757927.836 6 110885119.603 6     -2985.598          38.000    20757900.695 5  86243872.579 5     -2322.135          30.000
R13  19348552.602 6 103320198.290 6       638.598          40.000    19348556.000 7  80360125.940 7       496.687          43.000
R14  22455709.297 8 119701574.369 8      3476.527          48.000    22455713.859 7  93101244.478 7      2703.966          46.000
C05  39771962.070 6 207103042.370 6        15.832          36.000    39771961.523 6 160145194.444 6        12.300          41.000
C23  22682127.258 8 118111808.837 8     -1719.004          50.000
E07  26908782.422 8 141406543.503 8     -2762.801          50.000    26908778.570 7 108350490.667 7     -2116.978          44.000
E21  24532134.938 8 128917320.505 8      1945.887          51.000    24532137.656 8  98780752.749 8      1490.998          51.000
E27  23471376.219 8 123342932.446 8      -793.461          51.000    23471378.469 8  94509504.482 8      -607.971          51.000
E30  25892830.102 5 136067738.402 5     -2738.168          33.000    25892839.867 5 104259735.878 5     -2098.394          34.000
> 2020 05 01 05 34 30.0000000  0 13        .000000000000
G05  23090811.758 6 121343020.788 6     -3415.289          41.000    23090816.680 6  94553001.796 6     -2661.261          40.000
G13  20149342.109 8 105885499.060 8        68.715          51.000    20149340.281 8  82508162.001 8        53.544          48.000
G28  21004462.008 8 110379205.574 8      -889.988          50.000    21004460.688 7  86009809.246 7      -693.497          47.000
R02  20489467.039 8 109335713.686 8     -3211.973          51.000    20489472.766 7  85038917.923 7     -2498.204          45.000
R03  19339362.969 7 103525138.583 7       798.906          45.000    19339364.781 7  80519546.998 7       621.368          42.000
R13  19345024.125 6 103301356.078 6       617.867          40.000    19345027.320 7  80345470.872 7       480.563          43.000
R14  22436177.109 8 119597451.178 8      3465.574          50.000    22436180.047 7  93020259.825 7      2695.450          46.000
C05  39771876.125 6 207102594.676 6        14.598          36.000    39771875.609 6 160144848.260 6        11.134          41.000
C23  22692058.430 8 118163521.995 8     -1728.086          50.000
E07  26924573.234 8 141489525.361 8     -2768.836          49.000    26924568.562 7 108414074.075 7     -2121.519          44.000
E21  24521060.164 8 128859118.819 8      1934.801          51.000    24521061.805 8  98736156.670 8      1482.492          51.000
E27  23475943.008 8 123366931.495 8      -805.867          51.000    23475945.164 8  94527893.360 8      -617.495          51.000
E30  25908476.250 5 136149960.288 5     -2742.496          35.000    25908486.594 5 104322734.741 5     -2101.468          32.000
> 2020 05 01 05 35  0.0000000  0 13        .000000000000
G05  23110326.617 5 121445569.216 5     -3420.344          35.000    23110330.047 5  94632909.660 5     -2665.200          34.000
G13  20148989.305 8 105883644.997 8        56.398          51.000    20148987.484 8  82506717.257 8        43.947          49.000
G28  21009591.391 8 110406160.981 8      -905.430          48.000    21009590.227 8  86030813.461 8      -705.530          48.000
R02  20507573.672 8 109432327.272 8     -3227.246          51.000    20507578.570 7  85114061.756 7     -2510.080          46.000
R03  19334953.031 7 103501531.562 7       776.363          46.000    19334954.820 7  80501185.974 7       603.838          42.000
R13  19341605.672 6 103283101.320 6       600.410          40.000    19341608.992 7  80331272.720 7       466.986          43.000
R14  22416700.797 8 119493624.378 8      3457.848          50.000    22416702.797 8  92939505.679 8      2689.440          48.000
C05  39771791.875 6 207102155.867 6        16.594          36.000    39771791.320 6 160144508.953 6        12.711          41.000
C23  22702035.992 8 118215476.804 8     -1734.078          50.000
E07  26940391.398 8 141572652.732 8     -2771.469          49.000    26940387.594 7 108477769.029 7     -2123.596          44.000
E21  24510042.188 8 128801216.508 8      1926.941          51.000    24510043.117 8  98691789.982 8      1476.449          51.000
E27  23480574.352 8 123391269.376 8      -815.078          51.000    23480576.320 8  94546541.852 8      -624.445          51.000
E30  25924138.820 5 136232267.643 5     -2742.812          35.000    25924149.617 5 104385806.850 5     -2101.731          31.000
> 2020 05 01 05 35 30.0000000  0 12        .000000000000
G13  20148716.984 8 105882214.055 8        40.691          51.000    20148715.336 8  82505602.219 8        31.708          49.000
G28  21014817.797 8 110433626.662 8      -924.012          48.000    21014817.047 7  86052215.289 7      -720.006          47.000
R02  20525776.523 8 109529454.454 8     -3246.004          51.000    20525781.055 7  85189605.122 7     -2524.670          47.000
R03  19330679.062 7 103478655.807 7       750.426          45.000    19330681.047 7  80483393.694 7       583.664          42.000
R13  19338294.734 6 103265419.844 6       579.961          39.000    19338297.664 6  80317520.465 6       451.081          41.000
R14  22397277.516 8 119390081.700 8      3446.707          50.000    22397279.328 8  92858972.506 8      2680.772          48.000
C05                                                                  39771706.180 6 160144166.099 6        11.523          40.000
C23  22712056.766 8 118267658.509 8     -1743.094          50.000
E07  26956234.375 8 141655911.199 8     -2777.418          49.000    26956233.000 7 108541564.425 7     -2128.059          46.000
E21  24499078.617 8 128743600.531 8      1915.879          51.000    24499079.164 8  98647642.692 8      1467.960          51.000
E27  23485267.344 8 123415931.373 8      -827.367          51.000    23485269.500 8  94565438.711 8      -633.987          51.000
E30  25939815.125 5 136314647.550 5     -2747.227          34.000    25939825.891 5 104448928.778 5     -2104.668          32.000
> 2020 05 01 05 36  0.0000000  0 14        .000000000000
G05  23149504.180 5 121651473.724 5     -3436.328          33.000    23149488.867 5  94793285.659 5     -2677.661          32.000
G13  20148558.000 8 105881378.327 8        23.656          51.000    20148556.320 8  82504950.990 8        18.433          49.000
G17  24277369.664 6 127578466.986 6      2742.516          37.000    24277367.672 6  99411754.245 6      2137.022          36.000
G28  21020173.602 7 110461772.232 7      -943.945          47.000    21020172.812 7  86074146.888 7      -735.542          46.000
R02  20544107.094 8 109627265.718 8     -3266.031          51.000    20544110.820 8  85265680.614 8     -2540.247          48.000
R03  19326575.266 7 103456687.493 7       722.930          45.000    19326576.984 7  80466307.217 7       562.282          43.000
R13  19335123.281 6 103248484.959 6       557.418          39.000    19335126.039 6  80304348.900 6       433.547          41.000
R14  22377939.391 8 119286997.998 8      3434.371          49.000    22377941.719 8  92778796.287 8      2671.178          49.000
C05  39771653.180 6 207101433.812 6        12.695          36.000    39771652.719 6 160143950.622 6         9.469          40.000
C23  22722153.328 8 118320235.213 8     -1753.418          50.000
E07  26972134.820 8 141739470.823 8     -2784.547          50.000    26972135.820 7 108605590.585 7     -2133.623          47.000
E21  24488202.117 8 128686442.374 8      1903.398          51.000    24488202.633 8  98603846.177 8      1458.493          51.000
E27  23490054.352 8 123441087.379 8      -840.926          51.000    23490056.891 8  94584714.089 8      -644.388          51.000
E30  25955537.344 5 136397268.542 5     -2752.363          33.000    25955547.555 5 104512234.454 5     -2108.496          31.000
> 2020 05 01 05 36 30.0000000  0 15        .000000000000
G05  23169079.688 6 121754353.514 6     -3440.102          39.000    23169068.406 5  94873451.685 5     -2680.599          34.000
G13  20148403.586 8 105880566.460 8        12.258          51.000    20148401.883 8  82504318.353 8         9.552          49.000
G17  24261668.289 6 127495951.798 6      2739.988          36.000    24261664.875 6  99347456.672 6      2135.053          36.000
G28  21025549.617 7 110490024.657 7      -957.910          46.000    21025548.898 7  86096161.757 7      -746.420          45.000
R02  20562456.422 8 109725177.671 8     -3279.934          51.000    20562459.641 8  85341834.366 8     -2551.059          49.000
R03  19322532.734 7 103435045.781 7       701.172          47.000    19322534.555 7  80449474.744 7       545.356          44.000
R12  20842425.523 5 111336454.898 5     -3031.027          33.000
R13  19331982.156 6 103231713.913 6       541.707          38.000    19331985.523 7  80291304.735 7       421.328          42.000
R14  22358577.938 8 119183794.709 8      3427.371          49.000    22358580.938 8  92698527.056 8      2665.733          48.000
C05  39771522.531 6 207100753.301 6        14.930          36.000    39771521.984 6 160143424.401 6        11.551          41.000
C23  22732217.016 8 118372638.875 8     -1758.141          51.000
E07  26987983.734 8 141822758.812 8     -2786.219          50.000    26987986.047 7 108669408.611 7     -2134.904          46.000
E21  24477303.602 8 128629170.617 8      1896.434          51.000    24477304.617 8  98559962.612 8      1453.082          51.000
E27  23494826.469 8 123466164.321 8      -849.098          51.000    23494828.805 8  94603928.886 8      -650.604          51.000
E30  25971196.070 5 136479556.403 5     -2751.719          32.000    25971205.406 5 104575281.613 5     -2108.232          31.000
> 2020 05 01 05 37  0.0000000  0 15        .000000000000
G05  23188738.828 6 121857663.550 6     -3448.594          40.000    23188733.422 6  94953952.973 6     -2687.216          39.000
G13  20148377.453 8 105880429.159 8        -4.434          51.000    20148376.039 8  82504211.353 8        -3.458          49.000
G17  24246040.602 5 127413832.624 5      2733.543          33.000    24246029.461 5  99283467.851 5      2130.043          32.000
G28  21031069.430 7 110519032.330 7      -977.164          46.000    21031068.773 7  86118765.104 7      -761.427          44.000
R02  20580947.172 8 109823848.156 8     -3299.270          51.000    20580950.523 8  85418578.042 8     -2566.102          48.000
R03  19318674.852 7 103414394.379 7       674.129          46.000    19318676.711 7  80433412.542 7       524.322          44.000
R12  20859473.414 5 111427547.439 5     -3042.527          35.000    20859446.086 4  86665763.558 4     -2366.416          26.000
R13  19328995.445 6 103215766.928 6       520.449          38.000    19328999.172 6  80278901.541 6       404.794          41.000
R14  22339317.625 8 119081132.376 8      3415.336          49.000    22339320.844 7  92618678.567 7      2656.372          45.000
C05  39771438.391 6 207100314.929 6        12.719          36.000    39771437.781 6 160143085.421 6         9.962          40.000
C23  22742370.969 8 118425512.283 8     -1767.922          51.000
E07  27003904.484 8 141906424.267 8     -2792.781          50.000    27003906.938 7 108733515.869 7     -2139.947          46.000
E21  24466506.523 8 128572435.732 8      1884.590          51.000    24466508.617 8  98516490.411 8      1443.959          51.000
E27  23499706.945 8 123491811.047 8      -862.074          51.000    23499708.867 8  94623580.274 8      -660.547          51.000
E30                                                                  25986923.156 5 104638571.199 5     -2111.836          30.000
> 2020 05 01 05 37 30.0000000  0 14        .000000000000
G05  23208435.539 6 121961169.774 6     -3455.840          39.000    23208434.039 6  95034607.118 6     -2692.862          39.000
G13  20148435.789 8 105880736.356 8       -20.070          51.000    20148434.672 8  82504450.711 8       -15.639          49.000
G28  21036688.820 7 110548562.763 7      -995.602          45.000    21036687.797 7  86141775.811 7      -775.796          44.000
R02  20599534.727 8 109923039.136 8     -3317.297          50.000    20599538.453 7  85495726.505 7     -2580.123          46.000
R03  19314958.281 7 103394500.466 7       648.195          47.000    19314960.156 7  80417939.497 7       504.152          45.000
R12  20876574.789 5 111518915.341 5     -3053.113          32.000    20876547.297 4  86736824.875 4     -2374.650          24.000
R13  19326119.188 6 103200408.078 6       499.754          38.000    19326122.578 6  80266955.773 6       388.697          41.000
R14  22320115.102 7 118978778.451 7      3404.246          47.000    22320117.836 7  92539069.960 7      2647.747          43.000
C05  39771356.750 6 207099889.805 6        11.824          36.000    39771356.094 6 160142756.698 6         8.950          40.000
C23  22752570.680 8 118478625.231 8     -1776.695          50.000
E07  27019853.078 8 141990235.368 8     -2798.492          50.000    27019855.086 7 108797734.693 7     -2144.239          46.000
E21  24455767.859 8 128516007.261 8      1873.406          51.000    24455770.664 8  98473252.987 8      1435.440          51.000
E27  23504651.703 8 123517795.494 8      -874.148          51.000    23504653.625 8  94643490.432 8      -669.802          51.000
E30                                                                  26002656.898 5 104701924.321 5     -2115.015          30.000
> 2020 05 01 05 38  0.0000000  0 14        .000000000000
G05  23228199.898 6 122065029.520 6     -3463.801          36.000    23228198.312 6  95115536.794 6     -2699.066          36.000
G13  20148609.320 8 105881648.415 8       -36.484          51.000    20148608.188 8  82505161.396 8       -28.429          49.000
G15  20800188.086 5 109305725.980 5      1632.422          33.000
G17  24214911.562 5 127250217.754 5      2719.234          35.000    24214926.555 5  99156060.393 5      2118.881          35.000
G28  21042437.930 7 110578774.244 7     -1014.273          47.000    21042436.758 7  86165317.205 7      -790.346          44.000
R02  20618249.344 8 110022910.597 8     -3336.184          48.000    20618253.453 7  85573404.251 7     -2594.809          44.000
R03  19311414.289 7 103375528.160 7       621.203          47.000    19311416.352 7  80403183.249 7       483.155          45.000
R13  19323383.367 6 103185798.713 6       478.484          38.000    19323386.555 7  80255592.947 7       372.155          42.000
R14  22301001.172 7 118876896.288 7      3392.293          47.000    22301003.266 7  92459828.312 7      2638.453          43.000
C05  39771308.047 6 207099636.823 6         9.637          36.000    39771307.414 6 160142560.675 6         7.521          40.000
C23  22762846.492 8 118532134.696 8     -1786.215          50.000
E07  27035859.547 8 142074350.896 8     -2804.898          49.000    27035860.805 7 108862186.773 7     -2149.265          46.000
E21  24445118.781 8 128460045.375 8      1861.652          51.000    24445121.430 8  98430373.112 8      1426.413          51.000
E27  23509690.953 8 123544276.241 8      -886.926          51.000    23509693.109 8  94663780.871 8      -679.607          51.000
> 2020 05 01 05 38 30.0000000  0 14        .000000000000
G05  23247951.305 5 122168816.912 5     -3454.367          35.000    23247949.125 5  95196410.145 5     -2691.712          34.000
G13  20148817.797 8 105882743.453 8       -35.496          51.000    20148816.367 8  82506014.659 8       -27.659          49.000
G17  24199365.102 6 127168508.960 6      2729.148          38.000    24199377.062 6  99092391.145 6      2126.606          37.000
G28  21048236.094 7 110609242.681 7     -1015.996          45.000    21048234.648 7  86189058.832 7      -791.685          44.000
R02  20637011.203 8 110123030.087 8     -3337.133          50.000    20637015.016 7  85651274.964 7     -2595.548          45.000
R03  19307962.328 8 103357048.469 8       611.984          48.000    19307963.938 7  80388810.135 7       475.988          45.000
R12  20910955.383 5 111702495.594 5     -3055.945          34.000    20910943.023 4  86879728.633 4     -2376.846          29.000
R13  19320707.438 6 103171508.436 6       475.691          38.000    19320710.398 7  80244478.295 7       369.982          42.000
R14  22281896.172 8 118775058.394 8      3398.148          48.000    22281897.734 7  92380621.146 7      2643.007          44.000
C05  39771211.922 6 207099136.410 6        24.973          36.000    39771211.227 6 160142173.360 6        19.196          41.000
C23  22773117.773 8 118585620.388 8     -1778.277          50.000
E07  27051842.930 7 142158347.119 7     -2793.648          47.000    27051844.547 7 108926547.432 7     -2140.564          46.000
E21  24434478.312 8 128404127.697 8      1867.434          51.000    24434480.383 8  98387527.125 8      1430.849          50.000
E27  23514743.930 8 123570829.289 8      -882.047          51.000    23514745.961 8  94684126.711 8      -675.884          51.000
> 2020 05 01 05 39  0.0000000  0 15        .000000000000
G05  23267693.062 5 122272555.464 5     -3460.938          35.000    23267690.898 5  95277245.416 5     -2696.831          35.000
G13  20149066.289 8 105884048.645 8       -50.633          51.000    20149064.477 8  82507031.697 8       -39.454          49.000
G17  24183806.734 6 127086740.588 6      2722.914          37.000    24183804.711 6  99028675.326 6      2121.754          37.000
G28  21054087.680 8 110639992.659 8     -1033.355          48.000    21054086.180 7  86213019.878 7      -805.212          43.000
G30  22684166.961 6 119206056.974 6     -2617.910          37.000    22684177.266 5  92887900.219 5     -2039.930          35.000
R02  20655825.680 8 110223421.962 8     -3354.676          51.000    20655828.500 7  85729357.537 7     -2609.192          46.000
R03  19304607.828 8 103339090.209 8       586.125          49.000    19304608.930 7  80374842.612 7       455.875          45.000
R12  20928144.055 6 111794385.444 6     -3065.309          36.000    20928142.398 4  86951185.944 4     -2384.132          28.000
R13  19318095.938 6 103157563.044 6       455.383          37.000    19318098.984 7  80233631.885 7       354.187          42.000
R14  22262805.008 7 118673293.201 7      3387.262          47.000    22262807.445 7  92301470.465 7      2634.540          45.000
C05  39771073.211 6 207098414.172 6        23.906          36.000    39771072.484 6 160141614.848 6        18.637          41.000
C23  22783389.391 8 118639107.122 8     -1786.629          50.000
E07  27067808.086 7 142242249.490 7     -2798.863          46.000    27067811.523 7 108990836.228 7     -2144.733          47.000
E21  24423851.188 8 128348281.076 8      1856.645          51.000    24423852.602 8  98344735.593 8      1422.594          50.000
E27  23519815.500 8 123597479.857 8      -893.746          51.000    23519817.094 8  94704547.276 8      -684.783          51.000
> 2020 05 01 05 39 30.0000000  0 14        .000000000000
G05  23287554.359 5 122376931.468 5     -3488.328          33.000    23287552.828 5  95358577.359 5     -2718.178          33.000
G13  20149486.031 8 105886253.827 8       -87.109          51.000    20149484.023 8  82508750.018 8       -67.877          50.000
G17  24168367.523 6 127005604.767 6      2695.258          37.000    24168362.367 6  98965452.639 6      2100.204          37.000
G28  21060123.836 7 110671711.935 7     -1071.965          47.000    21060122.258 7  86237736.179 7      -835.297          42.000
G30  22699222.469 5 119285131.414 5     -2644.688          31.000    22699223.000 5  92949516.704 5     -2060.792          33.000
R02  20674821.586 8 110324783.141 8     -3393.359          51.000    20674824.148 7  85808193.973 7     -2639.280          47.000
R03  19301482.141 8 103322357.239 8       538.770          49.000    19301483.094 7  80361828.069 7       419.043          46.000
R13  19315679.953 6 103144662.158 6       414.137          37.000    19315682.930 6  80223597.845 6       322.106          41.000
R14  22243859.148 7 118572301.133 7      3354.945          46.000    22243863.234 7  92222921.065 7      2609.402          45.000
C05  39771023.172 6 207098153.570 6         2.559          36.000    39771022.414 6 160141413.346 6         1.909          40.000
C23  22793792.258 8 118693276.567 8     -1815.676          51.000
E07  27083886.320 7 142326746.273 7     -2824.973          44.000    27083892.195 8 109055580.536 8     -2164.691          49.000
E21  24413368.766 8 128293195.159 8      1824.914          51.000    24413369.695 8  98302526.911 8      1398.338          50.000
E27  23525036.516 8 123624916.020 8      -926.223          51.000    23525038.078 8  94725569.787 8      -709.703          51.000
> 2020 05 01 05 40  0.0000000  0 13        .000000000000
G05  23307425.664 6 122481355.954 6     -3479.219          36.000    23307427.109 6  95439947.100 6     -2711.080          36.000
G13  20149965.609 8 105888773.445 8       -86.898          51.000    20149963.500 8  82510713.358 8       -67.713          50.000
G17  24152936.969 6 126924519.044 6      2704.375          37.000    24152929.438 6  98902268.956 6      2107.305          38.000
G28  21066232.594 8 110703813.490 8     -1074.113          48.000    21066230.859 7  86262750.381 7      -836.971          43.000
R02  20693886.328 8 110426515.914 8     -3394.863          50.000    20693889.047 7  85887319.423 7     -2640.452          47.000
R03  19298474.367 8 103306254.047 8       528.754          50.000    19298474.875 7  80349303.361 7       411.253          46.000
R13  19313348.109 6 103132209.194 6       410.008          37.000    19313350.695 7  80213912.200 7       318.898          42.000
R14  22224947.250 7 118471489.023 7      3359.727          47.000    22224952.703 7  92144511.668 7      2613.121          46.000
C05  39770950.273 6 207097773.948 6        16.781          36.000    39770949.523 6 160141119.779 6        13.136          40.000
C23  22804214.375 8 118747546.717 8     -1808.207          50.000
E07  27099967.148 7 142411250.602 7     -2814.504          45.000    27099974.406 8 109120330.622 8     -2156.631          51.000
E21  24402919.641 8 128238284.387 8      1829.828          51.000    24402920.164 8  98260452.438 8      1402.028          51.000
E27  23530295.141 8 123652550.586 8      -922.078          51.000    23530297.023 8  94746744.321 8      -706.542          51.000
> 2020 05 01 05 40 30.0000000  0 13        .000000000000
G05  23327311.086 6 122585855.490 6     -3486.109          37.000    23327316.336 5  95521375.278 5     -2716.452          34.000
G13  20150510.805 8 105891638.011 8      -102.969          51.000    20150508.680 8  82512945.490 8       -80.232          50.000
G17  24137521.734 6 126843515.181 6      2696.859          36.000    24137513.938 6  98839149.063 6      2101.449          36.000
G28  21072419.406 8 110736324.896 8     -1092.309          48.000    21072417.484 6  86288083.916 6      -851.150          41.000
R02  20713024.312 7 110528646.745 7     -3412.629          45.000    20713028.078 7  85966754.495 7     -2654.267          45.000
R03  19295589.812 8 103290812.249 8       501.957          50.000    19295590.227 7  80337293.069 7       390.411          46.000
R13  19311105.516 6 103120232.967 6       389.629          38.000    19311108.062 6  80204597.363 6       303.045          41.000
R14  22206075.086 7 118370888.330 7      3348.090          47.000    22206080.648 7  92066266.698 7      2604.073          45.000
C05  39770860.055 6 207097304.308 6        15.570          36.000    39770859.344 6 160140756.655 6        11.946          40.000
C23  22814661.000 8 118801945.426 8     -1817.188          50.000
E07  27116056.117 7 142495790.995 7     -2820.391          47.000    27116063.195 8 109185108.322 8     -2161.135          51.000
E21  24392509.453 8 128183578.652 8      1818.355          51.000    24392510.352 8  98218535.056 8      1393.255          51.000
E27  23535596.734 8 123680411.804 8      -934.281          51.000    23535598.812 8  94768092.517 8      -715.851          51.000
> 2020 05 01 05 41  0.0000000  0 13        .000000000000
G05  23347226.414 6 122690512.739 6     -3491.203          39.000    23347229.461 5  95603012.705 5     -2720.415          33.000
G13  20151137.961 8 105894933.519 8      -117.016          51.000    20151135.805 8  82515513.430 8       -91.181          50.000
G17  24122138.344 6 126762681.782 6      2691.250          36.000    24122132.922 6  98776162.039 6      2097.081          37.000
G28  21078700.031 8 110769329.554 8     -1108.258          48.000    21078698.109 6  86313801.844 6      -863.578          41.000
R02  20732251.625 7 110631259.716 7     -3428.453          47.000    20732256.461 7  86046564.592 7     -2666.575          43.000
R03  19292845.617 8 103276120.487 8       477.145          51.000    19292845.516 7  80325866.146 7       371.115          47.000
R13  19308968.133 6 103108819.363 6       371.500          38.000    19308970.508 7  80195720.099 7       288.944          42.000
R14  22187259.062 7 118270586.887 7      3338.371          46.000    22187263.375 7  91988254.494 7      2596.511          43.000
C05  39770768.914 6 207096829.392 6        15.867          36.000    39770768.094 6 160140389.398 6        12.263          40.000
C23  22825148.266 8 118856555.955 8     -1823.824          50.000
E07  27132168.062 7 142580451.900 7     -2824.078          47.000    27132174.641 8 109249978.321 8     -2163.874          51.000
E21  24382154.438 8 128129163.704 8      1809.020          51.000    24382156.367 8  98176840.488 8      1386.057          51.000
E27  23540957.461 8 123708583.844 8      -944.297          51.000    23540959.539 8  94789678.875 8      -723.555          51.000
> 2020 05 01 05 41 30.0000000  0 13        .000000000000
G05  23367174.477 6 122795342.388 6     -3496.734          40.000    23367170.734 6  95684698.100 6     -2724.728          39.000
G13  20151850.508 8 105898678.178 8      -131.742          50.000    20151848.445 8  82518431.346 8      -102.656          49.000
G17  24106791.930 6 126682039.488 6      2685.129          38.000    24106789.625 6  98713323.948 6      2092.311          39.000
G28  21085077.695 8 110802843.992 8     -1125.191          49.000    21085075.680 6  86339916.964 6      -876.773          41.000
R02  20751575.188 8 110734370.324 8     -3444.852          50.000    20751578.273 7  86126761.675 7     -2679.329          43.000
R03  19290244.961 8 103262198.516 8       451.719          50.000    19290244.734 7  80315037.958 7       351.337          47.000
R13  19306939.539 6 103097985.328 6       352.012          38.000    19306941.906 7  80187293.629 7       273.787          42.000
R14  22168503.289 8 118170604.224 8      3328.000          48.000    22168504.664 6  91910490.275 6      2588.447          41.000
C05  39770680.062 6 207096366.835 6        16.043          36.000    39770679.312 6 160140031.728 6        12.297          40.000
C23  22835679.508 8 118911394.726 8     -1831.230          51.000
E07  27148305.484 8 142665250.208 8     -2828.395          48.000    27148311.734 8 109314953.605 8     -2167.229          51.000
E21  24371858.453 8 128075057.800 8      1798.863          51.000    24371861.070 8  98135382.705 8      1378.326          51.000
E27  23546380.586 8 123737083.405 8      -954.941          51.000    23546382.711 8  94811516.185 8      -731.717          51.000
> 2020 05 01 05 42  0.0000000  0 14        .000000000000
G05  23387137.672 7 122900253.167 7     -3496.977          42.000    23387130.688 6  95766446.719 6     -2724.917          41.000
G13  20152631.930 8 105902784.483 8      -141.648          50.000    20152629.953 8  82521631.082 8      -110.375          50.000
G17  24091466.336 6 126601502.983 6      2684.055          41.000    24091466.016 7  98650568.257 7      2091.471          42.000
G28  21091535.281 8 110836778.386 8     -1136.586          48.000    21091533.578 6  86366359.349 6      -885.651          41.000
R02  20770974.781 8 110837885.670 8     -3455.836          49.000    20770977.445 7  86207273.555 7     -2687.872          46.000
R03  19287771.367 8 103248957.619 8       431.422          51.000    19287771.234 7  80304739.468 7       335.550          47.000
R12  21032589.195 5 112352221.295 5     -3117.348          34.000
R13  19305002.273 6 103087640.257 6       337.844          37.000    19305004.156 6  80179247.462 6       262.767          40.000
R14  22149791.320 8 118070851.930 8      3322.715          48.000    22149790.656 7  91832905.198 7      2584.334          42.000
C05  39770576.773 6 207095828.916 6        20.105          36.000    39770576.008 6 160139615.743 6        16.097          40.000
C23  22846237.570 8 118966372.700 8     -1833.418          50.000
E07  27164451.656 8 142750096.395 8     -2827.555          48.000    27164457.750 8 109379965.569 8     -2166.544          51.000
E21  24361604.953 8 128021172.825 8      1793.969          51.000    24361607.562 8  98094094.198 8      1374.561          51.000
E27  23551848.922 8 123765820.738 8      -960.465          51.000    23551851.281 8  94833535.681 8      -735.920          51.000
> 2020 05 01 05 42 30.0000000  0 15        .000000000000
G05  23407133.891 7 123005335.186 7     -3508.328          42.000    23407126.023 7  95848328.774 7     -2733.762          42.000
G13  20153499.914 8 105907346.354 8      -162.637          50.000    20153498.273 8  82525185.795 8      -126.730          50.000
G17  24076179.438 6 126521168.450 6      2671.309          41.000    24076179.656 6  98587969.900 6      2081.539          41.000
G24  23405506.750 5 122996770.107 5      2987.828          33.000
G28  21098090.133 8 110871224.178 8     -1159.676          49.000    21098088.711 6  86393200.224 6      -903.643          39.000
R02  20790466.672 7 110941897.518 7     -3478.277          46.000    20790470.352 8  86288171.607 8     -2705.327          48.000
R03  19285443.211 8 103236494.346 8       399.488          51.000    19285443.062 7  80295045.814 7       310.713          47.000
R12  21050133.273 6 112445951.700 6     -3131.441          37.000
R13  19303173.844 6 103077877.272 6       312.574          37.000    19303175.211 6  80171654.049 6       243.116          40.000
R14  22131139.930 7 117971425.837 7      3305.738          45.000    22131140.047 7  91755573.825 7      2571.130          45.000
C05  39770476.625 6 207095307.974 6        14.035          36.000    39770475.969 6 160139212.933 6        10.802          40.000
C23  22856839.875 8 119021580.976 8     -1846.969          50.000
E07  27180624.180 8 142835082.776 8     -2838.164          48.000    27180630.164 8 109445084.954 8     -2174.703          50.000
E21  24351411.352 8 127967602.380 8      1777.426          51.000    24351413.375 8  98053046.707 8      1361.927          51.000
E27  23557380.023 8 123794887.877 8      -977.391          51.000    23557382.656 8  94855807.907 8      -748.907          51.000
> 2020 05 01 05 43  0.0000000  0 14        .000000000000
G05  23427170.086 7 123110625.226 7     -3513.109          42.000    23427162.039 7  95930372.922 7     -2737.491          42.000
G13  20154462.148 8 105912403.574 8      -176.828          50.000    20154460.812 8  82529126.502 8      -137.788          50.000
G17  24060938.906 6 126441078.404 6      2665.508          40.000    24060939.008 6  98525562.113 6      2077.022          41.000
G28  21104749.523 8 110906219.356 8     -1175.566          48.000    21104747.719 6  86420469.186 6      -916.026          39.000
R02  20810056.242 6 111046442.824 6     -3493.523          41.000    20810063.047 8  86369484.690 8     -2717.182          48.000
R03  19283267.961 8 103224850.633 8       374.531          51.000    19283267.984 7  80285989.598 7       291.302          47.000
R12  21067731.094 5 112539970.376 5     -3138.406          32.000
R13  19301461.898 6 103068735.893 6       294.336          38.000    19301463.500 6  80164544.081 6       228.928          41.000
R14  22112554.148 6 117872367.592 6      3295.797          40.000    22112558.742 7  91678528.491 7      2563.395          46.000
C05  39770387.344 6 207094843.058 6        14.703          36.000    39770386.703 6 160138853.423 6        11.363          40.000
C23  22867493.695 8 119077057.388 8     -1853.605          50.000
E07  27196830.578 7 142920247.903 7     -2841.727          47.000    27196836.375 8 109510341.297 8     -2177.334          50.000
E21  24341284.656 8 127914386.378 8      1768.031          51.000    24341286.250 8  98012270.829 8      1354.764          51.000
E27  23562981.391 8 123824323.132 8      -987.180          51.000    23562984.141 8  94878362.180 8      -756.437          51.000
> 2020 05 01 05 43 30.0000000  0 13        .000000000000
G05  23447252.422 7 123216155.652 7     -3518.832          43.000    23447244.852 7  96012604.379 7     -2741.947          42.000
G13  20155525.516 8 105917992.415 8      -192.289          50.000    20155524.539 8  82533481.432 8      -149.836          50.000
G17  24045751.719 6 126361270.825 6      2658.570          38.000    24045752.078 6  98463374.440 6      2071.613          39.000
G28  21111519.734 8 110941797.293 8     -1192.680          48.000    21111517.781 6  86448192.254 6      -929.361          38.000
R02  20829753.453 8 111151554.522 8     -3509.984          48.000    20829761.914 8  86451238.283 8     -2729.985          48.000
R03  19281252.633 8 103214063.252 8       348.281          51.000    19281252.953 8  80277599.405 8       270.885          48.000
R13  19299872.938 6 103060250.004 6       275.145          38.000    19299874.531 6  80157943.935 6       214.001          41.000
R14  22094045.594 7 117773713.868 7      3284.637          46.000    22094052.297 7  91601797.772 7      2554.717          44.000
C05  39770315.578 6 207094468.054 6        14.059          36.000    39770314.930 6 160138564.222 6        10.690          40.000
C23  22878205.203 8 119132835.450 8     -1861.316          50.000
E07  27213077.445 8 143005625.910 8     -2846.500          48.000    27213083.102 8 109575760.766 8     -2181.087          49.000
E21  24331231.227 8 127861560.273 8      1757.359          51.000    24331232.805 8  97971793.722 8      1346.551          50.000
E27  23568659.258 8 123854160.410 8      -998.254          51.000    23568662.188 8  94901224.488 8      -764.932          51.000
> 2020 05 01 05 44  0.0000000  0 13        .000000000000
G05  23467341.109 7 123321719.166 7     -3520.898          43.000    23467333.711 7  96094861.647 7     -2743.557          42.000
G13  20156651.305 8 105923908.532 8      -204.234          51.000    20156650.422 8  82538091.382 8      -159.144          51.000
G17  24030579.398 6 126281544.129 6      2654.895          36.000    24030580.570 6  98401249.792 6      2068.752          36.000
G28  21118361.727 8 110977751.809 8     -1206.230          48.000    21118360.477 6  86476208.770 6      -939.920          37.000
R02  20849519.531 8 111257021.772 8     -3523.031          51.000    20849526.867 7  86533268.363 7     -2740.138          46.000
R03  19279358.625 8 103203925.222 8       325.598          51.000    19279359.383 8  80269714.264 8       253.243          48.000
R13  19298367.430 6 103052210.906 6       258.969          38.000    19298369.375 6  80151691.299 6       201.420          41.000
R14  22075576.883 8 117675258.463 8      3277.062          48.000    22075581.938 7  91525221.387 7      2548.826          44.000
C05  39770222.398 6 207093983.209 6        16.543          36.000    39770221.648 6 160138188.503 6        12.895          40.000
C23  22888935.234 8 119188711.087 8     -1865.582          49.000
E07  27229325.820 8 143091011.250 8     -2847.777          48.000    27229331.328 8 109641185.856 8     -2182.099          49.000
E21  24321212.711 8 127808919.869 8      1750.070          50.000    24321215.156 8  97931458.885 8      1340.906          51.000
E27  23574374.375 8 123884193.835 8     -1005.844          51.000    23574377.352 8  94924237.123 8      -770.747          51.000
> 2020 05 01 05 44 30.0000000  0 13        .000000000000
G05  23487456.984 7 123427426.663 7     -3526.188          43.000    23487450.078 7  96177231.097 7     -2747.679          43.000
G13  20157861.344 8 105930267.082 8      -219.574          51.000    20157860.391 8  82543046.090 8      -171.097          51.000
G17  24015445.031 6 126202015.648 6      2646.750          37.000    24015447.062 6  98339279.583 6      2062.403          37.000
G28  21125296.820 7 111014195.460 7     -1223.211          47.000    21125295.516 6  86504606.454 6      -953.151          37.000
R02  20869373.727 8 111362958.284 8     -3539.254          51.000    20869378.961 7  86615663.395 7     -2752.753          44.000
R03  19277607.875 8 103194554.447 8       299.273          51.000    19277608.977 8  80262425.878 8       232.768          48.000
R13  19296967.188 6 103044734.080 6       239.570          38.000    19296969.625 6  80145875.990 6       186.332          41.000
R14  22057167.734 8 117577118.819 8      3265.727          48.000    22057170.633 7  91448890.607 7      2540.013          44.000
C05  39770129.406 6 207093498.687 6        15.875          36.000    39770128.578 6 160137813.860 6        12.064          40.000
C23  22899705.703 8 119244796.324 8     -1873.375          49.000
E07  27245597.266 8 143176517.248 8     -2852.512          48.000    27245602.672 8 109706703.401 8     -2185.691          50.000
E21  24311252.414 8 127756579.819 8      1739.348          51.000    24311255.867 8  97891354.173 8      1332.768          51.000
E27  23580148.641 8 123914536.585 8     -1016.867          51.000    23580151.102 8  94947486.756 8      -779.140          51.000
> 2020 05 01 05 45  0.0000000  0 13        .000000000000
G05  23507599.664 7 123533276.092 7     -3532.586          42.000    23507593.977 7  96259711.139 7     -2752.664          42.000
G13  20159155.727 8 105937068.925 8      -235.988          51.000    20159154.539 8  82548346.211 8      -183.887          51.000
G17  24000349.133 5 126122688.581 5      2638.914          35.000    24000352.203 5  98277466.300 5      2056.297          35.000
G28  21132324.742 8 111051127.205 8     -1241.176          48.000    21132322.477 5  86533384.461 5      -967.147          33.000
R02  20889314.984 8 111469360.499 8     -3556.395          51.000    20889318.133 7  86698420.643 7     -2766.085          45.000
R03  19276000.812 8 103185952.656 8       272.031          50.000    19276002.469 8  80255735.608 8       211.580          49.000
R13  19295672.156 6 103037818.429 6       219.387          37.000    19295674.711 6  80140497.151 6       170.634          41.000
R14  22038817.375 7 117479296.746 7      3253.469          46.000    22038819.094 7  91372806.778 7      2530.476          45.000
C05  39770036.805 6 207093016.069 6        14.219          36.000    39770035.820 6 160137440.647 6        10.835          40.000
C23  22910516.523 8 119301090.362 8     -1881.844          49.000
E07  27261891.102 7 143262143.443 7     -2858.078          47.000    27261896.727 8 109772313.071 8     -2190.004          49.000
E21  24301350.211 8 127704540.978 8      1727.660          51.000    24301354.125 8  97851480.264 8      1323.798          51.000
E27  23585981.594 8 123945187.941 8     -1028.734          51.000    23585983.695 8  94970972.855 8      -788.284          51.000
> 2020 05 01 05 45 30.0000000  0 13        .000000000000
G05  23527771.891 6 123639283.264 6     -3535.207          41.000    23527767.328 6  96342314.089 6     -2754.710          40.000
G13  20160538.172 8 105944333.500 8      -248.824          51.000    20160537.062 8  82554006.910 8      -193.889          51.000
G17  23985296.016 5 126043584.730 5      2633.773          35.000    23985299.508 6  98215826.994 6      2052.291          36.000
G28  21139448.758 7 111088563.991 7     -1255.547          46.000    21139446.258 6  86562555.986 6      -978.345          36.000
R02  20909346.477 8 111576245.378 8     -3569.926          51.000    20909348.477 7  86781553.270 7     -2776.609          45.000
R03  19274540.945 8 103178140.278 8       248.262          50.000    19274543.641 8  80249659.287 8       193.089          49.000
R13  19294485.297 6 103031481.923 6       202.719          38.000    19294488.289 6  80135568.767 6       157.670          41.000
R14  22020528.883 7 117381812.441 7      3244.754          46.000    22020531.094 7  91296985.636 7      2523.697          46.000
C05  39769948.055 6 207092553.713 6        16.109          36.000    39769947.078 6 160137083.101 6        12.581          40.000
C23  22921370.820 8 119357610.395 8     -1886.699          50.000
E07  27278210.516 7 143347907.515 7     -2860.074          46.000    27278217.062 8 109838028.392 8     -2191.494          50.000
E21  24291509.133 8 127652822.315 8      1719.605          51.000    24291512.969 8  97811851.686 8      1317.575          51.000
E27  23591876.398 8 123976165.295 8     -1037.051          51.000    23591878.461 8  94994708.747 8      -794.578          51.000
> 2020 05 01 05 46  0.0000000  0 14        .000000000000
G05  23547963.203 5 123745394.590 5     -3540.273          35.000    23547961.102 5  96424998.181 5     -2758.655          35.000
G13  20161999.203 8 105952010.997 8      -264.250          51.000    20161998.258 8  82559989.355 8      -205.909          50.000
G15  20661095.594 5 108574782.295 5      1404.664          31.000
G17  23970276.234 5 125964656.845 5      2625.891          33.000    23970279.789 5  98154324.754 5      2046.149          33.000
G28  21146658.812 7 111126453.648 7     -1271.875          44.000    21146656.820 6  86592080.451 6      -991.071          37.000
R02  20929457.547 8 111683558.159 8     -3585.594          51.000    20929458.820 7  86865018.709 7     -2788.798          44.000
R03  19273219.539 8 103171067.066 8       222.020          50.000    19273222.539 8  80244157.904 8       172.682          49.000
R13  19293397.258 6 103025671.939 6       183.508          36.000    19293400.734 6  80131049.891 6       142.728          41.000
R14  22002294.695 8 117284615.913 8      3233.598          48.000    22002297.477 7  91221388.350 7      2515.023          47.000
C05  39769853.719 6 207092063.699 6        15.477          36.000    39769852.594 6 160136702.632 6        12.064          40.000
C23  22932258.617 8 119414305.159 8     -1894.117          50.000
E07  27294546.547 7 143433758.037 7     -2864.500          46.000    27294554.062 8 109903809.962 8     -2194.960          51.000
E21  24281719.531 8 127601373.727 8      1708.965          51.000    24281722.711 8  97772430.039 8      1309.550          51.000
E27  23597823.492 8 124007416.991 8     -1047.711          51.000    23597825.289 8  95018654.848 8      -802.827          51.000
> 2020 05 01 05 46 30.0000000  0 13        .000000000000
G05  23568181.234 5 123851650.268 5     -3542.641          33.000    23568181.539 5  96507794.763 5     -2760.499          34.000
G13  20163547.078 8 105960145.002 8      -277.777          51.000    20163546.281 8  82566327.530 8      -216.450          51.000
G17  23955299.461 5 125885950.875 5      2620.691          34.000    23955301.875 5  98092995.437 5      2042.100          33.000
G28  21153962.977 7 111164837.679 7     -1286.852          44.000    21153960.648 6  86621990.077 6     -1002.741          38.000
R02  20949655.797 8 111791339.612 8     -3599.453          51.000    20949656.234 6  86948848.648 6     -2799.578          41.000
R03  19272044.375 8 103164778.195 8       197.602          50.000    19272047.742 8  80239266.560 8       153.690          49.000
R13  19292416.086 6 103020431.733 6       165.891          37.000    19292419.211 6  80126974.154 6       129.026          39.000
R14  21984123.617 8 117187752.298 8      3224.176          48.000    21984126.883 8  91146050.019 8      2507.692          48.000
C05  39769761.680 6 207091584.746 6        16.656          36.000    39769760.672 6 160136332.259 6        12.898          40.000
C23  22943187.758 8 119471216.146 8     -1899.668          49.000
E07  27310907.688 7 143519737.186 7     -2867.094          47.000    27310915.625 8 109969690.087 8     -2196.933          50.000
E21  24271989.672 8 127550238.703 8      1700.227          51.000    24271991.398 8  97733248.659 8      1302.738          51.000
E27  23603830.805 8 124038984.962 8     -1056.578          51.000    23603832.258 8  95042843.285 8      -809.529          51.000
> 2020 05 01 05 47  0.0000000  0 14        .000000000000
G05  23588418.430 5 123957975.259 5     -3540.812          30.000    23588423.461 5  96590674.350 5     -2759.069          30.000
G13  20165175.266 8 105968700.949 8      -285.242          51.000    20165174.516 8  82572994.468 8      -222.267          50.000
G17  23940358.703 5 125807434.397 5      2620.246          30.000    23940360.008 4  98031813.870 4      2041.750          28.000
G28  21161354.023 7 111203678.827 7     -1295.555          42.000    21161351.586 6  86652255.917 6     -1009.520          40.000
R02  20969933.289 8 111899550.937 8     -3607.184          48.000    20969933.305 6  87033012.885 6     -2805.590          41.000
R03  19271009.523 8 103159238.969 8       179.156          51.000    19271013.062 8  80234958.265 8       139.344          49.000
R12  21210027.406 6 113300061.278 6     -3186.980          38.000    21210011.562 4  88122279.384 4     -2478.763          25.000
R13  19291534.750 6 103015723.620 6       155.211          38.000    19291537.570 6  80123312.291 6       120.723          39.000
R14  21966008.414 7 117091186.822 7      3220.816          46.000    21966012.320 8  91070943.554 8      2505.082          49.000
C05  39769665.406 6 207091082.791 6        23.879          36.000    39769664.500 6 160135944.895 6        18.299          40.000
C23  22954151.312 8 119528307.109 8     -1899.109          48.000
E07  27327287.000 7 143605808.760 7     -2863.672          47.000    27327294.758 8 110035641.028 8     -2194.275          50.000
E21  24262312.641 8 127499382.251 8      1697.516          51.000    24262313.070 8  97694280.722 8      1300.682          51.000
E27  23609891.336 8 124070832.647 8     -1059.309          51.000    23609892.750 8  95067246.044 8      -811.675          51.000
> 2020 05 01 05 47 30.0000000  0 13        .000000000000
G13  20166886.945 8 105977695.442 8      -310.789          51.000    20166885.844 8  82580003.148 8      -242.173          49.000
G17  23925457.148 5 125729126.253 5      2603.098          32.000    23925458.523 5  97970794.608 5      2028.388          32.000
G28  21168834.859 7 111242991.306 7     -1321.910          43.000    21168832.836 6  86682889.005 6     -1030.060          38.000
R02  20990291.977 7 112008205.350 7     -3632.805          45.000    20990295.906 7  87117521.930 7     -2825.512          45.000
R03  19270118.141 8 103154466.773 8       142.539          51.000    19270121.312 8  80231246.549 8       110.864          48.000
R12  21227980.945 6 113395980.899 6     -3204.699          36.000
R13  19290755.820 6 103011562.479 6       125.984          37.000    19290757.984 6  80120075.864 6        97.988          38.000
R14  21947950.852 7 116994937.268 7      3199.180          44.000    21947956.484 8  90996082.740 8      2488.248          48.000
C05  39769568.047 6 207090575.742 6        13.754          36.000    39769567.102 6 160135552.782 6        10.487          40.000
C23  22965152.469 8 119585592.633 8     -1916.363          48.000
E07  27343686.945 7 143691987.757 7     -2878.027          47.000    27343694.430 8 110101674.275 8     -2205.290          49.000
E21  24252691.164 8 127448820.732 8      1676.824          51.000    24252691.406 8  97655538.787 8      1284.860          51.000
E27  23616007.875 8 124102974.856 8     -1079.961          51.000    23616009.430 8  95091874.482 8      -827.470          51.000
> 2020 05 01 05 48  0.0000000  0 13        .000000000000
G13  20168687.539 8 105987157.226 8      -327.125          51.000    20168685.961 8  82587375.960 8      -254.903          50.000
G17  23910600.602 4 125651053.707 4      2593.730          27.000    23910601.039 4  97909913.981 4      2021.089          28.000
G28  21176410.414 6 111282801.946 6     -1339.180          40.000    21176408.984 6  86713910.249 6     -1043.520          39.000
R02  21010740.898 8 112117328.621 8     -3649.266          49.000    21010746.820 7  87202395.632 7     -2838.318          47.000
R03  19269375.750 8 103150491.453 8       115.203          51.000    19269378.336 8  80228154.618 8        89.599          48.000
R12  21245968.156 5 113492121.289 5     -3212.672          35.000
R13  19290084.086 6 103007975.690 6       105.844          37.000    19290085.898 6  80117286.139 6        82.320          38.000
R14  21929958.461 7 116899033.271 7      3186.949          47.000    21929964.594 7  90921490.744 7      2478.738          47.000
C05  39769474.930 6 207090090.513 6        12.121          37.000    39769473.883 6 160135177.557 6         9.195          40.000
C23  22976196.391 8 119643099.391 8     -1924.543          50.000
E07  27360112.297 7 143778301.335 7     -2883.363          45.000    27360119.984 8 110167810.622 8     -2209.270          48.000
E21  24243130.430 8 127398582.616 8      1665.254          51.000    24243131.750 8  97617044.648 8      1275.932          51.000
E27  23622185.477 8 124135438.467 8     -1091.508          51.000    23622187.062 8  95116749.194 8      -836.317          51.000
> 2020 05 01 05 48 30.0000000  0 14        .000000000000
G05  23649277.219 5 124277792.646 5     -3559.820          32.000    23649286.125 5  96839855.001 5     -2773.880          30.000
G13  20170563.781 8 105997016.796 8      -337.637          51.000    20170562.000 8  82595058.737 8      -263.094          49.000
G28  21184066.969 6 111323039.201 6     -1350.980          40.000    21184066.086 6  86745263.958 6     -1052.715          39.000
G30  22973645.484 5 120727320.952 5     -2708.180          33.000
R02  21031265.438 8 112226846.236 8     -3659.535          51.000    21031271.117 8  87287576.004 8     -2846.305          49.000
R03  19268768.938 8 103147242.775 8        93.750          51.000    19268771.227 8  80225627.870 8        72.917          48.000
R12  21263992.211 5 113588368.270 5     -3214.809          31.000    21263990.750 4  88346549.380 4     -2500.407          25.000
R13  19289506.789 5 103004891.538 5        92.633          35.000    19289508.180 6  80114887.338 6        72.045          39.000
R14  21912019.422 8 116803405.371 8      3180.676          49.000    21912023.938 7  90847113.533 7      2473.859          46.000
C05  39769372.602 6 207089557.933 6        16.078          37.000    39769371.617 6 160134765.683 6        12.596          40.000
C23  22987269.156 8 119700756.858 8     -1926.734          49.000
E07  27376549.477 7 143864678.633 7     -2882.547          44.000    27376557.820 7 110233995.783 7     -2208.807          46.000
E21  24233617.211 8 127348598.374 8      1659.598          50.000    24233620.305 8  97578745.008 8      1271.619          51.000
E27  23628410.828 8 124168152.448 8     -1096.977          51.000    23628412.188 8  95141815.735 8      -840.532          51.000
> 2020 05 01 05 49  0.0000000  0 12        .000000000000
G05  23669618.180 5 124384682.118 5     -3564.363          31.000    23669622.648 5  96923146.864 5     -2777.423          31.000
G13  20172538.562 8 106007394.319 8      -352.477          51.000    20172536.648 8  82603145.118 8      -274.657          49.000
G28  21191827.375 6 111363820.662 6     -1366.352          40.000    21191826.883 6  86777041.676 6     -1064.690          39.000
R02  21051886.141 8 112336877.022 8     -3674.105          50.000    21051891.008 8  87373155.494 8     -2857.638          49.000
R03  19268320.562 8 103144843.694 8        67.879          50.000    19268323.102 8  80223761.912 8        52.795          48.000
R13  19289044.734 5 103002429.641 5        73.816          34.000    19289047.164 6  80112972.540 6        57.413          38.000
R14  21894155.188 8 116708175.914 8      3169.762          49.000    21894158.539 7  90773046.208 7      2465.370          47.000
C05  39769283.992 6 207089097.337 6        16.133          36.000    39769282.922 6 160134408.741 6        12.472          41.000
C23  22998393.109 7 119758682.320 7     -1933.266          47.000
E07  27393021.188 6 143951238.248 6     -2886.375          41.000    27393030.461 7 110300320.616 7     -2211.497          43.000
E21  24224175.797 8 127298987.814 8      1649.512          51.000    24224179.508 8  97540731.726 8      1263.888          51.000
E27  23634706.320 8 124201235.103 8     -1106.816          51.000    23634707.492 8  95167164.777 8      -848.065          51.000
> 2020 05 01 05 49 30.0000000  0 14        .000000000000
G05  23689967.883 5 124491620.255 5     -3565.484          33.000    23689969.750 5  97006475.122 5     -2778.306          33.000
G13  20174586.352 8 106018155.061 8      -365.141          51.000    20174584.453 8  82611530.100 8      -284.525          49.000
G17  23866287.859 5 125418180.234 5      2578.820          33.000    23866279.602 5  97728431.204 5      2009.483          33.000
G28  21199665.000 6 111405009.099 6     -1379.867          38.000    21199665.039 6  86809136.534 6     -1075.218          38.000
R02  21072576.258 8 112447280.151 8     -3686.316          50.000    21072580.445 8  87459024.581 8     -2867.135          48.000
R03  19268005.352 8 103143157.456 8        44.254          50.000    19268008.000 8  80222450.375 8        34.420          48.000
R13  19288674.258 5 103000451.208 5        57.777          34.000    19288676.266 6  80111433.742 6        44.938          37.000
R14  21876339.797 8 116613209.084 8      3161.137          48.000    21876343.180 7  90699183.136 7      2458.662          47.000
C05  39769183.297 6 207088572.738 6        18.504          36.000    39769182.250 6 160134003.060 6        14.366          40.000
C20  22632775.031 6 117854793.307 6       250.082          36.000
C23  23009542.281 7 119816740.489 7     -1937.598          47.000
E07  27409501.102 6 144037843.955 6     -2887.652          38.000    27409512.883 6 110366680.791 6     -2212.596          37.000
E21  24214780.695 8 127249615.945 8      1641.773          51.000    24214783.930 8  97502901.350 8      1257.949          51.000
E27  23641045.883 8 124234549.878 8     -1114.320          51.000    23641047.047 8  95192691.694 8      -853.842          51.000
> 2020 05 01 05 50  0.0000000  0 14        .000000000000
G05  23710336.414 5 124598655.843 5     -3565.770          35.000    23710338.555 5  97089879.413 5     -2778.522          35.000
G13  20176716.656 8 106029349.246 8      -376.523          51.000    20176714.562 8  82620252.845 8      -293.392          49.000
G28  21207589.625 6 111446652.658 6     -1391.879          37.000    21207589.242 6  86841586.063 6     -1084.578          37.000
R02  21093344.836 8 112558103.043 8     -3697.102          50.000    21093348.195 7  87545220.166 7     -2875.523          46.000
R03  19267833.453 8 103142235.692 8        21.879          50.000    19267835.539 7  80221733.443 7        17.017          47.000
R12  21318328.469 6 113878639.400 6     -3228.707          36.000
R13  19288402.992 5 102999005.527 5        43.688          34.000    19288405.164 6  80110309.354 6        33.979          37.000
R14  21858583.109 8 116518556.408 8      3153.703          49.000    21858586.758 7  90625564.376 7      2452.883          47.000
C05  39769079.930 6 207088034.471 6        21.797          36.000    39769078.859 6 160133586.818 6        16.900          40.000
C20  22631385.461 6 117847550.317 6       236.895          36.000
C23  23020726.141 7 119874979.445 7     -1940.492          45.000
E07  27425999.109 6 144124544.463 6     -2887.672          37.000
E21  24205440.945 8 127200532.841 8      1635.098          51.000    24205443.578 8  97465292.244 8      1252.852          51.000
E27  23647438.867 8 124268145.358 8     -1120.715          51.000    23647440.039 8  95218433.693 8      -858.748          51.000
> 2020 05 01 05 50 30.0000000  0 17        .000000000000
G05  23730725.695 5 124705804.736 5     -3574.199          32.000    23730727.750 5  97173370.327 5     -2785.096          32.000
G13  20178932.648 8 106040994.392 8      -396.887          51.000    20178930.016 8  82629326.981 8      -309.262          49.000
G15  20592356.867 5 108213567.661 5      1267.738          30.000    20592356.141 5  84322258.458 5       987.848          30.000
G17  23836941.531 5 125263972.006 5      2561.215          32.000    23836935.719 5  97608267.117 5      1995.752          31.000
G24  23136046.359 5 121580758.185 5      2908.328          35.000
G28  21215603.344 6 111488766.123 6     -1413.184          39.000    21215603.148 6  86874401.742 6     -1101.179          38.000
R02  21114194.883 8 112669359.981 8     -3716.938          51.000    21114197.070 7  87631753.300 7     -2890.954          45.000
R03  19267807.773 8 103142096.104 8        -9.543          51.000    19267809.266 7  80221624.853 7        -7.425          47.000
R12  21336502.031 6 113975699.687 6     -3240.199          37.000
R13  19288235.320 5 102998109.027 5        19.605          32.000    19288237.070 6  80109612.056 6        15.252          37.000
R14  21840889.203 8 116424236.195 8      3137.266          50.000    21840892.383 8  90552204.229 8      2440.095          48.000
C05  39768977.203 6 207087499.076 6        16.402          36.000    39768976.047 6 160133172.787 6        12.810          40.000
C20  22630092.430 5 117840815.176 5       214.305          35.000
C23  23031947.719 7 119933414.477 7     -1952.145          44.000
E07  27442517.969 6 144211355.514 6     -2896.816          39.000    27442541.203 4 110499739.333 4     -2219.609          29.000
E21  24196159.508 8 127151755.489 8      1619.594          51.000    24196161.953 8  97427917.394 8      1240.993          51.000
E27  23653888.117 8 124302036.978 8     -1135.855          51.000    23653889.430 8  95244402.601 8      -870.334          51.000
> 2020 05 01 05 51  0.0000000  0 14        .000000000000
G05  23751157.734 5 124813173.758 5     -3580.168          33.000    23751157.430 5  97257034.488 5     -2789.744          33.000
G13  20181256.117 8 106053204.256 8      -414.047          51.000    20181253.172 8  82638841.161 8      -322.634          50.000
G15  20585176.289 5 108175833.432 5      1249.785          32.000    20585175.156 5  84292855.203 5       973.862          32.000
G28  21223727.961 7 111531461.582 7     -1430.488          42.000    21223727.688 6  86907670.949 6     -1114.666          39.000
R02  21135147.758 8 112781162.937 8     -3733.398          51.000    21135148.555 7  87718711.092 7     -2903.757          45.000
R03  19267950.227 8 103142855.731 8       -37.844          51.000    19267950.922 7  80222215.654 7       -29.434          47.000
R13  19288191.430 5 102997875.652 5         -.973          32.000    19288193.297 6  80109430.556 6         -.757          37.000
R14  21823279.500 8 116330364.751 8      3124.008          50.000    21823282.109 7  90479193.132 7      2429.784          47.000
C05  39768896.500 6 207087079.169 6        14.504          37.000    39768895.516 6 160132848.083 6        11.134          40.000
C20  22628917.039 6 117834701.024 6       195.738          37.000
C23  23043228.414 7 119992156.969 7     -1960.824          43.000
E07  27459079.680 6 144298389.707 6     -2902.215          41.000    27459075.953 5 110566312.379 5     -2223.910          33.000
E21  24186957.828 8 127103397.849 8      1607.328          51.000    24186960.320 8  97390864.140 8      1231.622          51.000
E27  23660415.086 8 124336337.159 8     -1147.699          51.000    23660416.633 8  95270684.559 8      -879.415          51.000
> 2020 05 01 05 51 30.0000000  0 15        .000000000000
G05  23771586.633 4 124920529.807 4     -3589.016          29.000    23771585.648 4  97340669.072 4     -2796.636          27.000
G13  20183641.594 8 106065740.126 8      -433.836          51.000    20183638.719 8  82648609.369 8      -338.054          50.000
G15  20578061.398 5 108138438.307 5      1229.832          35.000    20578061.219 5  84263720.019 5       958.314          34.000
G17  23807790.492 5 125110781.994 5      2537.844          35.000    23807798.781 5  97488933.465 5      1977.553          35.000
G28  21231917.664 6 111574497.472 6     -1450.969          40.000    21231916.562 6  86941205.384 6     -1130.625          39.000
R02  21156156.516 8 112893265.356 8     -3752.473          51.000    21156156.547 7  87805901.815 7     -2918.590          45.000
R03  19268215.078 8 103144270.970 8       -68.855          50.000    19268215.023 7  80223316.387 7       -53.554          46.000
R13  19288226.070 5 102998060.201 5       -23.832          31.000    19288227.867 6  80109574.084 6       -18.539          36.000
R14  21805707.914 8 116236700.281 8      3107.781          50.000    21805710.641 7  90406342.972 7      2417.163          47.000
C05  39768792.492 6 207086537.289 6         9.715          36.000    39768791.484 6 160132429.056 6         7.213          40.000
C20  22627816.273 6 117828970.698 6       174.121          37.000
C23  23054522.461 7 120050968.180 7     -1971.996          43.000
E07  27475638.070 6 144385406.389 6     -2911.113          41.000    27475637.789 5 110632987.501 5     -2230.668          35.000
E21  24177790.258 8 127055220.477 8      1592.273          51.000    24177792.648 8  97353949.005 8      1220.003          51.000
E27  23666974.023 8 124370804.985 8     -1162.402          51.000    23666975.766 8  95297094.970 8      -890.639          51.000
> 2020 05 01 05 52  0.0000000  0 14        .000000000000
G13  20186128.359 8 106078808.367 8      -440.344          51.000    20186125.555 8  82658792.414 8      -343.125          51.000
G15  20571052.039 5 108101599.978 5      1223.215          34.000    20571051.383 5  84235014.869 5       953.148          32.000
G17  23793290.234 5 125034583.405 5      2539.109          30.000    23793297.930 4  97429574.281 4      1978.530          28.000
G28  21240210.922 7 111618077.953 7     -1457.539          42.000    21240209.992 6  86975164.249 6     -1135.748          40.000
R02  21177259.422 8 113005873.674 8     -3757.660          50.000    21177259.508 7  87893486.042 7     -2922.622          44.000
R03  19268641.367 8 103146552.756 8       -86.270          50.000    19268641.250 7  80225091.099 7       -67.099          47.000
R13  19288377.383 5 102998871.147 5       -32.844          31.000    19288379.969 6  80110204.798 6       -25.545          36.000
R14  21788214.898 8 116143452.862 8      3105.535          51.000    21788217.812 7  90333817.222 7      2415.416          47.000
C05  39768704.273 6 207086077.651 6        18.141          36.000    39768703.188 6 160132073.614 6        13.949          40.000
C20  22626827.883 6 117823829.028 6       165.766          38.000
C23  23065869.398 7 120110051.200 7     -1970.078          43.000
E07  27492232.148 6 144472610.690 6     -2905.715          41.000    27492234.773 6 110699806.442 6     -2226.589          36.000
E21  24168696.094 8 127007429.740 8      1590.691          51.000    24168698.211 8  97317330.118 8      1218.874          51.000
E27  23673603.938 8 124405645.293 8     -1163.363          51.000    23673605.773 8  95323790.792 8      -891.414          51.000
> 2020 05 01 05 52 30.0000000  0 14        .000000000000
G13  20188687.836 8 106092258.987 8      -456.086          51.000    20188685.305 8  82669273.411 8      -355.392          51.000
G15  20564119.055 6 108065164.559 6      1206.273          36.000    20564118.352 5  84206623.619 5       939.950          35.000
G17  23778823.672 5 124958564.021 5      2528.797          35.000    23778832.438 5  97370339.089 5      1970.491          33.000
G28  21248579.094 6 111662050.856 6     -1473.703          41.000    21248577.586 6  87009428.790 6     -1148.343          36.000
R02  21198425.883 7 113118831.478 7     -3772.391          46.000    21198427.016 6  87981342.138 6     -2934.082          41.000
R03  19269200.828 8 103149548.436 8      -113.109          49.000    19269200.883 7  80227421.082 7       -87.974          47.000
R13  19288617.820 5 103000152.877 5       -51.492          33.000    19288620.297 6  80111201.707 6       -40.049          36.000
R14  21770772.242 8 116050471.135 8      3093.594          51.000    21770774.414 7  90261498.107 7      2406.128          46.000
C05  39768603.156 6 207085551.087 6        17.102          37.000    39768602.016 6 160131666.408 6        13.381          40.000
C20  22625924.898 6 117819127.055 6       148.082          41.000
C23  23077239.336 7 120169255.628 7     -1976.957          43.000
E07  27508833.852 7 144559851.102 7     -2909.891          43.000    27508837.945 6 110766653.029 6     -2230.087          36.000
E21  24159646.570 8 126959875.335 8      1579.812          51.000    24159648.453 8  97280892.336 8      1210.506          51.000
E27  23680275.781 8 124440706.264 8     -1173.680          51.000    23680277.789 8  95350655.698 8      -899.370          51.000
> 2020 05 01 05 53  0.0000000  0 14        .000000000000
G13  20191335.109 8 106106171.204 8      -471.418          51.000    20191332.836 8  82680114.085 8      -367.339          51.000
G15  20557277.375 5 108029212.103 5      1189.910          34.000    20557277.680 5  84178608.693 5       927.203          34.000
G17  23764407.008 5 124882803.935 5      2520.812          33.000
G28  21257036.297 6 111706492.822 6     -1489.410          39.000    21257034.273 6  87044058.915 6     -1160.579          36.000
R02  21219672.617 8 113232215.552 8     -3786.574          48.000    21219671.844 6  88069529.740 6     -2945.116          36.000
R03  19269908.984 8 103153339.064 8      -139.676          50.000    19269909.156 8  80230369.363 8      -108.637          48.000
R13  19288961.602 5 103001985.065 5       -69.812          33.000    19288963.117 5  80112626.728 5       -54.299          35.000
R14  21753394.375 8 115957836.038 8      3082.086          50.000    21753395.602 7  90189448.608 7      2397.178          45.000
C05  39768504.289 6 207085035.614 6        16.930          36.000    39768503.023 6 160131267.839 6        13.046          40.000
C20  22625121.602 6 117814943.353 6       130.586          40.000
C23  23088647.031 6 120228658.260 6     -1983.418          41.000
E07  27525457.617 7 144647205.428 7     -2913.824          42.000    27525460.883 5 110833586.802 5     -2232.437          35.000
E21  24150656.898 8 126912636.308 8      1569.336          51.000    24150658.844 8  97244696.209 8      1202.466          51.000
E27  23687004.414 8 124476065.496 8     -1183.656          51.000    23687006.453 8  95377749.125 8      -906.945          51.000
> 2020 05 01 05 53 30.0000000  0 14        .000000000000
G13  20194070.219 8 106120544.906 8      -485.980          51.000    20194068.016 8  82691314.374 8      -378.686          51.000
G15  20550526.883 5 107993743.526 5      1175.156          34.000    20550528.086 5  84150970.810 5       915.706          33.000
G17  23750040.234 5 124807303.509 5      2513.855          33.000
G28  21265582.289 7 111751401.593 7     -1504.004          42.000    21265580.680 6  87079052.745 6     -1171.954          36.000
R02  21241000.586 8 113346022.715 8     -3799.730          51.000    21240996.906 6  88158046.292 6     -2955.349          38.000
R03  19270765.641 8 103157924.955 8      -165.262          50.000    19270765.844 7  80233936.175 7      -128.537          47.000
R13  19289407.750 5 103004365.202 5       -88.332          34.000    19289408.680 5  80114477.955 5       -68.703          34.000
R14  21736080.703 8 115865548.318 8      3071.316          48.000    21736081.875 7  90117669.278 7      2388.805          45.000
C05  39768407.438 6 207084531.730 6        17.406          36.000    39768405.953 6 160130877.399 6        13.544          40.000
C20  22624416.258 6 117811277.824 6       114.598          37.000
C23  23100092.516 6 120288257.374 6     -1988.945          41.000
E07  27542102.578 7 144734672.083 7     -2916.660          42.000    27542103.211 5 110900606.672 5     -2234.751          35.000
E21  24141727.344 8 126865712.323 8      1559.777          51.000    24141729.477 8  97208741.478 8      1195.082          51.000
E27  23693789.273 8 124511721.155 8     -1192.656          51.000    23693791.312 8  95405069.684 8      -913.806          51.000
> 2020 05 01 05 54  0.0000000  0 16        .000000000000
G05  23874037.266 5 125458912.250 5     -3589.199          34.000
G13  20196891.320 8 106135370.703 8      -493.980          51.000    20196889.297 8  82702866.940 8      -384.920          51.000
G15  20543867.391 5 107958750.904 5      1166.363          34.000    20543868.359 5  84123703.870 5       908.855          35.000
G24  23020582.453 5 120973948.321 5      2878.566          33.000
G28  21274214.898 7 111796765.730 7     -1511.867          42.000    21274212.992 5  87114401.399 5     -1178.081          32.000
G30  23145091.227 5 121628264.616 5     -2743.430          34.000
R02  21262405.438 8 113460239.376 8     -3806.094          51.000    21262403.461 7  88246881.440 7     -2960.295          43.000
R03  19271769.289 8 103163296.652 8      -184.211          51.000    19271769.336 8  80238114.178 8      -143.272          48.000
R13  19289954.359 5 103007282.587 5       -98.309          34.000    19289954.977 5  80116747.057 5       -76.459          34.000
R14  21718830.617 8 115773599.214 8      3067.109          49.000    21718833.062 7  90046153.316 7      2385.530          47.000
C05  39768310.648 6 207084027.823 6        24.641          36.000    39768309.164 6 160130487.745 6        18.957          40.000
C20  22623809.969 6 117808121.313 6       104.410          39.000
C23  23111573.703 6 120348042.249 6     -1988.293          41.000
E07  27558766.586 6 144822240.404 6     -2912.859          41.000    27558764.656 6 110967704.414 6     -2232.081          36.000
E21  24132856.281 8 126819093.995 8      1556.648          51.000    24132858.406 8  97173020.939 8      1192.721          51.000
E27  23700628.477 8 124547662.342 8     -1195.059          51.000    23700630.531 8  95432609.025 8      -915.676          51.000
> 2020 05 01 05 54 30.0000000  0 15        .000000000000
G13  20199779.055 8 106150546.245 8      -519.137          51.000    20199777.078 8  82714692.035 8      -404.519          50.000
G15  20537278.844 5 107924128.010 5      1139.785          30.000    20537279.914 4  84096729.027 4       888.144          29.000
G24  23004191.445 5 120887810.690 5      2862.715          35.000
G28  21282913.891 7 111842480.130 7     -1537.000          42.000    21282912.148 5  87150023.052 5     -1197.659          35.000
G30  23160794.414 5 121710755.910 5     -2757.980          35.000    23160791.062 5  94839598.688 5     -2149.079          31.000
R02  21283866.547 8 113574757.980 8     -3829.785          51.000    21283867.172 7  88335951.482 7     -2978.722          47.000
R03  19272900.047 8 103169349.784 8      -220.797          50.000    19272900.266 8  80242822.159 8      -171.731          48.000
R13  19290581.594 5 103010630.998 5      -126.207          34.000    19290582.070 5  80119351.397 5       -98.161          35.000
R14  21701625.523 8 115681885.125 8      3045.648          51.000    21701629.141 8  89974820.151 8      2368.838          48.000
C05  39768194.461 6 207083423.763 6        14.668          36.000    39768192.953 6 160130019.864 6        11.258          40.000
C20  22623281.992 6 117805371.866 6        77.246          37.000
C23  23123070.195 6 120407909.380 6     -2004.105          36.000
E07  27575429.539 6 144909806.194 6     -2926.188          41.000    27575427.445 6 111034800.160 6     -2242.233          38.000
E21  24124023.859 8 126772678.355 8      1536.355          51.000    24124026.023 8  97137455.708 8      1177.195          51.000
E27  23707502.289 8 124583784.619 8     -1214.504          51.000    23707504.500 8  95460287.127 8      -930.645          51.000
> 2020 05 01 05 55  0.0000000  0 13        .000000000000
G13  20202788.117 8 106166358.926 8      -529.367          50.000    20202786.164 8  82727013.603 8      -412.494          50.000
G17  23707230.781 6 124582373.460 6      2488.633          36.000    23707230.133 5  97077150.737 5      1939.191          35.000
G28  21291733.875 7 111888830.356 7     -1547.160          42.000    21291732.156 5  87186140.105 5     -1205.573          35.000
R02  21305437.969 8 113689867.243 8     -3838.336          50.000    21305440.602 7  88425480.964 7     -2985.372          47.000
R03  19274212.758 8 103176377.853 8      -241.984          51.000    19274213.188 8  80248288.433 8      -188.210          48.000
R13  19291343.602 5 103014701.078 5      -138.777          31.000    19291344.312 5  80122517.015 5      -107.938          35.000
R14  21684519.539 8 115590698.656 8      3039.215          50.000    21684524.070 8  89903897.359 8      2363.834          48.000
C05  39768113.484 6 207083002.346 6        19.480          37.000    39768112.047 6 160129693.998 6        14.913          40.000
C20  22622887.023 6 117803314.705 6        65.289          38.000
C23  23134635.898 4 120468142.445 4     -2005.918          28.000
E07  27592146.359 6 144997655.892 6     -2924.785          40.000    27592146.430 6 111102113.441 6     -2241.105          41.000
E21  24115284.688 8 126726753.063 8      1531.016          51.000    24115286.961 8  97102266.213 8      1173.119          51.000
E27  23714465.000 8 124620374.148 8     -1219.078          51.000    23714467.398 8  95488323.260 8      -934.105          51.000
> 2020 05 01 05 55 30.0000000  0 13        .000000000000
G05  23935693.680 5 125782905.747 5     -3603.828          32.000    23935708.336 5  98012697.728 5     -2808.178          33.000
G13  20205854.133 8 106182471.127 8      -545.758          51.000    20205852.320 8  82739568.556 8      -425.269          50.000
G17  23693045.195 5 124507834.908 5      2479.012          35.000    23693044.828 6  97019068.715 6      1931.694          36.000
G28  21300610.180 7 111935476.435 7     -1563.371          42.000    21300608.781 6  87222487.701 6     -1218.208          36.000
R02  21327054.711 8 113805220.380 8     -3852.914          51.000    21327059.141 7  88515200.080 7     -2996.711          46.000
R03  19275643.539 8 103184036.801 8      -269.508          51.000    19275643.828 7  80254245.399 7      -209.617          47.000
R13  19292175.891 5 103019147.273 5      -158.160          34.000    19292177.102 5  80125975.185 5      -123.016          35.000
R14  21667448.148 8 115499698.126 8      3026.547          50.000    21667453.508 7  89833119.173 7      2353.981          47.000
C05  39768003.414 6 207082429.470 6        17.746          37.000    39768002.008 6 160129250.987 6        14.139          40.000
C20  22622561.125 6 117801615.149 6        47.332          37.000
E07  27608853.219 6 145085450.284 6     -2929.125          41.000    27608856.031 7 111169384.390 7     -2244.469          43.000
E21  24106574.578 8 126680980.208 8      1519.551          51.000    24106577.039 8  97067193.512 8      1164.382          51.000
E27  23721452.133 8 124657091.576 8     -1229.699          51.000    23721454.359 8  95516457.375 8      -942.228          51.000
> 2020 05 01 05 56  0.0000000  0 15        .000000000000
G13  20209018.953 8 106199102.149 8      -562.973          51.000    20209016.914 8  82752527.795 8      -438.677          50.000
G15  20518118.156 4 107823441.200 4      1093.461          28.000
G17  23678923.719 6 124433626.717 6      2467.520          36.000    23678922.406 6  96961244.123 6      1922.746          36.000
G28  21309584.016 7 111982634.956 7     -1580.238          43.000    21309582.938 5  87259234.659 5     -1231.351          33.000
G30  23208078.281 5 121959287.157 5     -2766.320          33.000    23208077.195 5  95033174.548 5     -2155.577          33.000
R02  21348758.633 8 113921036.122 8     -3868.156          51.000    21348763.109 7  88605278.976 7     -3008.566          43.000
R03  19277233.773 8 103192549.829 8      -297.973          51.000    19277234.008 7  80260866.633 7      -231.757          47.000
R13  19293120.281 5 103024190.404 5      -177.836          31.000    19293122.125 6  80129897.622 6      -138.314          36.000
R14  21650453.234 8 115409106.168 8      3012.996          49.000    21650458.789 7  89762658.790 7      2343.441          45.000
C05  39767905.938 6 207081921.668 6        15.734          36.000    39767904.555 6 160128858.330 6        12.161          40.000
C20  22622345.625 6 117800489.889 6        27.984          37.000
C23  23157830.258 5 120588887.805 5     -2020.543          33.000
E07  27625591.398 7 145173406.902 7     -2934.465          42.000    27625596.508 7 111236779.640 7     -2248.456          44.000
E21  24097935.016 8 126635578.424 8      1507.270          51.000    24097937.734 8  97032405.137 8      1154.951          51.000
E27  23728505.031 8 124694154.053 8     -1241.082          51.000    23728507.039 8  95544855.891 8      -950.920          51.000
> 2020 05 01 05 56 30.0000000  0 13        .000000000000
G13  20212269.000 8 106216180.783 8      -576.594          51.000    20212266.680 8  82765835.809 8      -449.294          50.000
G17  23664852.578 6 124359680.162 6      2461.199          37.000    23664849.688 6  96903623.502 6      1917.818          37.000
G28  21318641.516 7 112030232.230 7     -1593.812          43.000    21318640.500 5  87296323.451 5     -1241.932          35.000
R02  21370534.945 8 114037238.541 8     -3879.562          50.000    21370536.492 6  88695658.504 6     -3017.444          39.000
R03  19278970.047 8 103201844.380 8      -322.664          51.000    19278970.312 8  80268095.708 8      -250.964          48.000
R13  19294162.359 5 103029756.621 5      -193.707          32.000    19294164.953 6  80134226.849 6      -150.661          37.000
R14  21633521.422 8 115318851.272 8      3003.023          49.000    21633525.273 7  89692460.568 7      2335.685          42.000
C05  39767807.352 6 207081408.084 6        17.062          37.000    39767805.984 6 160128461.181 6        13.381          40.000
C20  22622226.438 6 117799868.415 6        12.441          37.000
C23  23169484.008 5 120649568.589 5     -2025.473          34.000
E07  27642346.852 7 145261453.174 7     -2936.090          44.000    27642353.516 7 111304243.617 7     -2249.839          45.000
E21  24089352.438 8 126590476.471 8      1498.559          51.000    24089355.336 8  96997846.500 8      1148.285          51.000
E27  23735609.656 8 124731488.884 8     -1248.840          51.000    23735611.812 8  95573463.103 8      -956.933          51.000
> 2020 05 01 05 57  0.0000000  0 15        .000000000000
G13  20215600.766 8 106233688.645 8      -590.555          51.000    20215598.312 8  82779478.299 8      -460.172          49.000
G15  20505799.805 5 107758698.521 5      1064.738          33.000    20505802.430 5  83967830.336 5       829.666          33.000
G17  23650828.320 6 124285979.973 6      2452.805          36.000    23650819.820 4  96846194.668 4      1911.273          28.000
G24  22922800.461 5 120460136.713 5      2839.504          33.000
G28  21327778.484 7 112078247.751 7     -1607.227          43.000    21327777.398 6  87333738.177 6     -1252.381          37.000
R02  21392379.523 8 114153806.185 8     -3891.402          49.000    21392380.266 7  88786322.100 7     -3026.649          43.000
R03  19280849.047 8 103211902.354 8      -347.820          51.000    19280849.008 7  80275918.583 7      -270.524          47.000
R13  19295298.305 5 103035824.774 5      -210.629          30.000    19295301.758 6  80138946.528 6      -163.819          36.000
R14  21616649.508 8 115228915.800 8      2992.695          49.000    21616651.492 6  89622510.793 6      2327.652          40.000
C05  39767704.070 6 207080870.394 6        18.496          36.000    39767702.727 6 160128045.381 6        14.441          40.000
C20  22622200.047 6 117799732.680 6        -4.035          38.000
C23  23181165.453 6 120710402.706 6     -2029.871          36.000
E07  27659115.766 7 145349569.575 7     -2938.164          44.000    27659123.219 7 111371761.320 7     -2251.270          46.000
E21  24080823.523 8 126545655.940 8      1489.531          51.000    24080826.430 8  96963503.511 8      1141.296          51.000
E27  23742762.250 8 124769076.231 8     -1256.961          51.000    23742764.539 8  95602263.797 8      -963.123          51.000
> 2020 05 01 05 57 30.0000000  0 14        .000000000000
G13  20219020.539 8 106251659.424 8      -606.945          51.000    20219017.867 8  82793481.499 8      -472.947          50.000
G15  20499777.062 5 107727046.211 5      1046.523          35.000    20499778.758 5  83943166.174 5       815.473          35.000
G17  23636856.625 6 124212561.667 6      2442.531          36.000    23636847.172 5  96788938.814 5      1903.277          34.000
G28  21337001.078 7 112126712.936 7     -1623.113          43.000    21336999.852 5  87371503.265 5     -1264.761          35.000
R02  21414298.141 8 114270768.411 8     -3905.434          49.000    21414300.391 7  88877292.657 7     -3037.559          46.000
R03  19282876.695 8 103222757.626 8      -375.410          51.000    19282877.039 8  80284361.539 8      -291.986          48.000
R13  19296534.648 5 103042428.590 5      -229.320          32.000    19296537.977 6  80144082.807 6      -178.360          36.000
R14  21599844.141 8 115139334.317 8      2979.887          48.000    21599845.656 7  89552836.330 7      2317.690          42.000
C05  39767602.484 6 207080341.529 6        17.168          37.000    39767601.141 6 160127636.436 6        13.287          40.000
C20  22622273.367 6 117800115.795 6       -21.738          39.000
C23  23192883.453 5 120771422.030 5     -2037.523          34.000
E07  27675904.039 7 145437788.219 7     -2942.344          43.000    27675911.758 7 111439357.371 7     -2254.529          46.000
E21  24072354.703 8 126501150.213 8      1478.062          51.000    24072357.320 8  96929401.738 8      1132.589          51.000
E27  23749968.984 8 124806948.040 8     -1267.301          51.000    23749971.172 8  95631282.456 8      -971.034          51.000
> 2020 05 01 05 58  0.0000000  0 15        .000000000000
G13  20222525.125 8 106270076.114 8      -617.184          51.000    20222522.461 8  82807832.161 8      -480.922          49.000
G15  20493845.234 5 107695871.922 5      1035.168          35.000    20493845.945 5  83918874.514 5       806.627          35.000
G19  24817330.891 7 130415952.074 7      3445.449          46.000    24817323.258 6 101622789.519 6      2684.766          38.000
G28  21346305.812 7 112175608.722 7     -1632.746          42.000    21346304.320 6  87409603.891 6     -1272.270          36.000
R02  21436287.227 7 114388105.084 7     -3912.906          47.000    21436290.359 8  88968554.469 8     -3043.372          48.000
R03  19285049.766 8 103234393.044 8      -396.469          51.000    19285050.609 8  80293411.310 8      -308.365          48.000
R12  21613087.008 5 115453149.456 5     -3318.301          32.000
R13  19297868.039 5 103049547.466 5      -241.285          31.000    19297871.336 6  80149619.700 6      -187.666          36.000
R14  21583102.086 8 115050090.512 8      2973.426          48.000    21583104.227 7  89483424.494 7      2312.661          43.000
C05  39767499.391 6 207079804.153 6        22.734          36.000    39767498.000 6 160127220.920 6        17.063          40.000
C20  22622443.508 6 117801000.903 6       -33.988          37.000
C23  23204633.602 5 120832608.093 5     -2037.684          35.000
E07  27692708.062 7 145526090.784 7     -2940.613          43.000    27692715.625 7 111507017.727 7     -2253.248          46.000
E21  24063942.492 8 126456942.107 8      1472.906          51.000    24063944.516 8  96895528.020 8      1128.528          51.000
E27  23757226.312 8 124845085.631 8     -1271.480          51.000    23757228.492 8  95660504.762 8      -974.212          51.000
> 2020 05 01 05 58 30.0000000  0 15        .000000000000
G13  20226114.438 8 106288937.976 8      -639.012          51.000    20226111.797 8  82822529.694 8      -497.931          49.000
G15  20488003.891 5 107665175.838 5      1012.672          35.000    20488004.500 6  83894955.448 6       789.095          37.000
G19  24797686.984 7 130312719.941 7      3438.004          47.000    24797680.320 6 101542348.957 6      2678.964          38.000
G28  21355692.031 6 112224931.851 6     -1654.234          40.000    21355690.133 6  87448037.494 6     -1289.014          37.000
R02  21458345.570 6 114505811.275 6     -3932.754          40.000    21458349.070 8  89060103.690 8     -3058.809          48.000
R03  19287368.117 8 103246807.661 8      -429.746          50.000    19287370.180 8  80303067.124 8      -334.247          48.000
R12  21631758.930 5 115552989.279 5     -3330.441          31.000
R13  19299297.047 5 103057178.872 5      -266.555          34.000    19299300.445 5  80155555.258 5      -207.320          35.000
R14  21566422.961 8 114961184.035 8      2955.105          48.000    21566426.234 7  89414275.044 7      2298.415          43.000
C05  39767394.406 6 207079257.284 6        15.531          37.000    39767392.961 6 160126797.994 6        12.103          40.000
C20  22622709.609 6 117802387.029 6       -57.418          40.000
C23  23216415.953 6 120893958.661 6     -2050.621          39.000
E07  27709527.484 7 145614475.056 7     -2950.336          42.000    27709534.414 7 111574740.664 7     -2260.647          44.000
E21  24055586.258 8 126413030.669 8      1455.891          51.000    24055587.945 8  96861881.595 8      1115.624          51.000
E27  23764533.750 8 124883486.623 8     -1287.238          51.000    23764536.125 8  95689928.905 8      -986.337          51.000
> 2020 05 01 05 59  0.0000000  0 14        .000000000000
G13  20229800.086 8 106308305.920 8      -649.512          51.000    20229797.359 8  82837621.596 8      -506.113          48.000
G15  20482265.641 6 107635020.289 6      1000.312          36.000    20482266.352 6  83871457.587 6       779.461          37.000
G19  24778055.633 8 130209555.678 8      3442.305          48.000    24778051.562 6 101461961.240 6      2682.315          40.000
G28  21365170.352 6 112274740.647 6     -1663.836          41.000    21365168.719 6  87486849.599 6     -1296.496          37.000
R02  21480477.383 6 114623945.146 6     -3940.199          36.000    21480487.742 8  89151985.787 8     -3064.590          48.000
R03  19289843.773 8 103260063.563 8      -451.219          50.000    19289846.680 7  80313377.244 7      -350.948          47.000
R13  19300834.016 5 103065383.086 5      -277.969          32.000    19300836.406 5  80161936.292 5      -216.198          35.000
R14  21549819.445 8 114872677.548 8      2948.199          49.000    21549823.211 7  89345436.683 7      2293.047          45.000
C05  39767299.055 6 207078760.919 6        20.090          36.000    39767297.711 6 160126414.177 6        15.511          40.000
C20  22623084.250 6 117804334.387 6       -69.898          40.000
C23  23228241.383 6 120955532.528 6     -2051.242          36.000
E07  27726373.836 6 145703000.624 6     -2948.508          41.000    27726379.766 6 111642571.886 6     -2259.459          41.000
E21  24047297.391 8 126369476.645 8      1450.301          51.000    24047299.461 8  96828509.028 8      1111.287          51.000
E27  23771902.688 8 124922210.348 8     -1291.660          51.000    23771905.125 8  95719600.334 8      -989.723          51.000
> 2020 05 01 05 59 30.0000000  0 14        .000000000000
G13  20233561.719 8 106328073.641 8      -666.160          51.000    20233559.094 8  82853025.013 8      -519.086          49.000
G15  20476610.211 5 107605299.733 5       982.734          35.000    20476610.258 6  83848298.796 6       765.770          36.000
G19  24758417.727 8 130106355.714 8      3440.094          48.000    24758415.586 7 101381545.724 7      2680.593          43.000
G28  21374720.594 6 112324926.965 6     -1679.488          38.000    21374719.000 6  87525955.796 6     -1308.692          38.000
R02  21502675.430 7 114742396.445 7     -3954.078          47.000    21502685.633 7  89244114.579 7     -3075.394          47.000
R03  19292457.117 8 103274052.506 8      -479.051          50.000    19292460.109 8  80324257.532 8      -372.595          48.000
R13  19302457.242 5 103074050.697 5      -297.355          35.000    19302459.359 5  80168677.797 5      -231.276          34.000
R14  21533271.047 8 114784463.890 8      2934.953          49.000    21533275.680 7  89276826.105 7      2282.741          45.000
C05  39767193.141 6 207078209.531 6        18.984          37.000    39767191.781 6 160125987.815 6        14.456          40.000
C20  22623545.805 6 117806737.717 6       -88.371          38.000
C23  23240088.344 5 121017223.169 5     -2059.188          34.000
E07  27743226.859 6 145791559.954 6     -2953.086          40.000    27743231.641 6 111710429.014 6     -2262.820          37.000
E21  24039056.227 8 126326173.703 8      1438.652          51.000    24039059.055 8  96795328.836 8      1102.368          51.000
E27  23779312.594 8 124961149.050 8     -1302.062          51.000    23779314.852 8  95749436.482 8      -997.720          51.000
