     3.02           OBSERVATION DATA    M (MIXED)           RINEX VERSION / TYPE
SAVERINEX           SC600               20200506 055931 LCL PGM / RUN BY / DATE
       G = GPS       R = GLONASS       C = COMPASS          COMMENT
       S = SBAS      J = QZSS          E = GALILEO          COMMENT
BEAN                                                        MARKER NAME
1                                                           MARKER NUMBER
GEODETIC                                                    MARKER TYPE
Unige DICCA         GTER                                    OBSERVER / AGENCY
SC60291900056       SC600               2.12(191226)        REC # / TYPE / VERS
                    HEMA45          NONE                    ANT # / TYPE
  4509407.8091   693652.4678  4442337.6214                  APPROX POSITION XYZ
        0.0000        0.0000        0.0000                  ANTENNA: DELTA H/E/N
G    8 C1C L1C D1C S1C C2Y L2Y D2Y S2Y                      SYS / # / OBS TYPES
R    8 C1C L1C D1C S1C C2P L2P D2P S2P                      SYS / # / OBS TYPES
C    8 C1I L1I D1I S1I C7I L7I D7I S7I                      SYS / # / OBS TYPES
E    8 C1C L1C D1C S1C C7Q L7Q D7Q S7Q                      SYS / # / OBS TYPES
DBHZ                                                        COMMENT
     30.000                                                 INTERVAL
  2020    05    06    03    00    0.0000000     GPS         TIME OF FIRST OBS
  2020    05    06    03    59   30.0000000     GPS         TIME OF LAST OBS
     0                                                      RCV CLOCK OFFS APPL
G L1C  0.00000                                              SYS / PHASE SHIFT
G L2Y  0.00000                                              SYS / PHASE SHIFT
R L1C  0.00000                                              SYS / PHASE SHIFT
R L2P  0.25000                                              SYS / PHASE SHIFT
C L1I  0.00000                                              SYS / PHASE SHIFT
C L7I  0.00000                                              SYS / PHASE SHIFT
E L1C  0.50000                                              SYS / PHASE SHIFT
E L7Q -0.25000                                              SYS / PHASE SHIFT
 14 R03  5 R04  6 R05  1 R06 -4 R07  5 R09 -2 R10 -7 R14 -7 GLONASS SLOT / FRQ #
    R15  0 R16 -1 R19  3 R20  2 R21  4 R22 -3               GLONASS SLOT / FRQ #
 C1C   71.950 C2C   71.950 C2P   71.950                     GLONASS COD/PHS/BIS
    18                                                      LEAP SECONDS
*** Above antenna height is from mark to ANTENNA BOTTOM.    COMMENT
    17     4        0.0000        ANT MEASURE TYPE/HEIGT    COMMENT
    0.0000    0.0000    0.0458    0.0405    0.0000          COMMENT
                    BASE STATION                            COMMENT
                                                            END OF HEADER
> 2020 05 06 03 00  0.0000000  0 14        .000000000000
G02  24079565.953 7 126538962.113 7     -2618.668          44.000    24079564.492 6  98601788.225 6     -2040.520          38.000
G05  20656195.992 6 108549034.761 6       802.082          39.000    20656194.125 6  84583655.387 6       624.999          40.000
G07  21423243.164 7 112579893.547 7     -1708.074          47.000    21423241.117 7  87724576.167 7     -1330.967          47.000
G28  23152501.219 6 121667265.465 6      3164.941          36.000
G30  20365662.359 8 107022278.722 8       244.242          51.000    20365663.695 8  83393985.173 8       190.319          51.000
R06  19774462.867 8 105520324.463 8     -1515.996          49.000
R09  20442102.039 8 109159752.600 8      3145.141          50.000    20442104.766 8  84901951.984 8      2446.220          48.000
R16  19863635.484 8 106107975.375 8     -1880.949          49.000    19863638.062 7  82528433.025 7     -1462.961          45.000
C05  39787669.258 5 207184833.881 5        -3.078          35.000    39787667.359 6 160208445.091 6        -2.099          40.000
C19  21507740.945 8 111996440.211 8       449.559          51.000
C20  23436549.336 8 122040244.908 8     -2304.152          51.000
E09  21996357.258 8 115591623.775 8      -991.723          51.000    21996358.500 8  88570209.205 8      -759.942          51.000
E24  23215937.391 8 122000584.901 8      2465.941          50.000    23215952.219 8  93481016.145 8      1889.479          51.000
E31  24455662.430 6 128515390.513 6      -220.293          37.000    24455666.562 7  98472811.734 7      -168.802          43.000
> 2020 05 06 03 00 30.0000000  0 14        .000000000000
G02  24094530.219 7 126617599.226 7     -2624.430          44.000    24094528.078 6  98663063.862 6     -2045.010          39.000
G05  20651666.938 6 108525238.146 6       783.543          37.000    20651664.891 6  84565112.590 6       610.553          37.000
G07  21433023.391 7 112631287.927 7     -1718.824          47.000    21433021.281 7  87764623.738 7     -1339.344          47.000
G28  23134445.219 5 121572396.405 5      3158.770          35.000
G30  20364311.289 8 107015178.656 8       228.641          51.000    20364312.477 8  83388452.656 8       178.162          51.000
R06  19783031.562 8 105566046.717 8     -1532.789          49.000
R09  20424480.992 8 109065657.302 8      3127.191          50.000    20424483.820 7  84828766.737 7      2432.257          47.000
R16  19874261.445 8 106164737.638 8     -1903.797          49.000    19874264.102 7  82572581.454 7     -1480.731          44.000
C05  39787684.039 5 207184911.016 5        -2.926          35.000    39787682.164 6 160208504.758 6        -2.296          41.000
C19  21505185.742 8 111983134.529 8       436.949          51.000
C20  23449849.164 8 122109502.518 8     -2313.512          49.000
E09  22002036.883 8 115621470.860 8      -998.645          51.000    22002038.242 8  88593079.064 8      -765.210          51.000
E24  23201884.789 8 121926738.910 8      2456.520          50.000    23201899.898 8  93424432.863 8      1882.256          51.000
E31  24456960.133 5 128522212.694 5      -235.000          35.000    24456965.000 7  98478038.974 7      -180.134          45.000
> 2020 05 06 03 01  0.0000000  0 14        .000000000000
G02  24109526.438 7 126696405.452 7     -2629.301          43.000    24109523.766 6  98724471.253 6     -2048.806          38.000
G05  20647243.055 6 108501990.632 6       766.293          41.000    20647240.938 6  84546997.639 6       597.111          40.000
G07  21442864.609 7 112683002.816 7     -1728.719          47.000    21442862.820 8  87804921.064 8     -1347.054          48.000
G28  23116426.188 6 121477712.574 6      3153.559          38.000    23116432.531 5  94657926.241 5      2457.318          32.000
G30  20363049.609 8 107008548.405 8       213.578          51.000    20363050.664 8  83383286.235 8       166.425          51.000
R06  19791694.734 8 105612272.769 8     -1548.848          50.000
R09  20406961.641 8 108972102.090 8      3109.848          51.000    20406963.484 7  84756001.582 7      2418.770          46.000
R16  19885015.312 8 106222183.229 8     -1925.738          48.000    19885018.109 7  82617261.380 7     -1497.796          44.000
C05  39787698.102 5 207184984.538 5        -2.148          35.000    39787696.367 6 160208561.620 6        -1.749          41.000
C19  21502702.812 8 111970205.786 8       424.988          51.000
C20  23463202.211 8 122179039.184 8     -2322.098          49.000
E09  22007755.562 8 115651522.804 8     -1004.832          51.000    22007757.086 8  88616105.886 8      -769.915          51.000
E24  23187885.680 8 121853174.289 8      2447.879          51.000    23187900.789 8  93368065.161 8      1875.579          51.000
E31  24458342.648 5 128529472.564 5      -248.949          35.000    24458346.227 7  98483601.652 7      -190.771          47.000
> 2020 05 06 03 01 30.0000000  0 14        .000000000000
G02  24124552.617 7 126775370.545 7     -2634.898          43.000    24124549.133 6  98786002.434 6     -2053.165          37.000
G05  20642922.500 6 108479285.684 6       747.734          40.000    20642920.289 6  84529305.484 6       582.647          39.000
G07  21452764.938 7 112735028.845 7     -1739.379          47.000    21452763.133 7  87845460.810 7     -1355.360          47.000
G28  23098442.461 6 121383209.370 6      3146.969          38.000    23098450.031 4  94584282.370 4      2452.186          29.000
G30  20361875.625 8 107002379.914 8       197.973          51.000    20361876.867 8  83378479.629 8       154.264          51.000
R06  19800450.586 8 105658994.972 8     -1565.703          48.000
R09  20389542.219 8 108879082.381 8      3091.727          50.000    20389543.242 7  84683652.956 7      2404.676          46.000
R16  19895895.172 8 106280301.169 8     -1948.328          48.000    19895897.555 7  82662464.210 7     -1515.366          44.000
C05  39787710.203 6 207185047.989 6        -2.371          36.000    39787708.391 6 160208609.888 6        -1.423          41.000
C19  21500291.234 8 111957647.532 8       412.504          51.000
C20  23476608.188 8 122248846.796 8     -2331.355          51.000
E09  22013511.820 8 115681772.261 8     -1011.605          51.000    22013513.422 8  88639284.053 8      -775.141          51.000
E24  23173939.461 8 121779885.024 8      2438.379          51.000    23173953.805 8  93311908.452 8      1868.371          51.000
E31  24459806.430 5 128537162.205 5      -263.707          35.000    24459809.719 8  98489493.676 8      -201.927          48.000
> 2020 05 06 03 02  0.0000000  0 15        .000000000000
G02  24139609.836 6 126854498.775 6     -2637.641          40.000    24139605.344 6  98847660.737 6     -2055.304          37.000
G05  20638707.000 6 108457132.022 6       731.945          41.000    20638705.703 6  84512042.887 6       570.347          41.000
G07  21462725.406 7 112787371.702 7     -1747.359          46.000    21462723.508 7  87886247.457 7     -1361.579          46.000
G13  22454079.805 5 117996982.449 5      2578.770          33.000
G28  23080495.727 6 121288897.305 6      3143.141          39.000    23080501.219 5  94510792.401 5      2449.197          35.000
G30  20360790.875 8 106996680.143 8       185.027          51.000    20360792.250 8  83374038.239 8       144.177          51.000
R06  19809300.594 8 105706221.031 8     -1579.738          48.000
R09  20372224.359 8 108786608.761 8      3076.172          49.000    20372226.164 7  84611729.061 7      2392.581          47.000
R16  19906901.617 8 106339095.971 8     -1968.152          49.000    19906904.266 7  82708193.517 7     -1530.785          44.000
C05  39787721.406 6 207185105.770 6         1.070          36.000    39787719.672 6 160208655.372 6          .622          41.000
C19  21497952.586 8 111945468.251 8       402.441          51.000
C20  23490067.977 8 122318932.048 8     -2338.059          51.000
E09  22019307.023 8 115712227.039 8     -1015.758          51.000    22019308.836 8  88662619.509 8      -778.260          51.000
E24  23160047.875 8 121706880.114 8      2431.547          51.000    23160061.180 8  93255969.634 8      1863.154          51.000
E31  24461353.055 6 128545288.581 6      -275.512          39.000    24461356.070 8  98495720.419 8      -210.942          49.000
> 2020 05 06 03 02 30.0000000  0 15        .000000000000
G02  24154702.352 6 126933812.448 6     -2649.285          40.000    24154697.164 6  98909463.615 6     -2064.375          39.000
G05  20634601.312 7 108435555.378 7       707.273          43.000    20634600.820 7  84495229.933 7       551.125          43.000
G07  21472750.508 8 112840054.942 8     -1764.156          48.000    21472749.102 8  87927299.330 8     -1374.667          48.000
G09  23483282.141 5 123405465.121 5     -2832.527          34.000    23483278.562 5  96160102.555 5     -2207.179          31.000
G28  23062590.805 6 121194804.068 6      3130.312          41.000    23062594.758 6  94437472.980 6      2439.202          37.000
G30  20359799.977 8 106991473.332 8       163.000          51.000    20359801.430 8  83369980.993 8       127.013          51.000
R06  19818249.383 7 105753975.738 7     -1603.055          47.000
R09  20355014.195 8 108694709.087 8      3051.434          51.000    20355016.602 8  84540251.529 8      2373.337          48.000
R16  19918039.055 8 106398589.806 8     -1997.133          48.000    19918041.477 7  82754466.502 7     -1553.326          44.000
C05  39787736.703 5 207185185.547 5        -5.715          35.000    39787734.969 6 160208717.044 6        -4.259          41.000
C19  21495691.523 8 111933693.467 8       383.355          51.000
C20  23503585.664 8 122389318.807 8     -2353.555          51.000
E09  22025146.320 8 115742912.161 8     -1029.098          51.000    22025148.094 8  88686131.464 8      -788.505          51.000
E24  23146215.500 8 121634185.892 8      2415.527          51.000    23146227.914 8  93200268.892 8      1850.871          51.000
E31  24462987.641 7 128553876.232 7      -296.180          42.000    24462990.242 8  98502300.532 8      -227.113          49.000
> 2020 05 06 03 03  0.0000000  0 14        .000000000000
G02  24169825.594 7 127013286.436 7     -2650.957          43.000    24169820.508 6  98971391.410 6     -2065.681          36.000
G05  20630601.312 6 108414535.592 6       692.012          41.000    20630600.938 7  84478850.865 7       539.227          42.000
G07  21482835.820 8 112893054.728 8     -1771.172          48.000    21482834.969 8  87968597.874 8     -1380.134          48.000
G28  23044723.500 6 121100910.530 6      3127.152          39.000    23044727.195 5  94364309.194 5      2436.739          35.000
G30  20358898.664 8 106986736.746 8       150.816          51.000    20358900.203 8  83366290.159 8       117.519          51.000
R06  19827293.055 7 105802236.597 7     -1616.332          47.000
R09  20337908.547 8 108603363.587 8      3036.395          51.000    20337911.039 8  84469205.044 8      2361.640          49.000
R16  19929302.367 8 106458756.660 8     -2015.836          48.000    19929304.664 7  82801262.950 7     -1567.872          45.000
C05  39787751.781 5 207185264.228 5        -1.652          35.000    39787750.117 6 160208777.909 6        -1.320          41.000
C19  21493504.117 8 111922302.262 8       374.102          51.000
C20  23517156.516 8 122459984.371 8     -2359.371          51.000
E09  22031025.406 8 115773805.716 8     -1032.488          51.000    22031026.773 8  88709803.133 8      -791.115          51.000
E24  23132438.203 8 121561781.736 8      2409.410          51.000    23132450.125 8  93144790.411 8      1846.156          51.000
E31  24464705.273 6 128562902.405 6      -307.418          41.000    24464707.734 8  98509216.671 8      -235.527          49.000
> 2020 05 06 03 03 30.0000000  0 15        .000000000000
G02  24184972.234 7 127092881.081 7     -2656.836          44.000    24184967.109 5  99033413.210 5     -2070.265          34.000
G05  20626700.141 7 108394036.328 7       673.051          42.000    20626699.648 6  84462877.392 6       524.455          41.000
G07  21492974.062 8 112946332.269 8     -1782.137          48.000    21492973.133 8  88010112.841 8     -1388.678          48.000
G28  23026887.250 6 121007182.582 6      3120.051          39.000    23026891.680 6  94291274.433 6      2431.205          37.000
G30  20358079.617 8 106982432.759 8       134.652          51.000    20358081.211 8  83362936.411 8       104.924          51.000
R06  19836425.125 8 105850966.253 8     -1633.844          49.000
R09  20320900.180 8 108512537.511 8      3017.207          51.000    20320902.859 8  84398562.577 8      2346.720          50.000
R16  19940684.227 7 106519555.936 7     -2038.855          47.000    19940686.680 7  82848551.278 7     -1585.776          45.000
C05  39787759.617 5 207185305.332 5        -2.543          35.000    39787758.008 6 160208809.676 6        -1.824          41.000
C19  21491383.523 8 111911258.905 8       360.672          51.000
C20  23530773.211 8 122530891.328 8     -2369.277          51.000
E04  27946400.898 5 146859327.835 5     -2410.516          32.000
E09  22036937.008 8 115804870.923 8     -1040.016          51.000    22036937.992 8  88733606.318 8      -796.880          51.000
E24  23118709.047 8 121489632.129 8      2399.078          51.000    23118720.797 8  93089506.959 8      1838.276          51.000
E31  24466499.234 7 128572329.562 7      -322.621          42.000    24466500.953 8  98516440.072 8      -247.218          49.000
> 2020 05 06 03 04  0.0000000  0 15        .000000000000
G02  24200156.195 7 127172670.083 7     -2660.141          43.000    24200150.859 5  99095586.438 5     -2072.834          35.000
G05  20622912.906 7 108374135.162 7       656.160          43.000    20622911.156 7  84447370.007 7       511.294          43.000
G07  21503179.664 8 112999962.643 8     -1790.770          49.000    21503178.375 8  88051902.739 8     -1395.405          49.000
G13  22395506.320 5 117689167.259 5      2556.742          30.000
G28  23009097.562 6 120913699.868 6      3114.820          37.000    23009102.664 6  94218430.740 6      2427.133          37.000
G30  20357357.414 8 106978637.446 8       120.852          51.000    20357358.875 8  83359979.010 8        94.170          51.000
R06  19845659.586 8 105900242.212 8     -1648.770          49.000
R09  20304004.039 8 108422311.522 8      3000.324          51.000    20304006.867 8  84328386.856 8      2333.586          50.000
R16  19952198.148 7 106581061.999 7     -2059.055          47.000    19952200.977 7  82896389.339 7     -1601.487          45.000
C05  39787774.906 5 207185384.633 5         -.930          35.000    39787773.250 6 160208870.977 6         -.471          41.000
C19  21489344.352 8 111900640.297 8       349.570          51.000
C20  23544449.852 8 122602114.794 8     -2376.590          48.000
E09  22042895.734 8 115836184.637 8     -1045.223          51.000    22042896.594 8  88757599.923 8      -800.900          51.000
E24  23105042.672 8 121417815.231 8      2391.105          51.000    23105054.664 8  93034478.441 8      1832.107          51.000
E31  24468383.867 6 128582233.900 6      -335.523          36.000    24468386.094 8  98524029.075 8      -257.050          50.000
> 2020 05 06 03 04 30.0000000  0 14        .000000000000
G02  24215364.523 6 127252585.797 6     -2667.285          40.000    24215358.273 5  99157858.398 5     -2078.404          31.000
G05  20619227.648 7 108354769.055 7       635.066          43.000    20619225.164 7  84432279.538 7       494.857          43.000
G07  21513439.758 8 113053879.415 8     -1803.582          49.000    21513438.477 8  88093915.812 8     -1405.389          49.000
G28  22991342.844 6 120820400.727 6      3105.574          39.000    22991348.586 6  94145730.080 6      2419.931          38.000
G30  20356719.734 8 106975285.572 8       102.922          51.000    20356721.109 8  83357367.171 8        80.199          51.000
R06  19854984.031 8 105949998.971 8     -1668.094          50.000
R09  20287208.641 8 108332622.862 8      2979.160          51.000    20287211.000 8  84258629.005 8      2317.122          49.000
R16  19963831.742 7 106643206.186 7     -2083.648          47.000    19963834.211 7  82944723.698 7     -1620.615          45.000
C05  39787785.195 5 207185438.086 5        -2.488          35.000    39787783.594 6 160208912.357 6        -2.265          41.000
C19  21487374.578 8 111890383.460 8       334.414          51.000
C20  23558174.430 8 122673590.046 8     -2388.223          49.000
E09  22048889.578 8 115867682.540 8     -1054.504          51.000    22048890.578 8  88781734.662 8      -807.994          51.000
E24  23091426.992 8 121346267.951 8      2378.949          51.000    23091439.648 8  92979656.477 8      1822.846          51.000
E31  24470346.688 6 128592550.125 6      -352.121          39.000    24470349.594 8  98531933.800 8      -269.912          49.000
> 2020 05 06 03 05  0.0000000  0 14        .000000000000
G02  24230600.320 6 127332646.742 6     -2670.445          36.000    24230593.930 6  99220243.575 6     -2080.863          36.000
G05  20615648.281 7 108335959.929 7       618.238          42.000    20615645.898 7  84417623.077 7       481.744          42.000
G07  21523758.133 8 113108102.518 8     -1811.945          50.000    21523756.766 8  88136167.587 8     -1411.905          50.000
G28  22973628.375 7 120727309.213 7      3100.129          42.000    22973633.805 6  94073191.196 6      2415.685          38.000
G30  20356170.352 8 106972397.853 8        89.086          51.000    20356171.820 8  83355117.014 8        69.418          51.000
R06  19864402.711 8 106000258.207 8     -1683.078          49.000
R09  20270518.078 8 108243495.863 8      2962.039          51.000    20270519.984 8  84189307.962 8      2303.808          49.000
R16  19975588.039 7 106706006.578 7     -2103.719          47.000    19975590.656 7  82993568.458 7     -1636.226          45.000
C05  39787794.648 5 207185487.014 5         -.652          35.000    39787792.953 6 160208950.173 6         -.773          41.000
C19  21485478.586 8 111880510.455 8       323.355          51.000
C20  23571953.141 8 122745337.556 8     -2395.602          51.000
E09  22054922.578 8 115899386.174 8     -1059.688          51.000    22054924.031 8  88806027.045 8      -811.956          51.000
E24  23077866.602 8 121275013.096 8      2370.785          51.000    23077880.078 8  92925058.566 8      1816.594          51.000
E31  24472392.766 6 128603299.451 6      -365.070          38.000    24472394.797 8  98540170.169 8      -279.654          48.000
> 2020 05 06 03 05 30.0000000  0 14        .000000000000
G02  24245864.328 4 127412876.936 4     -2674.730          28.000    24245858.180 4  99282747.437 4     -2084.199          28.000
G05  20612177.031 7 108317718.564 7       599.078          44.000    20612174.977 7  84403409.021 7       466.814          43.000
G07  21534136.219 8 113162639.582 8     -1822.559          49.000    21534134.469 8  88178663.980 8     -1420.176          49.000
G28  22955955.969 7 120634437.964 7      3092.602          44.000    22955960.547 6  94000823.948 6      2409.816          39.000
G30  20355710.891 8 106969983.152 8        73.117          51.000    20355712.281 8  83353235.432 8        56.974          51.000
R06  19873917.117 8 106051028.844 8     -1700.328          49.000
R09  20253934.922 8 108154942.953 8      2942.801          51.000    20253936.703 8  84120433.482 8      2288.845          50.000
R16  19987468.531 7 106769469.733 7     -2125.836          47.000    19987471.281 7  83042928.689 7     -1653.428          45.000
C05  39787805.000 6 207185540.777 6        -1.672          36.000    39787803.281 6 160208991.747 6        -1.136          41.000
C19  21483658.234 8 111871031.681 8       309.910          51.000
C20  23585786.461 8 122817365.976 8     -2405.051          51.000
E09  22060996.578 8 115931305.262 8     -1067.023          51.000    22060998.242 8  88830484.523 8      -817.556          51.000
E24  23064364.672 8 121204061.601 8      2360.535          51.000    23064378.352 8  92870693.138 8      1808.668          51.000
E31                                                                  24474524.109 8  98548745.040 8      -291.061          48.000
> 2020 05 06 03 06  0.0000000  0 13        .000000000000
G05  20608812.609 7 108300038.230 7       580.520          45.000    20608810.570 7  84389632.156 7       452.353          44.000
G07  21544572.109 8 113217480.662 8     -1832.582          49.000    21544570.133 8  88221397.278 8     -1427.986          49.000
G28  22938324.531 7 120541781.348 7      3085.344          45.000    22938327.547 6  93928623.989 6      2404.164          40.000
G30  20355339.641 8 106968032.474 8        57.758          51.000    20355340.938 8  83351715.416 8        45.006          51.000
R06  19883525.773 8 106102302.512 8     -1717.055          48.000
R09  20237458.547 8 108066958.288 8      2923.879          51.000    20237460.031 8  84052001.003 8      2274.128          51.000
R16  19999470.719 7 106833583.864 7     -2147.547          45.000    19999473.383 7  83092795.236 7     -1670.314          45.000
C05  39787814.734 5 207185592.077 5        -1.031          35.000    39787812.977 6 160209030.654 6         -.803          40.000
C19  21481911.930 8 111861939.798 8       297.043          51.000
C20  23599671.688 8 122889666.255 8     -2414.113          51.000
E09  22067109.977 8 115963431.672 8     -1073.836          51.000    22067111.594 8  88855100.869 8      -822.827          51.000
E24  23050919.820 8 121133406.589 8      2350.676          51.000    23050932.859 8  92816554.889 8      1801.167          51.000
E31                                                                  24476735.852 8  98557651.569 8      -302.085          48.000
> 2020 05 06 03 06 30.0000000  0 15        .000000000000
G02  24276474.016 5 127573708.682 5     -2678.832          34.000
G05  20605536.969 7 108282823.727 7       567.887          44.000    20605534.656 7  84376218.275 7       442.509          44.000
G07  21555047.336 8 113272528.406 8     -1836.523          49.000    21555045.359 8  88264291.629 8     -1431.057          49.000
G13  22322937.836 5 117307844.016 5      2534.211          34.000
G28  22920716.414 7 120449246.660 7      3084.363          47.000    22920717.414 6  93856519.057 6      2403.400          41.000
G30  20355038.352 8 106966449.348 8        48.477          51.000    20355039.633 8  83350481.801 8        37.774          51.000
R06  19893210.352 7 106153981.675 7     -1727.484          47.000
R09  20221070.711 8 107979447.105 8      2911.020          51.000    20221072.094 8  83983936.797 8      2264.129          51.000
R16  20011575.977 7 106898248.299 7     -2162.801          46.000    20011578.836 7  83143089.807 7     -1682.178          46.000
C05  39787805.531 6 207185544.024 6         4.996          36.000    39787803.664 6 160208993.475 6         3.969          40.000
C19  21480221.805 8 111853140.827 8       290.207          51.000
C20  23613590.375 8 122962142.642 8     -2416.961          51.000
E09  22073244.680 8 115995669.888 8     -1074.609          51.000    22073246.438 8  88879802.869 8      -823.414          51.000
E24  23037513.664 8 121062953.745 8      2346.914          51.000    23037525.914 8  92762571.564 8      1798.303          51.000
E31                                                                  24479012.172 7  98566815.912 7      -308.310          47.000
> 2020 05 06 03 07  0.0000000  0 14        .000000000000
G02  24291807.844 6 127654337.885 6     -2702.645          38.000    24291810.398 6  99470892.011 6     -2105.954          36.000
G05  20602401.891 7 108266349.060 7       529.816          44.000    20602399.516 7  84363380.864 7       412.844          44.000
G07  21565613.477 8 113328053.970 8     -1865.840          50.000    21565611.711 8  88307558.297 8     -1453.901          50.000
G28  22903183.984 7 120357109.710 7      3057.484          47.000    22903183.266 6  93784724.067 6      2382.455          40.000
G30  20354858.945 8 106965506.008 8        13.887          51.000    20354860.039 8  83349746.739 8        10.821          51.000
R06  19903022.766 7 106206343.203 7     -1763.801          47.000
R09  20204823.586 8 107892689.399 8      2872.262          51.000    20204825.203 8  83916458.609 8      2233.981          50.000
R16  20023835.641 7 106963736.650 7     -2203.656          46.000    20023838.086 7  83194025.199 7     -1713.955          45.000
C05  39787829.438 6 207185667.974 6       -13.984          36.000    39787827.453 6 160209089.319 6       -10.780          41.000
C19  21478640.156 8 111844906.062 8       258.164          51.000
C20  23627594.516 8 123035064.776 8     -2445.047          51.000
E09  22079452.781 8 116028292.995 8     -1100.875          51.000    22079454.445 8  88904799.800 8      -843.543          51.000
E24  23024198.156 8 120992977.436 8      2317.566          51.000    23024209.797 8  92708953.375 8      1775.759          51.000
E31  24481404.648 6 128650650.877 6      -436.227          41.000    24481403.914 7  98576446.740 7      -334.246          47.000
> 2020 05 06 03 07 30.0000000  0 15        .000000000000
G02  24307180.250 6 127735110.884 6     -2687.496          40.000    24307179.945 6  99533832.047 6     -2094.150          39.000
G05  20599360.898 7 108250370.296 7       530.289          45.000    20599358.625 7  84350929.873 7       413.212          44.000
G07  21576223.883 8 113383811.883 8     -1856.516          50.000    21576222.297 8  88351006.001 8     -1446.633          50.000
G13  22294150.844 5 117156547.496 5      2523.648          30.000
G28  22885681.031 8 120265129.313 8      3069.332          48.000    22885679.375 6  93713051.055 6      2391.690          41.000
G30  20354754.828 8 106964957.834 8        17.539          51.000    20354755.391 8  83349319.594 8        13.667          51.000
R06  19912916.750 7 106259139.647 7     -1761.219          46.000
R09  20188671.727 8 107806439.963 8      2872.539          51.000    20188673.250 8  83849375.706 8      2234.194          50.000
R16  20036202.562 7 107029797.932 7     -2205.531          46.000    20036204.570 7  83245406.192 7     -1715.410          46.000
C05                                                                  39787837.914 6 160209131.277 6         3.987          41.000
C19  21477120.742 8 111836994.802 8       264.246          51.000
C20  23641637.336 8 123108190.217 8     -2435.062          51.000
E09  22085687.758 8 116061057.325 8     -1088.551          51.000    22085689.180 8  88929904.934 8      -834.084          51.000
E24  23010926.797 8 120923235.176 8      2326.762          51.000    23010937.891 8  92655514.505 8      1782.837          51.000
E31  24483862.648 7 128663584.204 7      -431.238          43.000    24483864.805 7  98586356.681 7      -330.444          46.000
> 2020 05 06 03 08  0.0000000  0 14        .000000000000
G02  24322578.555 6 127816024.552 6     -2700.145          41.000    24322578.656 5  99596881.632 5     -2104.012          31.000
G05  20596429.750 7 108234968.280 7       503.195          45.000    20596428.094 7  84338928.294 7       392.100          45.000
G07  21586892.984 8 113439878.403 8     -1874.504          50.000    21586891.422 8  88394694.210 8     -1460.652          50.000
G28  22868223.094 7 120173386.883 7      3053.512          47.000    22868221.531 7  93641563.435 7      2379.357          43.000
G30  20354740.609 8 106964882.321 8        -5.949          51.000    20354740.898 8  83349260.769 8        -4.636          51.000
R06  19922906.977 7 106312449.827 7     -1786.156          46.000
R09  20172630.094 8 107720781.105 8      2844.852          48.000    20172631.836 8  83782752.115 8      2212.662          50.000
R16  20048690.781 7 107096508.387 7     -2234.945          46.000    20048693.117 7  83297292.107 7     -1738.294          46.000
C05  39787851.828 6 207185785.356 6        -2.699          36.000    39787849.844 6 160209179.315 6        -2.196          41.000
C19  21475678.461 8 111829485.406 8       243.086          51.000
C20  23655733.914 8 123181595.622 8     -2452.070          51.000
E09  22091964.430 8 116094041.304 8     -1103.656          51.000    22091965.867 8  88955178.365 8      -845.671          51.000
E24  22997714.477 8 120853806.628 8      2308.504          51.000    22997725.008 8  92602315.993 8      1768.887          50.000
E31  24486406.852 7 128676959.427 7      -453.715          45.000    24486410.438 7  98596605.236 7      -347.706          46.000
> 2020 05 06 03 08 30.0000000  0 14        .000000000000
G02  24337995.031 6 127897034.254 6     -2702.051          41.000    24337994.430 6  99660006.063 6     -2105.494          36.000
G05  20593600.711 7 108220101.448 7       486.465          45.000    20593599.258 7  84327343.752 7       379.064          45.000
G07  21597612.578 8 113496210.307 8     -1882.176          51.000    21597610.844 8  88438589.213 8     -1466.627          50.000
G28  22850802.664 7 120081843.498 7      3047.977          46.000    22850802.070 7  93570230.905 7      2375.047          44.000
G30  20354808.156 8 106965237.026 8       -19.062          51.000    20354808.492 8  83349537.174 8       -14.854          51.000
R06  19932985.633 7 106366231.226 7     -1800.652          47.000
R09  20156691.102 8 107635672.743 8      2827.754          48.000    20156693.453 8  83716556.702 8      2199.364          50.000
R16  20061292.188 7 107163821.895 7     -2253.762          44.000    20061294.297 7  83349647.060 7     -1752.926          46.000
C05  39787857.367 6 207185813.945 6         -.832          36.000    39787855.406 6 160209201.404 6         -.302          41.000
C19  21474305.523 8 111822337.401 8       232.176          50.000
C20  23669875.820 8 123255238.807 8     -2458.828          51.000
E09  22098275.000 8 116127203.370 8     -1108.477          51.000    22098276.492 8  88980588.250 8      -849.325          51.000
E24  22984553.594 8 120784651.452 8      2300.555          50.000    22984564.203 8  92549326.950 8      1762.727          50.000
E31  24489027.906 7 128690734.137 7      -465.992          47.000    24489032.109 7  98607159.854 7      -357.017          45.000
> 2020 05 06 03 09  0.0000000  0 14        .000000000000
G02  24353435.867 6 127978174.437 6     -2707.180          40.000    24353434.656 6  99723232.194 6     -2109.494          37.000
G05  20590880.656 7 108205807.813 7       466.625          45.000    20590878.766 7  84316205.881 7       363.604          45.000
G07  21608389.484 8 113552843.434 8     -1893.055          51.000    21608387.734 8  88482718.898 8     -1475.111          51.000
G28  22833427.578 7 119990539.422 7      3039.250          46.000    22833428.000 7  93499084.816 7      2368.247          44.000
G30  20354964.453 8 106966058.562 8       -35.375          51.000    20354964.547 8  83350177.352 8       -27.565          51.000
R06  19943159.555 7 106420521.444 7     -1818.379          47.000
R09  20140863.641 8 107551155.360 8      2807.203          49.000    20140865.992 8  83650820.958 8      2183.380          50.000
R16  20074012.500 7 107231772.831 7     -2275.875          43.000    20074014.961 7  83402497.825 7     -1770.122          45.000
C05  39787863.430 5 207185846.038 5        -1.668          35.000    39787861.562 6 160209226.231 6        -1.009          41.000
C19  21473009.258 8 111815588.712 8       218.051          50.000
C20  23684070.016 8 123329155.961 8     -2468.727          49.000
E09  22104626.531 8 116160581.151 8     -1116.500          51.000    22104628.008 8  89006163.429 8      -855.503          51.000
E24  22971452.227 8 120715808.434 8      2289.266          51.000    22971463.531 8  92496577.109 8      1754.083          50.000
E31  24491732.078 7 128704945.044 7      -481.316          46.000    24491736.281 7  98618048.731 7      -368.759          45.000
> 2020 05 06 03 09 30.0000000  0 14        .000000000000
G02  24368900.227 6 128059439.100 6     -2710.930          39.000    24368898.328 6  99786555.290 6     -2112.410          36.000
G05  20588269.156 7 108192085.856 7       447.723          45.000    20588267.695 7  84305513.439 7       348.875          45.000
G07  21619222.789 8 113609772.781 8     -1902.672          51.000    21619221.125 8  88527079.430 8     -1482.601          51.000
G28  22816098.117 7 119899474.359 7      3031.340          47.000    22816099.078 7  93428124.994 7      2362.083          43.000
G30  20355208.781 8 106967343.110 8       -50.676          51.000    20355208.820 8  83351178.303 8       -39.488          51.000
R06  19953428.531 8 106475316.995 8     -1835.039          48.000
R09  20125146.883 8 107467228.541 8      2787.602          50.000    20125149.305 8  83585544.560 8      2168.135          50.000
R16  20086851.320 7 107300354.912 7     -2296.684          44.000    20086853.648 7  83455839.427 7     -1786.312          45.000
C05  39787869.680 6 207185877.523 6         -.902          36.000    39787867.781 6 160209251.369 6         -.834          41.000
C19  21471789.430 8 111809237.154 8       205.012          50.000
C20  23698316.266 8 123403343.122 8     -2477.465          49.000
E09  22111018.391 8 116194171.684 8     -1123.227          51.000    22111019.891 8  89031901.626 8      -860.666          51.000
E24  22958410.406 8 120647275.838 8      2279.195          51.000    22958422.094 8  92444065.134 8      1746.441          50.000
E31  24494518.664 8 128719588.370 8      -495.328          48.000    24494523.008 7  98629268.936 7      -379.456          44.000
> 2020 05 06 03 10  0.0000000  0 14        .000000000000
G02  24384387.258 5 128140826.008 5     -2715.141          35.000    24384384.781 5  99849973.672 5     -2115.694          35.000
G05  20585766.711 7 108178936.808 7       428.785          45.000    20585765.523 7  84295267.421 7       334.118          45.000
G07  21630112.289 8 113666997.543 8     -1912.312          51.000    21630110.516 8  88571670.164 8     -1490.114          51.000
G28  22798815.367 8 119808652.053 8      3023.320          49.000    22798815.492 7  93357354.356 7      2355.834          42.000
G30  20355541.156 8 106969090.581 8       -65.762          51.000    20355541.531 8  83352539.991 8       -51.240          51.000
R06  19963792.250 8 106530618.706 8     -1851.680          49.000
R09  20109541.281 8 107383895.307 8      2768.012          51.000    20109543.742 8  83520729.826 8      2152.901          50.000
R16  20099807.398 7 107369565.135 7     -2317.348          42.000    20099809.859 7  83509669.619 7     -1802.382          45.000
C05  39787876.047 5 207185911.149 5        -1.293          35.000    39787874.234 6 160209277.365 6         -.888          41.000
C19  21470646.320 8 111803284.277 8       191.941          51.000
C20  23712615.273 8 123477800.318 8     -2486.281          50.000
E09  22117450.719 8 116227975.939 8     -1130.336          51.000    22117452.492 8  89057803.593 8      -866.105          51.000
E24  22945428.562 8 120579055.843 8      2268.820          51.000    22945440.219 8  92391792.694 8      1738.438          51.000
E31  24497387.602 7 128734664.191 7      -509.582          47.000    24497392.180 7  98640820.537 7      -390.435          44.000
> 2020 05 06 03 10 30.0000000  0 13        .000000000000
G05  20583374.422 7 108166365.046 7       409.766          46.000    20583373.336 7  84285471.251 7       319.298          46.000
G07  21641058.344 8 113724519.685 8     -1922.152          51.000    21641056.391 8  88616492.604 8     -1497.781          51.000
G28  22781580.422 8 119718079.009 8      3015.191          50.000    22781579.086 7  93286777.989 7      2349.500          42.000
G30  20355962.266 8 106971303.949 8       -81.254          51.000    20355962.734 8  83354264.697 8       -63.315          51.000
R06  19974251.570 8 106586429.741 8     -1868.547          50.000
R09  20094048.273 8 107301162.018 8      2747.992          51.000    20094050.711 8  83456381.741 8      2137.327          49.000
R16  20112881.617 7 107439403.757 7     -2338.141          43.000    20112883.836 7  83563988.547 7     -1818.554          45.000
C05  39787883.258 5 207185949.547 5        -1.145          35.000    39787881.633 6 160209307.067 6        -1.027          41.000
C19  21469580.922 8 111797734.624 8       178.523          51.000
C20  23726967.078 8 123552530.323 8     -2495.273          51.000
E09  22123924.281 8 116261997.808 8     -1137.484          51.000    22123926.508 8  89083872.288 8      -871.573          51.000
E24  22932507.734 8 120511153.492 8      2258.363          51.000    22932519.289 8  92339763.643 8      1730.425          51.000
E31  24500339.438 8 128750175.511 8      -524.066          48.000    24500343.625 7  98652705.838 7      -401.539          43.000
> 2020 05 06 03 11  0.0000000  0 14        .000000000000
G05  20581086.062 7 108154338.267 7       390.848          47.000    20581085.062 7  84276099.740 7       304.557          47.000
G07  21652054.250 8 113782303.829 8     -1931.633          51.000    21652052.391 8  88661519.196 8     -1505.168          51.000
G28  22764387.102 8 119627724.268 8      3006.930          51.000    22764385.125 7  93216371.727 7      2343.062          44.000
G30  20356465.430 8 106973948.712 8       -96.336          51.000    20356465.789 8  83356325.554 8       -75.067          51.000
R06  19984799.547 8 106642715.226 8     -1885.227          48.000
R09  20078661.906 8 107218997.055 8      2728.254          51.000    20078663.562 7  83392475.695 7      2121.978          47.000
R16  20126065.891 6 107509833.230 6     -2358.840          41.000    20126068.555 7  83618767.040 7     -1834.653          44.000
C05  39787885.156 5 207185958.312 5         -.715          35.000    39787883.469 6 160209314.595 6         -.665          41.000
C19  21468586.516 8 111792555.653 8       165.414          50.000
C20  23741364.766 8 123627498.855 8     -2504.031          51.000
E05                                                                  23928330.289 5  96349473.743 5       919.020          34.000
E09  22130433.312 8 116296203.743 8     -1144.250          51.000    22130435.633 8  89110082.042 8      -876.790          51.000
E24  22919641.500 8 120443536.463 8      2248.105          51.000    22919652.820 8  92287953.210 8      1722.613          51.000
E31  24503367.648 7 128766087.946 7      -538.105          47.000    24503371.336 7  98664898.444 7      -412.264          43.000
> 2020 05 06 03 11 30.0000000  0 14        .000000000000
G05  20578907.562 7 108142889.507 7       371.254          46.000    20578906.375 7  84267178.639 7       289.289          47.000
G07  21663105.922 8 113840380.842 8     -1941.469          50.000    21663104.070 8  88706774.009 8     -1512.833          51.000
G28  22747241.984 8 119537623.460 8      2998.457          50.000    22747240.211 7  93146163.317 7      2336.460          45.000
G30  20357056.742 8 106977056.694 8      -111.844          51.000    20357057.180 8  83358747.373 8       -87.151          51.000
R06  19995442.406 8 106699507.974 8     -1902.262          48.000
R09  20063388.305 8 107137435.915 8      2707.895          51.000    20063389.445 7  83329039.300 7      2106.140          47.000
R16  20139366.266 6 107580882.878 6     -2379.062          39.000    20139369.398 7  83674027.900 7     -1850.382          44.000
C05  39787887.859 5 207185972.708 5        -1.023          35.000    39787886.023 6 160209324.970 6        -1.054          41.000
C19  21467669.477 8 111787780.510 8       151.879          51.000
C20  23755813.594 8 123702737.370 8     -2513.047          51.000
E05                                                                  23921498.555 5  96321960.168 5       914.276          33.000
E09  22136983.922 8 116330626.601 8     -1151.770          51.000    22136986.078 8  89136458.008 8      -882.528          51.000
E24  22906836.031 8 120376238.773 8      2237.254          51.000    22906846.891 8  92236387.467 8      1714.188          51.000
E31  24506478.109 7 128782433.326 7      -552.844          46.000    24506481.984 7  98677422.834 7      -423.518          42.000
> 2020 05 06 03 12  0.0000000  0 14        .000000000000
G05  20576841.531 7 108132032.630 7       352.223          46.000    20576840.594 7  84258718.735 7       274.459          46.000
G07  21674215.539 8 113898762.356 8     -1950.922          51.000    21674213.398 8  88752266.074 8     -1520.199          51.000
G28  22730147.867 8 119447792.270 8      2989.996          48.000    22730146.492 7  93076164.981 7      2329.867          46.000
G30  20357738.570 8 106980639.969 8      -127.199          51.000    20357739.195 8  83361539.543 8       -99.116          51.000
R06  20006182.711 7 106756821.309 7     -1918.949          47.000
R09  20048230.367 8 107056493.834 8      2687.941          51.000    20048231.344 8  83266084.380 8      2090.621          48.000
R16  20152784.680 6 107652562.078 6     -2399.520          39.000    20152788.086 7  83729778.456 7     -1866.290          43.000
C05  39787893.617 5 207186002.604 5        -1.340          35.000    39787891.828 6 160209348.076 6         -.855          41.000
C19  21466832.773 8 111783422.801 8       138.430          51.000
C20  23770316.312 8 123778257.808 8     -2521.852          51.000
E05                                                                  23914701.531 5  96294593.656 5       909.945          31.000
E09  22143578.203 8 116365279.526 8     -1158.766          51.000    22143580.516 8  89163010.222 8      -887.855          51.000
E24  22894093.781 8 120309274.687 8      2226.793          51.000    22894104.805 8  92185077.316 8      1706.226          51.000
E31  24509673.672 7 128799223.893 7      -567.016          47.000    24509676.773 7  98690288.333 7      -434.407          42.000
> 2020 05 06 03 12 30.0000000  0 13        .000000000000
G05  20574887.766 7 108121765.850 7       333.043          47.000    20574887.133 7  84250718.643 7       259.514          47.000
G07  21685382.234 8 113957443.669 8     -1960.254          50.000    21685380.102 8  88797991.759 8     -1527.471          50.000
G28  22713104.570 7 119358231.095 7      2981.402          46.000    22713104.008 7  93006377.049 7      2323.171          46.000
G30  20358510.180 8 106984695.127 8      -142.367          51.000    20358511.055 8  83364699.423 8      -110.932          51.000
R06  20017019.836 8 106814651.801 8     -1935.488          48.000
R09  20033188.250 8 106976170.828 8      2667.805          51.000    20033189.680 8  83203610.937 8      2074.959          49.000
R16  20166320.227 6 107724865.290 6     -2419.473          39.000    20166322.727 7  83786014.263 7     -1881.812          42.000
C05  39787902.000 5 207186046.344 5        -1.102          35.000    39787900.141 6 160209381.901 6         -.918          40.000
C19  21466075.992 8 111779480.761 8       125.137          51.000
C20  23784872.516 8 123854056.726 8     -2530.570          51.000
E09  22150215.961 8 116400160.055 8     -1165.809          51.000    22150218.344 8  89189736.845 8      -893.264          51.000
E24  22881414.055 8 120242642.936 8      2216.195          51.000    22881426.188 8  92134021.828 8      1698.085          51.000
E31  24512953.031 7 128816456.294 7      -581.098          46.000    24512954.695 7  98703492.378 7      -445.266          42.000
> 2020 05 06 03 13  0.0000000  0 13        .000000000000
G05  20573038.367 8 108112046.752 8       314.148          48.000    20573037.938 8  84243145.316 8       244.794          48.000
G07  21696597.578 8 114016380.334 8     -1969.398          50.000    21696595.930 8  88843916.449 8     -1534.593          50.000
G28  22696104.734 7 119268899.777 7      2973.141          45.000    22696105.039 7  92936768.226 7      2316.733          45.000
G30  20359363.281 8 106989178.547 8      -157.164          51.000    20359364.133 8  83368193.003 8      -122.466          51.000
R06  20027946.148 8 106872955.692 8     -1952.055          49.000
R09  20018254.484 8 106896425.895 8      2647.902          51.000    20018256.461 8  83141587.094 8      2059.480          50.000
R16  20179963.531 6 107797745.049 6     -2439.656          41.000    20179966.094 6  83842698.579 6     -1897.510          41.000
C05  39787904.953 5 207186061.506 5         -.363          35.000    39787903.125 6 160209393.605 6         -.245          40.000
C19  21465391.008 8 111775912.861 8       112.117          51.000
C20  23799474.000 8 123930090.853 8     -2538.996          51.000
E09  22156889.086 8 116435225.578 8     -1172.512          51.000    22156891.219 8  89216605.227 8      -898.424          51.000
E24  22868789.242 8 120176302.083 8      2205.875          51.000    22868802.547 8  92083189.232 8      1690.204          51.000
E31  24516307.953 7 128834086.999 7      -595.023          46.000    24516309.227 7  98717001.622 7      -455.966          43.000
> 2020 05 06 03 13 30.0000000  0 13        .000000000000
G05  20571300.562 8 108102913.341 8       295.465          48.000    20571299.938 8  84236028.358 8       230.232          48.000
G07  21707868.305 8 114075607.476 8     -1978.227          51.000    21707866.938 8  88890067.462 8     -1541.475          51.000
G28  22679156.156 7 119179838.280 7      2965.316          44.000    22679157.180 7  92867369.639 7      2310.636          43.000
G30  20360304.734 8 106994126.073 8      -171.863          51.000    20360305.562 8  83372048.224 8      -133.919          51.000
R06  20038968.156 7 106931769.508 7     -1968.059          47.000
R09  20003436.852 8 106817298.615 8      2628.137          51.000    20003438.672 8  83080043.644 8      2044.106          51.000
R16  20193721.164 6 107871235.163 6     -2458.898          40.000    20193723.719 6  83899857.552 6     -1912.477          40.000
C05                                                                  39787907.594 6 160209411.394 6          .103          41.000
C19  21464784.867 8 111772756.192 8        99.250          51.000
C20  23814127.875 8 124006395.572 8     -2547.090          51.000
E09  22163604.359 8 116470512.959 8     -1178.977          51.000    22163606.133 8  89243643.606 8      -903.342          51.000
E24  22856227.094 8 120110290.114 8      2195.930          51.000    22856241.055 8  92032608.640 8      1682.610          51.000
E31  24519745.656 7 128852151.894 7      -608.434          45.000    24519747.055 7  98730843.571 7      -466.241          44.000
> 2020 05 06 03 14  0.0000000  0 13        .000000000000
G05  20569667.438 8 108094330.100 8       273.668          48.000    20569666.102 8  84229340.115 8       213.248          48.000
G07  21719187.078 8 114135087.341 8     -1990.188          50.000    21719185.672 8  88936415.399 8     -1550.795          50.000
G28  22662252.008 6 119091013.001 6      2953.742          39.000    22662253.844 6  92798155.107 6      2301.617          37.000
G30  20361327.516 8 106999500.678 8      -189.590          51.000    20361328.586 8  83376236.254 8      -147.732          51.000
R06  20050078.242 7 106991056.160 7     -1987.539          45.000
R09  19988728.484 8 106738754.406 8      2605.031          51.000    19988729.867 8  83018953.695 8      2026.135          51.000
R16  20207585.570 6 107945295.167 6     -2481.746          40.000    20207587.148 6  83957459.787 6     -1930.247          38.000
C05  39787908.383 5 207186079.434 5        -2.492          35.000    39787906.617 6 160209407.496 6        -2.129          41.000
C19  21464250.914 8 111769975.702 8        83.062          51.000
C20  23828826.477 8 124082934.209 8     -2558.457          51.000
E09  22170354.836 8 116505986.249 8     -1188.918          51.000    22170356.477 8  89270824.423 8      -910.914          51.000
E24  22843721.297 8 120044572.246 8      2182.352          51.000    22843735.672 8  91982253.393 8      1672.200          51.000
E31  24523259.086 7 128870614.068 7      -625.301          43.000    24523260.469 7  98744989.921 7      -479.076          45.000
> 2020 05 06 03 14 30.0000000  0 14        .000000000000
G05  20568151.586 8 108086364.172 8       257.551          49.000    20568150.031 8  84223132.896 8       200.689          49.000
G07  21730566.250 8 114194885.147 8     -1996.109          50.000    21730564.789 8  88983011.086 8     -1555.410          50.000
G28  22645405.742 6 119002493.463 6      2947.992          37.000    22645407.531 6  92729178.934 6      2297.143          36.000
G30  20362444.148 8 107005368.280 8      -201.434          51.000    20362445.062 8  83380808.429 8      -156.961          51.000
R06  20061289.320 7 107050883.287 7     -2000.770          43.000
R09  19974141.594 8 106660863.667 8      2587.809          51.000    19974143.242 8  82958372.005 8      2012.743          51.000
R16  20221568.641 6 108019989.423 6     -2497.934          40.000    20221570.695 6  84015555.332 6     -1942.837          37.000
C05                                                                  39787912.961 6 160209433.030 6          .595          41.000
C19  21463801.914 8 111767638.409 8        72.938          51.000
C20  23843581.477 7 124159771.953 7     -2563.895          47.000
E05  23881206.711 5 125496587.218 5      1160.418          34.000
E09  22177153.320 8 116541712.372 8     -1192.656          51.000    22177155.016 8  89298198.975 8      -913.827          51.000
E24  22831284.812 8 119979216.543 8      2174.949          51.000    22831299.000 8  91932175.640 8      1666.514          51.000
E31  24526860.844 7 128889539.509 7      -636.125          43.000    24526862.227 7  98759491.261 7      -487.459          45.000
> 2020 05 06 03 15  0.0000000  0 14        .000000000000
G05  20566733.148 8 108078910.495 8       238.301          49.000    20566731.594 8  84217324.835 8       185.689          49.000
G07  21741985.359 8 114254893.256 8     -2005.391          49.000    21741983.992 8  89029770.666 8     -1562.642          49.000
G28  22628599.547 6 118914176.998 6      2938.645          40.000    22628599.242 5  92660360.905 5      2289.847          34.000
G30  20363634.297 8 107011622.208 8      -216.520          51.000    20363634.820 8  83385681.642 8      -168.717          51.000
R06  20072581.234 7 107111142.561 7     -2017.566          43.000
R09  19959657.281 8 106583521.002 8      2567.305          51.000    19959659.523 8  82898216.598 8      1996.793          50.000
R16  20235649.461 6 108095206.473 6     -2517.703          39.000    20235651.977 5  84074057.525 5     -1958.211          35.000
C05  39787908.242 5 207186078.791 5          .363          35.000    39787906.492 6 160209406.979 6          .384          41.000
C19  21463418.039 8 111765640.242 8        59.340          51.000
C20  23858372.039 7 124236803.085 7     -2572.648          46.000
E05  23874598.734 5 125461862.041 5      1154.270          35.000    23874604.586 5  96133133.717 5       884.309          34.000
E09  22183979.922 8 116577585.735 8     -1199.863          51.000    22183981.242 8  89325686.357 8      -919.379          51.000
E24  22818897.438 8 119914118.562 8      2163.945          51.000    22818910.922 8  91882295.359 8      1658.127          51.000
E31  24530529.898 6 128908821.668 6      -650.137          41.000    24530532.117 7  98774265.918 7      -498.255          45.000
> 2020 05 06 03 15 30.0000000  0 15        .000000000000
G05  20565425.734 8 108072039.993 8       218.137          49.000    20565423.930 8  84211971.213 8       169.980          49.000
G07  21753457.492 8 114315180.047 8     -2015.352          48.000    21753456.109 8  89076747.398 8     -1570.404          48.000
G13  22068340.242 5 115969914.603 5      2425.855          32.000
G28  22611846.422 6 118826136.410 6      2929.188          41.000    22611843.688 5  92591757.904 5      2282.487          35.000
G30  20364911.008 8 107018331.675 8      -232.352          51.000    20364911.789 8  83390909.814 8      -181.053          51.000
R06  20083967.359 7 107171904.991 7     -2034.883          43.000
R09  19945289.453 8 106506799.674 8      2545.816          50.000    19945291.844 8  82838544.466 8      1980.079          49.000
R16  20249840.805 6 108171013.967 6     -2537.973          41.000    20249841.117 5  84133018.868 5     -1973.982          31.000
C05  39787902.172 5 207186046.848 5         -.434          35.000    39787900.555 6 160209383.055 6         -.160          40.000
C19  21463112.844 8 111764051.419 8        45.035          51.000
C20  23873215.008 8 124314096.243 8     -2581.969          48.000
E05  23868023.695 5 125427314.004 5      1147.195          34.000    23868029.664 5  96106661.842 5       879.169          35.000
E09  22190847.930 8 116613676.629 8     -1207.816          51.000    22190848.891 8  89353340.405 8      -925.482          51.000
E24  22806572.609 8 119849349.670 8      2152.371          51.000    22806585.109 8  91832667.251 8      1649.136          51.000
E31  24534279.922 6 128928529.696 6      -665.062          38.000    24534282.672 7  98789366.967 7      -509.689          45.000
> 2020 05 06 03 16  0.0000000  0 15        .000000000000
G05  20564246.297 8 108065842.597 8       199.906          49.000    20564244.867 8  84207142.074 8       155.771          49.000
G07  21764999.375 7 114375832.809 7     -2023.238          47.000    21764997.867 7  89124009.326 7     -1576.549          47.000
G13  22054515.547 5 115897261.256 5      2421.547          30.000
G28  22595163.281 7 118738463.666 7      2920.668          42.000    22595159.812 5  92523441.548 5      2275.848          35.000
G30  20366291.258 8 107025585.019 8      -246.336          51.000    20366292.453 8  83396561.797 8      -191.950          51.000
R06  20095465.766 7 107233260.639 7     -2050.422          45.000
R09  19931055.695 8 106430792.940 8      2526.305          51.000    19931058.016 7  82779428.143 7      1964.904          47.000
R16  20264159.422 6 108247499.379 6     -2555.875          37.000    20264159.406 5  84192507.469 5     -1987.903          31.000
C05  39787913.852 6 207186108.010 6         1.078          36.000    39787912.047 6 160209429.571 6          .864          40.000
C19  21462903.477 8 111762961.042 8        32.625          51.000
C20  23888126.383 8 124391738.880 8     -2589.340          51.000
E05                                                                  23861505.688 5  96080397.647 5       875.706          34.000
E09  22197774.180 8 116650074.382 8     -1213.707          51.000    22197775.125 8  89381229.583 8      -930.010          51.000
E24  22794327.383 8 119785000.383 8      2142.605          51.000    22794339.289 8  91783360.646 8      1641.755          51.000
E31  24538128.250 7 128948752.171 7      -677.969          42.000    24538130.594 7  98804862.127 7      -519.465          44.000
> 2020 05 06 03 16 30.0000000  0 15        .000000000000
G05  20563156.539 8 108060117.202 8       178.578          49.000    20563155.438 8  84202680.715 8       139.152          49.000
G07  21776572.352 8 114436648.550 8     -2034.426          48.000    21776570.594 8  89171398.229 8     -1585.267          48.000
G13  22040710.180 5 115824701.369 5      2412.848          34.000    22040710.977 4  90253028.116 4      1880.141          29.000
G28  22578512.703 7 118650959.826 7      2909.391          44.000    22578509.539 6  92455256.753 6      2267.058          39.000
G30  20367736.500 8 107033179.500 8      -263.258          51.000    20367737.484 8  83402479.572 8      -205.136          51.000
R06  20107037.062 8 107295003.889 8     -2069.164          48.000
R09  19916918.398 8 106355297.638 8      2503.426          51.000    19916919.727 7  82720709.587 7      1947.109          46.000
R16  20278565.031 6 108324453.358 6     -2577.371          39.000    20278567.422 4  84252360.656 4     -2004.622          29.000
C05  39787904.562 5 207186059.330 5        -1.215          35.000    39787902.766 6 160209391.922 6         -.813          40.000
C19  21462751.617 8 111762169.957 8        16.980          51.000
C20  23903066.703 8 124469530.064 8     -2599.859          51.000
E05                                                                  23854994.734 5  96054187.180 5       869.262          33.000
E09  22204720.430 8 116686577.421 8     -1223.023          51.000    22204721.430 8  89409199.420 8      -937.077          51.000
E24  22782123.383 8 119720870.190 8      2129.555          51.000    22782135.000 8  91734221.936 8      1631.710          51.000
E31  24542035.633 6 128969286.353 6      -693.949          39.000    24542038.266 7  98820596.138 7      -531.829          45.000
> 2020 05 06 03 17  0.0000000  0 15        .000000000000
G05  20562189.930 8 108055037.638 8       160.082          50.000    20562188.539 8  84198722.618 8       124.739          50.000
G07  21788208.961 7 114497799.219 7     -2042.375          47.000    21788206.852 7  89219048.101 7     -1591.461          47.000
G13  22026948.359 5 115752387.308 5      2407.988          34.000
G28  22561928.266 7 118563801.362 7      2901.090          47.000    22561925.312 6  92387341.025 6      2260.589          40.000
G30  20369279.562 8 107041287.784 8      -277.258          51.000    20369280.500 8  83408797.715 8      -216.045          51.000
R06  20118714.102 8 107357310.773 8     -2084.723          48.000
R09  19902910.352 8 106280492.508 8      2483.594          51.000    19902910.539 7  82662527.833 7      1931.684          47.000
R16  20293091.062 6 108402048.956 6     -2595.156          36.000
C05                                                                  39787905.547 6 160209403.096 6         -.112          41.000
C19  21462690.336 8 111761850.855 8         4.324          51.000
C20  23918067.711 8 124547640.872 8     -2607.539          51.000
E05                                                                  23848528.688 5  96028141.999 5       865.539          32.000
E09  22211719.742 8 116723359.460 8     -1229.176          51.000    22211720.938 8  89437383.038 8      -941.794          51.000
E24  22769994.062 8 119657133.895 8      2119.551          51.000    22770005.977 8  91685385.063 8      1624.065          51.000
E31  24546035.125 6 128990304.965 6      -707.207          41.000    24546038.477 7  98836701.374 7      -541.907          45.000
> 2020 05 06 03 17 30.0000000  0 14        .000000000000
G05  20561343.391 8 108050588.360 8       139.609          51.000    20561341.805 8  84195255.652 8       108.787          51.000
G07  21799905.750 7 114559266.473 7     -2052.297          47.000    21799903.297 7  89266944.665 7     -1599.192          47.000
G28  22545406.820 7 118476974.526 7      2890.621          47.000    22545403.594 7  92319683.726 7      2252.432          42.000
G30  20370917.070 8 107049892.499 8      -293.211          51.000    20370918.211 8  83415502.708 8      -228.476          51.000
R06  20130493.383 8 107420163.625 8     -2102.398          48.000
R09  19889028.367 8 106206363.092 8      2461.602          51.000    19889028.234 8  82604871.627 8      1914.579          48.000
R16  20307732.945 6 108480265.553 6     -2615.824          37.000    20307744.117 4  84373570.835 4     -2034.527          27.000
C05  39787919.000 5 207186135.054 5         -.918          35.000    39787917.266 6 160209450.479 6         -.788          41.000
C19  21462716.758 8 111761988.212 8       -10.426          51.000
C20  23933126.625 8 124626054.079 8     -2616.961          51.000
E05                                                                  23842107.742 5  96002294.221 5       860.277          34.000
E09  22218769.039 8 116760404.273 8     -1237.504          51.000    22218770.508 8  89465768.013 8      -948.175          51.000
E24  22757936.984 8 119593776.401 8      2107.363          51.000    22757949.492 8  91636838.447 8      1614.679          51.000
E31  24550123.570 6 129011790.804 6      -722.297          41.000    24550126.867 7  98853164.575 7      -553.379          44.000
> 2020 05 06 03 18  0.0000000  0 14        .000000000000
G05  20560593.383 8 108046646.917 8       121.664          50.000    20560591.719 8  84192184.397 8        94.803          50.000
G07  21811639.250 7 114620925.978 7     -2059.641          46.000    21811636.648 7  89314990.996 7     -1604.918          46.000
G28  22528925.242 8 118390359.458 8      2882.449          48.000    22528921.898 7  92252191.452 7      2246.064          43.000
G30  20372625.492 8 107058870.081 8      -306.676          51.000    20372626.516 8  83422498.236 8      -238.968          51.000
R06  20142350.906 7 107483437.274 7     -2117.398          47.000
R09  19875249.359 8 106132786.819 8      2442.160          50.000    19875250.109 8  82547645.658 8      1899.458          50.000
R16  20322467.844 6 108558975.111 6     -2632.664          39.000    20322484.805 4  84434789.436 4     -2047.628          25.000
C05  39787916.461 6 207186121.674 6          .742          36.000    39787914.680 6 160209440.131 6          .332          40.000
C19  21462807.719 8 111762461.106 8       -22.504          51.000
C20  23948220.062 8 124704647.164 8     -2623.957          51.000
E05                                                                  23835709.570 5  95976528.525 5       856.413          34.000
E09  22225844.953 8 116797589.322 8     -1243.059          51.000    22225846.805 8  89494260.446 8      -952.467          51.000
E24  22745929.172 8 119530676.275 8      2097.832          51.000    22745942.375 8  91588489.014 8      1607.439          51.000
E31  24554277.188 7 129033620.249 7      -734.637          43.000    24554280.055 7  98869891.070 7      -562.853          43.000
> 2020 05 06 03 18 30.0000000  0 14        .000000000000
G05  20559952.852 8 108043280.887 8       102.145          50.000    20559951.141 8  84189561.519 8        79.593          50.000
G07  21823421.859 7 114682842.925 7     -2068.645          46.000    21823419.484 7  89363237.960 7     -1611.931          45.000
G28  22512496.680 7 118304025.953 7      2872.695          47.000    22512493.742 7  92184918.575 7      2238.464          44.000
G30  20374417.320 8 107068286.363 8      -321.641          51.000    20374418.328 8  83429835.607 8      -250.629          51.000
R06  20154299.828 8 107547199.373 8     -2134.008          48.000
R09  19861587.234 8 106059833.607 8      2420.934          51.000    19861588.992 8  82490904.311 8      1882.948          50.000
R16  20337306.977 6 108638241.679 6     -2651.754          39.000
C05  39787912.234 5 207186099.767 5          .484          35.000    39787910.438 6 160209423.187 6          .347          40.000
C19  21462975.859 8 111763336.587 8       -36.340          51.000
C20  23963360.969 8 124783485.412 8     -2632.445          51.000
E05                                                                  23829345.211 5  95950896.637 5       852.061          35.000
E09  22232960.234 8 116834981.591 8     -1250.289          51.000    22232962.258 8  89522911.671 8      -957.990          51.000
E24  22733983.617 8 119467901.628 8      2086.602          51.000    22733997.258 8  91540388.942 8      1598.863          51.000
E31  24558509.312 7 129055859.362 7      -748.570          43.000    24558512.492 7  98886931.417 7      -573.514          43.000
> 2020 05 06 03 19  0.0000000  0 14        .000000000000
G05  20559419.367 8 108040477.723 8        79.180          50.000    20559417.789 8  84187377.229 8        61.698          50.000
G07  21835250.484 7 114745002.266 7     -2080.820          43.000    21835248.547 7  89411673.810 7     -1621.418          43.000
G28  22496118.969 7 118217963.462 7      2859.379          47.000    22496117.055 7  92117856.904 7      2228.087          45.000
G30  20376289.961 8 107078127.107 8      -339.934          51.000    20376291.141 8  83437503.723 8      -264.883          51.000
R06  20166337.633 7 107611435.489 7     -2154.039          47.000
R09  19848040.445 8 105987492.189 8      2396.246          51.000    19848042.492 8  82434638.749 8      1863.747          51.000
R16  20352247.086 6 108718048.005 6     -2673.902          38.000    20352261.594 4  84558519.586 4     -2079.699          25.000
C05  39787903.961 6 207186056.146 6        -3.059          36.000    39787902.141 6 160209389.441 6        -2.305          40.000
C19  21463218.781 8 111764602.079 8       -53.477          51.000
C20  23978546.688 8 124862554.635 8     -2644.320          51.000
E05                                                                  23823011.344 5  95925389.020 5       844.689          34.000
E09  22240112.367 8 116872567.942 8     -1260.895          51.000    22240114.680 8  89551711.622 8      -966.167          51.000
E24  22722097.766 8 119405440.343 8      2072.027          51.000    22722111.883 8  91492528.989 8      1587.639          51.000
E31  24562816.422 6 129078493.754 6      -765.785          41.000    24562820.703 7  98904274.745 7      -586.779          42.000
> 2020 05 06 03 19 30.0000000  0 14        .000000000000
G05  20559013.531 8 108038345.531 8        63.691          50.000    20559012.172 8  84185715.783 8        49.630          50.000
G07  21847145.180 7 114807510.454 7     -2085.621          43.000    21847143.773 7  89460381.517 7     -1625.156          43.000
G28  22479813.930 8 118132282.444 8      2853.461          48.000    22479812.727 7  92051092.472 7      2223.476          45.000
G30  20378263.734 8 107088499.148 8      -350.691          51.000    20378265.141 8  83445585.841 8      -273.266          51.000
R06  20178484.359 7 107676254.930 7     -2166.578          46.000
R09  19834628.328 8 105915874.095 8      2379.000          48.000    19834631.227 8  82378935.794 8      1850.330          50.000
R16  20367307.648 5 108798499.747 5     -2688.000          35.000
C05  39787911.945 5 207186097.626 5         1.293          35.000    39787910.016 6 160209421.520 6          .743          40.000
C19  21463557.500 8 111766365.117 8       -63.250          51.000
C20  23993797.000 8 124941960.681 8     -2648.637          49.000
E05                                                                  23816727.078 5  95900088.873 5       843.243          32.000
E09  22247322.031 8 116910456.340 8     -1264.156          51.000    22247324.641 8  89580743.011 8      -968.609          51.000
E24  22710292.398 8 119343401.488 8      2064.754          51.000    22710306.828 8  91444992.715 8      1582.072          51.000
E31  24567219.305 7 129101630.544 7      -775.719          45.000    24567222.703 6  98922002.933 6      -594.466          40.000
> 2020 05 06 03 20  0.0000000  0 14        .000000000000
G05  20558711.789 8 108036759.978 8        43.293          51.000    20558710.648 8  84184480.289 8        33.735          51.000
G07  21859082.344 7 114870241.631 7     -2095.164          43.000    21859081.047 7  89509262.964 7     -1632.595          43.000
G28  22463558.281 8 118046861.673 8      2842.594          48.000    22463557.938 7  91984530.838 7      2215.008          43.000
G30  20380314.734 8 107099277.390 8      -366.422          51.000    20380316.172 8  83453984.479 8      -285.524          51.000
R06  20190716.609 7 107741530.439 7     -2183.914          45.000
R09  19821328.000 8 105844855.095 8      2356.875          50.000    19821331.391 8  82323698.782 8      1833.122          50.000
R16  20382464.711 6 108879467.340 6     -2707.656          37.000
C05  39787912.602 5 207186101.308 5         -.105          35.000    39787910.641 6 160209424.353 6          .157          40.000
C19  21463968.391 8 111768503.445 8       -77.895          51.000
C20  24009087.406 7 125021579.545 7     -2657.848          46.000
E05                                                                  23810468.453 5  95874895.858 5       837.143          32.000
E09  22254565.664 8 116948522.862 8     -1272.281          51.000    22254568.500 8  89609910.878 8      -974.829          51.000
E24  22698543.844 8 119281662.170 8      2052.570          51.000    22698558.547 8  91397685.973 8      1572.764          51.000
E31  24571694.203 7 129125144.652 7      -790.445          44.000    24571696.281 6  98940020.221 6      -605.747          40.000
> 2020 05 06 03 20 30.0000000  0 14        .000000000000
G05  20558520.750 8 108035756.780 8        23.863          50.000    20558519.781 8  84183698.576 8        18.595          50.000
G07  21871068.250 7 114933228.489 7     -2103.660          43.000    21871066.859 7  89558343.640 7     -1639.216          44.000
G28  22447359.109 7 117961738.420 7      2832.520          47.000    22447359.992 7  91918201.042 7      2207.158          43.000
G30  20382449.469 8 107110495.197 8      -381.172          51.000    20382450.664 8  83462725.614 8      -297.017          51.000
R06  20203040.883 7 107807296.392 7     -2200.016          45.000
R09  19808147.711 8 105774472.068 8      2335.648          51.000    19808150.367 8  82268956.417 8      1816.615          50.000
R16  20397724.648 5 108960981.633 5     -2725.723          35.000
C05  39787912.609 6 207186102.050 6          .516          36.000    39787910.562 6 160209424.202 6          .100          41.000
C19  21464457.883 8 111771051.683 8       -91.625          51.000
C20  24024423.273 7 125101444.326 7     -2666.086          47.000
E05                                                                  23804246.234 5  95849848.757 5       832.645          33.000
E09  22261849.945 8 116986801.973 8     -1279.352          51.000    22261852.930 8  89639241.625 8      -980.282          51.000
E24  22686858.852 8 119220257.914 8      2041.359          51.000    22686873.820 8  91350635.959 8      1564.194          51.000
E31  24576247.047 7 129149069.401 7      -804.047          42.000    24576249.344 6  98958352.237 6      -616.255          40.000
> 2020 05 06 03 21  0.0000000  0 14        .000000000000
G05  20558437.984 8 108035322.177 8         4.977          51.000    20558437.086 8  84183359.928 8         3.878          51.000
G07  21883100.008 7 114996455.542 7     -2111.703          44.000    21883098.484 7  89607611.453 7     -1645.483          44.000
G28  22431214.992 8 117876901.227 8      2823.023          48.000    22431216.422 6  91852094.139 6      2199.759          41.000
G30  20384664.867 8 107122137.498 8      -395.203          51.000    20384666.336 8  83471797.558 8      -307.950          51.000
R06  20215454.516 7 107873537.749 7     -2216.023          46.000
R09  19795084.453 8 105704712.674 8      2314.812          51.000    19795086.195 8  82214699.110 8      1800.410          51.000
R16  20413082.906 5 109043024.714 5     -2743.023          33.000
C05  39787909.133 5 207186083.078 5          .840          35.000    39787907.086 6 160209410.270 6          .532          41.000
C19  21465023.625 8 111773996.578 8      -104.875          51.000
C20  24039804.141 8 125181540.219 8     -2673.820          50.000
E05  23798067.719 5 125059676.636 5      1080.672          35.000    23798058.375 5  95824931.506 5       828.098          33.000
E09  22269172.344 8 117025279.750 8     -1285.926          51.000    22269175.156 8  89668724.609 8      -985.380          51.000
E24  22675235.156 8 119159175.938 8      2030.629          51.000    22675250.211 8  91303832.876 8      1555.972          51.000
E31  24580875.625 7 129173389.890 7      -817.387          43.000    24580877.195 6  98976987.444 6      -626.175          38.000
> 2020 05 06 03 21 30.0000000  0 14        .000000000000
G05  20558465.367 8 108035464.846 8       -14.500          51.000    20558464.430 8  84183471.097 8       -11.299          51.000
G07  21895178.625 7 115059929.516 7     -2120.016          42.000    21895177.383 7  89657071.677 7     -1651.963          42.000
G28  22415127.797 8 117792361.378 8      2812.961          48.000    22415128.773 6  91786218.990 6      2191.921          38.000
G30  20386962.570 8 107134211.888 8      -409.695          51.000    20386964.156 8  83481206.184 8      -319.243          51.000
R06  20227958.664 7 107940262.588 7     -2232.375          46.000
R09  19782139.789 8 105635587.594 8      2293.551          51.000    19782141.539 8  82160935.184 8      1783.873          51.000
R16  20428541.242 5 109125601.728 5     -2761.664          33.000
C05  39787903.867 5 207186055.831 5         1.070          35.000    39787901.992 6 160209389.201 6          .577          41.000
C19  21465667.266 8 111777347.304 8      -118.473          51.000
C20  24055230.914 8 125261874.701 8     -2681.883          51.000
E05  23791918.219 5 125027373.345 5      1074.887          30.000    23791905.312 5  95800151.311 5       823.743          35.000
E09  22276534.305 8 117063964.989 8     -1293.016          51.000    22276536.625 8  89698366.541 8      -990.743          51.000
E24  22663674.641 8 119098426.003 8      2019.469          51.000    22663689.188 8  91257284.229 8      1547.328          51.000
E31  24585580.656 6 129198113.767 6      -830.773          41.000    24585581.445 6  98995931.751 6      -636.713          38.000
> 2020 05 06 03 22  0.0000000  0 14        .000000000000
G05  20558601.414 8 108036179.051 8       -32.250          51.000    20558600.492 8  84184027.616 8       -25.130          51.000
G07  21907302.680 7 115123642.162 7     -2126.613          42.000    21907301.797 7  89706717.883 7     -1657.101          42.000
G28  22399096.438 7 117708115.490 7      2804.312          47.000    22399095.969 6  91720572.991 6      2185.185          37.000
G30  20389341.117 8 107146711.024 8      -422.574          51.000    20389342.352 8  83490945.762 8      -329.279          51.000
R06  20240552.117 7 108007463.816 7     -2246.758          46.000
R09  19769313.320 8 105567092.589 8      2273.812          51.000    19769314.695 8  82107661.303 8      1768.521          51.000
R16  20444098.508 4 109208702.051 4     -2777.645          29.000
C05  39787895.555 5 207186013.059 5         2.484          35.000    39787893.867 6 160209356.108 6         2.102          41.000
C19  21466387.680 8 111781098.244 8      -130.582          51.000
C20  24070701.883 8 125342440.453 8     -2688.293          50.000
E05  23785799.812 5 124995221.566 5      1070.664          32.000    23785789.016 6  95775521.962 6       820.175          36.000
E09  22283934.273 8 117102851.459 8     -1298.418          51.000    22283936.203 8  89728162.653 8      -994.907          51.000
E24  22652176.586 8 119038002.967 8      2009.758          51.000    22652189.648 8  91210986.044 8      1540.022          51.000
E31  24590361.086 6 129223233.755 6      -842.906          40.000    24590362.117 6  99015179.561 6      -645.645          39.000
> 2020 05 06 03 22 30.0000000  0 13        .000000000000
G05  20558854.516 8 108037508.693 8       -53.957          51.000    20558853.312 8  84185063.707 8       -42.044          51.000
G07  21919480.086 7 115187635.659 7     -2137.145          42.000    21919479.461 7  89756582.979 7     -1665.307          42.000
G28  22383129.383 7 117624209.865 7      2791.648          43.000    22383128.148 6  91655192.053 6      2175.314          40.000
G30  20391808.562 8 107159677.513 8      -439.363          51.000    20391809.766 8  83501049.528 8      -342.361          51.000
R06  20253243.039 7 108075185.345 7     -2265.410          45.000
R09  19756613.172 8 105499273.842 8      2250.062          51.000    19756614.359 8  82054913.401 8      1750.049          51.000
R16  20459761.180 5 109292366.620 5     -2797.590          33.000
C05  39787892.578 5 207185996.975 5          .492          35.000    39787891.008 6 160209344.451 6          .378          41.000
C19  21467193.531 8 111785293.246 8      -146.582          51.000
C20  24086225.500 8 125423279.721 8     -2698.523          51.000
E09  22291380.898 8 117141982.972 8     -1307.859          51.000    22291382.641 8  89758146.521 8     -1002.102          51.000
E24  22640749.445 8 118977951.644 8      1996.129          51.000    22640760.555 8  91164972.699 8      1529.561          49.000
E31  24595225.273 6 129248792.536 6      -858.777          38.000    24595226.555 6  99034763.594 6      -658.075          38.000
> 2020 05 06 03 23  0.0000000  0 12        .000000000000
G05  20559215.930 8 108039407.939 8       -72.617          51.000    20559214.516 8  84186543.635 8       -56.585          51.000
G07  21931701.922 7 115251862.300 7     -2144.641          44.000    21931700.828 7  89806629.680 7     -1671.152          44.000
G28  22367216.820 5 117540601.268 5      2782.266          32.000    22367217.898 5  91590042.531 5      2167.999          32.000
G30  20394355.992 8 107173064.149 8      -452.914          51.000    20394357.188 8  83511480.683 8      -352.920          51.000
R06  20266022.320 7 108143378.578 7     -2280.914          45.000
R09  19744031.125 8 105432086.190 8      2229.238          51.000    19744032.492 8  82002656.338 8      1733.852          51.000
C05  39787886.305 5 207185964.833 5         1.703          35.000    39787884.656 6 160209318.834 6         1.045          40.000
C19  21468075.969 8 111789887.185 8      -159.660          51.000
C20  24101793.047 8 125504345.686 8     -2705.766          49.000
E09  22298865.406 8 117181313.495 8     -1314.207          51.000    22298867.312 8  89788282.884 8     -1006.996          51.000
E24  22629384.617 8 118918227.045 8      1985.504          51.000    22629394.758 8  91119209.718 8      1521.387          50.000
E31  24600163.188 5 129274742.869 5      -871.254          35.000    24600164.641 6  99054647.678 6      -667.716          37.000
> 2020 05 06 03 23 30.0000000  0 14        .000000000000
G05  20559692.453 8 108041911.786 8       -92.633          51.000    20559690.844 8  84188494.675 8       -72.181          51.000
G07  21943974.680 7 115316355.128 7     -2153.465          44.000    21943972.656 7  89856883.806 7     -1678.025          44.000
G28  22351370.156 6 117457237.849 6      2770.988          37.000    22351371.828 6  91525153.208 6      2159.212          36.000
G30  20396989.758 8 107186904.434 8      -468.004          51.000    20396990.711 8  83522265.327 8      -364.678          51.000
R06  20278896.742 7 108212078.705 7     -2297.535          47.000
R07  19484550.641 5 104302336.573 5      1372.680          35.000    19484550.625 5  81124026.627 5      1067.640          31.000
R09  19731574.219 8 105365566.570 8      2207.051          51.000    19731575.438 8  81950918.840 8      1716.595          51.000
R16  20491380.883 5 109461280.258 5     -2832.637          32.000    20491379.383 4  85136543.438 4     -2203.162          26.000
C05  39787883.141 5 207185947.854 5          .977          35.000    39787881.391 6 160209305.675 6          .671          40.000
C19  21469041.609 8 111794914.843 8      -174.008          51.000
C20  24117410.492 8 125585671.622 8     -2714.312          48.000
E09  22306394.234 8 117220877.708 8     -1321.898          51.000    22306396.148 8  89818598.296 8     -1012.901          51.000
E24  22618088.656 8 118858864.843 8      1973.539          51.000    22618098.883 8  91073724.446 8      1512.162          51.000
E31                                                                  24605183.289 6  99074857.573 6      -678.374          37.000
> 2020 05 06 03 24  0.0000000  0 15        .000000000000
G05  20560263.719 8 108044913.284 8      -104.859          51.000    20560261.812 8  84190833.512 8       -81.709          51.000
G07  21956277.445 7 115381005.268 7     -2154.062          45.000    21956274.852 7  89907260.515 7     -1678.493          42.000
G13  21837925.906 5 114759073.612 5      2328.492          30.000
G28  22335569.125 7 117374193.029 7      2767.914          44.000    22335569.727 7  91460442.981 7      2156.816          45.000
G30  20399689.180 8 107201090.274 8      -475.137          51.000    20399690.109 8  83533319.238 8      -370.236          51.000
R06  20291845.914 7 108281176.138 7     -2306.191          47.000
R07  19476885.938 5 104261335.279 5      1363.742          34.000    19476895.383 5  81092136.695 5      1060.688          33.000
R09  19719222.320 8 105299607.983 8      2192.922          51.000    19719223.258 8  81899617.703 8      1705.606          50.000
C05  39787862.719 5 207185841.957 5         8.742          35.000    39787860.859 6 160209223.008 6         6.697          41.000
C19  21470070.180 8 111800270.800 8      -180.488          51.000
C20  24133057.266 7 125667150.338 7     -2715.012          46.000
E05  23761665.859 5 124868396.799 5      1050.711          31.000    23761667.156 6  95678387.497 6       805.039          37.000
E09  22313947.148 8 117260568.660 8     -1321.688          51.000    22313949.031 8  89849010.835 8     -1012.722          51.000
E24  22606841.430 8 118799759.165 8      1969.422          51.000    22606852.078 8  91028435.711 8      1508.990          51.000
E31                                                                  24610263.266 6  99095310.510 6      -683.310          38.000
> 2020 05 06 03 24 30.0000000  0 14        .000000000000
G05  20560976.984 8 108048661.594 8      -131.594          51.000    20560975.227 8  84193754.278 8      -102.541          51.000
G07  21968657.133 7 115446059.900 7     -2169.426          42.000    21968654.078 7  89957952.418 7     -1690.462          42.000
G28  22319858.906 8 117291629.576 8      2749.879          49.000    22319859.305 7  91396107.843 7      2142.763          47.000
G30  20402501.516 8 107215869.512 8      -496.840          51.000    20402502.469 8  83544835.542 8      -387.148          51.000
R06  20304916.641 7 108350922.573 7     -2329.750          47.000
R07  19469348.281 5 104220991.007 5      1339.648          33.000    19469357.648 5  81060757.758 5      1041.949          33.000
R09  19707023.344 8 105234465.162 8      2163.629          51.000    19707024.281 8  81848951.080 8      1682.826          50.000
R16  20523390.141 5 109632234.195 5     -2867.277          30.000
C05  39787872.312 6 207185891.850 6         1.121          36.000    39787870.516 6 160209261.577 6         1.015          41.000
C19  21471209.133 8 111806202.248 8      -201.652          51.000
C20  24148780.055 7 125749027.469 7     -2730.164          45.000
E09  22321571.570 8 117300635.418 8     -1336.160          51.000    22321573.359 8  89879711.331 8     -1023.763          51.000
E24  22595690.695 8 118741160.044 8      1950.535          51.000    22595701.742 8  90983535.113 8      1494.539          51.000
E31                                                                  24615450.609 6  99116196.379 6      -699.224          37.000
> 2020 05 06 03 25  0.0000000  0 14        .000000000000
G05  20561782.461 8 108052895.229 8      -151.219          51.000    20561780.992 8  84197053.197 8      -117.833          51.000
G07  21981063.336 6 115511255.359 6     -2177.406          40.000    21981060.242 6  90008754.080 6     -1696.677          39.000
G28  22304190.922 8 117209288.166 8      2738.938          51.000    22304190.828 8  91331945.687 8      2134.237          48.000
G30  20405376.633 8 107230978.910 8      -511.234          51.000    20405377.516 8  83556609.098 8      -398.364          51.000
R06  20318058.594 7 108421050.917 7     -2345.961          46.000
R07  19461887.016 6 104181038.762 6      1323.020          36.000    19461891.555 5  81029683.792 5      1029.015          32.000
R09  19694927.359 8 105169873.431 8      2141.727          51.000    19694928.406 8  81798713.114 8      1665.790          49.000
R16  20539535.914 4 109718509.352 4     -2883.262          28.000
C05                                                                  39787860.281 6 160209220.407 6         1.060          41.000
C19  21472408.852 8 111812450.014 8      -215.633          51.000
C20  24164529.922 7 125831042.272 7     -2738.316          47.000
E09  22329217.672 8 117340815.943 8     -1343.348          51.000    22329219.523 8  89910499.004 8     -1029.306          51.000
E24  22584586.703 8 118682806.493 8      1938.949          51.000    22584598.094 8  90938822.658 8      1485.679          51.000
E31                                                                  24620693.828 6  99137313.522 6      -709.206          37.000
> 2020 05 06 03 25 30.0000000  0 14        .000000000000
G05  20562693.484 8 108057683.025 8      -164.656          51.000    20562692.266 8  84200783.926 8      -128.307          51.000
G07  21993509.062 7 115576659.012 7     -2179.410          42.000    21993505.969 6  90059717.948 6     -1698.245          40.000
G13  21798333.039 5 114551002.856 5      2308.953          33.000
G28  22288578.633 8 117127240.427 8      2734.176          51.000    22288578.094 8  91268012.366 8      2130.527          48.000
G30  20408327.477 8 107246486.234 8      -519.348          51.000    20408328.391 8  83568692.740 8      -404.686          51.000
R06  20331284.734 7 108491630.449 7     -2356.070          44.000
R07  19454510.719 6 104141551.474 6      1312.684          36.000    19454515.180 5  80998971.493 5      1020.976          34.000
R09  19682947.969 8 105105904.586 8      2126.031          51.000    19682949.031 8  81748959.610 8      1653.580          48.000
C05  39787845.141 6 207185750.637 6         7.406          36.000    39787843.375 6 160209152.354 6         5.966          40.000
C19  21473682.578 8 111819082.884 8      -223.418          51.000
C20  24180320.445 8 125913261.874 8     -2739.820          50.000
E09  22336898.336 8 117381179.198 8     -1344.238          51.000    22336900.320 8  89941426.697 8     -1030.019          51.000
E24  22573542.445 8 118624768.447 8      1933.535          51.000    22573553.906 8  90894351.957 8      1481.537          51.000
E31  24626015.680 6 129410605.637 6      -932.871          37.000    24626009.992 6  99158742.975 6      -714.714          37.000
> 2020 05 06 03 26  0.0000000  0 14        .000000000000
G05  20563723.070 8 108063092.866 8      -191.977          51.000    20563721.734 8  84204999.398 8      -149.589          51.000
G07  22006006.969 6 115642337.074 6     -2195.406          41.000    22006003.398 6  90110895.626 6     -1710.706          40.000
G13  21785202.430 5 114482020.503 5      2293.668          32.000
G28  22273035.188 8 117045556.430 8      2715.379          51.000    22273034.422 8  91204362.493 8      2115.880          48.000
G30  20411366.797 8 107262458.153 8      -541.398          51.000    20411367.805 8  83581138.398 8      -421.869          51.000
R06  20344607.992 7 108562729.103 7     -2379.973          43.000
R07  19447235.117 6 104102600.542 6      1288.207          38.000    19447239.250 5  80968676.273 5      1001.939          34.000
R09  19671098.422 8 105042629.048 8      2096.266          51.000    19671099.445 7  81699745.331 7      1630.429          47.000
C05  39787834.328 5 207185693.931 5          .059          35.000    39787832.680 6 160209109.279 6         -.085          40.000
C19  21475043.203 8 111826168.486 8      -245.031          51.000
C20  24196163.617 8 125995752.381 8     -2755.461          51.000
E09  22344626.500 8 117421793.066 8     -1359.262          51.000    22344628.719 8  89972546.403 8     -1041.497          51.000
E24  22562570.844 8 118567114.755 8      1914.094          51.000    22562582.992 8  90850175.765 8      1466.592          51.000
E31  24631407.078 6 129438971.572 6      -953.996          38.000    24631410.148 6  99180477.883 6      -731.167          38.000
> 2020 05 06 03 26 30.0000000  0 14        .000000000000
G05  20564884.438 8 108069195.394 8      -210.402          51.000    20564883.047 8  84209754.627 8      -163.947          51.000
G07  22018569.969 6 115708358.247 6     -2201.648          38.000    22018566.391 6  90162340.659 6     -1715.570          38.000
G28  22257574.414 8 116964310.100 8      2705.348          49.000    22257573.688 7  91141053.676 7      2108.066          47.000
G30  20414507.758 8 107278964.201 8      -554.531          51.000    20414508.859 8  83594000.256 8      -432.102          51.000
R06  20358041.805 7 108634417.492 7     -2394.762          43.000
R07  19440074.242 6 104064260.475 6      1272.473          40.000    19440077.250 6  80938856.238 6       989.701          36.000
R09  19659392.570 8 104980120.211 8      2075.547          51.000    19659393.219 7  81651127.347 7      1614.314          47.000
C05  39787843.320 6 207185740.512 6         1.562          36.000    39787841.633 6 160209145.294 6          .921          41.000
C19  21476504.438 8 111833777.385 8      -257.887          51.000
C20  24212071.789 8 126078582.725 8     -2762.164          51.000
E05  23732364.414 5 124714413.875 5      1010.641          35.000    23732359.203 5  95560385.144 5       774.752          32.000
E09  22352416.047 8 117462728.299 8     -1365.297          51.000    22352418.453 8  90003912.349 8     -1046.125          51.000
E24  22551685.727 8 118509917.191 8      1903.535          51.000    22551698.555 8  90806349.065 8      1458.610          51.000
E31  24636897.016 5 129467770.347 5      -966.301          35.000    24636902.773 6  99202600.455 6      -740.263          37.000
> 2020 05 06 03 27  0.0000000  0 14        .000000000000
G05  20566137.484 8 108075780.464 8      -229.711          51.000    20566136.375 8  84214885.838 8      -178.996          51.000
G07  22031158.219 6 115774510.299 6     -2209.500          38.000    22031155.289 6  90213887.724 6     -1721.688          36.000
G28  22242156.719 8 116883292.980 8      2694.516          48.000    22242155.742 7  91077923.484 7      2099.623          43.000
G30  20417710.008 8 107295792.457 8      -568.387          51.000    20417711.156 8  83607113.186 8      -442.899          51.000
R06  20371546.750 7 108706480.935 7     -2410.590          46.000
R07  19432986.680 6 104026318.860 6      1255.754          39.000    19432990.586 6  80909346.107 6       976.694          37.000
R09  19647790.586 8 104918165.620 8      2053.711          51.000    19647790.766 8  81602940.471 8      1597.334          48.000
C05  39787831.844 5 207185681.445 5         1.621          35.000    39787830.109 6 160209098.845 6         1.220          40.000
C19  21478026.180 8 111841701.178 8      -271.461          51.000
C20  24228003.656 8 126161542.923 8     -2769.539          49.000
E05  23726610.883 5 124684180.432 5      1004.344          33.000    23726601.477 5  95537192.597 5       769.954          31.000
E09  22360226.828 8 117503774.180 8     -1372.086          51.000    22360229.281 8  90035363.088 8     -1051.348          51.000
E24  22540847.758 8 118452966.044 8      1892.207          51.000    22540860.859 8  90762711.159 8      1449.909          51.000
E31  24642445.477 6 129496936.294 6      -979.398          39.000    24642450.797 6  99224948.432 6      -750.523          37.000
> 2020 05 06 03 27 30.0000000  0 14        .000000000000
G05  20567506.586 8 108082975.639 8      -248.113          51.000    20567505.547 8  84220492.454 8      -193.335          51.000
G07  22043795.695 6 115840919.514 6     -2215.945          39.000    22043793.688 6  90265635.182 6     -1726.708          38.000
G28  22226807.594 7 116802635.716 7      2684.438          47.000    22226806.195 6  91015073.716 6      2091.776          41.000
G30  20420997.680 8 107313069.702 8      -581.496          51.000    20420998.891 8  83620576.003 8      -453.111          51.000
R06  20385146.398 7 108779048.451 7     -2425.344          46.000
R07  19425996.953 5 103988908.410 5      1239.852          35.000    19426001.945 6  80880249.014 6       964.326          36.000
R09  19636316.953 8 104856896.936 8      2032.762          51.000    19636316.820 8  81555287.083 8      1581.040          49.000
C05  39787824.125 5 207185641.536 5         3.031          35.000    39787822.445 6 160209067.965 6         2.033          41.000
C19  21479632.750 8 111850067.199 8      -284.332          51.000
C20  24243982.609 7 126244758.607 7     -2776.043          45.000
E05  23720896.031 5 124654151.705 5       999.398          35.000    23720888.414 5  95514187.665 5       765.695          32.000
E09  22368083.023 8 117545058.798 8     -1378.301          51.000    22368085.156 8  90066996.750 8     -1056.062          51.000
E24  22530081.688 8 118396390.296 8      1881.445          51.000    22530094.727 8  90719360.925 8      1441.579          51.000
E31  24648074.250 6 129526523.337 6      -991.379          41.000    24648081.758 6  99247618.994 6      -759.583          39.000
> 2020 05 06 03 28  0.0000000  0 14        .000000000000
G05  20568984.758 8 108090743.806 8      -268.879          51.000    20568983.844 8  84226545.573 8      -209.516          51.000
G07  22056474.773 6 115907546.923 6     -2224.664          41.000    22056473.188 6  90317552.612 6     -1733.504          40.000
G28  22211520.328 7 116722303.272 7      2672.074          46.000    22211517.234 6  90952477.085 6      2082.139          38.000
G30  20424363.547 8 107330757.525 8      -596.742          51.000    20424364.664 8  83634358.721 8      -464.994          51.000
R06  20398832.938 7 108852080.969 7     -2442.434          46.000
R07  19419102.211 6 103951993.527 6      1221.898          40.000    19419104.867 5  80851537.441 5       950.365          35.000
R09  19624964.773 8 104796277.582 8      2009.406          51.000    19624964.891 8  81508138.708 8      1562.868          50.000
C05  39787813.336 6 207185584.739 6         1.730          36.000    39787811.500 6 160209024.020 6         1.498          41.000
C19  21481317.156 8 111858838.909 8      -299.488          51.000
C20  24260002.000 7 126328191.829 7     -2785.105          46.000
E05  23715215.375 5 124624300.239 5       991.184          34.000    23715210.164 5  95491318.238 5       759.784          32.000
E09  22375977.594 8 117586544.866 8     -1386.551          51.000    22375979.484 8  90098784.766 8     -1062.419          51.000
E24  22519380.523 8 118340153.629 8      1868.562          51.000    22519392.938 8  90676270.529 8      1431.750          51.000
E31  24653776.977 6 129556492.873 6     -1005.734          38.000    24653786.641 6  99270582.720 6      -770.553          39.000
> 2020 05 06 03 28 30.0000000  0 14        .000000000000
G05  20570575.398 8 108099103.374 8      -289.125          51.000    20570574.742 8  84233059.522 8      -225.292          51.000
G07  22069198.492 6 115974409.013 6     -2233.586          39.000    22069196.625 6  90369652.939 6     -1740.457          38.000
G28  22196298.141 7 116642316.936 7      2659.910          42.000    22196294.062 6  90890150.124 6      2072.657          40.000
G30  20427810.734 8 107348872.992 8      -611.664          51.000    20427811.805 8  83648474.669 8      -476.621          51.000
R06  20412609.570 7 108925596.143 7     -2459.203          46.000
R07  19412302.938 6 103915595.099 6      1204.145          41.000    19412304.633 6  80823227.581 6       936.557          36.000
R09  19613738.172 8 104736327.853 8      1986.531          51.000    19613738.805 8  81461511.154 8      1545.083          51.000
C05  39787802.727 5 207185529.147 5         1.141          35.000    39787800.828 6 160208981.020 6         1.036          41.000
C19  21483083.039 8 111868034.881 8      -314.281          51.000
C20  24276068.961 8 126411859.442 8     -2793.316          49.000
E05  23709571.906 5 124594643.041 5       983.988          34.000    23709568.867 5  95468609.158 5       753.908          32.000
E09  22383914.227 8 117628250.741 8     -1394.434          51.000    22383915.992 8  90130741.208 8     -1068.492          51.000
E24  22508747.453 8 118284275.375 8      1855.984          51.000    22508759.094 8  90633454.745 8      1422.187          51.000
E31  24659557.641 6 129586862.101 6     -1019.574          38.000    24659566.086 6  99293852.755 6      -781.451          37.000
> 2020 05 06 03 29  0.0000000  0 15        .000000000000
G05  20572281.492 8 108108069.906 8      -308.664          51.000    20572280.852 8  84240046.433 8      -240.517          51.000
G07  22081969.445 5 116041519.821 5     -2240.992          33.000    22081967.453 5  90421947.116 5     -1746.222          33.000
G13  21707266.758 5 114072455.986 5      2255.188          31.000
G28  22181144.891 7 116562694.912 7      2648.414          42.000    22181142.422 6  90828106.908 6      2063.699          41.000
G30  20431342.086 8 107367430.481 8      -625.562          51.000    20431343.258 8  83662935.061 8      -487.451          51.000
R06  20426479.672 7 108999608.626 7     -2475.066          46.000
R07  19405602.344 6 103879731.539 6      1186.832          39.000    19405604.703 6  80795333.725 6       923.095          37.000
R09  19602640.133 8 104677065.022 8      1964.281          51.000    19602641.445 8  81415417.887 8      1527.777          51.000
C05  39787795.312 5 207185491.140 5         1.477          35.000    39787793.375 6 160208950.862 6         1.000          41.000
C19  21484933.469 8 111877671.007 8      -328.184          51.000
C20  24292185.367 8 126495775.824 8     -2801.035          51.000
E05  23703970.281 5 124565205.539 5       977.465          32.000    23703968.102 5  95446057.726 5       749.625          31.000
E09  22391895.547 8 117670192.070 8     -1401.672          51.000    22391897.477 8  90162878.065 8     -1074.032          51.000
E24  22498185.750 8 118228772.113 8      1844.125          51.000    22498196.906 8  90590926.280 8      1413.058          51.000
E31  24665416.477 6 129617645.567 6     -1032.617          40.000    24665422.961 6  99317440.089 6      -791.175          37.000
> 2020 05 06 03 29 30.0000000  0 14        .000000000000
G05  20574094.984 8 108117600.611 8      -328.844          51.000    20574094.203 8  84247472.948 8      -256.242          51.000
G07  22094779.320 5 116108834.565 5     -2248.402          34.000    22094776.836 5  90474400.267 5     -1751.999          35.000
G28  22166055.227 7 116483396.853 7      2635.953          45.000    22166053.758 7  90766316.185 7      2053.986          43.000
G30  20434949.352 8 107386385.950 8      -640.246          51.000    20434950.320 8  83677705.561 8      -498.893          51.000
R06  20440434.891 7 109074073.864 7     -2491.559          47.000
R07  19398994.562 6 103844361.359 6      1168.816          41.000    19398997.156 6  80767823.557 6       909.082          38.000
R09  19591662.828 8 104618446.807 8      1941.277          51.000    19591664.234 8  81369825.928 8      1509.879          51.000
C05  39787782.789 5 207185425.172 5          .375          35.000    39787780.922 6 160208900.596 6          .607          41.000
C19  21486860.445 8 111887705.183 8      -342.812          51.000
C20  24308341.820 8 126579897.274 8     -2809.227          51.000
E05                                                                  23698400.844 5  95423639.909 5       743.363          31.000
E09  22399913.484 8 117712326.018 8     -1409.430          51.000    22399915.656 8  90195162.505 8     -1079.956          51.000
E24  22487687.508 8 118173601.946 8      1831.723          51.000    22487698.273 8  90548653.035 8      1403.486          51.000
E31  24671345.266 6 129648799.201 6     -1046.230          41.000    24671352.617 6  99341311.074 6      -801.576          37.000
> 2020 05 06 03 30  0.0000000  0 15        .000000000000
G05  20576023.305 8 108127733.366 8      -348.406          51.000    20576022.422 8  84255368.600 8      -271.485          51.000
G07  22107635.016 6 116176390.299 6     -2256.191          38.000    22107631.398 6  90527041.026 6     -1758.071          37.000
G13  21681575.797 5 113937449.222 5      2241.848          33.000
G28  22151035.641 7 116404463.113 7      2624.477          47.000    22151034.336 7  90704809.374 7      2045.047          44.000
G30  20438639.281 8 107405776.233 8      -654.215          51.000    20438640.070 8  83692814.899 8      -509.775          51.000
R06  20454481.875 7 109149029.675 7     -2507.316          46.000
R07  19392487.320 6 103809525.875 6      1151.602          41.000    19392489.602 6  80740729.314 6       895.687          38.000
R09  19580813.180 8 104560513.585 8      1919.172          49.000    19580814.758 8  81324766.713 8      1492.689          51.000
C05                                                                  39787770.680 6 160208859.406 6          .628          41.000
C19  21488871.211 8 111898175.553 8      -356.926          51.000
C20  24324544.227 8 126664260.399 8     -2816.641          51.000
E05  23692877.078 5 124506909.118 5       963.727          31.000    23692875.000 5  95401389.430 5       738.518          32.000
E09  22407975.344 8 117754690.700 8     -1416.492          51.000    22407977.609 8  90227623.747 8     -1085.376          51.000
E24  22477259.977 8 118118803.945 8      1819.824          51.000    22477270.953 8  90506664.958 8      1394.417          51.000
E31  24677351.789 6 129680359.918 6     -1059.180          41.000    24677359.938 5  99365493.993 5      -811.606          35.000
> 2020 05 06 03 30 30.0000000  0 15        .000000000000
G05  20578061.641 8 108138443.614 8      -367.883          51.000    20578060.695 8  84263714.229 8      -286.662          51.000
G07  22120531.359 6 116244160.658 6     -2264.090          37.000    22120527.016 6  90579849.052 6     -1764.226          38.000
G13  21668795.094 5 113870274.611 5      2235.391          32.000
G28  22136081.148 7 116325872.126 7      2612.609          47.000    22136079.859 7  90643569.652 7      2035.800          45.000
G30  20442407.117 8 107425575.701 8      -668.156          51.000    20442407.836 8  83708243.057 8      -520.644          51.000
R06  20468615.961 7 109224450.037 7     -2523.004          47.000
R07  19386075.320 6 103775202.186 6      1134.414          40.000    19386078.273 6  80714033.091 6       882.322          39.000
R09  19570087.297 8 104503241.435 8      1896.746          51.000    19570088.781 8  81280221.695 8      1475.244          51.000
C05  39787759.828 5 207185306.039 5         1.020          35.000    39787758.094 6 160208808.443 6          .958          40.000
C19  21490961.055 8 111909058.269 8      -370.887          51.000
C20  24340786.781 8 126748839.758 8     -2824.305          48.000
E05                                                                  23687386.938 5  95379286.107 5       733.316          34.000
E09  22416076.461 8 117797261.691 8     -1423.746          51.000    22416078.633 8  90260243.056 8     -1090.889          51.000
E24  22466898.469 8 118064354.593 8      1807.867          51.000    22466910.148 8  90464944.034 8      1385.270          51.000
E31  24683431.109 6 129712302.030 6     -1072.293          39.000    24683436.195 5  99389969.143 5      -821.971          32.000
> 2020 05 06 03 31  0.0000000  0 15        .000000000000
G05  20580190.922 8 108149632.162 8      -387.949          51.000    20580189.898 8  84272432.558 8      -302.298          51.000
G07  22133449.367 6 116312044.454 6     -2271.406          36.000    22133444.125 6  90632745.515 6     -1769.924          36.000
G13  21656027.258 5 113803179.958 5      2227.871          35.000
G28  22121173.070 7 116247526.957 7      2600.141          47.000    22121171.711 7  90582521.483 7      2026.084          46.000
G30  20446233.562 8 107445683.804 8      -682.488          51.000    20446234.266 8  83723911.715 8      -531.806          51.000
R06  20482817.664 7 109300233.132 7     -2539.375          45.000
R07  19379741.516 7 103741291.569 7      1116.254          42.000    19379743.930 6  80687658.181 6       868.197          40.000
R09  19559467.656 8 104446531.185 8      1873.750          51.000    19559468.406 8  81236113.699 8      1457.358          51.000
C05  39787725.852 5 207185129.175 5          .469          35.000    39787724.133 6 160208671.688 6          .465          41.000
C19  21493111.375 8 111920255.353 8      -385.492          51.000
C20  24357050.344 7 126833535.872 7     -2832.008          46.000
E05  23681918.531 5 124449320.121 5       950.297          33.000    23681917.352 5  95357253.551 5       727.844          35.000
E09  22424197.922 8 117839939.776 8     -1431.535          51.000    22424199.766 8  90292944.446 8     -1096.852          51.000
E24  22456584.359 8 118010155.589 8      1795.324          51.000    22456597.109 8  90423414.954 8      1375.653          51.000
E31  24689563.969 6 129744525.048 6     -1085.836          40.000    24689566.820 5  99414659.527 5      -832.007          34.000
> 2020 05 06 03 31 30.0000000  0 14        .000000000000
G05  20582474.281 8 108161630.544 8      -407.348          51.000    20582473.016 8  84281781.943 8      -317.414          51.000
G07  22146450.953 5 116380371.724 5     -2278.582          35.000    22146447.188 5  90685987.567 5     -1775.518          34.000
G28  22106375.031 8 116169761.752 8      2588.438          48.000    22106373.742 7  90521925.257 7      2016.964          46.000
G30  20450181.398 8 107466430.858 8      -696.141          51.000    20450182.305 8  83740078.267 8      -542.444          51.000
R06  20497149.898 7 109376714.565 7     -2554.789          46.000
R07  19373547.602 7 103708134.166 7      1099.016          43.000    19373549.492 6  80661869.093 6       854.790          40.000
R09  19549016.289 8 104390720.928 8      1851.520          51.000    19549017.141 8  81192705.775 8      1440.074          50.000
C05  39787733.734 6 207185169.806 6         1.184          36.000    39787732.008 6 160208703.091 6          .674          41.000
C19  21495385.227 8 111932095.679 8      -399.336          51.000
C20  24373398.703 7 126918676.150 7     -2839.387          45.000
E05  23676528.266 5 124420992.488 5       943.629          35.000    23676528.383 6  95335546.387 6       722.771          36.000
E09  22432402.672 8 117883056.501 8     -1438.441          51.000    22432404.516 8  90325981.928 8     -1102.194          51.000
E24  22446381.141 8 117956539.476 8      1783.566          51.000    22446394.836 8  90382332.470 8      1366.617          51.000
E31  24695812.742 6 129777359.415 6     -1098.309          40.000    24695816.500 6  99439818.373 6      -841.660          36.000
> 2020 05 06 03 32  0.0000000  0 15        .000000000000
G05  20584845.492 8 108174091.116 8      -425.848          51.000    20584844.023 8  84291491.477 8      -331.829          51.000
G07  22159470.586 6 116448793.461 6     -2285.297          38.000    22159469.320 6  90739303.164 6     -1780.757          36.000
G28  22091621.711 8 116092231.663 8      2577.520          49.000    22091620.070 7  90461512.230 7      2008.457          46.000
G30  20454184.641 8 107487468.133 8      -708.945          51.000    20454185.828 8  83756470.942 8      -552.425          51.000
R06  20511546.516 7 109453539.786 7     -2569.426          46.000
R07  19367428.117 7 103675378.193 7      1082.379          43.000    19367430.062 6  80636392.198 6       841.847          40.000
R09  19538667.773 8 104335458.802 8      1829.996          51.000    19538668.453 8  81149724.146 8      1423.330          49.000
R10  22054179.172 6 117561173.083 6      4017.223          39.000
C05  39787717.109 5 207185083.390 5         2.539          35.000    39787715.344 6 160208636.265 6         1.752          40.000
C19  21497716.477 8 111944235.257 8      -412.551          51.000
C20  24389766.844 7 127003914.920 7     -2845.777          47.000
E05  23671150.859 5 124392742.757 5       937.176          33.000    23671154.156 6  95313898.965 6       718.290          36.000
E09  22440624.688 8 117926264.331 8     -1444.703          51.000    22440626.711 8  90359089.229 8     -1107.016          51.000
E24  22436222.875 8 117903159.629 8      1772.438          51.000    22436237.188 8  90341430.999 8      1358.072          51.000
E31  24702110.273 6 129810456.321 6     -1110.375          38.000    24702115.070 6  99465178.370 6      -850.684          36.000
> 2020 05 06 03 32 30.0000000  0 15        .000000000000
G05  20587329.594 8 108187145.676 8      -445.391          51.000    20587328.211 8  84301663.852 8      -347.058          51.000
G07  22172533.391 6 116517440.035 6     -2292.508          40.000    22172533.078 5  90792793.918 5     -1786.382          34.000
G28  22076938.773 8 116015071.023 8      2565.379          51.000    22076936.930 7  90401387.082 7      1998.997          46.000
G30  20458267.914 8 107508926.534 8      -722.582          51.000    20458269.367 8  83773191.774 8      -563.051          51.000
R06  20526032.969 7 109530842.830 7     -2585.105          45.000
R07  19361409.711 7 103643160.477 7      1064.582          44.000    19361411.008 6  80611333.994 6       828.008          41.000
R09  19528446.773 8 104280880.288 8      1807.461          51.000    19528447.531 8  81107274.218 8      1405.806          50.000
R10  22031597.852 6 117440796.632 6      4006.699          40.000
C05  39787701.289 5 207185000.974 5         3.090          35.000    39787699.531 6 160208572.545 6         1.661          41.000
C19  21500130.547 8 111956805.430 8      -426.535          51.000
C20  24406180.438 8 127089382.003 8     -2853.000          49.000
E05                                                                  23665820.125 6  95292413.181 6       713.271          36.000
E09  22448889.047 8 117969695.493 8     -1451.762          51.000    22448891.125 8  90392367.661 8     -1112.389          51.000
E24  22426135.047 8 117850149.112 8      1760.504          51.000    22426149.820 8  90300812.550 8      1348.987          51.000
E31  24708482.578 6 129843946.860 6     -1123.195          36.000    24708486.891 5  99490839.953 5      -860.834          35.000
> 2020 05 06 03 33  0.0000000  0 16        .000000000000
G05  20589917.375 8 108200744.394 8      -462.820          51.000    20589915.734 8  84312260.271 8      -360.639          51.000
G07  22185629.516 6 116586260.167 6     -2297.277          38.000    22185627.688 5  90846419.967 5     -1790.083          30.000
G09  24511723.016 5 128809964.434 5     -3063.320          32.000    24511713.625 5 100371368.806 5     -2387.000          32.000
G28  22062317.477 8 115938232.902 8      2555.371          51.000    22062315.453 7  90341513.244 7      1991.198          46.000
G30  20462421.625 8 107530754.948 8      -734.199          51.000    20462423.086 8  83790200.936 8      -572.103          51.000
R06  20540598.750 7 109608571.186 7     -2598.367          44.000
R07  19355482.828 7 103611432.594 7      1049.113          45.000    19355483.922 7  80586656.758 7       815.977          42.000
R09  19518344.500 8 104226936.292 8      1787.023          51.000    19518345.984 8  81065317.815 8      1389.907          51.000
R10  22009067.477 6 117320700.082 6      3997.930          40.000
C05  39787676.750 5 207184873.116 5         4.809          35.000    39787675.000 6 160208473.633 6         3.715          40.000
C19  21502617.883 8 111969757.130 8      -438.531          51.000
C20  24422628.438 7 127175026.801 7     -2858.215          47.000
E05                                                                  23660515.688 6  95271051.527 6       709.826          36.000
E09  22457186.680 8 118013300.215 8     -1456.699          51.000    22457188.336 8  90425779.075 8     -1116.196          51.000
E24  22416108.422 8 117797459.006 8      1750.699          51.000    22416123.352 8  90260439.633 8      1341.427          51.000
E31                                                                  24714923.930 6  99516763.949 6      -868.822          36.000
> 2020 05 06 03 33 30.0000000  0 13        .000000000000
G05  20592643.523 8 108215070.480 8      -485.266          50.000    20592641.891 8  84323423.452 8      -378.129          50.000
G28  22047792.805 8 115861903.399 8      2540.035          50.000    22047790.828 7  90282035.699 7      1979.248          45.000
G30  20466680.484 8 107553135.721 8      -751.008          51.000    20466682.078 8  83807640.493 8      -585.201          51.000
R06  20555279.633 7 109686909.978 7     -2617.207          45.000
R07  19349682.406 7 103580383.645 7      1027.953          45.000    19349684.086 7  80562507.567 7       799.519          42.000
R09  19508396.031 8 104173814.438 8      1761.383          50.000    19508397.961 8  81024000.773 8      1369.964          51.000
R10  21986625.266 6 117201073.207 6      3983.969          39.000
C05                                                                  39787676.609 6 160208480.178 6         1.486          40.000
C19  21505213.344 8 111983272.542 8      -455.684          51.000
C20  24439143.680 7 127261030.011 7     -2868.344          44.000
E09  22465552.578 8 118057262.084 8     -1467.023          51.000    22465553.672 8  90459464.134 8     -1124.044          51.000
E24  22406178.312 8 117745273.805 8      1735.406          51.000    22406192.984 8  90220453.591 8      1329.718          51.000
E31  24721457.180 5 129912134.496 5     -1149.699          33.000    24721461.609 6  99543090.075 6      -880.941          38.000
> 2020 05 06 03 34  0.0000000  0 13        .000000000000
G05  20595463.805 8 108229890.065 8      -505.164          51.000    20595461.977 8  84334971.168 8      -393.634          51.000
G28  22033320.031 7 115785851.515 7      2527.523          46.000    22033319.117 7  90222774.465 7      1969.496          44.000
G30  20470999.734 8 107575834.269 8      -764.797          51.000    20471001.578 8  83825327.680 8      -595.946          51.000
R06  20570030.914 7 109765621.952 7     -2632.875          47.000
R07  19343965.281 7 103549778.719 7      1009.754          46.000    19343966.711 7  80538703.742 7       785.364          42.000
R09  19498557.453 8 104121278.704 8      1738.410          51.000    19498559.742 8  80983139.642 8      1352.097          51.000
R10  21964227.531 6 117081681.723 6      3972.895          39.000
C05  39787661.781 6 207184795.190 6         1.977          36.000    39787660.062 6 160208413.360 6         1.278          40.000
C19  21507872.883 8 111997120.839 8      -470.004          51.000
C20  24455682.312 7 127347159.270 7     -2875.938          43.000
E09  22473942.156 8 118101347.841 8     -1474.453          51.000    22473942.789 8  90493244.108 8     -1129.818          51.000
E24  22396300.164 8 117693361.111 8      1723.035          51.000    22396314.547 8  90180676.352 8      1320.245          51.000
E31                                                                  24728054.727 6  99569638.634 6      -890.750          39.000
> 2020 05 06 03 34 30.0000000  0 14        .000000000000
G05  20598398.812 8 108245312.319 8      -523.094          51.000    20598396.680 8  84346988.511 8      -407.606          51.000
G28  22018920.031 7 115710188.131 7      2516.930          43.000    22018920.844 7  90163815.950 7      1961.241          43.000
G30  20475399.883 8 107598957.811 8      -776.852          50.000    20475401.719 8  83843346.020 8      -605.339          51.000
R06  20584872.164 7 109844815.322 7     -2646.688          47.000
R07  19338351.969 7 103519730.100 7       993.445          47.000    19338353.039 7  80515332.600 7       772.683          42.000
R09  19488850.180 8 104069440.452 8      1717.355          51.000    19488852.094 8  80942820.995 8      1335.718          51.000
R10  21941894.969 6 116962639.034 6      3963.051          37.000
C05  39787647.664 6 207184722.406 6         3.098          36.000    39787645.898 6 160208356.268 6         2.377          41.000
C19  21510616.969 8 112011409.809 8      -482.570          51.000
C20  24472267.352 7 127433520.916 7     -2881.645          46.000
E05  23644874.406 5 124254653.480 5       903.996          33.000
E09  22482376.023 8 118145665.934 8     -1480.113          51.000    22482376.453 8  90527202.100 8     -1134.086          51.000
E24  22386494.570 8 117641830.281 8      1712.336          51.000    22386508.578 8  90141191.712 8      1312.029          51.000
E31                                                                  24734723.742 6  99596491.801 6      -899.591          40.000
> 2020 05 06 03 35  0.0000000  0 15        .000000000000
G05  20601448.688 8 108261338.602 8      -543.926          51.000    20601446.477 8  84359476.537 8      -423.838          51.000
G07  22238482.969 5 116864013.902 5     -2328.504          32.000    22238479.930 5  91062853.254 5     -1814.413          32.000
G28  22004595.438 7 115634917.936 7      2502.750          43.000    22004596.898 7  90105163.888 7      1950.198          43.000
G30  20479881.070 8 107622507.149 8      -791.789          51.000    20479882.867 8  83861696.160 8      -616.978          51.000
R06  20599803.469 8 109924491.424 8     -2663.504          48.000
R07  19332842.992 7 103490242.412 7       973.902          46.000    19332844.031 7  80492397.742 7       757.480          43.000
R09  19479273.578 8 104018303.008 8      1693.281          51.000    19479275.211 8  80903047.436 8      1316.997          50.000
R10  21919625.000 5 116843949.854 5      3951.203          32.000
C05  39787636.203 5 207184662.158 5         2.281          35.000    39787634.555 6 160208310.434 6         1.731          41.000
C19  21513445.750 8 112026141.859 8      -498.059          51.000
C20  24488898.781 8 127520115.784 8     -2889.938          49.000
E05  23639741.492 5 124227678.852 5       895.906          33.000    23639742.922 5  95187461.965 5       686.351          35.000
E09  22490854.375 8 118190218.499 8     -1488.699          51.000    22490855.008 8  90561339.758 8     -1140.686          51.000
E24  22376762.133 8 117590684.286 8      1698.789          51.000    22376775.500 8  90102001.947 8      1301.664          51.000
E31                                                                  24741468.930 6  99623650.172 6      -910.061          41.000
> 2020 05 06 03 35 30.0000000  0 15        .000000000000
G05  20604608.250 8 108277942.497 8      -563.062          50.000    20604606.211 8  84372414.637 8      -438.750          50.000
G07  22251793.250 5 116933965.070 5     -2335.078          32.000    22251793.742 5  91117360.695 5     -1819.541          33.000
G28  21990342.133 7 115560017.207 7      2490.574          46.000    21990342.828 7  90046799.710 7      1940.707          42.000
G30  20484438.133 8 107646454.895 8      -804.848          50.000    20484439.977 8  83880356.743 8      -627.154          50.000
R06  20614820.125 8 110004622.694 8     -2678.578          48.000
R07  19327434.375 7 103461290.727 7       956.141          46.000    19327435.750 7  80469879.754 7       743.662          44.000
R09  19469823.477 8 103967840.932 8      1670.781          51.000    19469825.016 8  80863799.179 8      1299.497          50.000
R10  21897413.711 5 116725590.357 5      3939.645          34.000
C05  39787622.586 6 207184591.667 6         2.605          36.000    39787621.023 6 160208255.896 6         1.951          41.000
C19  21516354.898 8 112041291.359 8      -511.844          51.000
C20  24505569.898 8 127606916.808 8     -2896.793          50.000
E05  23634648.289 5 124200912.080 5       888.879          33.000    23634648.766 6  95166950.768 6       681.331          36.000
E09  22499372.219 8 118234979.408 8     -1495.434          51.000    22499372.906 8  90595637.061 8     -1145.864          51.000
E24  22367098.117 8 117539897.917 8      1686.918          51.000    22367110.484 8  90063087.734 8      1292.582          51.000
E31  24748282.820 5 130053103.014 5     -1200.254          33.000    24748284.258 6  99651092.851 6      -919.487          41.000
> 2020 05 06 03 36  0.0000000  0 14        .000000000000
G05  20607874.180 8 108295106.762 8      -582.207          50.000    20607872.711 8  84385789.387 8      -453.668          50.000
G28  21976156.875 8 115485471.522 8      2478.164          50.000    21976156.703 7  89988712.181 7      1931.037          43.000
G30  20489067.570 8 107670782.720 8      -817.969          50.000    20489069.273 8  83899313.487 8      -637.378          50.000
R06  20629918.414 8 110085189.803 8     -2693.648          48.000
R07  19322123.422 7 103432860.335 7       938.191          47.000    19322124.766 7  80447767.237 7       729.704          44.000
R09  19460496.789 8 103918037.807 8      1648.426          51.000    19460498.539 8  80825063.447 8      1282.112          50.000
R10  21875265.633 6 116607546.306 6      3928.637          37.000
C05  39787603.656 6 207184492.854 6         2.832          36.000    39787602.102 6 160208179.483 6         2.329          41.000
C19  21519341.109 8 112056841.694 8      -525.711          51.000
C20  24522276.273 8 127693905.848 8     -2903.383          50.000
E05                                                                  23629590.984 6  95146580.993 6       676.088          36.000
E09  22507926.406 8 118279931.626 8     -1502.258          51.000    22507927.234 8  90630080.960 8     -1151.075          51.000
E24  22357499.273 8 117489454.981 8      1675.004          51.000    22357510.688 8  90024436.666 8      1283.531          51.000
E31  24755164.547 5 130089267.757 5     -1212.625          33.000    24755166.477 6  99678805.783 6      -928.936          40.000
> 2020 05 06 03 36 30.0000000  0 14        .000000000000
G05  20611254.336 8 108312870.275 8      -600.945          51.000    20611253.070 8  84399631.104 8      -468.269          51.000
G28  21962047.250 8 115411322.607 8      2466.086          49.000    21962046.344 7  89930933.805 7      1921.625          43.000
G30  20493776.672 8 107695528.674 8      -830.691          51.000    20493778.078 8  83918596.061 8      -647.289          51.000
R06  20645105.555 7 110166232.032 7     -2708.227          46.000
R07  19316917.773 8 103404993.824 8       920.602          48.000    19316919.266 7  80426093.291 7       716.023          45.000
R09  19451301.406 8 103868934.782 8      1626.133          51.000    19451303.125 8  80786872.232 8      1264.770          50.000
R10  21853186.578 5 116489860.596 5      3917.844          35.000
C05  39787586.750 5 207184404.798 5         3.805          35.000    39787585.242 6 160208111.358 6         3.141          41.000
C19  21522411.484 8 112072832.149 8      -539.293          51.000
C20  24539025.617 8 127781120.679 8     -2909.828          50.000
E05  23624572.148 5 124147967.226 5       876.203          33.000    23624576.031 6  95126383.380 6       671.050          37.000
E09  22516524.242 8 118325114.523 8     -1508.914          51.000    22516525.555 8  90664701.608 8     -1156.163          51.000
E24  22347973.195 8 117439395.708 8      1663.336          51.000    22347984.016 8  89986079.571 8      1274.459          51.000
E31                                                                  24762123.531 6  99706818.116 6      -937.924          41.000
> 2020 05 06 03 37  0.0000000  0 14        .000000000000
G05  20614742.617 8 108331201.709 8      -620.344          51.000    20614741.391 8  84413915.356 8      -483.385          51.000
G28  21948007.391 8 115337542.045 8      2453.457          48.000    21948006.211 7  89873442.468 7      1911.785          43.000
G30  20498559.258 8 107720660.583 8      -844.012          51.000    20498560.812 8  83938179.373 8      -657.671          51.000
R06  20660374.664 7 110247716.726 7     -2723.219          43.000
R07  19311811.828 8 103377661.312 8       902.324          48.000    19311813.516 7  80404834.670 7       701.808          45.000
R09  19442231.633 8 103820501.640 8      1603.398          51.000    19442232.852 8  80749202.016 8      1247.088          50.000
R10  21831170.742 6 116372504.651 6      3907.000          36.000
C05  39787566.180 5 207184297.729 5         3.969          35.000    39787564.555 6 160208027.781 6         3.102          41.000
C19  21525560.688 8 112089232.318 8      -553.348          51.000
C20  24555811.883 8 127868529.428 8     -2916.660          50.000
E05  23619592.758 6 124121799.240 6       869.188          36.000    23619597.867 6  95106334.865 6       665.932          38.000
E09  22525159.930 8 118370497.189 8     -1515.934          51.000    22525161.664 8  90699475.321 8     -1161.562          51.000
E24  22338514.070 8 117389690.026 8      1651.074          51.000    22338524.609 8  89947993.385 8      1265.091          51.000
E31                                                                  24769148.898 6  99735105.246 6      -947.415          40.000
> 2020 05 06 03 37 30.0000000  0 15        .000000000000
G05  20618346.164 8 108350138.663 8      -640.961          51.000    20618344.906 8  84428671.426 8      -499.450          51.000
G07  22305418.992 5 117215751.644 5     -2361.105          32.000
G28  21934045.266 7 115264169.931 7      2439.445          46.000    21934043.805 7  89816269.383 7      1900.870          45.000
G30  20503422.164 8 107746214.797 8      -858.531          51.000    20503423.891 8  83958091.766 8      -668.982          51.000
R06  20675733.656 7 110329680.199 7     -2739.695          42.000
R07  19306813.164 8 103350903.404 8       882.707          48.000    19306814.758 7  80384022.972 7       686.550          45.000
R09  19433294.523 8 103772777.197 8      1579.312          51.000    19433295.453 8  80712082.995 8      1228.354          51.000
R10  21809225.594 6 116255519.619 6      3893.480          36.000
C05  39787548.867 5 207184206.965 5         3.676          35.000    39787547.117 6 160207957.600 6         2.371          41.000
C19  21528796.117 8 112106079.762 8      -568.578          51.000
C20  24572641.789 8 127956168.211 8     -2924.707          50.000
E05  23614658.750 5 124095867.339 5       860.867          35.000    23614663.688 6  95086464.960 6       659.464          38.000
E09  22533840.781 8 118416117.289 8     -1524.242          51.000    22533842.945 8  90734430.978 8     -1167.923          51.000
E24  22329129.492 8 117340376.355 8      1637.637          51.000    22329140.227 8  89910207.595 8      1254.822          51.000
E31  24776250.000 6 130200087.208 6     -1249.922          37.000    24776249.242 6  99763694.991 6      -957.846          40.000
> 2020 05 06 03 38  0.0000000  0 16        .000000000000
G05  20622062.148 8 108369666.409 8      -659.188          51.000    20622060.742 8  84443887.839 8      -513.653          51.000
G07  22318922.836 5 117286720.197 5     -2366.727          34.000    22318920.148 5  91392247.361 5     -1844.212          33.000
G13  21481758.711 5 112887403.476 5      2131.293          31.000
G28  21920158.719 8 115191194.349 8      2427.434          48.000    21920157.359 7  89759405.329 7      1891.507          45.000
G30  20508362.422 8 107772175.737 8      -870.523          51.000    20508363.914 8  83978321.054 8      -678.330          51.000
R06  20691179.492 7 110412107.395 7     -2753.715          42.000
R07  19301919.617 8 103324707.807 8       865.480          49.000    19301921.195 7  80363648.631 7       673.151          46.000
R09  19424487.797 8 103725748.069 8      1557.672          50.000    19424489.242 8  80675504.790 8      1211.523          51.000
R10  21787348.289 6 116138893.468 6      3883.039          36.000
C05  39787532.039 5 207184120.275 5         4.602          35.000    39787530.258 6 160207889.774 6         3.356          40.000
C19  21532114.961 8 112123360.543 8      -581.719          51.000
C20  24589513.148 8 128044021.575 8     -2930.461          51.000
E05  23609766.055 6 124070157.111 6       854.938          36.000    23609770.406 6  95066763.370 6       655.109          38.000
E09  22542563.992 8 118461960.563 8     -1530.340          51.000    22542566.648 8  90769557.631 8     -1172.604          51.000
E24  22319817.273 8 117291441.293 8      1626.312          51.000    22319828.461 8  89872711.920 8      1246.118          51.000
E31                                                                  24783421.773 6  99792575.444 6      -966.397          40.000
> 2020 05 06 03 38 30.0000000  0 15        .000000000000
G05  20625889.188 8 108389777.653 8      -679.965          51.000    20625887.836 8  84459558.918 8      -529.843          51.000
G07  22332465.297 6 117357887.652 6     -2375.523          36.000    22332462.594 3  91447700.649 3     -1851.030          23.000
G28  21906347.164 8 115118611.266 8      2412.918          50.000    21906345.578 7  89702847.092 7      1880.199          45.000
G30  20513378.555 8 107798535.377 8      -885.117          50.000    20513379.727 8  83998861.019 8      -689.702          50.000
R06  20706712.148 7 110494989.803 7     -2770.305          46.000
R07  19297130.148 8 103299069.984 8       845.340          49.000    19297132.242 7  80343708.083 7       657.487          46.000
R09  19415810.180 8 103679408.440 8      1533.285          50.000    19415811.484 8  80639462.826 8      1192.552          51.000
R10  21765536.352 5 116022622.792 5      3869.930          31.000
C05  39787514.570 6 207184029.110 6         3.414          36.000    39787512.750 6 160207819.248 6         2.462          40.000
C19  21535515.719 8 112141068.289 8      -597.293          51.000
C20  24606424.320 8 128132081.735 8     -2938.676          51.000
E05  23604914.023 6 124044658.665 6       846.152          36.000    23604916.938 6  95047225.585 6       648.716          38.000
E09  22551328.453 8 118508020.310 8     -1538.891          51.000    22551331.383 8  90804850.166 8     -1179.180          51.000
E24  22310576.250 8 117242878.907 8      1612.527          51.000    22310588.062 8  89835501.810 8      1235.573          51.000
E31  24790665.406 6 130275824.390 6     -1274.945          36.000    24790664.500 6  99821740.487 6      -976.822          40.000
> 2020 05 06 03 39  0.0000000  0 14        .000000000000
G05  20629827.797 8 108410474.928 8      -700.262          51.000    20629826.258 8  84475686.655 8      -545.658          51.000
G28  21892611.242 8 115046425.333 8      2398.980          51.000    21892609.516 7  89646598.317 7      1869.335          46.000
G30  20518470.758 8 107825295.006 8      -899.367          51.000    20518471.969 8  84019712.691 8      -700.806          51.000
R06  20722331.188 8 110578329.320 8     -2786.301          48.000
R07  19292445.883 8 103273994.191 8       825.793          49.000    19292447.883 7  80324204.710 7       642.283          46.000
R09  19407262.141 8 103633761.788 8      1509.406          51.000    19407263.336 8  80603959.853 8      1173.983          51.000
R10  21743792.375 6 115906712.964 6      3857.098          37.000
C05  39787496.852 6 207183936.890 6         2.660          36.000    39787495.031 6 160207747.925 6         2.048          41.000
C19  21538999.172 8 112159205.796 8      -612.406          51.000
C20  24623375.477 8 128220350.015 8     -2946.301          51.000
E05  23600103.086 5 124019378.419 5       838.645          34.000    23600105.227 6  95027854.271 6       642.583          39.000
E09  22560134.930 8 118554299.134 8     -1546.836          51.000    22560137.906 8  90840310.564 8     -1185.253          51.000
E24  22301406.953 8 117194692.664 8      1599.332          51.000    22301419.383 8  89798579.895 8      1225.513          51.000
E31  24797980.242 6 130314260.028 6     -1287.914          37.000    24797977.727 6  99851191.135 6      -987.104          39.000
> 2020 05 06 03 39 30.0000000  0 14        .000000000000
G05  20633877.977 8 108431759.253 8      -719.570          51.000    20633876.484 8  84492271.834 8      -560.704          51.000
G28  21878951.648 8 114974640.824 8      2385.883          51.000    21878949.555 7  89590662.344 7      1859.129          47.000
G30  20523639.391 8 107852455.172 8      -912.320          51.000    20523640.391 8  84040876.453 8      -710.902          51.000
R06  20738035.555 8 110662125.786 8     -2801.020          49.000
R07  19287867.094 8 103249484.950 8       807.219          49.000    19287869.219 7  80305141.960 7       627.834          47.000
R09  19398844.320 8 103588810.816 8      1486.492          51.000    19398845.625 8  80568998.022 8      1156.161          51.000
R10  21722118.852 7 115791168.017 7      3845.312          42.000
C05  39787479.164 6 207183844.484 6         2.527          36.000    39787477.422 6 160207677.190 6         2.308          40.000
C19  21542565.594 8 112177775.019 8      -626.422          51.000
C20  24640366.312 8 128308826.992 8     -2952.887          51.000
E05  23595334.422 6 123994317.201 6       831.531          38.000    23595336.125 6  95008651.486 6       637.016          39.000
E09  22568983.695 8 118600798.890 8     -1553.898          51.000    22568986.438 8  90875940.249 8     -1190.664          51.000
E24  22292309.766 8 117146885.197 8      1587.074          51.000    22292322.727 8  89761948.217 8      1216.013          51.000
E31                                                                  24805362.422 6  99880927.745 6      -996.095          39.000
> 2020 05 06 03 40  0.0000000  0 14        .000000000000
G05  20638037.367 8 108453617.958 8      -738.598          51.000    20638036.336 8  84509304.577 8      -575.531          51.000
G28  21865366.461 8 114903247.724 8      2372.883          51.000    21865363.406 7  89535031.349 7      1849.000          45.000
G30  20528881.617 8 107880002.263 8      -925.125          51.000    20528882.281 8  84062341.729 8      -720.877          51.000
R06  20753822.414 7 110746365.640 7     -2815.824          47.000
R07  19283392.484 8 103225531.919 8       788.777          50.000    19283394.664 7  80286511.827 7       613.497          47.000
R09  19390554.797 8 103544543.854 8      1463.816          51.000    19390555.531 8  80534568.159 8      1138.524          50.000
R10  21700511.750 7 115675978.865 7      3833.227          42.000
C05  39787459.336 6 207183740.615 6         3.273          36.000    39787457.703 6 160207597.656 6         2.583          41.000
C19  21546212.508 8 112196764.026 8      -640.316          51.000
C20  24657394.359 8 128397499.244 8     -2959.375          49.000
E05  23590605.688 6 123969464.417 6       824.766          41.000    23590607.141 6  94989608.440 6       632.053          40.000
E09  22577872.305 8 118647507.339 8     -1560.801          51.000    22577874.641 8  90911729.822 8     -1195.878          51.000
E24  22283282.156 8 117099445.049 8      1574.906          51.000    22283295.414 8  89725597.986 8      1206.749          51.000
E31  24812814.852 6 130392217.327 6     -1311.887          37.000    24812816.117 6  99910939.974 6     -1005.290          38.000
> 2020 05 06 03 40 30.0000000  0 14        .000000000000
G05  20642307.227 8 108476056.857 8      -757.250          51.000    20642306.547 8  84526789.423 8      -590.068          51.000
G28  21851857.305 8 114832254.674 8      2360.109          51.000    21851853.047 7  89479712.087 7      1839.046          46.000
G30  20534198.203 8 107907941.005 8      -937.477          51.000    20534198.867 8  84084112.187 8      -730.501          51.000
R06  20769692.766 7 110831053.518 7     -2829.938          46.000
R07  19279023.094 8 103202143.021 8       770.551          50.000    19279025.328 7  80268320.454 7       599.317          47.000
R09  19382394.141 8 103500967.743 8      1441.391          51.000    19382395.461 8  80500675.668 8      1121.082          50.000
R10  21678971.883 6 115561154.525 6      3821.645          37.000
C05  39787438.625 6 207183633.272 6         4.066          36.000    39787436.906 6 160207513.870 6         3.036          41.000
C19  21549940.672 8 112216179.014 8      -653.949          51.000
C20  24674459.867 7 128486371.515 7     -2965.445          46.000
E05  23585917.898 6 123944826.979 6       817.992          41.000    23585919.250 6  94970730.434 6       626.692          41.000
E09  22586801.914 8 118694430.457 8     -1567.461          51.000    22586803.805 8  90947683.885 8     -1201.015          51.000
E24  22274325.312 8 117052379.001 8      1562.879          51.000    22274338.828 8  89689534.393 8      1197.555          51.000
E31  24820337.727 6 130431750.286 6     -1323.660          37.000    24820338.641 6  99941231.391 6     -1013.922          37.000
> 2020 05 06 03 41  0.0000000  0 14        .000000000000
G05  20646690.391 8 108499091.007 8      -777.965          51.000    20646689.977 8  84544738.107 8      -606.206          51.000
G28  21838427.195 8 114761679.868 8      2345.250          51.000    21838422.633 7  89424718.742 7      1827.468          44.000
G30  20539592.172 8 107936285.986 8      -951.879          51.000    20539592.977 8  84106199.174 8      -741.724          51.000
R06  20785649.742 7 110916204.206 7     -2846.340          45.000
R07  19274762.844 8 103179336.814 8       750.270          50.000    19274764.773 7  80250582.301 7       583.543          47.000
R09  19374365.898 8 103458099.706 8      1416.957          51.000    19374367.883 8  80467333.896 8      1102.078          50.000
R10  21657499.070 5 115446713.621 5      3808.316          32.000
C05  39787419.867 6 207183535.312 6         2.660          36.000    39787418.133 6 160207438.075 6         2.317          41.000
C19  21553753.805 8 112236035.859 8      -669.473          51.000
C20  24691565.836 7 128575458.215 7     -2973.316          44.000
E05  23581274.062 6 123920421.714 6       809.398          40.000    23581275.352 6  94952030.270 6       620.096          41.000
E09  22595775.297 8 118741584.159 8     -1575.816          51.000    22595776.773 8  90983814.611 8     -1207.483          51.000
E24  22265442.734 8 117005703.755 8      1549.133          50.000    22265456.312 8  89653770.224 8      1186.971          51.000
E31  24827931.742 5 130471662.168 5     -1336.648          33.000    24827932.828 6  99971813.209 6     -1024.446          37.000
> 2020 05 06 03 41 30.0000000  0 14        .000000000000
G05  20651184.578 8 108522708.098 8      -795.883          51.000    20651184.469 8  84563141.040 8      -620.168          51.000
G28  21825074.242 8 114691513.806 8      2333.195          50.000    21825070.695 7  89370043.884 7      1818.074          44.000
G30  20545060.828 8 107965023.823 8      -963.371          51.000    20545061.742 8  84128592.281 8      -750.679          51.000
R06  20801690.945 7 111001804.432 7     -2859.660          46.000
R07  19270609.469 8 103157102.934 8       732.684          51.000    19270611.211 8  80233289.277 8       569.865          48.000
R09  19366468.234 8 103415927.919 8      1395.188          51.000    19366470.516 8  80434533.644 8      1085.146          50.000
R10  21636098.266 6 115332647.252 6      3797.234          38.000
C05  39787400.828 5 207183436.616 5         4.422          35.000    39787399.039 6 160207360.964 6         3.628          41.000
C19  21557649.781 8 112256322.827 8      -682.324          51.000
C20  24708711.508 7 128664746.249 7     -2978.578          45.000
E05  23576672.414 7 123896237.384 7       803.613          42.000    23576673.430 7  94933499.406 7       615.821          42.000
E09  22604790.195 8 118788956.426 8     -1581.516          51.000    22604791.258 8  91020112.796 8     -1211.832          51.000
E24  22256632.406 8 116959408.091 8      1538.047          50.000    22256645.742 8  89618296.879 8      1178.527          51.000
E31                                                                  24835596.977 6 100002675.136 6     -1032.377          37.000
> 2020 05 06 03 42  0.0000000  0 14        .000000000000
G05  20655783.844 8 108546877.628 8      -815.848          50.000    20655784.008 8  84581974.434 8      -635.725          50.000
G28  21811793.766 8 114621729.093 8      2318.699          49.000    21811791.391 7  89315666.172 7      1806.779          44.000
G30  20550598.297 8 107994123.710 8      -977.129          51.000    20550599.133 8  84151267.512 8      -761.399          51.000
R06  20817811.133 7 111087823.083 7     -2875.441          46.000
R07  19266558.000 8 103135413.539 8       712.730          51.000    19266559.297 8  80216419.753 8       554.346          48.000
R09  19358695.758 8 103374423.372 8      1371.195          51.000    19358698.273 8  80402252.346 8      1066.485          51.000
R10  21614765.445 7 115218927.661 7      3783.578          42.000
C05  39787375.836 6 207183306.073 6         3.426          36.000    39787374.055 6 160207259.987 6         3.030          41.000
C19  21561622.523 8 112277010.846 8      -697.410          51.000
C20  24725892.109 8 128754205.181 8     -2985.875          48.000
E05  23572107.438 7 123872245.401 7       795.605          44.000    23572107.812 6  94915115.969 6       609.320          41.000
E09  22613840.898 8 118836517.761 8     -1589.676          51.000    22613842.023 8  91056555.849 8     -1218.021          51.000
E24  22247889.047 8 116913463.203 8      1524.551          51.000    22247901.727 8  89583092.347 8      1168.201          51.000
E31                                                                  24843325.797 6 100033793.641 6     -1042.263          37.000
> 2020 05 06 03 42 30.0000000  0 14        .000000000000
G05  20660496.148 8 108571641.677 8      -834.715          50.000    20660496.273 8  84601271.075 8      -650.427          50.000
G28  21798594.758 8 114552370.189 8      2305.551          50.000    21798593.711 7  89261620.293 7      1796.533          45.000
G30  20556212.570 8 108023626.336 8      -989.410          51.000    20556213.016 8  84174256.557 8      -770.969          51.000
R06  20834017.109 7 111174300.544 7     -2889.602          47.000
R07  19262616.430 8 103114313.280 8       694.227          51.000    19262617.430 8  80200008.443 8       539.954          48.000
R09  19351056.414 8 103333629.238 8      1348.637          51.000    19351059.016 8  80370523.585 8      1048.940          51.000
R10  21593506.812 7 115105600.496 7      3771.742          45.000
C05  39787352.797 5 207183186.197 5         4.105          35.000    39787351.031 6 160207167.297 6         3.468          41.000
C19  21565680.203 8 112298141.683 8      -711.016          51.000
C20  24743113.820 8 128843875.323 8     -2991.820          48.000
E05  23567586.898 7 123848488.592 7       788.715          43.000    23567586.469 7  94896912.691 7       604.259          42.000
E09  22622935.461 8 118884310.109 8     -1596.223          51.000    22622936.750 8  91093175.941 8     -1223.101          51.000
E24  22239220.977 8 116867911.806 8      1512.520          51.000    22239232.609 8  89548189.370 8      1158.929          50.000
E31                                                                  24851127.062 6 100065199.821 6     -1051.105          38.000
> 2020 05 06 03 43  0.0000000  0 14        .000000000000
G05  20665317.867 8 108596979.331 8      -854.180          50.000    20665317.867 8  84621014.692 8      -665.595          50.000
G28  21785473.898 8 114483419.366 8      2291.488          50.000    21785473.641 7  89207892.399 7      1785.575          46.000
G30  20561899.469 8 108053510.296 8     -1002.504          51.000    20561899.594 8  84197542.760 8      -781.169          51.000
R06  20850305.109 8 111261215.578 8     -2904.449          48.000
R07  19258781.391 8 103093783.825 8       674.723          51.000    19258782.344 8  80184041.087 8       524.784          48.000
R09  19343546.812 8 103293525.960 8      1325.238          51.000    19343548.742 8  80339332.147 8      1030.741          51.000
R10  21572318.508 7 114992648.337 7      3758.762          47.000
C05  39787327.992 5 207183057.221 5         4.012          35.000    39787326.289 6 160207067.513 6         3.468          41.000
C19  21569819.258 8 112319695.597 8      -725.520          51.000
C20  24760371.180 8 128933735.581 8     -2998.469          48.000
E05  23563107.672 7 123824947.785 7       781.191          43.000    23563106.555 7  94878874.942 7       598.506          42.000
E09  22632069.969 8 118932313.455 8     -1603.668          51.000    22632071.586 8  91129957.705 8     -1228.776          51.000
E24  22230624.414 8 116822734.651 8      1499.586          51.000    22230635.109 8  89513573.161 8      1149.021          49.000
E31                                                                  24858995.203 6 100096877.326 6     -1060.605          38.000
> 2020 05 06 03 43 30.0000000  0 14        .000000000000
G05  20670252.703 8 108622911.723 8      -873.949          50.000    20670252.555 8  84641221.740 8      -680.999          50.000
G28  21772435.312 8 114414900.591 8      2277.102          50.000    21772435.289 7  89154501.165 7      1774.365          45.000
G30  20567662.680 8 108083795.958 8     -1015.836          51.000    20567662.922 8  84221141.991 8      -791.557          51.000
R06  20866678.852 7 111348588.660 7     -2919.523          46.000
R07  19255057.312 8 103073849.338 8       654.953          51.000    19255058.508 8  80168536.488 8       509.408          48.000
R09  19336170.492 8 103254136.125 8      1301.500          51.000    19336171.695 8  80308695.625 8      1012.278          50.000
R10  21551204.797 8 114880095.884 8      3745.371          48.000
C05  39787305.555 5 207182940.510 5         4.406          35.000    39787303.875 6 160206977.290 6         3.120          41.000
C19  21574044.031 8 112341694.199 8      -740.332          51.000
C20  24777668.742 8 129023806.184 8     -3005.430          48.000
E05  23558673.477 7 123801645.565 7       773.305          43.000    23558672.398 7  94861020.010 7       592.308          42.000
E09  22641248.734 8 118980549.471 8     -1611.328          51.000    22641250.578 8  91166917.774 8     -1234.699          51.000
E24  22222103.453 8 116777954.185 8      1486.402          51.000    22222113.750 8  89479260.909 8      1138.995          50.000
E31                                                                  24866932.906 6 100128841.745 6     -1070.102          36.000
> 2020 05 06 03 44  0.0000000  0 14        .000000000000
G05  20675298.492 8 108649428.198 8      -893.648          49.000    20675298.227 8  84661883.917 8      -696.352          49.000
G28  21759477.586 8 114346806.436 8      2262.684          50.000    21759477.273 7  89101440.775 7      1763.130          44.000
G30  20573500.211 8 108114472.249 8     -1029.094          51.000    20573500.555 8  84245045.592 8      -801.891          51.000
R06  20883135.211 7 111436408.453 7     -2934.684          45.000
R07  19251442.852 8 103054501.729 8       635.012          51.000    19251444.188 8  80153488.350 8       493.898          48.000
R09  19328926.125 8 103215450.555 8      1277.672          51.000    19328926.695 8  80278606.870 8       993.745          50.000
R10  21530163.820 7 114767936.035 7      3732.043          46.000
C05  39787283.703 6 207182826.497 6         3.875          36.000    39787281.977 6 160206889.085 6         2.857          40.000
C19  21578352.328 8 112364127.955 8      -755.141          51.000
C20  24795004.070 7 129114076.166 7     -3012.273          46.000
E05  23554282.789 7 123778573.039 7       765.207          43.000    23554281.664 7  94843341.060 7       586.262          42.000
E09  22650469.898 8 119029008.424 8     -1619.039          51.000    22650472.102 8  91204048.652 8     -1240.601          51.000
E24  22213656.062 8 116733561.357 8      1473.219          51.000    22213666.523 8  89445245.658 8      1128.866          51.000
E31                                                                  24874939.664 5 100161084.531 5     -1079.519          35.000
> 2020 05 06 03 44 30.0000000  0 14        .000000000000
G05  20680453.211 8 108676517.336 8      -907.203          49.000    20680452.984 8  84682992.342 8      -706.912          49.000
G28  21746598.750 8 114279128.043 8      2254.434          49.000    21746597.688 6  89048704.339 6      1756.702          41.000
G30  20579409.672 8 108145526.750 8     -1035.988          51.000    20579409.688 8  84269243.893 8      -807.264          51.000
R06  20899673.398 7 111524661.990 7     -2943.508          45.000
R07  19247936.391 8 103035731.803 8       621.590          51.000    19247937.797 8  80138889.510 8       483.459          49.000
R09  19321811.148 8 103177458.278 8      1260.281          51.000    19321811.562 8  80249057.332 8       980.219          50.000
R10  21509194.305 7 114656160.363 7      3725.078          46.000
C05  39787260.289 6 207182705.184 6         9.527          36.000    39787258.516 6 160206794.485 6         7.548          41.000
C19  21582742.000 8 112386986.003 8      -763.602          51.000
C20  24812374.594 7 129204533.324 7     -3012.863          46.000
E05  23549933.969 7 123755720.021 7       763.738          43.000    23549932.461 7  94825830.288 7       585.286          42.000
E09  22659731.328 8 119077679.234 8     -1620.320          51.000    22659734.125 8  91241341.854 8     -1241.517          51.000
E24  22205280.125 8 116689545.819 8      1466.461          51.000    22205291.164 8  89411519.483 8      1123.760          51.000
E31                                                                  24883015.094 5 100193596.216 5     -1083.850          35.000
> 2020 05 06 03 45  0.0000000  0 14        .000000000000
G05  20685718.102 8 108704184.267 8      -931.844          50.000    20685717.938 8  84704550.989 8      -726.112          50.000
G28  21733800.344 8 114211873.368 8      2234.742          49.000    21733797.961 6  88996298.095 6      1741.358          40.000
G30  20585391.875 8 108176963.727 8     -1054.223          51.000    20585391.773 8  84293740.236 8      -821.472          51.000
R06  20916294.633 7 111613353.794 7     -2963.762          46.000
R07  19244539.406 8 103017547.393 8       596.391          51.000    19244540.883 8  80124746.087 8       463.859          48.000
R09  19314827.344 8 103140165.625 8      1231.387          51.000    19314827.781 8  80220051.949 8       957.745          51.000
R10  21488298.734 8 114544777.175 8      3706.207          48.000
C05  39787236.273 5 207182580.141 5         4.367          35.000    39787234.523 6 160206697.796 6         3.202          40.000
C19  21587214.148 8 112410274.012 8      -783.438          51.000
C20  24829782.547 8 129295181.890 8     -3024.852          48.000
E05  23545628.469 7 123733093.014 7       750.410          44.000    23545626.867 7  94808492.721 7       574.978          43.000
E09  22669034.305 8 119126567.511 8     -1633.207          51.000    22669037.453 8  91278801.691 8     -1251.427          51.000
E24  22196976.961 8 116645913.916 8      1448.004          51.000    22196988.938 8  89378087.255 8      1109.492          51.000
E31                                                                  24891158.789 5 100226380.080 5     -1097.402          34.000
> 2020 05 06 03 45 30.0000000  0 14        .000000000000
G05  20691091.578 8 108732421.035 8      -950.836          50.000    20691091.469 8  84726553.662 8      -740.911          50.000
G28  21721081.883 8 114145037.494 8      2220.586          49.000    21721077.969 6  88944218.213 6      1730.330          41.000
G30  20591445.266 8 108208774.691 8     -1066.789          51.000    20591445.547 8  84318528.019 8      -831.261          51.000
R06  20932996.383 7 111702474.987 7     -2978.043          47.000
R07  19241250.742 8 102999943.029 8       576.953          51.000    19241252.250 8  80111053.796 8       448.741          48.000
R09  19307973.336 8 103103565.979 8      1208.270          51.000    19307974.195 8  80191585.588 8       939.765          51.000
R10  21467476.438 8 114433781.811 8      3693.223          48.000
C05  39787210.273 5 207182444.289 5         4.516          35.000    39787208.656 6 160206593.479 6         3.504          40.000
C19  21591767.570 8 112433984.926 8      -797.629          51.000
C20  24847226.930 8 129386013.554 8     -3030.891          49.000
E05  23541364.789 7 123710685.691 7       742.992          45.000    23541363.781 7  94791323.474 7       569.401          44.000
E09  22678377.531 8 119175666.047 8     -1640.285          51.000    22678380.633 8  91316422.667 8     -1256.905          51.000
E24  22188745.836 8 116602659.190 8      1435.340          51.000    22188758.398 8  89344944.006 8      1099.776          51.000
E31                                                                  24899366.172 5 100259429.530 5     -1106.169          32.000
> 2020 05 06 03 46  0.0000000  0 14        .000000000000
G05  20696576.344 8 108761241.974 8      -970.184          50.000    20696575.820 8  84749011.552 8      -755.987          51.000
G28  21708446.570 8 114078638.004 8      2206.141          50.000    21708442.461 7  88892478.337 7      1719.071          43.000
G30  20597572.367 8 108240973.577 8     -1079.586          51.000    20597572.984 8  84343618.057 8      -841.236          51.000
R06  20949781.094 7 111792039.612 7     -2992.656          46.000
R07  19238073.695 8 102982936.318 8       557.094          50.000    19238075.156 8  80097826.360 8       433.295          48.000
R09  19301252.125 8 103067675.220 8      1184.664          51.000    19301253.109 8  80163670.550 8       921.408          51.000
R10  21446730.328 8 114323192.622 8      3679.695          49.000
C05  39787185.391 5 207182314.764 5         4.074          35.000    39787183.789 6 160206493.296 6         3.431          41.000
C19  21596405.266 8 112458133.999 8      -812.094          51.000
C20  24864709.352 8 129477042.219 8     -3037.531          50.000
E05  23537145.797 7 123688514.240 7       735.406          46.000    23537145.578 7  94774334.979 7       563.418          45.000
E09  22687763.641 8 119224990.133 8     -1647.746          51.000    22687766.828 8  91354216.435 8     -1262.589          51.000
E24  22180589.781 8 116559797.594 8      1422.277          51.000    22180602.602 8  89312101.989 8      1089.803          51.000
E31                                                                  24907640.570 5 100292749.296 5     -1115.304          33.000
> 2020 05 06 03 46 30.0000000  0 14        .000000000000
G05  20702169.555 8 108790633.780 8      -985.074          50.000    20702168.797 8  84771914.244 8      -767.593          50.000
G28  21695892.492 8 114012664.400 8      2196.242          51.000    21695889.609 7  88841070.328 7      1711.358          45.000
G30  20603770.500 8 108273546.352 8     -1087.898          51.000    20603771.289 8  84368999.441 8      -847.713          51.000
R06  20966645.352 7 111882033.431 7     -3002.723          45.000
R07  19235006.195 8 102966516.171 8       541.805          50.000    19235007.680 8  80085055.138 8       421.404          48.000
R09  19294661.406 8 103032481.051 8      1165.750          51.000    19294662.609 8  80136297.331 8       906.694          51.000
R10  21426058.406 8 114212999.417 8      3670.684          49.000
C05  39787159.219 6 207182178.035 6         8.617          36.000    39787157.570 6 160206387.566 6         6.842          41.000
C19  21601124.664 8 112482708.718 8      -822.141          51.000
C20  24882226.336 8 129568254.008 8     -3039.316          50.000
E05  23532969.375 7 123666566.897 7       732.039          46.000    23532969.516 7  94757518.170 7       560.925          45.000
E09  22697190.461 8 119274527.086 8     -1650.512          51.000    22697193.469 8  91392173.304 8     -1264.678          51.000
E24  22172506.180 8 116517317.081 8      1413.918          51.000    22172519.211 8  89279551.998 8      1083.431          51.000
E31  24915980.141 5 130934360.707 5     -1462.500          34.000    24915982.812 5 100326340.550 5     -1120.386          34.000
> 2020 05 06 03 47  0.0000000  0 14        .000000000000
G05  20707873.742 8 108820608.613 8     -1008.078          51.000    20707872.695 8  84795271.229 8      -785.515          51.000
G28  21683422.492 8 113947131.932 8      2177.816          51.000    21683420.430 7  88790006.053 7      1697.000          46.000
G30  20610042.094 8 108306504.572 8     -1104.293          51.000    20610043.008 8  84394681.157 8      -860.488          51.000
R06  20983592.258 7 111972467.483 7     -3020.988          47.000
R07  19232050.922 8 102950697.663 8       518.035          49.000    19232052.492 8  80072751.848 8       402.916          48.000
R09  19288203.586 8 102997996.669 8      1138.473          51.000    19288204.930 8  80109476.149 8       885.479          50.000
R10  21405463.391 8 114103218.091 8      3653.207          49.000
C05  39787134.000 5 207182046.885 5         4.629          35.000    39787132.359 6 160206286.088 6         4.057          41.000
C19  21605928.086 8 112507721.900 8      -840.289          51.000
C20  24899780.008 8 129659660.427 8     -3049.379          50.000
E05  23528838.109 7 123644857.407 7       720.277          46.000    23528838.211 7  94740883.623 7       552.101          45.000
E09  22706660.570 8 119324289.760 8     -1661.715          51.000    22706662.906 8  91430303.127 8     -1273.286          51.000
E24  22164497.633 8 116475231.293 8      1397.062          51.000    22164510.508 8  89247304.456 8      1070.464          51.000
E31  24924389.969 5 130978555.325 5     -1478.613          33.000    24924393.750 5 100360206.189 5     -1132.640          35.000
> 2020 05 06 03 47 30.0000000  0 14        .000000000000
G05  20713686.805 8 108851155.326 8     -1027.926          51.000    20713685.430 8  84819073.872 8      -800.981          51.000
G28  21671034.961 8 113882032.219 8      2162.645          51.000    21671033.336 7  88739279.022 7      1685.178          46.000
G30  20616384.828 8 108339836.454 8     -1117.488          51.000    20616385.914 8  84420654.044 8      -870.770          51.000
R06  21000620.258 7 112063330.528 7     -3036.137          47.000
R07  19229206.391 8 102935472.214 8       497.473          49.000    19229208.164 7  80060909.824 7       386.920          47.000
R09  19281876.609 8 102964212.122 8      1114.344          50.000    19281878.094 8  80083199.275 8       866.712          50.000
R10  21384943.867 8 113993840.548 8      3638.953          49.000
C05  39787107.930 5 207181910.875 5         4.398          35.000    39787106.250 6 160206180.932 6         3.398          40.000
C19  21610813.750 8 112533163.257 8      -855.395          51.000
C20  24917368.812 8 129751249.824 8     -3056.168          51.000
E05  23524749.961 7 123623376.215 7       712.078          45.000    23524750.352 7  94724424.001 7       545.678          46.000
E09  22716171.523 8 119374267.724 8     -1669.699          51.000    22716173.141 8  91468597.905 8     -1279.362          51.000
E24  22156562.594 8 116433530.446 8      1383.426          51.000    22156575.141 8  89215351.856 8      1060.057          51.000
E31  24932865.766 5 131023094.150 5     -1491.117          34.000    24932869.852 5 100394337.147 5     -1142.056          35.000
> 2020 05 06 03 48  0.0000000  0 15        .000000000000
G05  20719607.516 8 108882270.067 8     -1047.594          51.000    20719606.383 8  84843319.126 8      -816.307          51.000
G07  22596640.617 5 118746128.387 5     -2492.246          35.000    22596623.477 5  92529412.220 5     -1942.010          32.000
G28  21658729.531 8 113817364.430 8      2147.309          51.000    21658727.578 7  88688888.547 7      1673.227          45.000
G30  20622797.875 8 108373537.643 8     -1130.527          51.000    20622798.992 8  84446914.720 8      -880.930          51.000
R06  21017727.672 7 112154617.045 7     -3050.984          47.000
R07  19226472.633 8 102920838.620 8       476.895          48.000    19226474.273 7  80049528.159 7       370.918          47.000
R09  19275680.203 8 102931124.605 8      1090.145          50.000    19275682.297 8  80057464.544 8       847.890          49.000
R10  21364500.203 8 113884866.829 8      3624.684          49.000
C05  39787080.219 6 207181767.195 6         4.090          36.000    39787078.719 6 160206069.810 6         2.975          40.000
C19  21615780.945 8 112559029.832 8      -870.305          51.000
C20  24934992.305 8 129843017.951 8     -3062.992          51.000
E05  23520704.703 7 123602121.267 7       703.688          46.000    23520705.906 7  94708137.750 7       539.153          46.000
E09  22725722.594 8 119424457.972 8     -1677.605          51.000    22725723.922 8  91507055.335 8     -1285.375          51.000
E24  22148700.281 8 116392212.206 8      1369.867          51.000    22148712.656 8  89183692.439 8      1049.618          51.000
E31  24941407.109 5 131067977.926 5     -1503.234          35.000    24941411.555 6 100428730.089 6     -1151.440          36.000
> 2020 05 06 03 48 30.0000000  0 14        .000000000000
G05  20725637.539 8 108913958.901 8     -1063.953          51.000    20725636.617 8  84868011.721 8      -829.054          51.000
G28  21646507.812 8 113753138.041 8      2135.395          51.000    21646504.625 7  88638842.038 7      1663.944          42.000
G30  20629282.297 8 108407613.795 8     -1140.090          51.000    20629283.141 8  84473467.566 8      -888.382          51.000
R06  21034915.266 7 112246332.968 7     -3062.379          46.000
R07  19223850.750 8 102906805.602 8       459.824          48.000    19223852.828 7  80038613.580 7       357.641          47.000
R09  19269615.852 8 102898741.689 8      1069.777          50.000    19269617.383 7  80032277.844 7       832.049          47.000
R10  21344134.359 8 113776306.447 8      3613.746          48.000
C05  39787052.383 5 207181622.778 5         6.664          35.000    39787050.984 6 160205958.100 6         5.425          41.000
C19  21620830.953 8 112585328.620 8      -881.906          51.000
C20  24952651.078 8 129934970.483 8     -3066.168          51.000
E05  23516704.281 7 123581100.438 7       698.844          47.000    23516705.859 7  94692030.867 7       535.457          47.000
E09  22735315.312 8 119474867.462 8     -1681.938          51.000    22735316.492 8  91545680.747 8     -1288.724          51.000
E24  22140911.961 8 116351284.194 8      1359.824          51.000    22140924.477 8  89152332.030 8      1042.006          51.000
E31  24950015.648 5 131113216.158 5     -1511.340          33.000    24950020.352 6 100463389.321 6     -1158.228          37.000
> 2020 05 06 03 49  0.0000000  0 15        .000000000000
G05  20731774.172 8 108946207.863 8     -1083.723          50.000    20731773.422 8  84893140.785 8      -844.459          50.000
G13  21224388.797 5 111534923.434 5      1966.488          32.000
G28  21634367.289 7 113689341.528 7      2119.875          47.000    21634362.664 6  88589130.519 6      1651.851          41.000
G30  20635835.273 8 108442050.060 8     -1153.258          51.000    20635835.914 8  84500301.029 8      -898.642          51.000
R06  21052179.648 7 112338463.054 7     -3077.523          44.000
R07  19221339.273 8 102893361.643 8       438.797          49.000    19221341.109 7  80028157.172 7       341.286          47.000
R09  19263681.164 8 102867049.741 8      1045.449          51.000    19263681.461 7  80007628.583 7       813.127          47.000
R10  21323844.266 7 113668148.931 7      3598.980          47.000
C05  39787022.094 5 207181464.320 5         5.602          35.000    39787020.586 6 160205835.562 6         4.489          41.000
C19  21625961.461 8 112612046.255 8      -897.035          51.000
C20  24970342.398 8 130027092.770 8     -3072.953          51.000
E05  23512746.414 7 123560301.133 7       690.250          47.000    23512747.727 7  94676093.757 7       528.740          47.000
E09  22744946.906 8 119525482.686 8     -1690.062          51.000    22744948.281 8  91584463.830 8     -1295.013          51.000
E24  22133195.312 8 116310733.603 8      1345.863          51.000    22133208.039 8  89121260.809 8      1031.258          51.000
E31                                                                  24958692.125 6 100498303.482 6     -1167.594          38.000
> 2020 05 06 03 49 30.0000000  0 15        .000000000000
G05  20738024.742 8 108979056.584 8     -1105.270          50.000    20738024.375 8  84918737.159 8      -861.252          50.000
G07  22639444.164 5 118971081.373 5     -2511.293          31.000
G28  21622315.750 6 113626017.640 6      2102.648          41.000    21622311.188 6  88539787.286 6      1638.427          41.000
G30  20642464.172 8 108476885.549 8     -1168.012          51.000    20642465.086 8  84527445.568 8      -910.139          51.000
R06  21069530.117 7 112431046.948 7     -3094.039          46.000
R07  19218945.789 8 102880549.576 8       416.270          48.000    19218947.766 7  80018192.243 7       323.765          46.000
R09  19257883.391 8 102836090.319 8      1019.555          51.000    19257883.766 8  79983549.084 8       792.987          48.000
R10  21303637.414 7 113560437.298 7      3582.691          45.000
C05  39786996.641 5 207181331.801 5         4.113          35.000    39786995.148 6 160205733.079 6         2.839          40.000
C19  21631180.375 8 112639222.785 8      -913.715          50.000
C20  24988073.750 8 130119423.551 8     -3081.367          49.000
E05  23508838.477 7 123539764.667 7       679.938          47.000    23508839.680 7  94660358.027 7       520.955          47.000
E09  22754624.938 8 119576344.073 8     -1699.703          51.000    22754626.852 8  91623435.521 8     -1302.391          51.000
E24  22125558.367 8 116270601.451 8      1330.527          51.000    22125571.406 8  89090510.213 8      1019.510          51.000
E31  24967429.164 6 131204712.571 6     -1537.680          36.000    24967433.484 6 100533502.407 6     -1178.285          37.000
> 2020 05 06 03 50  0.0000000  0 14        .000000000000
G05  20744380.023 8 109012453.710 8     -1122.918          50.000    20744379.789 8  84944760.869 8      -875.004          50.000
G28  21610344.133 7 113563118.324 7      2088.848          43.000    21610341.977 7  88490774.790 7      1627.667          43.000
G30  20649159.227 8 108512068.707 8     -1179.148          51.000    20649160.406 8  84554861.018 8      -918.817          51.000
R06  21086956.172 8 112524031.892 8     -3106.680          48.000
R07  19216660.930 8 102868320.082 8       397.367          48.000    19216663.133 7  80008680.410 7       309.063          46.000
R09  19252213.133 8 102805812.627 8       997.324          51.000    19252213.570 8  79959999.773 8       775.697          49.000
R10  21283505.156 7 113453123.230 7      3569.906          46.000
C05  39786966.648 5 207181175.647 5         5.402          35.000    39786965.219 6 160205612.307 6         3.954          41.000
C19  21636477.938 8 112666808.501 8      -926.895          50.000
C20  25005834.984 8 130211911.839 8     -3086.094          48.000
E05  23504971.102 7 123519441.795 7       673.297          47.000    23504972.352 8  94644785.953 8       515.882          48.000
E09  22764340.312 8 119627401.397 8     -1705.691          51.000    22764342.594 8  91662557.351 8     -1306.991          51.000
E24  22117991.914 8 116230838.212 8      1318.734          51.000    22118004.773 8  89060042.284 8      1010.441          51.000
E31  24976233.336 6 131250970.277 6     -1547.715          36.000    24976235.039 6 100568946.594 6     -1186.049          38.000
> 2020 05 06 03 50 30.0000000  0 14        .000000000000
G05  20750844.250 8 109046423.714 8     -1139.273          49.000    20750844.094 8  84971230.986 8      -887.749          49.000
G28  21598461.008 8 113500670.919 8      2076.516          48.000    21598459.812 7  88442114.442 7      1618.061          45.000
G30  20655925.023 8 108547623.510 8     -1188.871          51.000    20655926.156 8  84582566.041 8      -926.393          51.000
R06  21104462.156 8 112617441.741 8     -3118.285          49.000
R07  19214490.617 8 102856701.131 8       379.629          49.000    19214492.312 7  79999643.443 7       295.267          46.000
R09  19246675.508 8 102776242.363 8       976.367          51.000    19246676.117 8  79937000.685 8       759.397          50.000
R10  21263453.562 8 113346235.280 8      3558.359          48.000
C05  39786936.984 6 207181020.922 6         7.344          36.000    39786935.461 6 160205492.597 6         5.960          40.000
C19  21641858.906 8 112694828.455 8      -938.691          51.000
C20  25023630.750 8 130304581.426 8     -3089.547          48.000
E05  23501149.148 7 123499358.705 7       667.957          47.000    23501150.852 8  94629397.609 8       511.742          48.000
E09  22774097.977 8 119678679.953 8     -1710.586          51.000    22774100.555 8  91701848.694 8     -1310.694          51.000
E24  22110500.617 8 116191469.793 8      1308.000          51.000    22110513.008 8  89029876.870 8      1002.243          51.000
E31  24985101.398 5 131297571.991 5     -1556.754          35.000    24985102.672 6 100604654.379 6     -1192.748          38.000
> 2020 05 06 03 51  0.0000000  0 14        .000000000000
G05  20757420.055 8 109080980.532 8     -1160.824          49.000    20757419.766 8  84998158.365 8      -904.538          49.000
G28  21586667.914 8 113438692.735 8      2058.961          51.000    21586666.836 7  88393819.715 7      1604.385          46.000
G30  20662764.148 8 108583563.621 8     -1203.516          51.000    20662765.328 8  84610571.299 8      -937.804          51.000
R06  21122049.734 8 112711290.610 8     -3134.664          48.000
R07  19212437.516 8 102845709.259 8       356.848          50.000    19212438.719 7  79991094.205 7       277.548          46.000
R09  19241273.281 8 102747395.358 8       950.457          51.000    19241274.125 8  79914564.138 8       739.244          50.000
R10  21243485.844 8 113239791.197 8      3541.598          49.000
C05                                                                  39786908.891 6 160205385.550 6         4.120          41.000
C19  21647326.203 8 112723297.504 8      -955.582          51.000
C20  25041463.570 7 130397445.862 7     -3097.793          46.000
E05  23497375.844 7 123479531.343 7       657.543          46.000    23497377.938 8  94614205.220 8       503.787          48.000
E09  22783900.797 8 119730194.748 8     -1720.172          51.000    22783903.195 8  91741321.040 8     -1318.075          51.000
E24  22103087.086 8 116152511.780 8      1292.703          51.000    22103099.344 8  89000025.937 8       990.540          51.000
E31  24994036.719 6 131344531.380 6     -1570.664          37.000    24994039.273 6 100640636.243 6     -1203.209          39.000
> 2020 05 06 03 51 30.0000000  0 15        .000000000000
G05  20764101.938 8 109116094.046 8     -1180.695          50.000    20764101.391 8  85025519.532 8      -920.022          50.000
G07  22696984.711 5 119273460.494 5     -2532.094          31.000
G28  21574958.984 8 113377156.237 8      2042.949          51.000    21574957.555 7  88345869.179 7      1591.905          46.000
G30  20669670.812 8 108619858.016 8     -1216.566          51.000    20669672.125 8  84638852.633 8      -947.974          51.000
R06  21139713.062 8 112805546.464 8     -3149.637          48.000
R07  19210496.344 8 102835316.328 8       335.598          50.000    19210497.477 7  79983010.794 7       261.020          46.000
R09  19236000.789 8 102719241.496 8       925.949          51.000    19236001.953 8  79892666.704 8       720.183          51.000
R10  21223596.352 8 113133763.717 8      3526.367          49.000
C05  39786881.422 5 207180732.112 5         4.059          35.000    39786879.844 6 160205268.463 6         3.392          40.000
C19  21652874.148 8 112752186.260 8      -970.891          51.000
C20  25059327.680 7 130490474.510 7     -3104.473          47.000
E05  23493645.648 7 123459931.023 7       648.582          47.000    23493647.820 8  94599186.778 8       497.055          48.000
E09  22793743.406 8 119781916.103 8     -1728.395          51.000    22793745.195 8  91780951.653 8     -1324.327          51.000
E24  22095746.258 8 116113935.208 8      1278.633          51.000    22095758.406 8  88970467.273 8       979.750          51.000
E31  25003035.148 6 131391817.439 6     -1582.520          40.000    25003037.742 6 100676868.382 6     -1212.631          38.000
> 2020 05 06 03 52  0.0000000  0 15        .000000000000
G05  20770894.156 8 109151786.118 8     -1199.191          51.000    20770893.289 8  85053331.547 8      -934.432          51.000
G07  22711448.086 5 119349464.831 5     -2536.723          30.000
G28  21563338.570 8 113316086.253 8      2028.070          51.000    21563336.828 7  88298282.173 7      1580.315          47.000
G30  20676649.102 8 108656528.213 8     -1228.449          51.000    20676650.266 8  84667426.809 8      -957.233          51.000
R06  21157456.664 7 112900231.056 7     -3163.082          47.000
R07  19208671.711 8 102825547.183 8       315.391          51.000    19208672.602 7  79975412.557 7       245.304          46.000
R09  19230862.781 8 102691804.099 8       902.789          51.000    19230864.078 8  79871326.526 8       702.172          51.000
R10  21203788.922 7 113028178.719 7      3512.172          45.000
C05  39786854.188 5 207180590.463 5         4.852          35.000    39786852.680 6 160205158.937 6         3.495          40.000
C19  21658507.273 8 112781517.279 8      -984.875          51.000
C20  25077227.469 7 130583688.736 7     -3110.094          47.000
E05  23489963.398 7 123440581.436 7       641.043          47.000    23489965.539 8  94584360.469 8       491.195          49.000
E09  22803629.727 8 119833866.875 8     -1735.328          51.000    22803630.625 8  91820758.050 8     -1329.658          51.000
E24  22088482.508 8 116075763.508 8      1265.871          51.000    22088494.516 8  88941218.810 8       969.947          51.000
E31  25012099.758 6 131439451.595 6     -1593.484          38.000    25012100.484 6 100713367.198 6     -1220.889          36.000
> 2020 05 06 03 52 30.0000000  0 15        .000000000000
G05  20777792.508 8 109188036.007 8     -1217.734          51.000    20777791.367 8  85081578.214 8      -948.884          51.000
G07  22725962.195 5 119425721.449 5     -2541.547          35.000    22725942.789 5  93058958.315 5     -1980.426          30.000
G28  21551803.156 8 113255465.588 8      2013.137          50.000    21551801.867 8  88251045.297 8      1568.678          48.000
G30  20683694.961 8 108693553.440 8     -1240.086          51.000    20683695.914 8  84696277.627 8      -966.301          51.000
R06  21175276.562 7 112995322.519 7     -3176.695          44.000
R07  19206960.000 8 102816384.009 8       295.258          50.000    19206960.953 7  79968285.630 7       229.645          47.000
R09  19225855.242 8 102665063.491 8       879.715          51.000    19225856.586 8  79850528.294 8       684.226          51.000
R10  21184059.578 7 112923018.817 7      3498.188          42.000
C05                                                                  39786823.727 6 160205042.028 6         3.984          40.000
C19  21664221.508 8 112811271.337 8      -998.961          51.000
C20  25095159.031 7 130677067.997 7     -3115.555          46.000
E05  23486325.672 8 123421464.117 8       633.355          48.000    23486327.688 8  94569712.137 8       485.262          49.000
E09  22813555.789 8 119886027.603 8     -1742.227          51.000    22813556.414 8  91860725.314 8     -1334.980          51.000
E24  22081291.828 8 116037977.812 8      1253.074          51.000    22081303.859 8  88912266.122 8       960.151          51.000
E31  25021225.664 6 131487412.851 6     -1604.047          37.000    25021225.102 6 100750116.792 6     -1228.871          37.000
> 2020 05 06 03 53  0.0000000  0 15        .000000000000
G05  20784798.875 8 109224853.961 8     -1235.754          51.000    20784797.438 8  85110267.522 8      -962.925          51.000
G07  22740489.953 6 119502052.438 6     -2545.859          38.000    22740464.805 6  93118399.801 6     -1983.787          36.000
G28  21540355.008 8 113195307.032 8      1998.492          48.000    21540354.508 7  88204168.497 7      1557.267          47.000
G30  20690810.164 8 108730943.223 8     -1251.414          51.000    20690811.086 8  84725412.521 8      -975.128          51.000
R06  21193172.656 6 113090830.599 6     -3189.297          39.000
R07  19205364.180 8 102807839.641 8       275.484          51.000    19205365.211 7  79961639.991 7       214.266          47.000
R09  19220980.148 8 102639030.676 8       856.918          51.000    19220981.547 8  79830280.574 8       666.492          51.000
R10  21164411.984 6 112818298.223 6      3484.250          40.000
C05  39786796.391 5 207180289.518 5         6.031          35.000    39786794.977 6 160204926.177 6         4.591          41.000
C19  21670018.891 8 112841459.073 8     -1012.516          51.000
C20  25113124.227 7 130770621.735 7     -3120.398          46.000
E05  23482734.453 8 123402590.842 8       626.035          48.000    23482736.227 8  94555250.803 8       479.608          49.000
E09  22823523.727 8 119938409.122 8     -1748.781          51.000    22823524.359 8  91900861.771 8     -1339.960          51.000
E24  22074176.570 8 116000589.569 8      1240.621          51.000    22074188.734 8  88883617.980 8       950.537          51.000
E31  25030416.484 6 131535710.987 6     -1614.613          40.000    25030415.867 6 100787124.434 6     -1237.210          37.000
> 2020 05 06 03 53 30.0000000  0 14        .000000000000
G05  20791910.594 8 109262225.323 8     -1255.363          51.000    20791908.922 8  85139388.072 8      -978.205          51.000
G28  21528992.188 8 113135599.235 8      1982.395          48.000    21528992.758 7  88157642.924 7      1544.723          46.000
G30  20697991.852 8 108768682.642 8     -1264.008          51.000    20697992.859 8  84754819.857 8      -984.941          51.000
R06  21211144.016 7 113186740.110 7     -3204.133          42.000
R07  19203881.477 8 102799901.732 8       254.219          50.000    19203882.742 8  79955466.053 8       197.723          48.000
R09  19216234.891 8 102613692.352 8       832.641          50.000    19216236.430 8  79810572.998 8       647.609          51.000
R10  21144845.336 6 112714005.206 6      3468.734          41.000
C05  39786765.422 5 207180127.744 5         5.020          35.000    39786763.883 6 160204801.042 6         3.951          41.000
C19  21675896.883 8 112872066.991 8     -1027.535          51.000
C20  25131119.602 7 130864335.222 7     -3126.621          43.000
E05  23479187.188 8 123383948.983 8       617.430          48.000    23479188.781 8  94540966.793 8       472.898          50.000
E09  22833531.031 8 119990997.837 8     -1756.691          51.000    22833532.125 8  91941156.996 8     -1346.048          51.000
E24  22067134.680 8 115963585.826 8      1226.746          51.000    22067146.977 8  88855264.441 8       939.992          51.000
E31  25039668.828 6 131584330.955 6     -1626.375          40.000    25039668.781 6 100824378.636 6     -1246.115          38.000
> 2020 05 06 03 54  0.0000000  0 15        .000000000000
G05  20799129.250 8 109300159.756 8     -1274.664          51.000    20799127.625 8  85168947.364 8      -993.245          51.000
G07  22769626.352 5 119655163.600 5     -2557.867          35.000
G28  21517718.055 8 113076354.907 8      1966.355          49.000    21517718.648 7  88111478.504 7      1532.225          44.000
G30  20705241.844 8 108806780.975 8     -1276.695          51.000    20705242.805 8  84784506.849 8      -994.828          51.000
R06  21229195.664 7 113283060.062 7     -3218.188          46.000
R07  19202514.398 8 102792582.971 8       232.809          51.000    19202515.633 8  79949773.679 8       181.073          48.000
R09  19211621.523 8 102589058.941 8       808.508          50.000    19211623.672 8  79791413.687 8       628.839          51.000
R10  21125363.781 7 112610153.333 7      3453.512          46.000
C05  39786734.039 6 207179964.496 6         4.250          36.000    39786732.539 6 160204674.777 6         3.749          41.000
C19  21681857.539 8 112903105.509 8     -1042.566          51.000
C20  25149147.773 7 130958217.668 7     -3132.996          43.000
E05  23475685.930 8 123365550.088 8       608.430          48.000    23475687.742 8  94526868.926 8       466.244          50.000
E09  22843579.805 8 120043804.326 8     -1764.574          51.000    22843581.648 8  91981619.088 8     -1352.082          51.000
E24  22060168.141 8 115926977.691 8      1212.934          51.000    22060180.500 8  88827214.035 8       929.397          51.000
E31  25048984.094 6 131633281.774 6     -1638.156          36.000    25048983.781 6 100861886.421 6     -1254.953          37.000
> 2020 05 06 03 54 30.0000000  0 15        .000000000000
G05  20806453.938 8 109338651.308 8     -1292.047          51.000    20806452.125 8  85198940.791 8     -1006.790          51.000
G07  22784238.539 6 119731946.491 6     -2561.637          37.000    22784247.727 5  93297654.329 5     -1996.090          30.000
G28  21506532.047 8 113017571.382 8      1951.949          51.000    21506531.781 7  88065673.166 7      1520.999          43.000
G30  20712558.867 8 108845232.097 8     -1287.551          51.000    20712559.688 8  84814468.749 8     -1003.286          51.000
R06  21247323.164 8 113379783.632 8     -3230.840          48.000
R07  19201262.344 8 102785880.190 8       213.426          50.000    19201263.750 8  79944560.399 8       165.998          48.000
R09  19207139.406 8 102565125.635 8       786.207          49.000    19207141.750 8  79772798.871 8       611.494          51.000
R10  21105965.688 8 112506740.312 8      3439.945          50.000
C05  39786701.578 6 207179795.161 6         5.520          36.000    39786700.031 6 160204543.811 6         4.377          41.000
C19  21687899.992 8 112934569.797 8     -1055.770          51.000
C20  25167208.641 7 131052263.103 7     -3137.297          44.000
E05  23472230.078 8 123347390.335 8       601.363          48.000    23472232.359 8  94512954.303 8       460.776          50.000
E09  22853669.094 8 120096823.826 8     -1770.758          51.000    22853671.219 8  92022244.417 8     -1356.844          51.000
E24  22053276.156 8 115890760.962 8      1200.766          51.000    22053288.742 8  88799463.565 8       920.019          51.000
E31  25058360.539 6 131682557.400 6     -1647.867          39.000    25058360.328 6 100899643.105 6     -1262.577          38.000
> 2020 05 06 03 55  0.0000000  0 15        .000000000000
G05  20813883.195 8 109377692.978 8     -1310.891          50.000    20813881.672 8  85229362.874 8     -1021.473          50.000
G07  22798876.875 6 119808871.681 6     -2567.031          37.000    22798876.203 5  93357621.686 5     -2000.293          35.000
G28  21495433.234 8 112959244.465 8      1936.227          51.000    21495431.844 7  88020223.645 7      1508.748          43.000
G30  20719941.523 8 108884028.552 8     -1299.434          51.000    20719942.477 8  84844699.752 8     -1012.543          51.000
R06  21265524.422 8 113476903.221 8     -3244.242          48.000
R07  19200124.055 8 102779788.648 8       192.363          49.000    19200126.094 8  79939822.503 8       149.616          49.000
R09  19202787.352 8 102541886.163 8       762.598          50.000    19202789.812 8  79754723.722 8       593.128          51.000
R10  21086649.008 8 112403762.049 8      3424.871          50.000
C05  39786666.758 5 207179614.712 5         5.441          35.000    39786665.227 6 160204403.494 6         4.522          41.000
C19  21694022.797 8 112966453.773 8     -1070.207          51.000
C20  25185299.961 7 131146464.204 7     -3142.891          45.000
E05  23468818.781 8 123329464.540 8       593.316          48.000    23468821.344 8  94499218.949 8       454.589          50.000
E09  22863797.891 8 120150050.215 8     -1778.074          51.000    22863800.250 8  92063028.254 8     -1362.394          51.000
E24  22046457.852 8 115854930.080 8      1187.570          51.000    22046470.375 8  88772008.771 8       909.965          51.000
E31  25067797.508 6 131732150.458 6     -1658.754          40.000    25067798.383 6 100937642.939 6     -1271.170          38.000
> 2020 05 06 03 55 30.0000000  0 14        .000000000000
G05  20821418.898 8 109417295.038 8     -1329.234          50.000    20821418.023 8  85260221.596 8     -1035.767          49.000
G28  21484423.742 8 112901387.574 8      1920.812          51.000    21484421.742 7  87975140.373 7      1496.737          43.000
G30  20727391.859 8 108923180.362 8     -1310.934          51.000    20727393.000 8  84875207.642 8     -1021.507          51.000
R06  21283801.359 8 113574428.170 8     -3257.590          48.000
R07  19199103.141 8 102774321.770 8       171.844          49.000    19199104.602 8  79935570.503 8       133.656          48.000
R09  19198567.789 8 102519352.282 8       739.434          50.000    19198569.875 8  79737197.374 8       575.115          50.000
R10  21067415.859 8 112301233.259 8      3410.258          49.000
C05                                                                  39786630.258 6 160204262.577 6         4.818          41.000
C19  21700228.328 8 112998768.506 8     -1084.281          51.000
C20  25203423.188 7 131240830.842 7     -3148.285          46.000
E05  23465454.508 8 123311784.961 8       585.266          49.000    23465456.766 8  94485672.249 8       448.522          51.000
E09  22873968.367 8 120203494.767 8     -1785.012          51.000    22873970.648 8  92103979.251 8     -1367.754          51.000
E24  22039715.305 8 115819496.915 8      1174.602          51.000    22039727.188 8  88744858.727 8       900.007          50.000
E31  25077296.805 6 131782070.727 6     -1669.504          37.000    25077298.578 6 100975893.465 6     -1279.084          37.000
> 2020 05 06 03 56  0.0000000  0 14        .000000000000
G05  20829063.844 8 109457470.608 8     -1348.270          50.000    20829063.547 8  85291527.223 8     -1050.600          50.000
G28  21473506.555 8 112844016.872 8      1904.691          50.000    21473504.852 7  87930435.926 7      1484.175          44.000
G30  20734912.281 8 108962700.281 8     -1322.969          51.000    20734913.391 8  84906002.363 8     -1030.885          51.000
R06  21302156.430 8 113672371.526 8     -3271.121          48.000
R07  19198201.289 7 102769495.549 7       150.629          47.000    19198203.086 8  79931816.790 8       117.156          49.000
R09  19194483.047 8 102497537.643 8       715.590          50.000    19194484.656 8  79720230.426 8       556.570          49.000
R10  21048269.625 8 112199170.505 8      3394.812          49.000
C05  39786599.188 5 207179262.637 5         5.828          35.000    39786597.898 6 160204131.976 6         4.591          41.000
C19  21706519.383 8 113031527.877 8     -1098.906          51.000
C20  25221580.594 7 131335375.696 7     -3154.035          46.000
E05  23462140.016 8 123294366.676 8       576.660          50.000    23462141.797 8  94472325.773 8       441.827          51.000
E09  22884182.945 8 120257171.616 8     -1792.594          51.000    22884185.055 8  92145108.227 8     -1373.567          51.000
E24  22033051.227 8 115784476.135 8      1160.953          51.000    22033062.273 8  88718024.650 8       889.517          51.000
E31  25086861.047 5 131832330.822 5     -1680.230          35.000    25086861.914 6 101014404.501 6     -1287.608          37.000
> 2020 05 06 03 56 30.0000000  0 15        .000000000000
G05  20836814.180 8 109498198.002 8     -1367.773          51.000    20836813.977 8  85323262.853 8     -1065.797          51.000
G07  22842968.570 6 120040587.852 6     -2582.992          37.000
G28  21462678.289 8 112787113.744 8      1888.000          50.000    21462677.000 7  87886095.816 7      1471.169          46.000
G30  20742498.562 8 109002566.564 8     -1335.547          51.000    20742499.508 8  84937067.010 8     -1040.686          51.000
R06  21320585.539 7 113770710.885 7     -3285.504          47.000
R07  19197415.797 8 102765290.583 8       128.820          48.000    19197417.844 8  79928546.246 8       100.194          49.000
R09  19190528.828 8 102476421.876 8       691.234          50.000    19190530.180 8  79703807.093 8       537.630          49.000
R10  21029207.062 8 112097555.688 8      3378.680          49.000
C05  39786565.422 5 207179085.928 5         5.230          35.000    39786564.227 6 160203996.081 6         3.739          41.000
C19  21712891.836 8 113064711.563 8     -1114.160          51.000
C20  25239768.242 7 131430077.332 7     -3160.219          47.000
E05  23458871.375 8 123277190.236 8       567.531          49.000    23458873.000 8  94459164.598 8       434.889          51.000
E09  22894437.680 8 120311060.306 8     -1800.832          51.000    22894439.797 8  92186399.524 8     -1379.882          51.000
E24  22026461.828 8 115749847.866 8      1146.703          51.000    22026472.930 8  88691491.327 8       878.694          51.000
E31  25096485.859 6 131882909.148 6     -1692.184          37.000    25096485.312 6 101053159.326 6     -1296.818          36.000
> 2020 05 06 03 57  0.0000000  0 15        .000000000000
G05  20844668.609 8 109539472.139 8     -1385.141          51.000    20844668.320 8  85355424.510 8     -1079.330          51.000
G07  22857721.977 5 120118112.283 5     -2586.602          35.000
G28  21451938.633 8 112730676.213 8      1873.262          51.000    21451937.711 7  87842118.521 7      1459.684          46.000
G30  20750149.734 8 109042773.702 8     -1346.078          51.000    20750150.586 8  84968397.234 8     -1048.892          51.000
R06  21339087.875 7 113869440.242 7     -3297.688          46.000
R07  19196746.109 7 102761704.162 7       109.023          47.000    19196747.781 8  79925756.846 8        84.796          48.000
R09  19186704.961 8 102456000.480 8       668.934          51.000    19186705.695 8  79687923.789 8       520.282          49.000
R10  21010227.680 8 111996386.886 8      3364.617          48.000
C05  39786529.625 5 207178900.262 5         6.523          35.000    39786528.336 6 160203851.720 6         4.942          41.000
C19  21719344.945 8 113098315.207 8     -1127.273          51.000
C20  25257984.688 7 131524930.216 7     -3164.430          47.000
E05  23455648.117 8 123260252.346 8       560.480          50.000    23455649.828 8  94446186.209 8       429.468          51.000
E09  22904731.914 8 120365156.570 8     -1806.777          51.000    22904733.812 8  92227849.877 8     -1384.429          51.000
E24  22019946.266 8 115715608.385 8      1134.668          51.000    22019958.109 8  88665255.910 8       869.415          51.000
E31  25106170.008 6 131933799.997 6     -1701.398          37.000    25106169.844 6 101092153.587 6     -1303.971          36.000
> 2020 05 06 03 57 30.0000000  0 15        .000000000000
G05  20852628.352 8 109581299.714 8     -1403.289          51.000    20852627.633 8  85388017.396 8     -1093.472          51.000
G07  22872501.312 5 120195781.525 5     -2590.180          30.000    22872495.016 5  93659054.843 5     -2018.322          32.000
G28  21441289.469 8 112674714.360 8      1857.695          50.000    21441288.883 8  87798511.869 8      1447.555          48.000
G30  20757867.070 8 109083328.332 8     -1357.391          51.000    20757868.078 8  84999998.235 8     -1057.707          51.000
R06  21357664.008 7 113968565.234 7     -3310.539          45.000
R07  19196192.977 7 102758746.273 7        88.355          47.000    19196194.672 8  79923456.265 8        68.721          48.000
R09  19183012.227 8 102436281.231 8       645.832          50.000    19183013.055 8  79672586.626 8       502.317          49.000
R10  20991333.492 8 111895675.057 8      3349.578          48.000
C05  39786493.312 5 207178710.736 5         6.762          35.000    39786491.992 6 160203705.139 6         5.108          41.000
C19  21725880.477 8 113132346.640 8     -1141.242          51.000
C20  25276230.719 7 131619941.018 7     -3169.410          45.000
E05  23452472.148 8 123243562.009 8       552.410          51.000    23452473.914 8  94433397.498 8       423.287          51.000
E09  22915066.914 8 120419468.409 8     -1813.730          51.000    22915068.453 8  92269465.431 8     -1389.754          51.000
E24  22013505.938 8 115681766.218 8      1121.699          51.000    22013518.609 8  88639324.914 8       859.454          51.000
E31  25115914.961 6 131985009.938 6     -1711.938          39.000    25115916.484 6 101131392.393 6     -1311.649          37.000
> 2020 05 06 03 58  0.0000000  0 14        .000000000000
G05  20860693.625 8 109623681.111 8     -1421.914          51.000    20860692.016 8  85421041.843 8     -1107.985          51.000
G28  21430731.242 8 112619231.675 8      1841.488          49.000    21430731.164 8  87755278.616 8      1434.926          48.000
G30  20765650.648 8 109124230.970 8     -1369.215          51.000    20765651.695 8  85031870.412 8     -1066.921          51.000
R06  21376313.711 7 114068086.844 7     -3323.961          44.000
R07  19195758.742 8 102756420.148 8        67.016          50.000    19195760.000 8  79921647.074 8        52.123          48.000
R09  19179451.367 8 102417266.092 8       622.211          51.000    19179452.555 8  79657797.085 8       483.942          50.000
R10  20972526.312 8 111795424.440 8      3333.934          48.000
C05  39786456.875 5 207178521.283 5         6.742          35.000    39786455.414 6 160203557.838 6         4.987          41.000
C19  21732498.469 8 113166807.487 8     -1155.840          51.000
C20  25294506.781 7 131715110.215 7     -3174.875          45.000
E05  23449343.820 8 123227121.944 8       543.828          51.000    23449345.445 8  94420800.567 8       416.726          51.000
E09  22925442.836 8 120473997.631 8     -1821.254          51.000    22925444.648 8  92311247.561 8     -1395.491          51.000
E24  22007141.664 8 115648323.698 8      1108.129          51.000    22007154.484 8  88613700.121 8       849.044          51.000
E31  25125720.695 6 132036539.507 6     -1723.203          41.000    25125723.344 6 101170876.051 6     -1320.188          37.000
> 2020 05 06 03 58 30.0000000  0 15        .000000000000
G05  20868864.508 8 109666617.309 8     -1439.031          51.000    20868861.953 8  85454498.604 8     -1121.326          51.000
G28  21420264.703 8 112564231.783 8      1826.613          49.000    21420265.219 8  87712421.571 8      1423.335          48.000
G30  20773500.461 8 109165481.854 8     -1379.355          51.000    20773501.320 8  85064013.952 8     -1074.822          51.000
R06  21395037.781 7 114168004.843 7     -3335.684          44.000
R07  19195442.891 8 102754729.148 8        47.191          50.000    19195444.133 7  79920331.843 7        36.704          47.000
R09  19176022.453 8 102398956.174 8       600.020          51.000    19176024.055 8  79643556.062 8       466.682          50.000
R10  20953806.641 8 111695638.651 8      3319.836          48.000
C05  39786420.570 5 207178331.597 5         7.336          35.000    39786419.047 6 160203411.088 6         5.932          41.000
C19  21739199.148 8 113201699.201 8     -1168.805          51.000
C20  25312813.773 7 131810438.055 7     -3178.754          44.000
E05  23446263.578 8 123210934.772 8       536.789          51.000    23446264.766 8  94408397.413 8       411.300          51.000
E09  22935860.484 8 120528745.796 8     -1827.227          51.000    22935863.117 8  92353197.442 8     -1400.074          51.000
E24  22000854.039 8 115615282.935 8      1096.023          51.000    22000866.750 8  88588383.145 8       839.810          51.000
E25  26679139.977 6 140199824.379 6      3047.344          40.000    26679138.523 7 107425836.642 7      2334.993          42.000
E31  25135587.078 6 132088388.784 6     -1732.305          40.000    25135588.586 5 101210604.685 5     -1327.267          35.000
> 2020 05 06 03 59  0.0000000  0 15        .000000000000
G05  20877138.805 8 109710097.839 8     -1459.691          51.000    20877135.766 8  85488379.537 8     -1137.422          51.000
G28  21409888.906 8 112509707.452 8      1808.324          49.000    21409889.297 7  87669935.075 7      1409.084          47.000
G30  20781414.461 8 109207070.387 8     -1393.156          51.000    20781415.227 8  85096420.599 8     -1085.576          51.000
R06  21413834.180 7 114268307.616 7     -3350.930          43.000
R07  19195244.188 8 102753665.072 8        23.711          51.000    19195245.062 7  79919504.208 7        18.442          46.000
R09  19172724.008 8 102381341.852 8       574.309          51.000    19172725.555 8  79629856.048 8       446.687          51.000
R10  20935173.031 7 111596311.550 7      3301.914          47.000
C05  39786382.547 5 207178134.344 5         5.781          35.000    39786381.016 6 160203257.824 6         4.186          41.000
C19  21745980.820 8 113237012.412 8     -1185.352          51.000
C20  25331148.875 7 131905914.137 7     -3186.168          43.000
E05  23443229.945 8 123194992.128 8       525.973          51.000    23443230.812 8  94396181.621 8       403.012          51.000
E09  22946318.414 8 120583703.586 8     -1836.723          51.000    22946321.469 8  92395307.946 8     -1407.398          51.000
E24  21994641.086 8 115582635.067 8      1080.477          51.000    21994654.148 8  88563367.248 8       827.835          51.000
E25  26661762.273 7 140108499.892 7      3040.641          42.000    26661760.500 6 107355860.765 6      2329.853          41.000
E31  25145512.281 6 132140547.069 6     -1745.070          39.000    25145513.156 5 101250570.110 5     -1337.374          35.000
> 2020 05 06 03 59 30.0000000  0 15        .000000000000
G05  20885518.367 8 109754133.228 8     -1476.441          51.000    20885515.562 8  85522692.827 8     -1150.474          51.000
G28  21399606.258 8 112455672.291 8      1793.645          49.000    21399606.477 7  87627829.733 7      1397.648          47.000
G30  20789394.688 8 109249007.066 8     -1403.129          51.000    20789395.484 8  85129098.519 8     -1093.347          51.000
R06  21432704.484 7 114369005.765 7     -3362.344          42.000
R07  19195164.734 8 102753241.452 8         4.074          50.000    19195165.305 7  79919174.708 7         3.169          45.000
R09  19169558.086 8 102364434.850 8       552.371          51.000    19169559.570 8  79616706.184 8       429.622          51.000
R10  20916627.875 7 111497457.051 7      3287.777          47.000
C05  39786345.078 5 207177938.627 5         7.129          35.000    39786343.609 6 160203107.216 6         5.361          40.000
C19  21752845.695 8 113272758.620 8     -1198.195          51.000
C20  25349513.836 6 132001548.858 6     -3189.996          41.000
E05  23440245.289 8 123179306.794 8       519.098          51.000    23440246.211 8  94384162.989 8       397.732          51.000
E09  22956818.758 8 120638882.818 8     -1842.512          51.000    22956821.805 8  92437588.127 8     -1411.798          51.000
E24  21988505.430 8 115550392.420 8      1068.508          51.000    21988518.492 8  88538661.849 8       818.685          51.000
E25  26644411.680 6 140017317.282 6      3037.438          41.000    26644410.406 6 107285993.548 6      2327.402          41.000
E31  25155498.484 6 132193024.841 6     -1754.051          40.000    25155501.359 5 101290780.288 5     -1343.803          35.000
