     3.04           OBSERVATION DATA    M (MIXED)           RINEX VERSION / TYPE
Convert 2.6.2       NovAtel             20200515 161450 UTC PGM / RUN BY / DATE 
Rinex Version 3.04 Observation File                         COMMENT             
                                                            MARKER NAME         
                                                            MARKER NUMBER       
                                                            MARKER TYPE         
                                                            OBSERVER / AGENCY   
                    NovAtel GPSCard                         REC # / TYPE / VERS 
                                                            ANT # / TYPE        
        0.0000        0.0000        0.0000                  APPROX POSITION XYZ 
        0.0000        0.0000        0.0000                  ANTENNA: DELTA H/E/N
G    8 C1C L1C D1C S1C C2W L2W D2W S2W                      SYS / # / OBS TYPES 
R    8 C1C L1C D1C S1C C2P L2P D2P S2P                      SYS / # / OBS TYPES 
E    8 C1C L1C D1C S1C C7Q L7Q D7Q S7Q                      SYS / # / OBS TYPES 
C    4 C2I L2I D2I S2I                                      SYS / # / OBS TYPES 
DBHZ                                                        SIGNAL STRENGTH UNIT
    30.000                                                  INTERVAL            
  2020    05    14    07    00    0.0000000     GPS         TIME OF FIRST OBS   
  2020    05    14    07    59   30.0000000     GPS         TIME OF LAST OBS    
G L1C  0.00000  07 G13 G12 G15 G24 G19 G25 G17              SYS / PHASE SHIFT   
G L2W  0.00000  07 G13 G12 G15 G24 G19 G25 G17              SYS / PHASE SHIFT   
R L1C  0.00000  07 R10 R21 R01 R11 R12 R02 R22              SYS / PHASE SHIFT   
R L2P  0.25000  06 R21 R01 R11 R12 R02 R22                  SYS / PHASE SHIFT   
E L1C  0.50000  06 E04 E01 E21 E31 E19 E13                  SYS / PHASE SHIFT   
E L7Q -0.25000  05 E04 E01 E31 E21 E13                      SYS / PHASE SHIFT   
C L2I  0.00000  05 C19 C22 C30 C27 C29                      SYS / PHASE SHIFT   
  7 R10 -7 R21  4 R01  1 R11  0 R12 -1 R02 -4 R22 -3        GLONASS SLOT / FRQ #
 C1C  -71.950 C2C  -71.950 C2P  -71.950                     GLONASS COD/PHS/BIS 
     0     0     0     0GPS                                 LEAP SECONDS        
                                                            END OF HEADER       
> 2020 05 14 07 00  0.0000000  0 18      -0.000000000000
G13  23181375.016 7 121818929.504 7     -3549.109          47.000    23181377.047 7  94923809.631 7     -2765.541          42.000  
G12  21490525.461 8 112933491.458 8      2593.820          51.000    21490523.133 8  88000110.938 8      2021.159          51.000  
G15  21780218.328 8 114455803.901 8     -2827.641          51.000    21780216.758 8  89186337.489 8     -2203.357          51.000  
G24  20309651.844 5 106727932.028 5       843.785          35.000    20309651.422 5  83164632.405 5       657.498          35.000  
G19  21602996.688 6 113524523.314 6       591.301          39.000    21602994.992 5  88460648.561 5       460.763          30.000  
G25  24056597.844 6 126418275.720 6      3484.211          41.000    24056598.469 6  98507740.330 6      2714.967          40.000  
R10  21650344.047 5 115408100.67425     -2712.988          30.000                                                                  
R21  22688275.109 7 121409170.607 7      3824.699          46.000    22688278.883 6  94429356.213 6      2974.770          40.000  
R01  20689655.281 7 110597677.675 7     -2810.055          43.000    20689661.148 6  86020434.711 6     -2185.599          41.000  
R11  19652095.641 5 105014441.602 5       250.812          35.000    19652088.883 4  81677879.899 4       195.073          26.000  
R12  21980189.367 6 117413839.749 6      2650.793          36.000                                                                  
E04  24224789.922 8 127302132.981 8     -1088.902          51.000    24224792.711 8  97543187.757 8      -834.300          51.000  
E01  23572386.781 8 123873710.245 8      -125.703          51.000    23572388.195 8  94916290.588 8       -96.306          51.000  
E21  25675574.367 6 134926061.425 6     -2099.848          36.000                                                                  
E31  25730665.961 5 135215559.866 5      1965.879          34.000    25730664.797 5 103606703.164 5      1506.012          30.000  
C19  24971541.367 6 130033300.529 6     -3177.938          36.000  
C22  23920106.148 6 124558296.273 6     -1242.273          36.000  
C30  24491097.602 8 127531579.882 8      2957.082          49.000  
> 2020 05 14 07 00 30.0000000  0 17      -0.000000000000
G13  23201647.055 8 121925460.235 8     -3554.375          48.000    23201648.508 6  95006820.554 6     -2769.644          41.000  
G12  21475743.883 8 112855813.790 8      2583.207          50.000    21475741.117 8  87939582.916 8      2012.892          50.000  
G15  21796386.578 8 114540769.890 8     -2838.254          51.000    21796385.852 8  89252544.717 8     -2211.627          51.000  
G24  20304857.484 5 106702749.323 5       833.281          34.000    20304860.008 5  83145009.566 5       649.310          34.000  
G17  22654126.188 6 119048240.25026     -1300.172          37.000                                                                  
G19  21599675.297 5 113507070.243 5       571.738          30.000    21599676.055 4  88447048.647 4       445.498          26.000  
G25  24036713.492 7 126313775.18827      3480.617          43.000                                                                  
R21  22666851.969 7 121294530.871 7      3816.434          46.000    22666855.195 6  94340192.027 6      2968.338          39.000  
R01  20705473.539 7 110682242.451 7     -2828.957          45.000    20705480.227 6  86086207.331 6     -2200.297          40.000  
R12  21965317.219 6 117334371.285 6      2645.395          36.000                                                                  
E04  24231035.805 8 127334954.793 8     -1100.746          51.000    24231037.977 8  97568336.941 8      -843.456          51.000  
E01  23573116.336 8 123877543.950 8      -131.301          51.000    23573117.805 8  94919228.090 8      -100.637          51.000  
E21  25687559.969 5 134989049.039 5     -2100.551          34.000                                                                  
E31  25719452.453 5 135156617.492 5      1962.590          33.000    25719444.977 5 103561548.381 5      1504.229          30.000  
C19  24989852.727 5 130128647.098 5     -3179.945          35.000  
C22  23927296.570 6 124595746.762 6     -1255.691          36.000  
C30  24474070.570 8 127442914.309 8      2952.363          49.000  
> 2020 05 14 07 01  0.0000000  0 15      -0.000000000000
G13  23221961.406 8 122032210.874 8     -3564.090          50.000    23221962.000 6  95090002.798 6     -2777.217          41.000  
G12  21461033.391 8 112778512.549 8      2568.344          48.000    21461031.398 8  87879348.197 8      2001.307          48.000  
G15  21812625.734 8 114626110.260 8     -2853.027          50.000    21812626.094 8  89319043.683 8     -2223.142          49.000  
G24  20300134.219 5 106677933.037 5       818.836          35.000    20300137.711 5  83125672.178 5       638.048          35.000  
G17  22661617.883 5 119087560.106 5     -1320.148          35.000    22661617.727 5  92795520.786 5     -1028.687          31.000  
G25  24016862.492 7 126209462.90127      3472.473          46.000                                                                  
R10  21680916.984 4 115571105.76824     -2723.508          28.000                                                                  
R21  22645485.844 7 121180197.863 7      3803.688          44.000    22645488.898 6  94251266.370 6      2958.427          40.000  
R01  20721410.086 8 110767430.052 8     -2852.105          48.000    20721416.148 6  86152464.299 6     -2218.308          40.000  
E04  24237360.336 8 127368188.654 8     -1116.773          51.000    24237361.875 8  97593801.836 8      -855.770          51.000  
E01  23573888.453 8 123881601.268 8      -141.156          51.000    23573889.938 8  94922336.933 8      -108.162          51.000  
E31  25708268.648 5 135097862.300 5      1954.406          31.000    25708260.258 5 103516507.914 5      1497.578          31.000  
C19  25008182.578 6 130224096.427 6     -3185.199          37.000  
C22  23934577.133 5 124633665.109 5     -1273.797          33.000  
C30  24457081.680 8 127354445.341 8      2943.551          50.000  
> 2020 05 14 07 01 30.0000000  0 14      -0.000000000000
G13  23242322.688 8 122139206.737 8     -3567.055          51.000    23242322.586 6  95173376.112 6     -2779.527          40.000  
G12  21446399.961 8 112701616.103 8      2559.895          49.000    21446398.797 8  87819428.890 8      1994.724          49.000  
G15  21828941.000 8 114711850.339 8     -2861.125          50.000    21828942.102 8  89385854.144 8     -2229.449          50.000  
G24  20295486.883 6 106653511.429 6       811.406          36.000    20295490.156 5  83106642.310 5       632.262          35.000  
G17  22669196.992 5 119127468.15225     -1333.465          33.000    22669200.930 5  92826587.23325     -1039.064          30.000  
G25  23997048.953 8 126105336.847 8      3470.867          48.000    23997049.805 6  98263897.678 6      2704.573          41.000  
R21  22624183.656 7 121066204.368 7      3797.691          46.000    22624186.516 6  94162604.779 6      2953.760          41.000  
R01  20737468.367 8 110853264.645 8     -2868.254          49.000    20737473.266 6  86219224.486 6     -2230.865          40.000  
E04  24243768.547 8 127401861.504 8     -1126.195          51.000    24243769.523 8  97619603.091 8      -862.929          51.000  
E01  23574708.234 8 123885909.168 8      -144.242          51.000    23574709.625 8  94925637.789 8      -110.514          51.000  
E31                                                                  25697112.727 5 103471618.678 5      1496.958          33.000  
C19  25026536.797 6 130319673.460 6     -3184.215          37.000  
C22  23941953.523 5 124672033.266 5     -1285.387          33.000  
C30  24440136.039 8 127266202.897 8      2941.051          48.000  
> 2020 05 14 07 02  0.0000000  0 18      -0.000000000000
G13  23262703.844 8 122246307.791 8     -3575.547          51.000    23262703.414 6  95256831.390 6     -2786.144          41.000  
G12  21431818.164 8 112624987.871 8      2546.055          51.000    21431817.492 8  87759718.582 8      1983.939          51.000  
G15  21845306.039 8 114797849.666 8     -2874.637          51.000    21845306.977 8  89452866.595 8     -2239.977          51.000  
G24  20290888.867 6 106629347.432 6       797.766          39.000    20290892.211 6  83087813.205 6       621.639          39.000  
G19  21590460.812 6 113458685.438 6       505.148          38.000    21590463.422 5  88409332.106 5       393.622          32.000  
G25  23977247.570 8 126001278.122 8      3464.051          48.000    23977247.922 7  98182812.990 7      2699.261          42.000  
R10  21711588.883 4 115734598.265 4     -2728.672          28.000                                                                  
R21  22602920.312 8 120952414.590 8      3785.809          49.000    22602922.703 7  94074101.655 7      2944.521          42.000  
R01  20753620.586 8 110939602.020 8     -2890.133          50.000    20753624.453 6  86286375.757 6     -2247.885          40.000  
R11  19646939.508 5 104986948.465 5       206.848          33.000    19646939.070 5  81656498.894 5       160.885          31.000  
R12  21920909.656 5 117097146.013 5      2625.797          30.000                                                                  
E04  24250233.805 8 127435834.603 8     -1141.172          51.000    24250234.484 8  97645634.407 8      -874.426          51.000  
E01  23575549.414 8 123890328.972 8      -152.949          51.000    23575550.547 8  94929024.386 8      -117.213          51.000  
E21  25723599.422 5 135178427.106 5     -2108.270          31.000                                                                  
E31                                                                  25685976.023 5 103426766.991 5      1491.604          34.000  
C19  25044888.383 6 130415238.938 6     -3189.082          38.000  
C22  23949399.297 6 124710800.671 6     -1302.004          37.000  
C30  24423206.695 7 127178052.645 7      2933.105          46.000  
> 2020 05 14 07 02 30.0000000  0 17      -0.000000000000
G13  23283136.234 8 122353678.827 8     -3584.434          51.000    23283135.852 6  95340497.045 6     -2793.066          41.000  
G12  21417319.609 8 112548795.786 8      2531.570          51.000    21417319.062 8  87700348.139 8      1972.653          51.000  
G15  21861752.094 8 114884272.771 8     -2888.730          51.000    21861752.070 8  89520209.252 8     -2250.959          51.000  
G24  20286372.273 6 106605608.699 6       783.273          39.000    20286374.680 6  83069315.459 6       610.343          39.000  
G19  21587638.336 6 113443860.678 6       481.129          41.000    21587637.906 4  88397769.554 4       374.906          28.000  
G25  23957489.578 7 125897452.077 7      3456.043          47.000    23957490.414 7  98101910.828 7      2693.021          43.000  
R10  21726952.789 5 115816493.90425     -2735.555          32.000                                                                  
R21  22581727.609 8 120839003.065 8      3773.031          48.000    22581729.469 7  93985892.766 7      2934.583          42.000  
R01  20769897.656 8 111026608.340 8     -2912.320          49.000    20769901.016 6  86354047.317 6     -2265.138          41.000  
R11  19645808.297 5 104980920.942 5       193.270          34.000    19645806.711 4  81651810.721 4       150.321          27.000  
R12  21906177.484 5 117018499.446 5      2617.453          34.000                                                                  
E04  24256787.430 8 127470274.230 8     -1156.707          51.000    24256788.164 8  97672023.198 8      -886.279          51.000  
E01  23576443.477 8 123895027.022 8      -162.184          51.000    23576444.352 8  94932624.175 8      -124.244          51.000  
E31                                                                  25674882.055 5 103382083.790 5      1485.815          32.000  
C19  25063269.602 6 130510955.841 6     -3194.211          37.000  
C22  23956945.070 5 124750087.404 5     -1319.629          35.000  
C30  24406326.375 7 127090162.510 7      2924.332          44.000  
> 2020 05 14 07 03  0.0000000  0 15      -0.000000000000
G13  23303607.141 8 122461252.266 8     -3591.000          51.000    23303606.617 6  95424320.446 6     -2798.183          41.000  
G12  21402891.625 8 112472975.193 8      2519.371          50.000    21402891.141 8  87641267.131 8      1963.147          51.000  
G15  21878266.086 8 114971052.105 8     -2900.359          51.000    21878264.836 8  89587829.474 8     -2260.021          51.000  
G24  20281924.273 7 106582230.507 7       771.555          42.000    20281925.195 6  83051098.692 6       601.212          41.000  
G19  21584942.125 6 113429692.625 6       459.285          41.000    21584939.633 4  88386729.728 4       357.885          29.000  
G25  23937763.297 7 125793778.279 7      3450.621          46.000    23937765.195 7  98021133.968 7      2688.796          43.000  
R21  22560593.750 8 120725907.901 8      3762.707          48.000    22560594.438 6  93897929.934 6      2926.553          39.000  
R01  20786285.414 7 111114212.686 7     -2932.059          46.000    20786289.078 6  86422184.009 6     -2280.490          39.000  
R11  19644737.102 5 104975234.528 5       181.504          31.000    19644738.812 4  81647331.49924       141.173          28.000  
R12  21891481.477 5 116940010.661 5      2610.512          32.000                                                                  
E04  24263416.836 8 127505114.078 8     -1169.805          51.000    24263417.805 8  97698718.659 8      -896.314          51.000  
E01  23577377.797 8 123899937.032 8      -168.953          51.000    23577378.516 8  94936386.396 8      -129.446          51.000  
C19  25081667.117 6 130606756.698 6     -3197.113          38.000  
C22  23964578.508 4 124789826.945 4     -1333.609          29.000  
C30  24389485.117 7 127002470.031 7      2917.918          46.000  
> 2020 05 14 07 03 30.0000000  0 15      -0.000000000000
G13  23324118.000 8 122569036.798 8     -3595.168          49.000    23324117.078 6  95508308.323 6     -2801.434          40.000  
G12  21388536.477 8 112397538.212 8      2509.352          51.000    21388536.094 8  87582485.052 8      1955.339          50.000  
G15  21894849.344 8 115058195.950 8     -2909.676          50.000    21894847.414 8  89655733.737 8     -2267.281          50.000  
G24  20277546.992 6 106559224.408 6       761.805          39.000    20277547.305 6  83033171.845 6       593.611          39.000  
G19  21582373.266 6 113416193.024 6       440.367          40.000    21582371.312 6  88376210.615 6       343.143          36.000  
G25  23918071.258 7 125690297.915 7      3447.434          46.000    23918073.719 7  97940499.959 7      2686.316          43.000  
R21  22539520.914 7 120613144.692 7      3754.344          45.000    22539520.695 6  93810225.260 6      2920.046          36.000  
R01  20802785.844 7 111202422.464 7     -2949.148          46.000    20802789.852 6  86490791.558 6     -2293.786          39.000  
R11  19643737.711 5 104969900.264 5       173.160          33.000    19643743.094 4  81643182.160 4       134.677          29.000  
R12  21876835.883 4 116861726.376 4      2607.066          29.000                                                                  
E04  24270124.266 8 127540364.397 8     -1180.668          51.000    24270125.430 8  97725728.625 8      -904.686          51.000  
E01  23578354.570 8 123905069.374 8      -173.637          51.000    23578355.297 8  94940318.968 8      -133.067          51.000  
E21  25759792.742 6 135368617.798 6     -2114.285          36.000                                                                  
C19  25100082.516 6 130702649.877 6     -3196.980          37.000  
C30  24372685.281 7 126914988.521 7      2913.629          46.000  
> 2020 05 14 07 04  0.0000000  0 17      -0.000000000000
G13  23344633.883 8 122676848.312 8     -3582.617          48.000    23344632.453 6  95592317.220 6     -2791.654          39.000  
G12  21374220.141 8 112322303.714 8      2516.039          51.000    21374219.422 8  87523860.775 8      1960.551          51.000  
G15  21911466.453 8 115145519.988 8     -2902.117          50.000    21911464.727 8  89723778.432 8     -2261.391          50.000  
G24  20273206.094 7 106536409.535 7       768.871          43.000    20273206.250 7  83015393.985 7       599.117          43.000  
G19  21579896.867 6 113403180.245 6       437.230          39.000    21579892.844 5  88366070.803 5       340.702          35.000  
G25  23898379.422 7 125586816.336 7      3460.801          46.000    23898382.664 7  97859865.013 7      2696.732          43.000  
R10  21773177.227 5 116062901.813 5     -2725.676          32.000                                                                  
R21  22518476.266 7 120500533.176 7      3762.883          47.000    22518476.148 6  93722638.553 6      2926.687          36.000  
R01  20819365.078 7 111291048.882 7     -2949.422          46.000    20819369.359 6  86559723.133 6     -2293.998          39.000  
R11  19642769.781 5 104964732.661 5       181.336          35.000    19642775.469 4  81639162.816 4       141.033          27.000  
R12  21862183.656 5 116783458.178 5      2620.082          31.000                                                                  
E04  24276875.430 8 127575842.555 8     -1174.797          51.000    24276876.484 8  97752913.174 8      -900.110          51.000  
E01  23579338.734 8 123910241.456 8      -161.473          51.000    23579339.945 8  94944281.989 8      -123.714          51.000  
E21  25771838.555 6 135431928.998 6     -2096.914          39.000                                                                  
C19  25118480.516 6 130798452.727 6     -3180.277          37.000  
C22  23980079.328 5 124870614.994 5     -1342.531          32.000  
C30  24355891.992 7 126827540.192 7      2925.926          46.000  
> 2020 05 14 07 04 30.0000000  0 17      -0.000000000000
G13  23365231.086 7 122785088.426 7     -3616.297          46.000    23365229.438 6  95676660.121 6     -2817.895          37.000  
G12  21360019.297 8 112247676.622 8      2476.398          51.000    21360018.164 8  87465709.810 8      1929.665          51.000  
G15  21928193.984 8 115233425.631 8     -2940.992          49.000    21928192.914 8  89792276.334 8     -2291.683          49.000  
G24  20268978.438 7 106514190.455 7       729.676          43.000    20268978.453 7  82998080.414 7       568.582          43.000  
G17  22716671.312 5 119376913.25225     -1443.066          32.000                                                                  
G19  21577590.266 5 113391058.964 5       387.516          35.000    21577587.680 5  88356625.645 5       301.963          34.000  
G25  23878764.508 7 125483738.546 7      3428.027          45.000    23878768.734 7  97779544.701 7      2671.194          43.000  
R10  21788656.242 5 116145398.862 5     -2756.758          30.000                                                                  
R21  22497538.008 7 120388489.032 7      3724.176          45.000    22497537.992 6  93635493.128 6      2896.582          37.000  
R01  20836098.945 7 111380498.549 7     -2996.500          47.000    20836103.258 6  86629295.016 6     -2330.615          40.000  
R12  21847613.281 5 116705627.558 5      2585.688          33.000    21847610.305 3  90771047.21223      2011.097          23.000  
E04  24283746.820 8 127611951.590 8     -1215.277          51.000    24283747.766 8  97780581.112 8      -931.142          51.000  
E01  23580407.031 8 123915856.438 8      -195.586          51.000    23580408.656 8  94948584.375 8      -149.877          51.000  
E21  25783941.547 6 135495538.036 6     -2126.398          40.000                                                                  
C19  25136937.797 6 130894562.836 6     -3209.770          36.000  
C22  23987981.234 5 124911775.805 5     -1384.973          30.000  
C30  24339183.148 7 126740527.691 7      2892.102          47.000  
> 2020 05 14 07 05  0.0000000  0 18      -0.000000000000
G13  23385854.195 7 122893468.200 7     -3610.297          42.000    23385853.438 6  95761111.875 6     -2813.216          38.000  
G12  21345879.195 8 112173370.810 8      2476.090          51.000    21345877.688 8  87407809.190 8      1929.424          51.000  
G15  21944977.594 8 115321623.832 8     -2940.176          51.000    21944976.930 8  89861002.196 8     -2291.047          51.000  
G24  20264809.289 7 106492280.703 7       729.727          43.000    20264808.867 7  82981007.850 7       568.618          43.000  
G19  21575404.344 5 113379549.607 5       378.293          34.000                                                                  
G25  23859171.977 7 125380778.884 7      3434.707          43.000    23859177.125 7  97699316.445 7      2676.399          43.000  
R21  22476651.805 7 120276724.985 7      3725.504          44.000    22476652.664 6  93548565.574 6      2897.615          37.000  
R01  20852931.492 7 111470476.024 7     -3003.371          47.000    20852935.836 6  86699277.480 6     -2335.956          41.000  
R11  19641114.820 6 104955880.569 6       143.344          38.000                                                                  
R12  21833063.641 5 116627937.511 5      2591.660          33.000                                                                  
E04  24290683.445 8 127648403.929 8     -1216.230          51.000    24290684.461 8  97808512.082 8      -931.875          51.000  
E01  23581505.125 8 123921626.816 8      -190.277          51.000    23581506.461 8  94953005.821 8      -145.791          51.000  
E21  25796047.305 5 135559157.202 5     -2116.031          35.000                                                                  
E31  25619825.906 6 134633051.124 6      1920.527          37.000    25619832.445 5 103160442.695 5      1471.307          35.000  
E19  27505774.852 5 144543829.084 5     -3143.254          33.000                                                                  
C19  25155397.836 5 130990693.574 5     -3200.344          35.000  
C22  23995955.414 5 124953257.532 5     -1387.117          34.000  
C30  24322503.969 7 126653669.262 7      2897.004          45.000  
> 2020 05 14 07 05 30.0000000  0 18      -0.000000000000
G13  23406504.281 6 123001996.245 6     -3623.133          39.000    23406506.188 6  95845679.245 6     -2823.218          39.000  
G12  21331802.383 8 112099398.239 8      2457.207          51.000    21331800.398 8  87350168.248 8      1914.707          51.000  
G15  21961818.648 8 115410122.922 8     -2957.934          51.000    21961818.164 8  89929962.494 8     -2304.884          51.000  
G24  20260700.883 6 106470692.379 6       711.180          41.000    20260700.578 6  82964185.795 6       554.166          41.000  
G25  23839604.188 7 125277949.361 7      3422.430          42.000    23839609.445 6  97619189.570 6      2666.829          41.000  
R10  21819639.078 5 116310562.53925     -2759.250          31.000                                                                  
R21  22455820.820 7 120165256.492 7      3707.516          42.000    22455822.492 6  93461867.880 6      2883.624          39.000  
R01  20869863.758 7 111560988.066 7     -3028.977          47.000    20869868.531 6  86769675.700 6     -2355.871          41.000  
R11  19640362.641 5 104951869.319 5       125.746          32.000                                                                  
R12  21818542.508 4 116550399.002 4      2579.449          29.000                                                                  
E04  24297687.156 8 127685209.432 8     -1235.605          51.000    24297688.461 8  97836713.678 8      -946.766          51.000  
E01  23582634.688 8 123927562.666 8      -203.535          51.000    23582635.914 8  94957554.062 8      -155.947          51.000  
E21                                                                  25808163.055 5 103918760.135 5     -1627.772          34.000  
E31  25608901.609 6 134575636.313 6      1908.977          40.000    25608908.297 6 103116449.512 6      1462.708          37.000  
E19  27523749.266 5 144638277.239 5     -3151.195          31.000                                                                  
C19  25173863.062 5 131086852.934 5     -3207.887          33.000  
C22  24004011.016 5 124995213.192 5     -1408.215          35.000  
C30  24305855.617 7 126566977.975 7      2884.016          42.000  
> 2020 05 14 07 06  0.0000000  0 17      -0.000000000000
G13  23427189.258 7 123110699.650 7     -3628.379          43.000    23427192.148 6  95930383.183 6     -2827.309          37.000  
G12  21317794.750 8 112025789.036 8      2445.645          51.000    21317793.047 8  87292810.447 8      1905.698          51.000  
G15  21978721.938 8 115498949.697 8     -2968.422          51.000    21978721.711 8  89999178.103 8     -2313.057          51.000  
G24  20256659.219 6 106449455.243 6       700.438          41.000    20256659.602 7  82947637.400 7       545.796          42.000  
G19  21571374.961 5 113358396.525 5       328.988          34.000    21571375.062 4  88331168.197 4       256.355          25.000  
G25  23820066.805 6 125175280.360 6      3417.898          41.000    23820071.484 6  97539187.757 6      2663.298          41.000  
R21  22435051.906 7 120054117.845 7      3697.137          43.000    22435054.008 6  93375426.743 6      2875.554          40.000  
R01  20886900.930 7 111652060.314 7     -3047.164          47.000    20886905.461 6  86840509.656 6     -2370.017          41.000  
R11  19639664.164 5 104948035.018 5       115.680          35.000    19639678.695 4  81626303.19224        89.970          25.000  
E04  24304763.414 8 127722396.570 8     -1247.906          51.000    24304765.266 8  97865207.697 8      -956.236          51.000  
E01  23583801.047 8 123933692.554 8      -209.617          51.000    23583802.758 8  94962250.990 8      -160.604          51.000  
E21                                                                  25820279.578 5 103967560.239 5     -1628.945          30.000  
E31  25598002.789 6 134518361.427 6      1904.621          39.000    25598008.008 6 103072563.570 6      1459.443          37.000  
E19  27541734.078 5 144732790.140 5     -3153.594          33.000                                                                  
C19  25192338.375 5 131183067.565 5     -3209.445          31.000  
C22  24012150.875 6 125037598.096 6     -1421.977          38.000  
C30  24289242.984 6 126480485.389 6      2877.641          41.000  
> 2020 05 14 07 06 30.0000000  0 17      -0.000000000000
G13  23447910.938 7 123219589.279 7     -3629.727          45.000    23447912.906 5  96015232.210 5     -2828.359          32.000  
G12  21303859.055 8 111952557.230 8      2437.984          51.000    21303858.258 8  87235746.670 8      1899.726          51.000  
G15  21995689.523 8 115588114.843 8     -2974.656          51.000    21995689.672 8  90068657.379 8     -2317.918          51.000  
G24  20252687.055 7 106428583.002 7       693.020          42.000    20252687.891 7  82931373.315 7       540.015          42.000  
G19  21569547.109 6 113348803.003 6       312.234          37.000                                                                  
G25  23800562.609 7 125072786.223 7      3416.773          42.000    23800566.398 7  97459322.221 7      2662.422          42.000  
R21  22414348.258 6 119943327.139 6      3690.484          41.000    22414350.578 6  93289256.246 6      2870.380          41.000  
R01  20904044.508 7 111743702.264 7     -3060.875          47.000    20904048.445 6  86911786.718 6     -2380.681          41.000  
R11  19639038.430 5 104944685.083 5       109.355          32.000    19639043.664 4  81623662.44924        85.054          24.000  
R12  21789620.430 5 116395858.549 5      2572.145          33.000    21789626.750 4  90530129.55924      2000.557          26.000  
E04  24311914.695 8 127759977.656 8     -1256.094          51.000    24311917.312 8  97894003.576 8      -962.468          51.000  
E01  23585006.922 8 123940028.952 8      -211.461          51.000    23585008.836 8  94967106.140 8      -162.062          51.000  
E21  25832401.344 5 135750182.919 5     -2123.117          33.000                                                                  
E31  25587131.336 6 134461239.599 6      1904.645          36.000    25587135.594 5 103028794.895 5      1459.368          35.000  
E19  27559733.227 5 144827375.772 5     -3150.367          34.000                                                                  
C22  24020376.734 6 125080423.688 6     -1431.891          37.000  
C30  24272672.953 7 126394206.761 7      2875.574          45.000  
> 2020 05 14 07 07  0.0000000  0 18      -0.000000000000
G13  23468666.211 7 123328653.742 7     -3641.070          45.000    23468665.711 5  96100217.373 5     -2837.202          30.000  
G12  21289993.930 8 111879694.118 8      2420.094          51.000    21289993.609 8  87178970.217 8      1885.788          51.000  
G15  22012719.305 8 115677606.701 8     -2991.070          50.000    22012719.688 8  90138391.251 8     -2330.705          50.000  
G24  20248782.820 7 106408067.087 7       675.398          43.000    20248783.969 7  82915386.892 7       526.288          44.000  
G17  22758901.539 5 119598829.79425     -1524.258          32.000                                                                  
G19  21567845.312 6 113339860.601 6       284.242          36.000    21567852.328 4  88316752.434 4       221.487          29.000  
G25  23781090.227 6 124970458.776 6      3405.512          41.000    23781093.359 6  97379586.605 6      2653.646          40.000  
R21  22393707.828 6 119832879.707 6      3673.309          41.000    22393711.555 6  93203352.761 6      2857.018          41.000  
R01  20921292.250 7 111835900.229 7     -3085.055          46.000    20921296.531 7  86983496.239 7     -2399.488          42.000  
R11  19638498.266 4 104941788.49724        92.809          29.000    19638496.594 4  81621388.73524        72.184          25.000  
R12  21775208.031 5 116318882.216 5      2560.359          30.000                                                                  
E04  24319139.086 8 127797942.550 8     -1274.473          51.000    24319142.367 8  97923093.544 8      -976.524          51.000  
E01  23586250.266 8 123946561.864 8      -223.578          51.000    23586251.938 8  94972111.866 8      -171.349          51.000  
E21  25844542.164 5 135813984.913 5     -2130.297          34.000                                                                  
E31  25576286.438 6 134404261.380 6      1894.359          38.000    25576290.094 5 102985136.248 5      1451.373          35.000  
E19  27577744.367 5 144922026.351 5     -3158.484          35.000                                                                  
C22  24028685.086 6 125123678.985 6     -1451.383          38.000  
C30  24256144.992 8 126308135.362 8      2863.031          48.000  
> 2020 05 14 07 07 30.0000000  0 17      -0.000000000000
G13  23489464.602 7 123437944.078 7     -3645.688          45.000    23489460.898 5  96185378.483 5     -2840.802          30.000  
G12  21276209.445 8 111807254.339 8      2408.855          51.000    21276208.875 8  87122523.650 8      1877.034          51.000  
G15  22029820.969 8 115767475.954 8     -3000.742          51.000    22029821.523 8  90208419.215 8     -2338.241          51.000  
G24  20244956.562 7 106387961.778 7       664.461          42.000    20244958.492 7  82899720.376 7       517.762          42.000  
G19  21566277.094 6 113331623.022 6       264.270          36.000    21566272.086 5  88310276.414 5       205.927          35.000  
G25  23761660.047 6 124868352.536 6      3401.152          38.000    23761663.062 6  97300023.351 6      2650.246          38.000  
R21  22373141.680 6 119722834.299 6      3662.484          39.000    22373147.156 6  93117761.927 6      2848.603          41.000  
R01  20938653.172 7 111928704.350 7     -3102.305          46.000    20938657.867 7  87055677.208 7     -2412.907          42.000  
R11  19637983.969 6 104939118.947 6        83.129          39.000    19637997.188 4  81619311.315 4        64.656          26.000  
R12  21760838.422 5 116242145.128 5      2554.418          31.000                                                                  
E04  24326446.625 8 127836343.734 8     -1286.051          51.000    24326450.000 8  97952517.818 8      -985.416          51.000  
E01  23587540.711 8 123953343.913 8      -228.844          51.000    23587542.445 8  94977308.503 8      -175.387          51.000  
E21  25856703.141 5 135877891.022 5     -2131.035          32.000                                                                  
E31  25565479.766 6 134347479.987 6      1890.695          38.000    25565483.281 5 102941628.404 5      1449.081          34.000  
E19  27595776.789 5 145016784.542 5     -3159.926          33.000                                                                  
C22  24037084.820 6 125167415.037 6     -1464.445          40.000  
C30  24239667.688 8 126222326.496 8      2857.145          49.000  
> 2020 05 14 07 08  0.0000000  0 19      -0.000000000000
G13  23510302.141 7 123547441.656 7     -3651.445          45.000    23510298.680 5  96270701.205 5     -2845.286          31.000  
G12  21262502.156 8 111735222.070 8      2396.246          51.000    21262501.164 8  87066394.629 8      1867.208          51.000  
G15  22046990.852 8 115857703.569 8     -3011.594          50.000    22046991.469 8  90278726.431 8     -2346.697          50.000  
G24  20241205.430 7 106368250.956 7       652.289          43.000    20241207.898 7  82884361.257 7       508.274          42.000  
G17  22776493.664 6 119691273.982 6     -1555.402          37.000    22776500.195 5  93265985.120 5     -1211.987          34.000  
G19  21564840.266 6 113324074.325 6       242.016          38.000    21564838.703 4  88304394.311 4       188.584          29.000  
G25  23742268.656 5 124766452.200 5      3394.609          32.000    23742272.617 5  97220620.491 5      2645.148          31.000  
R10  21897479.773 5 116725489.39825     -2775.543          31.000                                                                  
R21  22352648.953 6 119613178.782 6      3650.465          40.000    22352655.531 6  93032474.333 6      2839.254          41.000  
R01  20956123.203 7 112022093.945 7     -3120.750          45.000    20956128.508 7  87128313.539 7     -2427.250          43.000  
R11  19637560.188 5 104936840.505 5        71.703          35.000                                                                  
E04  24333833.828 8 127875163.761 8     -1299.094          51.000    24333836.812 8  97982263.024 8      -995.422          51.000  
E01  23588875.430 8 123960357.910 8      -235.754          51.000    23588877.430 8  94982682.854 8      -180.646          51.000  
E21  25868882.531 6 135941889.641 6     -2132.332          37.000                                                                  
E31  25554707.836 5 134290897.781 5      1885.875          33.000    25554712.352 5 102898258.693 5      1444.483          34.000  
E19  27613827.977 5 145111645.068 5     -3161.742          34.000                                                                  
C19  25266383.961 4 131568691.57124     -3216.762          28.000  
C22  24045572.453 6 125211613.794 6     -1479.016          39.000  
C30  24223237.961 8 126136766.168 8      2849.707          50.000  
> 2020 05 14 07 08 30.0000000  0 19      -0.000000000000
G13  23531131.180 7 123656896.793 7     -3656.672          45.000    23531129.555 5  96355990.834 5     -2849.355          34.000  
G12  21248824.914 8 111663351.097 8      2384.160          50.000    21248824.070 8  87010391.296 8      1857.788          51.000  
G15  22064181.438 8 115948040.112 8     -3021.797          51.000    22064182.031 8  90349118.514 8     -2354.651          51.000  
G24  20237482.562 7 106348687.755 7       640.695          44.000    20237484.836 7  82869117.197 7       499.243          44.000  
G17  22785388.109 5 119738022.19725     -1567.773          31.000                                                                  
G19  21563487.562 4 113316967.747 4       220.773          28.000    21563486.312 4  88298856.617 4       172.034          27.000  
R10  21913064.266 4 116808634.771 4     -2778.879          29.000                                                                  
R21  22332182.938 6 119503666.049 6      3638.969          39.000    22332190.359 6  92947297.767 6      2830.310          41.000  
R01  20973654.945 7 112115813.133 7     -3138.375          45.000    20973660.883 7  87201206.198 7     -2440.962          43.000  
R11  19637149.367 5 104934673.352 5        61.395          31.000                                                                  
R12  21732186.375 5 116089105.36425      2542.746          33.000                                                                  
E04  24341253.523 8 127914154.505 8     -1311.418          51.000    24341255.359 8  98012139.043 8     -1004.880          51.000  
E01  23590207.219 8 123967355.886 8      -241.867          51.000    23590209.438 8  94988044.925 8      -185.351          51.000  
E21  25881030.258 6 136005720.098 6     -2133.945          39.000                                                                  
E31                                                                  25543931.250 5 102854837.445 5      1441.729          32.000  
E19  27631850.492 5 145206353.896 5     -3163.098          33.000                                                                  
C19  25284887.805 5 131665050.877 5     -3217.887          31.000  
C22  24054101.648 6 125256028.455 6     -1492.770          36.000  
C30  24206809.203 8 126051211.836 8      2842.852          50.000  
> 2020 05 14 07 09  0.0000000  0 18      -0.000000000000
G13  23552019.023 7 123766659.879 7     -3663.789          46.000    23552018.703 6  96441520.470 6     -2854.901          37.000  
G12  21235245.805 8 111591994.536 8      2370.090          51.000    21235245.234 8  86954788.764 8      1846.821          51.000  
G15  22081459.398 8 116038835.430 8     -3033.988          51.000    22081459.766 8  90419868.074 8     -2364.147          51.000  
G24  20233855.289 7 106329625.937 7       627.273          44.000    20233857.352 7  82854263.834 7       488.782          44.000  
G25  23703548.938 6 124563018.284 6      3382.684          38.000    23703533.000 6  97062044.069 6      2635.864          38.000  
R10  21928704.555 5 116892033.598 5     -2784.102          33.000                                                                  
R21  22311811.977 6 119394659.645 6      3625.238          40.000    22311819.930 6  92862514.958 6      2819.627          40.000  
R01  20991314.953 7 112210216.612 7     -3157.965          45.000    20991320.781 7  87274631.077 7     -2456.195          42.000  
R11  19636828.500 5 104932880.959 5        49.930          32.000    19636840.234 4  81614501.91424        38.828          26.000  
R12  21717922.211 5 116012922.48525      2534.484          33.000                                                                  
E04  24348772.688 8 127953667.530 8     -1325.602          51.000    24348772.922 8  98042415.251 8     -1015.709          51.000  
E01  23591602.672 8 123974689.631 8      -249.758          51.000    23591605.039 8  94993664.289 8      -191.388          51.000  
E21  25893212.586 5 136069750.129 5     -2136.602          32.000                                                                  
E31                                                                  25533208.789 5 102811643.630 5      1436.710          30.000  
E19  27649910.914 5 145301260.699 5     -3166.898          34.000                                                                  
C19  25303428.828 4 131761591.874 4     -3221.082          29.000  
C22  24062740.602 6 125301006.571 6     -1508.590          36.000  
C30  24190448.758 8 125966015.197 8      2834.062          50.000  
> 2020 05 14 07 09 30.0000000  0 16      -0.000000000000
G13  23572943.102 7 123876613.924 7     -3667.762          45.000    23572942.992 6  96527198.920 6     -2858.000          37.000  
G12  21221743.336 8 111521038.286 8      2359.023          51.000    21221742.500 8  86899498.172 8      1838.198          51.000  
G15  22098802.328 8 116129972.129 8     -3043.070          51.000    22098802.164 8  90490883.655 8     -2371.224          51.000  
G24  20230301.758 7 106310951.353 7       616.664          46.000    20230303.859 7  82839712.202 7       480.518          46.000  
G17  22803505.430 6 119833226.687 6     -1603.543          39.000                                                                  
G25  23684243.805 7 124461590.470 7      3378.418          43.000    23684231.828 6  96983009.525 6      2632.537          40.000  
R21  22291516.203 7 119286046.993 7      3614.305          43.000    22291523.203 6  92778038.455 6      2811.126          38.000  
R01  21009080.555 7 112305183.315 7     -3174.238          46.000    21009085.812 7  87348494.030 7     -2468.855          42.000  
R11  19636576.453 5 104931526.958 5        39.688          33.000    19636593.023 4  81613459.345 4        30.868          27.000  
R12  21703693.000 5 115936926.869 5      2529.805          32.000                                                                  
E04  24356369.234 8 127993587.233 8     -1336.879          51.000    24356368.461 8  98073003.063 8     -1024.413          51.000  
E01  23593039.961 8 123982243.729 8      -254.922          51.000    23593042.266 8  94999452.486 8      -195.330          51.000  
E31  25522515.633 5 134121724.377 5      1870.172          31.000    25522521.453 4 102768615.564 4      1433.495          29.000  
E19  27667986.852 5 145396250.838 5     -3166.652          32.000                                                                  
C22  24071465.602 6 125346432.770 6     -1521.402          37.000  
C30  24174135.172 8 125881064.940 8      2828.074          50.000  
> 2020 05 14 07 10  0.0000000  0 16      -0.000000000000
G13  23593913.883 7 123986813.580 7     -3686.383          44.000    23593913.875 6  96613068.766 6     -2872.507          38.000  
G12  21208328.219 8 111450540.328 8      2333.328          51.000    21208326.797 8  86844564.708 8      1818.178          51.000  
G15  22116220.508 8 116221504.784 8     -3066.754          51.000    22116219.727 8  90562207.783 8     -2389.682          51.000  
G24  20226832.844 7 106292721.488 7       591.285          46.000    20226835.031 7  82825507.109 7       460.742          46.000  
G17  22812723.789 6 119881663.884 6     -1632.930          39.000    22812730.062 5  93414335.653 5     -1272.422          31.000  
G19  21560290.625 5 113300143.869 5       141.504          34.000    21560282.477 5  88285754.996 5       110.263          34.000  
G25  23664985.266 7 124360420.458 7      3359.008          44.000    23664980.469 6  96904175.845 6      2617.413          41.000  
R21  22271306.219 7 119177890.999 7      3588.207          44.000    22271312.219 6  92693917.185 6      2790.834          37.000  
R01  21026961.672 7 112400767.012 7     -3205.566          47.000    21026966.797 6  87422836.865 6     -2493.222          41.000  
R11  19636401.109 4 104930589.14724        14.961          28.000                                                                  
E04  24364053.836 8 128033969.525 8     -1362.781          51.000    24364053.078 8  98103945.311 8     -1044.222          51.000  
E01  23594530.000 8 123990074.381 8      -274.637          51.000    23594532.164 8  95005452.579 8      -210.466          51.000  
E31                                                                  25511855.945 5 102725698.323 5      1420.131          33.000  
E19  27686088.195 5 145491374.839 5     -3182.195          31.000                                                                  
C22  24080286.797 5 125392361.501 5     -1548.875          33.000  
C30  24157880.094 8 125796419.799 8      2807.379          50.000  
> 2020 05 14 07 10 30.0000000  0 17      -0.000000000000
G13  23614916.180 7 124097180.833 7     -3675.832          42.000    23614916.648 6  96699069.183 6     -2864.286          36.000  
G12  21194986.133 8 111380425.781 8      2336.758          51.000    21194984.219 8  86789930.027 8      1820.851          51.000  
G15  22133699.055 8 116313355.229 8     -3060.969          51.000    22133697.719 8  90633779.532 8     -2385.171          51.000  
G24  20223434.164 7 106274861.378 7       595.320          46.000    20223436.422 7  82811590.130 7       463.886          46.000  
G17  22822036.188 6 119930591.338 6     -1632.941          38.000    22822021.906 6  93452460.652 6     -1272.425          36.000  
G19  21559484.578 5 113295910.753 5       135.766          34.000    21559476.852 5  88282456.500 5       105.798          34.000  
G25  23645761.844 7 124259433.571 7      3369.105          42.000    23645764.398 7  96825484.833 7      2625.281          42.000  
R21  22251167.203 7 119070119.082 7      3592.102          42.000    22251171.703 6  92610094.663 6      2793.860          36.000  
R01  21044942.938 8 112496886.474 8     -3206.820          48.000    21044947.133 6  87497596.394 6     -2494.194          40.000  
R11  19636288.836 5 104929985.568 5        20.770          34.000    19636297.336 4  81612224.914 4        16.157          27.000  
E04  24371811.906 8 128074737.728 8     -1359.273          51.000    24371811.664 8  98135183.258 8     -1041.585          51.000  
E01  23596058.164 8 123998105.143 8      -264.922          51.000    23596060.422 8  95011606.007 8      -203.061          51.000  
E21  25929840.188 5 136262285.897 5     -2137.359          34.000    25929870.461 5 104408754.381 5     -1637.793          33.000  
E31                                                                  25501231.531 5 102682891.258 5      1428.883          30.000  
E19  27704201.586 5 145586560.849 5     -3168.113          30.000                                                                  
C19  25359146.031 4 132051725.92624     -3220.578          29.000  
C30  24141669.445 8 125712007.151 8      2815.801          51.000  
> 2020 05 14 07 11  0.0000000  0 17      -0.000000000000
G13  23635896.281 6 124207431.942 6     -3694.047          41.000    23635896.844 5  96784979.098 5     -2878.479          30.000  
G12  21181663.430 8 111310413.804 8      2310.988          51.000    21181661.711 8  86735375.245 8      1800.771          51.000  
G15  22151183.977 8 116405239.190 8     -3084.352          51.000    22151182.258 8  90705377.374 8     -2403.395          51.000  
G24  20220052.422 7 106257090.216 7       569.953          47.000    20220054.547 8  82797742.467 8       444.119          48.000  
G17  22831387.242 6 119979772.44226     -1662.223          39.000                                                                  
G19  21558750.430 5 113292058.417 5       101.359          35.000    21558745.438 5  88279454.619 5        78.975          31.000  
G25  23626521.938 6 124158349.544 6      3349.922          39.000    23626529.398 6  96746718.068 6      2610.330          40.000  
R10  21991521.664 4 117226787.55724     -2806.777          29.000                                                                  
R21  22231045.961 6 118962449.135 6      3565.840          41.000    22231050.164 6  92526351.414 6      2773.435          38.000  
R01  21062970.070 8 112593250.993 8     -3237.391          49.000    21062973.875 6  87572546.504 6     -2517.971          40.000  
R11  19636184.867 6 104929427.167 6        -3.734          36.000    19636200.078 5  81611790.674 5        -2.898          32.000  
R12  21661237.164 5 115710036.67425      2500.242          33.000                                                                  
E04  24379589.680 8 128115609.454 8     -1385.211          51.000    24379590.188 8  98166500.511 8     -1061.393          51.000  
E01  23597570.688 8 124006053.856 8      -284.664          51.000    23597573.180 8  95017696.568 8      -218.122          51.000  
E21                                                                  25942062.609 5 104457835.701 5     -1649.403          34.000  
E31  25490569.062 6 133953858.828 6      1846.445          36.000                                                                  
C30  24125450.102 8 125627550.476 8      2795.102          51.000  
> 2020 05 14 07 11 30.0000000  0 14      -0.000000000000
G13  23657014.266 6 124318409.433 6     -3696.898          40.000    23657014.836 5  96871455.112 5     -2880.692          31.000  
G12  21168520.898 8 111241349.798 8      2300.133          51.000    21168519.648 8  86681559.136 8      1792.312          51.000  
G15  22168835.719 8 116497998.906 8     -3092.707          51.000    22168833.453 8  90777657.604 8     -2409.902          51.000  
G24  20216848.547 7 106240253.213 7       559.504          47.000    20216850.227 8  82784622.736 8       435.977          48.000  
G19  21558247.922 5 113289431.122 5        81.504          33.000    21558247.586 5  88277407.475 5        63.500          33.000  
G25  23607427.086 6 124058014.038 6      3345.867          39.000    23607435.836 6  96668534.531 6      2607.170          39.000  
R21  22211105.977 7 118855745.720 7      3554.652          42.000    22211109.914 6  92443359.882 6      2764.730          38.000  
R01  21081203.242 8 112690715.848 8     -3252.957          48.000    21081207.555 6  87648352.468 6     -2530.078          41.000  
R11  19636250.000 5 104929772.590 5       -12.082          34.000    19636257.188 5  81612059.319 5        -9.397          31.000  
E04  24387547.664 8 128157428.300 8     -1395.945          51.000    24387549.086 8  98198543.487 8     -1069.606          51.000  
E01  23599228.242 8 124014764.434 8      -289.203          51.000    23599230.820 8  95024370.889 8      -221.579          51.000  
E21                                                                  25954374.945 5 104507389.473 5     -1649.188          34.000  
E31  25480054.273 6 133898608.585 6      1843.508          36.000    25480062.641 5 102597646.374 5      1412.574          35.000  
C30  24109383.484 8 125543889.100 8      2789.109          51.000  
> 2020 05 14 07 12  0.0000000  0 18      -0.000000000000
G13  23678094.781 6 124429192.096 6     -3693.379          40.000    23678097.953 4  96957856.422 4     -2877.958          25.000  
G12  21155384.219 8 111172315.946 8      2297.488          51.000    21155382.391 8  86627766.529 8      1790.251          51.000  
G15  22186478.852 8 116590713.024 8     -3092.793          51.000    22186476.016 8  90849902.324 8     -2409.969          51.000  
G24  20213647.727 8 106223431.937 8       557.242          48.000    20213648.953 8  82771515.264 8       434.215          48.000  
G19  21557805.438 5 113287110.706 5        68.957          31.000    21557805.922 5  88275599.242 5        53.739          31.000  
G25  23588300.953 7 123957509.191 7      3349.781          42.000    23588309.906 7  96590219.123 7      2610.223          42.000  
R10  22023109.695 5 117395088.739 5     -2800.727          31.000                                                                  
R21  22191172.477 7 118749077.718 7      3551.938          43.000    22191176.812 6  92360396.022 6      2762.625          38.000  
R01  21099466.188 7 112788341.778 7     -3259.980          47.000    21099471.531 7  87724283.731 7     -2535.541          42.000  
R11  19636309.672 6 104930086.613 6       -13.012          40.000    19636309.492 5  81612303.543 5       -10.120          30.000  
R12  21633170.742 4 115560144.04824      2499.082          28.000                                                                  
E04  24395510.680 8 128199274.437 8     -1398.445          51.000    24395512.898 8  98230607.387 8     -1071.576          51.000  
E01  23600855.953 8 124023317.338 8      -285.598          51.000    23600858.414 8  95030924.401 8      -218.841          51.000  
E21  25966585.984 5 136455385.082 5     -2143.691          34.000    25966627.930 4 104556849.206 4     -1642.501          29.000  
E31  25469502.320 6 133843153.571 6      1848.543          37.000    25469509.195 5 102555154.872 5      1416.755          34.000  
C19  25414943.461 4 132342262.611 4     -3225.434          29.000  
C22  24116358.242 5 125580231.970 5     -1588.730          34.000  
C30  24093295.680 8 125460114.929 8      2791.246          51.000  
> 2020 05 14 07 12 30.0000000  0 14      -0.000000000000
G13  23699210.391 6 124540158.677 6     -3701.930          41.000    23699213.844 4  97044302.148 4     -2884.621          25.000  
G12  21142326.023 8 111103693.761 8      2280.539          51.000    21142322.805 8  86574294.746 8      1777.047          51.000  
G15  22204185.195 8 116683760.014 8     -3107.016          51.000    22204182.219 8  90922406.424 8     -2421.055          51.000  
G24  20210522.484 8 106207008.611 8       540.812          48.000    20210523.828 8  82758717.862 8       421.412          48.000  
G19  21557502.844 5 113285446.38125        46.180          33.000                                                                  
G25  23569216.000 7 123857217.147 7      3339.629          43.000    23569224.898 7  96512069.523 7      2602.309          43.000  
R21  22171318.930 7 118642837.974 7      3534.293          42.000    22171323.500 5  92277765.157 5      2748.895          35.000  
R01  21117830.797 7 112886512.197 7     -3281.250          46.000    21117836.836 6  87800638.511 6     -2552.081          40.000  
R11  19636435.898 6 104930756.485 6       -28.355          36.000    19636434.578 5  81612824.451 5       -22.057          31.000  
E04  24403551.109 8 128241527.830 8     -1415.109          51.000    24403553.727 8  98262983.353 8     -1084.332          51.000  
E01  23602526.062 8 124032092.806 8      -296.137          51.000    23602528.383 8  95037648.451 8      -226.910          51.000  
E31  25458983.180 6 133787874.647 6      1839.832          36.000    25458988.703 5 102512798.294 5      1409.530          30.000  
C22  24125581.086 5 125628222.230 5     -1606.660          34.000  
C30  24077259.211 8 125376607.847 8      2779.121          51.000  
> 2020 05 14 07 13  0.0000000  0 17      -0.000000000000
G13  23720347.562 6 124651236.971 6     -3702.812          39.000    23720355.164 5  97130892.685 5     -2885.297          35.000  
G12  21129332.695 8 111035414.108 8      2271.867          51.000    21129329.797 8  86521089.843 8      1770.287          51.000  
G15  22221940.914 8 116777067.313 8     -3112.895          51.000    22221938.320 8  90995113.366 8     -2425.633          51.000  
G24  20207459.523 8 106190913.300 8       532.738          48.000    20207461.234 8  82746176.025 8       415.118          48.000  
G17  22869934.930 5 120182369.32425     -1714.457          35.000                                                                  
G19  21557304.953 5 113284427.09425        25.453          33.000                                                                  
G25  23550159.359 7 123757069.080 7      3337.332          43.000    23550168.055 7  96434032.110 7      2600.522          43.000  
R10  22054705.586 5 117563577.650 5     -2808.215          30.000                                                                  
R21  22151532.953 5 118536959.661 5      3524.793          34.000    22151536.125 5  92195415.419 5      2741.512          30.000  
R01  21136283.336 7 112985151.852 7     -3294.254          47.000    21136289.188 6  87877358.225 6     -2562.198          39.000  
R11  19636617.461 5 104931744.86225       -39.895          31.000    19636617.352 5  81613577.86025       -31.029          30.000  
R12  21605199.227 5 115410669.229 5      2487.633          32.000                                                                  
E04  24411655.531 8 128284117.521 8     -1423.586          51.000    24411658.055 8  98295617.001 8     -1090.809          51.000  
E01  23604225.008 8 124041020.203 8      -298.539          51.000    23604227.203 8  95044488.920 8      -228.766          51.000  
E21  25991137.602 5 136584346.162 5     -2146.879          35.000    25991120.398 5 104655498.216 5     -1644.880          33.000  
C22  24134871.688 5 125676584.512 5     -1616.227          31.000  
C30  24061260.195 8 125293300.888 8      2775.156          49.000  
> 2020 05 14 07 13 30.0000000  0 16      -0.000000000000
G13  23741515.992 6 124762478.295 6     -3707.227          37.000    23741522.641 5  97217574.192 5     -2888.749          32.000  
G12  21116414.844 8 110967531.353 8      2259.629          51.000    21116413.102 8  86468194.171 8      1760.747          51.000  
G15  22239755.805 8 116870686.152 8     -3122.207          50.000    22239753.625 8  91068063.055 8     -2432.892          50.000  
G24  20204469.531 8 106175200.985 8       520.863          49.000    20204471.445 8  82733932.645 8       405.865          49.000  
G25  23531140.781 7 123657119.686 7      3331.961          44.000    23531149.125 7  96356149.505 7      2596.334          44.000  
R02  21062004.203 5 112390518.071 5      1450.652          34.000                                                                  
R21  22131825.258 6 118431502.060 6      3511.707          39.000    22131827.281 4  92113392.765 4      2731.331          28.000  
R01  21154833.461 8 113084310.800 8     -3310.305          48.000    21154838.352 6  87954481.782 6     -2574.688          37.000  
R11  19636856.016 5 104933036.054 5       -45.082          33.000    19636858.109 5  81614582.016 5       -35.064          32.000  
R12  21591261.969 6 115336233.084 6      2481.082          37.000                                                                  
E04  24419834.180 8 128327096.175 8     -1435.598          51.000    24419836.172 8  98328548.691 8     -1100.139          51.000  
E01  23605962.977 8 124050152.554 8      -304.406          51.000    23605964.867 8  95051486.430 8      -233.273          51.000  
E21  26003419.711 6 136648859.931 6     -2148.074          38.000    26003399.289 5 104704930.868 5     -1645.991          35.000  
C19  25470765.578 4 132632961.95124     -3227.266          28.000  
C22  24144243.297 5 125725370.278 5     -1630.023          33.000  
C30  24045310.086 8 125210249.629 8      2767.555          48.000  
> 2020 05 14 07 14  0.0000000  0 14      -0.000000000000
G13  23762717.242 6 124873889.645 6     -3716.453          37.000    23762722.750 6  97304388.141 6     -2895.941          36.000  
G12  21103574.555 8 110900055.404 8      2242.715          51.000    21103573.422 8  86415615.481 8      1747.571          51.000  
G15  22257631.164 8 116964622.844 8     -3136.219          48.000    22257629.508 8  91141260.439 8     -2443.808          48.000  
G24  20201554.250 8 106159880.966 8       504.383          49.000    20201556.227 8  82721994.957 8       393.026          49.000  
G25  23512161.828 7 123557379.143 7      3321.496          44.000    23512169.344 7  96278429.622 7      2588.179          44.000  
R21  22112201.555 6 118326478.680 6      3493.922          41.000    22112200.320 4  92031707.934 4      2717.495          29.000  
R01  21173481.312 7 113183993.985 7     -3331.242          47.000    21173484.383 6  88032013.085 6     -2590.970          36.000  
R11  19637162.812 5 104934674.735 5       -59.555          32.000    19637163.945 5  81615856.515 5       -46.326          33.000  
R12  21577370.438 5 115262042.172 5      2470.184          32.000                                                                  
E04  24428088.539 8 128370471.821 8     -1452.324          51.000    24428089.992 8  98361784.556 8     -1112.782          51.000  
E01  23607741.539 8 124059498.168 8      -314.832          51.000    23607742.969 8  95058647.345 8      -241.271          51.000  
E21  26015714.133 6 136713442.038 6     -2153.434          36.000    26015692.750 5 104754415.823 5     -1650.304          34.000  
C22  24153695.984 5 125774611.474 5     -1647.570          32.000  
C30  24029411.477 8 125127465.390 8      2755.242          48.000  
> 2020 05 14 07 14 30.0000000  0 15      -0.000000000000
G13  23783949.953 6 124985463.868 6     -3726.117          38.000    23783955.430 5  97391328.988 5     -2903.472          32.000  
G12  21090811.070 8 110832982.092 8      2224.918          51.000    21090809.047 8  86363350.563 8      1733.703          51.000  
G15  22275565.312 7 117058870.324 7     -3150.742          45.000    22275564.406 7  91214700.002 7     -2455.125          45.000  
G24  20198712.930 8 106144949.345 8       487.164          50.000    20198714.789 8  82710359.924 8       379.608          50.000  
G19  21557492.891 5 113285391.05725       -48.762          32.000                                                                  
G25  23493221.781 7 123457844.032 7      3310.305          43.000    23493228.148 7  96200869.811 7      2579.459          43.000  
R10  22102262.953 5 117817066.667 5     -2825.684          33.000                                                                  
R21  22092657.852 6 118221889.604 6      3474.641          38.000    22092654.500 5  91950360.908 5      2702.499          32.000  
R01  21192224.891 7 113284192.666 7     -3352.586          45.000    21192228.266 6  88109945.333 6     -2607.570          38.000  
R11  19637534.453 6 104936655.067 6       -76.148          38.000    19637535.438 5  81617396.835 5       -59.230          32.000  
R12  21563518.523 5 115188041.48925      2459.512          32.000    21563512.273 4  89590689.24624      1912.954          26.000  
E04  24436417.312 8 128414238.876 8     -1469.461          51.000    24436418.781 8  98395320.322 8     -1125.981          51.000  
E01  23609559.680 8 124069051.845 8      -326.012          51.000    23609560.727 8  95065967.684 8      -249.813          51.000  
E31  25417177.477 5 133568144.887 5      1816.105          35.000                                                                  
C30  24013564.016 8 125044946.027 8      2742.168          48.000  
> 2020 05 14 07 15  0.0000000  0 14      -0.000000000000
G13  23805211.109 6 125097185.106 6     -3721.203          40.000    23805215.875 4  97478384.450 4     -2899.640          26.000  
G12  21078121.820 8 110766298.332 8      2221.992          51.000    21078118.688 8  86311389.217 8      1731.426          51.000  
G15  22293554.336 7 117153412.149 7     -3150.523          43.000    22293554.969 7  91288368.988 7     -2454.954          43.000  
G24  20195942.922 8 106130392.663 8       484.695          50.000    20195944.430 8  82699017.055 8       377.685          50.000  
G19  21557812.336 4 113287068.04724       -61.656          27.000    21557812.031 4  88275635.00024       -48.029          25.000  
G25  23474318.039 7 123358501.405 7      3313.777          43.000    23474323.234 7  96123459.994 7      2582.165          43.000  
R21  22073191.141 5 118117725.034 5      3470.746          34.000    22073190.508 5  91869344.112 5      2699.476          34.000  
R01  21211061.062 7 113384888.215 7     -3358.973          44.000    21211066.164 6  88188264.031 6     -2612.535          40.000  
R11  19637967.461 5 104938962.109 5       -76.559          33.000    19637966.391 5  81619191.158 5       -59.546          33.000  
E04  24444817.633 8 128458382.293 8     -1472.062          51.000    24444819.188 8  98429144.469 8     -1127.951          51.000  
E01  23611414.539 8 124078798.879 8      -322.523          51.000    23611415.391 8  95073436.180 8      -247.111          51.000  
E21  26040314.617 5 136842732.541 5     -2151.598          32.000                                                                  
E31  25406795.781 5 133513612.152 5      1820.855          33.000    25406797.484 5 102302646.219 5      1395.259          31.000  
C30  23997765.367 7 124962680.007 7      2743.582          47.000  
> 2020 05 14 07 15 30.0000000  0 13      -0.000000000000
G13  23826490.891 6 125209001.902 6     -3737.203          40.000    23826494.328 5  97565514.351 5     -2912.107          30.000  
G12  21065497.352 8 110699955.665 8      2196.988          51.000    21065494.484 8  86259693.638 8      1711.939          51.000  
G15  22311590.703 7 117248196.764 7     -3172.262          47.000    22311591.703 7  91362227.114 7     -2471.893          47.000  
G24  20193235.016 8 106116162.576 8       460.141          50.000    20193236.289 8  82687928.671 8       358.551          50.000  
G25  23455441.695 7 123259303.047 7      3295.461          45.000    23455445.703 7  96046162.606 7      2567.892          44.000  
R21  22053796.523 5 118013939.292 5      3444.164          33.000    22053797.922 5  91788622.040 5      2678.804          34.000  
R01  21229980.398 7 113486026.007 7     -3387.652          43.000    21229986.492 7  88266926.746 7     -2634.841          42.000  
R11  19638449.609 5 104941545.620 5       -99.316          33.000    19638450.805 5  81621200.572 5       -77.243          35.000  
E04  24453279.961 8 128502851.724 8     -1496.492          51.000    24453281.508 8  98463218.437 8     -1146.693          51.000  
E01  23613296.633 8 124088689.305 8      -340.863          51.000    23613297.422 8  95081014.548 8      -261.166          51.000  
E31  25396438.023 5 133459181.601 5      1803.836          31.000    25396444.312 5 102260938.964 5      1382.514          33.000  
C22  24182502.266 6 125924690.938 6     -1694.852          37.000  
C30  23982006.305 7 124880620.912 7      2723.211          46.000  
> 2020 05 14 07 16  0.0000000  0 17      -0.000000000000
G13  23847799.938 6 125320973.129 6     -3732.746          40.000    23847802.148 3  97652764.594 3     -2908.631          23.000  
G12  21052949.406 8 110634016.360 8      2193.141          51.000    21052947.211 8  86208312.348 8      1708.941          51.000  
G15  22329685.602 8 117343282.900 8     -3172.727          50.000    22329685.867 8  91436320.145 8     -2472.258          50.000  
G24  20190601.094 8 106102321.069 8       456.734          51.000    20190602.422 8  82677143.072 8       355.897          51.000  
G19  21558818.969 5 113292379.02525      -109.062          32.000                                                                  
G25  23436604.789 7 123160311.627 7      3297.926          45.000    23436607.852 7  95969026.497 7      2569.813          45.000  
R10  22149971.461 5 118071377.606 5     -2828.777          35.000                                                                  
R21  22034488.680 5 117910599.808 5      3438.645          34.000    22034488.477 5  91708246.864 5      2674.496          30.000  
R01  21248992.688 6 113587664.648 6     -3394.363          41.000    21249001.203 7  88345979.043 7     -2640.061          43.000  
R11  19638995.961 5 104944467.753 5      -101.680          35.000    19638999.195 6  81623473.336 6       -79.084          36.000  
R12  21522159.156 5 114967110.01925      2446.789          31.000                                                                  
E04  24461815.961 8 128547707.755 8     -1499.812          51.000    24461817.289 8  98497588.623 8     -1149.151          51.000  
E01  23615217.547 8 124098784.087 8      -337.984          51.000    23615218.461 8  95088749.503 8      -258.963          51.000  
E21  26064948.734 6 136972233.186 6     -2157.477          37.000                                                                  
E31                                                                  25386116.961 5 102219372.626 5      1385.627          33.000  
C22  24192259.906 5 125975512.990 5     -1699.074          32.000  
C30  23966299.766 8 124798832.196 8      2723.500          48.000  
> 2020 05 14 07 16 30.0000000  0 15      -0.000000000000
G13  23869139.773 6 125433111.362 6     -3740.270          36.000    23869140.914 5  97740145.023 5     -2914.497          32.000  
G12  21040480.977 8 110568496.013 8      2177.168          51.000    21040479.109 8  86157257.508 8      1696.495          51.000  
G15  22347840.492 8 117438682.716 8     -3185.117          51.000    22347840.133 8  91510657.600 8     -2481.910          51.000  
G24  20188044.094 8 106088884.005 8       441.250          51.000    20188045.531 8  82666672.630 8       343.831          51.000  
G25  23417810.008 7 123061542.943 7      3288.598          44.000    23417812.797 7  95892063.922 7      2562.544          44.000  
R21  22015264.789 5 117807796.18125      3421.352          34.000                                                                  
R01  21268101.445 7 113689814.622 7     -3413.328          45.000    21268111.188 7  88425429.020 7     -2654.811          42.000  
R11  19639608.836 6 104947742.555 6      -115.059          36.000    19639613.781 5  81626020.467 5       -89.487          35.000  
R12  21508448.797 5 114893877.295 5      2437.848          35.000                                                                  
E04  24470428.102 8 128592964.013 8     -1515.125          51.000    24470428.891 8  98532265.478 8     -1160.950          51.000  
E01  23617179.953 8 124109097.248 8      -347.320          51.000    23617181.117 8  95096651.788 8      -266.111          51.000  
E21  26077286.703 6 137037058.867 6     -2161.828          38.000                                                                  
E31                                                                  25375820.570 4 102177915.420 4      1378.656          29.000  
C22  24202103.586 4 126026698.961 4     -1714.605          28.000  
C30  23950648.398 7 124717330.766 7      2711.941          47.000  
> 2020 05 14 07 17  0.0000000  0 14      -0.000000000000
G13  23890488.836 6 125545298.690 6     -3736.805          37.000    23890488.609 5  97827563.728 5     -2911.791          30.000  
G12  21028070.625 8 110503278.986 8      2172.559          51.000    21028068.844 8  86106439.057 8      1692.903          51.000  
G15  22366032.445 8 117534277.652 8     -3186.109          51.000    22366031.609 8  91585147.110 8     -2482.683          51.000  
G24  20185541.945 8 106075735.093 8       437.246          51.000    20185543.406 8  82656426.715 8       340.711          51.000  
G25  23399035.477 7 122962882.179 7      3290.496          43.000    23399038.477 7  95815185.423 7      2564.024          43.000  
R21  21996109.484 6 117705274.274 6      3415.078          36.000    21996113.250 4  91548527.993 4      2656.176          24.000  
R01  21287284.695 8 113792353.630 8     -3420.695          48.000    21287293.273 6  88505181.547 6     -2660.544          40.000  
R11  19640265.516 6 104951252.015 6      -116.855          37.000    19640269.969 5  81628750.010 5       -90.894          32.000  
E04  24479093.984 8 128638503.450 8     -1518.996          51.000    24479094.406 8  98567159.313 8     -1163.946          51.000  
E01  23619161.680 8 124119512.171 8      -345.180          51.000    23619163.102 8  95104632.052 8      -264.506          51.000  
E21  26089616.359 5 137101841.700 5     -2154.938          34.000                                                                  
C19  25601178.031 4 133312039.342 4     -3228.273          29.000  
C22  24212014.547 5 126078299.328 5     -1720.355          33.000  
C30  23935030.734 7 124636004.039 7      2711.578          47.000  
> 2020 05 14 07 17 30.0000000  0 12      -0.000000000000
G13  23911905.812 6 125657844.527 6     -3763.340          38.000                                                                  
G12  21015777.531 8 110438677.816 8      2137.227          51.000    21015776.562 8  86056100.507 8      1665.372          51.000  
G15  22384320.070 8 117630377.009 8     -3217.590          51.000    22384318.734 8  91660029.686 8     -2507.214          51.000  
G24  20183154.250 8 106063187.854 8       402.375          51.000    20183155.695 8  82646649.633 8       313.539          51.000  
G25  23380340.977 7 122864642.155 7      3261.691          45.000    23380344.477 7  95738634.780 7      2541.578          45.000  
R21  21977078.711 5 117603427.062 5      3377.441          34.000    21977068.328 4  91469269.42624      2626.899          26.000  
R01  21306600.039 8 113895594.688 8     -3459.066          49.000    21306606.344 6  88585480.046 6     -2690.389          39.000  
R11  19641025.617 6 104955312.765 6      -150.438          37.000    19641029.039 5  81631908.288 5      -117.007          32.000  
E04  24487872.859 8 128684636.780 8     -1553.566          51.000    24487873.188 8  98602508.208 8     -1190.408          51.000  
E01  23621221.977 8 124130340.005 8      -373.723          51.000    23621223.633 8  95112928.700 8      -286.428          51.000  
C22  24222043.281 6 126130481.994 6     -1755.527          37.000  
C30  23919507.117 8 124555163.377 8      2680.855          48.000  
> 2020 05 14 07 18  0.0000000  0 12      -0.000000000000
G13  23933340.062 6 125770479.895 6     -3753.422          41.000    23933338.062 5  98003025.351 5     -2924.745          30.000  
G12  21003551.062 8 110374426.750 8      2138.258          51.000    21003550.586 8  86006034.744 8      1666.175          51.000  
G15  22402652.094 8 117726711.554 8     -3212.625          51.000    22402650.523 8  91735095.524 8     -2503.348          51.000  
G24  20180830.359 8 106050976.162 8       403.836          51.000    20180831.828 8  82637134.014 8       314.677          51.000  
G25  23361676.180 7 122766557.328 7      3269.418          46.000    23361680.180 7  95662205.077 7      2547.599          46.000  
R01  21325994.984 8 113999262.042 8     -3460.203          49.000    21325998.984 6  88666110.111 6     -2691.273          39.000  
R11  19641838.359 5 104959652.851 5      -146.996          35.000    19641839.438 5  81635283.951 5      -114.327          31.000  
R12  21467560.227 5 114675491.195 5      2418.348          32.000                                                                  
E04  24496713.898 8 128731096.302 8     -1551.680          51.000    24496714.039 8  98638107.034 8     -1188.884          51.000  
E01  23623310.023 8 124141313.463 8      -365.789          51.000    23623311.914 8  95121336.909 8      -280.196          51.000  
C22  24232133.617 6 126183017.617 6     -1754.742          38.000  
C30  23904026.375 8 124474546.913 8      2685.773          48.000  
> 2020 05 14 07 18 30.0000000  0 15      -0.000000000000
G13  23954781.234 6 125883149.975 6     -3758.004          41.000    23954781.797 4  98090820.203 4     -2928.303          26.000  
G12  20991381.234 8 110310473.869 8      2124.883          50.000    20991380.109 8  85956201.306 8      1655.750          50.000  
G15  22421018.297 8 117823226.647 8     -3222.145          50.000    22421016.664 8  91810302.057 8     -2510.763          50.000  
G24  20178560.258 8 106039047.773 8       390.910          50.000    20178561.867 8  82627839.157 8       304.602          50.000  
G25  23343031.250 7 122668576.255 7      3262.391          47.000    23343035.695 7  95585856.219 7      2542.126          47.000  
R02  20987975.969 5 111995477.562 5      1186.492          33.000    20987979.516 4  87107591.510 4       922.837          25.000  
R10  22229892.531 5 118497452.38125     -2846.848          30.000                                                                  
R01  21345458.188 7 114103297.813 7     -3476.023          46.000    21345461.203 6  88747026.743 6     -2703.577          40.000  
R11  19642692.336 6 104964218.625 6      -158.070          37.000    19642693.008 5  81638835.056 5      -122.947          31.000  
E04  24505606.867 8 128777828.394 8     -1564.262          51.000    24505607.047 8  98673914.701 8     -1198.639          51.000  
E01  23625415.742 8 124152379.357 8      -372.391          51.000    23625417.844 8  95129815.964 8      -285.341          51.000  
E31  25334954.969 6 133136130.802 6      1780.816          37.000                                                                  
C22  24242278.070 6 126235852.261 6     -1768.207          39.000  
C27  23773377.883 6 123794255.996 6       103.070          38.000  
C30  23888579.094 8 124394104.988 8      2676.535          48.000  
> 2020 05 14 07 19  0.0000000  0 16      -0.000000000000
G13  23976248.047 6 125995956.814 6     -3763.059          40.000    23976245.117 4  98178721.542 4     -2932.257          24.000  
G12  20979287.898 8 110246923.740 8      2110.914          48.000    20979285.281 8  85906681.717 8      1644.872          48.000  
G15  22439437.992 8 117920023.089 8     -3232.012          50.000    22439436.523 8  91885727.824 8     -2518.451          51.000  
G24  20176364.000 8 106027507.143 8       377.336          50.000    20176365.828 8  82618846.442 8       294.028          50.000  
G25  23324425.844 7 122570804.065 7      3254.625          46.000    23324430.641 7  95509670.117 7      2536.072          46.000  
R02  20981380.672 5 111960286.181 5      1158.844          33.000                                                                  
R10  22245927.359 4 118582924.446 4     -2851.594          29.000                                                                  
R21  21920429.969 4 117300251.110 4      3344.301          28.000    21920422.953 4  91233522.855 4      2601.123          28.000  
R01  21365008.258 7 114207803.550 7     -3492.145          45.000    21365011.602 6  88828308.910 6     -2716.116          40.000  
R11  19643608.648 6 104969115.625 6      -169.613          36.000    19643610.883 5  81642643.809 5      -131.918          33.000  
E04  24514571.344 8 128824935.961 8     -1577.277          51.000    24514571.680 8  98710010.068 8     -1208.564          51.000  
E01  23627558.742 8 124163641.049 8      -379.438          51.000    23627560.984 8  95138445.051 8      -290.762          51.000  
E31  25324803.398 6 133082783.309 6      1775.035          36.000                                                                  
C22  24252497.531 6 126289086.936 6     -1782.125          37.000  
C27  23772830.000 5 123791417.636 5        84.992          33.000  
C30  23873185.562 8 124313943.005 8      2666.484          50.000  
> 2020 05 14 07 19 30.0000000  0 16      -0.000000000000
G13  23997754.672 5 126108972.754 5     -3766.441          32.000                                                                  
G12  20967285.406 8 110183851.508 8      2098.926          49.000    20967283.258 8  85857534.539 8      1635.527          49.000  
G15  22457924.953 8 118017173.004 8     -3239.719          50.000    22457923.953 8  91961429.017 8     -2524.457          50.000  
G24  20174256.008 8 106016430.003 8       365.980          51.000    20174258.070 8  82610214.891 8       285.180          51.000  
G25  23305874.359 7 122473316.396 7      3249.234          45.000    23305879.227 7  95433705.731 7      2531.872          45.000  
R02  20974951.375 5 111925968.750 5      1133.738          31.000    20974971.070 3  87053621.167 3       881.797          23.000  
R01  21384658.320 7 114312850.647 7     -3505.910          46.000    21384662.820 6  88910012.187 6     -2726.820          41.000  
R11  19644600.070 5 104974418.868 5      -179.305          32.000    19644603.688 5  81646768.579 5      -139.459          30.000  
R12  21427023.883 5 114458854.009 5      2398.629          30.000    21427009.758 4  89023550.237 4      1865.601          28.000  
E04  24523621.180 8 128872492.497 8     -1588.191          51.000    24523621.633 8  98746449.459 8     -1216.927          51.000  
E01  23629753.125 8 124175172.550 8      -384.375          51.000    23629755.297 8  95147280.866 8      -294.566          51.000  
E21  26151495.680 5 137427033.330 5     -2170.527          32.000                                                                  
E31  25314697.539 5 133029666.647 5      1771.164          33.000                                                                  
C22  24262806.734 6 126342793.540 6     -1793.848          37.000  
C27  23772400.383 6 123789176.464 6        69.066          38.000  
C30  23857860.039 8 124234137.233 8      2658.637          50.000  
> 2020 05 14 07 20  0.0000000  0 14      -0.000000000000
G12  20955346.438 8 110121111.594 8      2084.465          51.000    20955345.953 8  85808646.286 8      1624.259          51.000  
G15  22476450.828 8 118114527.560 8     -3249.840          49.000    22476450.219 8  92037289.688 8     -2532.344          49.000  
G24  20172208.469 8 106005670.159 8       352.020          51.000    20172210.602 8  82601830.580 8       274.301          51.000  
G25  23287349.305 7 122375967.862 7      3241.332          45.000    23287353.469 7  95357849.767 7      2525.714          45.000  
R21  21883102.516 5 117100515.846 5      3313.574          31.000    21883098.383 4  91078165.782 4      2577.222          28.000  
R01  21404381.305 8 114418286.016 8     -3522.262          48.000    21404387.188 6  88992017.419 6     -2739.541          41.000  
R11  19645638.992 5 104979979.076 5      -191.113          34.000    19645642.172 4  81651091.204 4      -148.641          27.000  
R12  21413574.148 5 114387048.785 5      2390.754          31.000    21413561.969 4  88967685.13124      1859.476          25.000  
E04  24532728.305 8 128920350.395 8     -1601.660          51.000    24532728.805 8  98783119.769 8     -1227.226          51.000  
E01  23631970.969 8 124186826.720 8      -391.891          51.000    23631972.836 8  95156210.671 8      -300.265          51.000  
E31  25304609.195 5 132976601.274 5      1764.832          32.000                                                                  
C22  24273179.859 6 126396824.875 6     -1807.867          41.000  
C27  23772056.391 5 123787387.818 5        50.941          34.000  
C30  23842574.438 8 124154544.832 8      2648.211          50.000  
> 2020 05 14 07 20 30.0000000  0 14      -0.000000000000
G12  20943489.906 8 110058804.424 8      2070.430          51.000    20943490.258 8  85760095.251 8      1613.322          51.000  
G15  22495033.852 8 118212183.888 8     -3259.648          48.000    22495034.070 8  92113385.506 8     -2539.987          48.000  
G24  20170240.492 8 105995327.818 8       338.496          51.000    20170242.469 8  82593771.599 8       263.766          51.000  
G19  21569678.070 5 113349380.205 5      -310.602          30.000                                                                  
G25  23268869.945 7 122278859.215 7      3233.562          46.000    23268872.773 7  95282180.717 7      2519.657          46.000  
R21  21864573.453 5 117001367.292 5      3296.980          34.000    21864573.930 5  91001050.386 5      2564.319          30.000  
R01  21424196.172 8 114524206.503 8     -3538.008          49.000    21424202.438 6  89074399.972 6     -2751.787          41.000  
R11  19646746.656 6 104985897.296 6      -202.406          38.000    19646749.133 5  81655688.269 5      -157.430          30.000  
R12  21400133.359 4 114315311.76124      2383.133          27.000                                                                  
E04  24541911.273 8 128968608.199 8     -1614.648          51.000    24541912.023 8  98820096.516 8     -1237.214          51.000  
E01  23634230.945 8 124198702.618 8      -398.965          51.000    23634232.617 8  95165310.375 8      -305.671          51.000  
C22  24283636.117 7 126451277.780 7     -1821.520          43.000  
C27  23771817.719 5 123786150.297 5        31.953          32.000  
C30  23827349.555 8 124075267.033 8      2638.039          51.000  
> 2020 05 14 07 21  0.0000000  0 12      -0.000000000000
G12  20931701.422 8 109996855.875 8      2059.480          50.000    20931700.578 8  85711823.690 8      1604.793          50.000  
G15  22513659.688 8 118310064.997 8     -3265.895          48.000    22513660.586 8  92189656.488 8     -2544.854          48.000  
G24  20168338.148 8 105985329.987 8       328.070          51.000    20168339.938 8  82585981.080 8       255.639          51.000  
G25  23250422.562 7 122181917.158 7      3229.320          47.000    23250424.375 7  95206641.454 7      2516.357          47.000  
R02  20956533.531 5 111827655.993 5      1055.266          35.000                                                                  
R21  21846126.219 5 116902658.027 5      3283.848          31.000                                                                  
R01  21444086.469 8 114630531.947 8     -3550.273          48.000    21444092.734 6  89157097.490 6     -2761.327          41.000  
R11  19647908.227 5 104992097.367 5      -210.793          33.000    19647910.297 5  81660510.520 5      -163.950          30.000  
E04  24551155.648 8 129017190.425 8     -1624.215          51.000    24551156.883 8  98857321.854 8     -1244.565          51.000  
E01  23636518.734 8 124210725.236 8      -402.652          51.000    23636520.453 8  95174522.511 8      -308.502          51.000  
C22  24294160.156 7 126506076.457 7     -1831.980          44.000  
C30  23812171.969 8 123996232.466 8      2631.059          50.000  
> 2020 05 14 07 21 30.0000000  0 16      -0.000000000000
G12  20919990.469 8 109935315.617 8      2044.539          49.000    20919987.852 8  85663870.282 8      1593.148          49.000  
G15  22532337.453 8 118408217.523 8     -3276.285          49.000    22532338.672 8  92266138.950 8     -2552.953          49.000  
G24  20166510.617 8 105975725.486 8       313.629          51.000    20166512.281 8  82578497.041 8       244.386          51.000  
G25  23232016.484 8 122085191.562 8      3220.523          48.000    23232018.133 8  95131270.894 8      2509.500          48.000  
R02  20950682.633 5 111796456.359 5      1026.383          34.000    20950669.906 4  86952758.95424       798.301          27.000  
R10  22326386.328 4 119011844.26524     -2867.445          29.000                                                                  
R21  21827769.750 6 116804442.269 6      3265.449          37.000                                                                  
R01  21464060.906 8 114737307.780 8     -3566.582          49.000    21464066.547 6  89240145.320 6     -2774.009          41.000  
R11  19649130.789 6 104998628.495 6      -222.918          37.000    19649132.547 4  81665590.318 4      -173.387          28.000  
R12  21373466.609 5 114172835.792 5      2370.742          32.000                                                                  
E04  24560470.711 8 129066144.775 8     -1637.957          51.000    24560472.391 8  98894832.314 8     -1255.074          51.000  
E01  23638843.609 8 124222942.800 8      -410.445          51.000    23638845.500 8  95183884.022 8      -314.536          51.000  
E21  26201146.375 5 137687953.813 5     -2176.465          34.000                                                                  
C22  24304760.047 7 126561267.296 7     -1846.152          45.000  
C27  23771635.195 5 123785116.220 5        -1.035          34.000  
C30  23797051.391 8 123917491.856 8      2619.668          50.000  
> 2020 05 14 07 22  0.0000000  0 14      -0.000000000000
G12  20908361.227 8 109874204.278 8      2031.824          50.000    20908359.570 8  85616251.055 8      1583.240          50.000  
G15  22551070.383 8 118506658.371 8     -3284.148          50.000    22551071.664 8  92342846.058 8     -2559.077          50.000  
G24  20164761.781 8 105966534.691 8       301.453          51.000    20164763.352 8  82571335.369 8       234.896          51.000  
G25  23213655.609 8 121988703.430 8      3214.184          48.000    23213657.445 8  95056085.372 8      2504.559          48.000  
R21  21809511.453 6 116706744.765 6      3249.816          39.000    21809506.664 4  90771868.57324      2527.635          25.000  
R01  21484123.133 8 114844549.726 8     -3580.438          49.000    21484128.117 7  89323555.653 7     -2784.788          42.000  
R11  19650419.555 6 105005510.667 6      -233.312          39.000    19650419.242 5  81670941.035 5      -181.465          31.000  
E04  24569860.484 8 129115490.028 8     -1649.441          51.000    24569862.117 8  98932642.266 8     -1263.879          51.000  
E01  23641209.305 8 124235374.600 8      -416.094          51.000    23641211.305 8  95193409.679 8      -318.828          51.000  
E21  26213581.805 5 137753300.957 5     -2178.504          30.000                                                                  
E31  25264538.844 5 132766048.663 5      1745.211          34.000                                                                  
C22  24315438.492 7 126616867.952 7     -1858.320          43.000  
C27  23771691.703 5 123785429.226 5       -17.988          30.000  
C30  23781991.555 8 123839067.332 8      2610.852          50.000  
> 2020 05 14 07 22 30.0000000  0 13      -0.000000000000
G12  20896795.789 8 109813427.184 8      2020.734          50.000    20896795.828 8  85568892.278 8      1574.596          50.000  
G15  22569839.672 8 118605289.598 8     -3290.559          50.000    22569840.570 8  92419701.510 8     -2564.075          50.000  
G24  20163073.711 8 105957663.316 8       290.801          51.000    20163075.266 8  82564422.605 8       226.598          51.000  
G25  23195321.938 8 121892358.384 8      3209.566          49.000    23195323.641 8  94981011.325 8      2500.965          49.000  
R02  20939441.969 5 111736445.178 5       975.902          35.000    20939458.672 4  86906209.312 4       759.035          26.000  
R21  21791333.672 6 116609472.821 6      3235.691          39.000    21791333.164 5  90696211.618 5      2516.656          31.000  
R01  21504253.844 8 114952156.313 8     -3592.512          48.000    21504258.195 6  89407249.625 6     -2794.176          41.000  
R11  19651755.664 4 105012646.533 4      -240.879          28.000    19651756.367 5  81676491.118 5      -187.350          32.000  
E04  24579306.781 8 129165129.524 8     -1659.238          51.000    24579307.945 8  98970677.710 8     -1271.317          51.000  
E01  23643597.469 8 124247924.598 8      -419.938          51.000    23643599.555 8  95203025.904 8      -321.773          51.000  
E31  25254585.531 5 132713737.692 5      1742.816          33.000                                                                  
C22  24326176.531 6 126672781.777 6     -1868.742          41.000  
C30  23766973.508 8 123760866.643 8      2603.344          49.000  
> 2020 05 14 07 23  0.0000000  0 13      -0.000000000000
G12  20885311.672 8 109753076.221 8      2011.344          51.000    20885312.008 8  85521865.575 8      1567.281          51.000  
G15  22588662.141 8 118704200.440 8     -3294.945          50.000    22588662.617 8  92496774.853 8     -2567.494          50.000  
G24  20161463.914 8 105949203.671 8       281.844          51.000    20161465.555 8  82557830.662 8       219.619          51.000  
G25  23177033.055 8 121796249.364 8      3206.363          48.000    23177034.484 8  94906121.209 8      2498.469          48.000  
R21  21773252.703 6 116512724.183 6      3223.332          38.000    21773256.258 5  90620962.751 5      2507.037          34.000  
R01  21524468.914 7 115060216.518 7     -3602.641          47.000    21524472.930 6  89491296.455 6     -2802.054          40.000  
R11  19653155.375 5 105020128.817 5      -248.523          32.000    19653158.344 5  81682310.669 5      -193.299          32.000  
R12  21333682.031 5 113960344.695 5      2357.883          32.000                                                                  
E04  24588826.508 8 129215153.982 8     -1667.164          51.000    24588827.086 8  99009008.115 8     -1277.426          51.000  
E01  23646025.438 8 124260684.024 8      -422.051          51.000    23646027.586 8  95212802.594 8      -323.360          51.000  
E21  26238483.906 5 137884120.320 5     -2174.266          35.000    26238488.531 6 105651482.827 6     -1666.275          37.000  
C22  24336991.773 6 126729097.666 6     -1877.098          39.000  
C30  23752015.820 8 123682983.091 8      2597.418          49.000  
> 2020 05 14 07 23 30.0000000  0 15      -0.000000000000
G12  20873906.219 8 109693138.644 8      1986.906          51.000    20873905.531 8  85475161.005 8      1548.242          51.000  
G15  22607534.484 8 118803374.414 8     -3314.242          49.000    22607534.648 8  92574053.238 8     -2582.527          49.000  
G24  20159929.883 8 105941142.208 8       257.938          51.000    20159931.523 8  82551548.992 8       200.990          51.000  
G19  21582518.844 5 113416949.944 5      -446.512          35.000    21582519.383 5  88376792.675 5      -347.931          34.000  
G25  23158786.594 7 121700363.567 7      3188.199          47.000    23158788.039 7  94831405.060 7      2484.312          47.000  
R02  20928788.273 5 111679664.361 5       915.500          35.000                                                                  
R10  22391068.414 5 119356603.323 5     -2883.754          31.000                                                                  
R21  21755267.281 5 116416489.716 5      3194.918          31.000    21755273.977 5  90546113.739 5      2484.940          32.000  
R01  21544765.148 8 115168711.801 8     -3627.887          48.000    21544769.375 6  89575681.647 6     -2821.690          40.000  
E04  24598416.562 8 129265548.392 8     -1690.066          51.000    24598416.719 8  99047621.986 8     -1294.972          51.000  
E01  23648490.594 8 124273638.464 8      -439.133          51.000    23648492.680 8  95222728.715 8      -336.503          51.000  
E21  26250939.531 5 137949570.245 5     -2186.660          35.000    26250943.547 5 105701632.697 5     -1675.724          33.000  
E31  25234764.047 5 132609587.823 5      1726.012          31.000                                                                  
C22  24347879.266 6 126785799.819 6     -1900.336          36.000  
C30  23737116.859 8 123605405.275 8      2576.809          49.000  
> 2020 05 14 07 24  0.0000000  0 17      -0.000000000000
G13  24192223.039 5 127130989.73425     -3799.621          30.000                                                                  
G12  20862570.883 8 109633569.579 8      1980.613          51.000    20862569.359 8  85428743.568 8      1543.335          51.000  
G15  22626447.789 8 118902764.216 8     -3315.484          50.000    22626447.477 8  92651499.783 8     -2583.495          50.000  
G24  20158463.320 8 105933435.476 8       252.102          51.000    20158464.836 8  82545543.738 8       196.443          51.000  
G19  21585096.688 5 113430496.892 5      -460.574          34.000    21585095.297 5  88387348.626 5      -358.886          34.000  
G25  23140573.961 7 121604657.011 7      3188.188          46.000    23140575.773 7  94756828.538 7      2484.303          46.000  
R02  20923689.195 5 111652436.698 5       895.848          35.000    20923701.047 4  86840840.906 4       696.774          26.000  
R21  21737371.281 6 116320727.762 6      3185.473          37.000    21737376.859 5  90471632.099 5      2477.593          30.000  
R01  21565134.078 8 115277592.214 8     -3634.594          49.000    21565137.734 6  89660366.368 6     -2826.907          39.000  
R12  21307356.781 5 113819661.777 5      2340.023          30.000                                                                  
E04  24608067.859 8 129316266.484 8     -1694.754          51.000    24608067.883 8  99086483.873 8     -1298.578          51.000  
E01  23650984.219 8 124286742.195 8      -438.086          51.000    23650986.117 8  95232769.225 8      -335.703          51.000  
E21                                                                  26263402.000 5 105751834.100 5     -1671.175          32.000  
E31  25224893.891 5 132557711.014 5      1728.270          33.000                                                                  
C22  24358830.508 6 126842841.501 6     -1905.988          36.000  
C27  23772900.781 6 123791736.159 6       -84.191          36.000  
C30  23722268.531 8 123528090.861 8      2573.742          50.000  
> 2020 05 14 07 24 30.0000000  0 14      -0.000000000000
G13  24213962.953 5 127245231.426 5     -3813.789          34.000    24213959.422 5  99152115.007 5     -2971.785          31.000  
G12  20851350.969 8 109574608.566 8      1956.320          51.000    20851349.406 8  85382799.919 8      1524.406          50.000  
G15  22645447.148 8 119002606.161 8     -3334.445          49.000    22645446.070 8  92729298.646 8     -2598.273          49.000  
G24  20157109.625 8 105926321.890 8       228.344          51.000    20157111.023 8  82540000.668 8       177.930          51.000  
G19  21587838.586 6 113444906.730 6      -493.488          38.000    21587836.648 5  88398577.127 5      -384.536          34.000  
G25  23122440.797 7 121509369.590 7      3170.430          46.000    23122443.086 7  94682578.606 7      2470.469          46.000  
R21  21719611.078 5 116225685.878 5      3156.754          35.000    21719615.438 5  90397710.593 5      2455.253          31.000  
R01  21585619.445 8 115387096.157 8     -3659.312          48.000    21585622.906 6  89745536.052 6     -2846.135          37.000  
R11  19657754.719 5 105044728.84425      -295.086          31.000                                                                  
E04  24617825.703 8 129367545.959 8     -1717.621          51.000    24617825.969 8  99125775.917 8     -1316.046          51.000  
E01  23653551.656 8 124300233.521 8      -455.152          51.000    23653553.344 8  95243106.721 8      -348.690          51.000  
C22  24369893.203 6 126900457.396 6     -1928.977          37.000  
C27  23773485.859 5 123794778.972 5      -112.539          33.000  
C30  23707517.773 8 123451278.924 8      2553.098          51.000  
> 2020 05 14 07 25  0.0000000  0 13      -0.000000000000
G13  24235701.547 5 127359470.74225     -3808.027          35.000                                                                  
G12  20840179.359 8 109515903.336 8      1951.855          50.000    20840177.906 8  85337055.584 8      1520.927          50.000  
G15  22664464.805 8 119102544.450 8     -3333.688          50.000    22664462.953 8  92807172.557 8     -2597.682          50.000  
G24  20155801.906 8 105919449.599 8       224.316          51.000    20155803.242 8  82534645.620 8       174.792          51.000  
G19  21590678.023 6 113459825.855 6      -506.566          41.000    21590677.406 5  88410202.378 5      -394.730          31.000  
G25  23104320.773 7 121414149.315 7      3172.254          46.000    23104322.953 7  94608381.021 7      2471.887          46.000  
R21  21701918.656 5 116131008.851 5      3149.281          32.000    21701923.250 5  90324073.021 5      2449.451          34.000  
R01  21606152.789 7 115496859.876 7     -3663.953          46.000    21606156.695 6  89830907.747 6     -2849.745          36.000  
R11  19659394.148 5 105053493.787 5      -296.258          32.000                                                                  
E04  24627623.070 8 129419032.541 8     -1720.441          51.000    24627623.766 8  99165226.677 8     -1318.201          51.000  
E01  23656125.461 8 124313758.815 8      -452.121          51.000    23656127.211 8  95253470.246 8      -346.431          51.000  
C22  24380997.953 4 126958295.451 4     -1931.848          29.000  
C30  23692797.227 8 123374621.975 8      2551.875          51.000  
> 2020 05 14 07 25 30.0000000  0 15      -0.000000000000
G13  24257423.438 5 127473622.50125     -3813.199          34.000    24257426.133 5  99330105.60825     -2971.325          33.000  
G12  20829048.750 8 109457412.823 8      1936.016          51.000    20829047.062 8  85291478.565 8      1508.584          51.000  
G15  22683492.180 8 119202534.650 8     -3343.949          49.000    22683489.992 8  92885086.933 8     -2605.678          49.000  
G24  20154532.258 8 105912777.308 8       209.012          51.000    20154533.492 8  82529446.424 8       162.866          51.000  
G19  21593606.266 6 113475212.135 6      -530.871          40.000    21593603.164 5  88422191.612 5      -413.672          33.000  
G25  23086206.102 7 121318955.569 7      3162.691          46.000    23086207.617 7  94534204.116 7      2464.439          47.000  
R02  20909306.664 4 111575679.27124       810.926          29.000                                                                  
R21  21684287.938 6 116036658.741 6      3129.375          41.000    21684291.164 5  90250689.649 5      2433.959          32.000  
R01  21626725.125 7 115606836.766 7     -3679.754          44.000    21626729.375 5  89916445.216 5     -2862.034          34.000  
E04  24637452.367 8 129470683.402 8     -1734.406          51.000    24637453.219 8  99204803.316 8     -1328.955          51.000  
E01  23658697.648 8 124327275.831 8      -460.387          51.000    23658699.641 8  95263827.426 8      -352.746          51.000  
E21  26300835.211 6 138211813.468 6     -2188.953          37.000                                                                  
E31  25195474.336 5 132403100.447 5      1709.348          35.000                                                                  
C27  23774856.219 5 123801883.544 5      -140.156          34.000  
C30  23678098.242 8 123298081.027 8      2539.496          49.000  
> 2020 05 14 07 26  0.0000000  0 18      -0.000000000000
G13  24279185.367 6 127588031.345 6     -3818.285          36.000                                                                  
G12  20818017.008 8 109399440.031 8      1920.449          51.000    20818015.602 8  85246304.969 8      1496.454          51.000  
G15  22702586.398 8 119302876.987 8     -3354.059          49.000    22702584.609 8  92963275.718 8     -2613.553          49.000  
G24  20153358.430 8 105906608.563 8       193.875          51.000    20153359.539 8  82524639.596 8       151.068          51.000  
G17  23154674.453 5 121678636.397 5     -2115.516          35.000    23154673.180 6  94814516.307 6     -1648.448          36.000  
G19  21596681.008 6 113491367.381 6      -554.602          37.000    21596678.375 5  88434780.138 5      -432.151          32.000  
G25  23068154.117 7 121224092.023 7      3153.152          45.000    23068155.758 7  94460284.492 7      2457.003          45.000  
R02  20904809.648 5 111551659.710 5       782.027          35.000    20904798.438 4  86762377.83024       608.253          25.000  
R21  21666777.742 7 115942948.092 7      3109.594          43.000    21666776.969 4  90177803.617 4      2418.576          29.000  
R01  21647393.672 7 115717330.036 7     -3695.238          43.000    21647399.586 6  90002384.343 6     -2874.078          36.000  
R11  19662816.406 5 105071776.949 5      -322.395          32.000                                                                  
R12  21255142.180 4 113540805.679 4      2306.398          29.000                                                                  
E04  24647370.750 8 129522799.919 8     -1748.293          51.000    24647371.375 8  99244736.735 8     -1339.617          51.000  
E01  23661325.727 8 124341086.544 8      -468.594          51.000    23661327.906 8  95274409.649 8      -359.053          51.000  
E21  26313317.734 5 138277403.878 5     -2192.102          33.000                                                                  
E31  25185714.867 6 132351803.052 6      1702.246          37.000                                                                  
C22  24403393.719 5 127074953.500 5     -1960.703          33.000  
C30  23663478.859 8 123221958.207 8      2527.035          48.000  
> 2020 05 14 07 26 30.0000000  0 16      -0.000000000000
G13  24300997.445 5 127702637.07225     -3817.383          34.000                                                                  
G12  20807097.164 8 109342054.636 8      1910.621          51.000    20807096.062 8  85201589.056 8      1488.793          51.000  
G15  22721760.430 8 119403638.289 8     -3358.051          50.000    22721759.414 8  93041790.983 8     -2616.664          50.000  
G24  20152293.656 8 105901012.825 8       184.574          51.000    20152294.742 8  82520279.269 8       143.824          51.000  
G17  23166794.039 6 121742329.739 6     -2125.660          37.000    23166791.086 5  94864147.377 5     -1656.359          34.000  
G19  21599914.836 7 113508360.537 7      -572.742          42.000    21599913.094 5  88448021.542 5      -446.296          30.000  
G25  23050178.102 7 121129628.968 7      3149.609          44.000    23050180.852 7  94386676.932 7      2454.242          44.000  
R21  21649399.734 6 115849951.961 6      3095.664          41.000    21649397.289 5  90105473.328 5      2407.739          32.000  
R01  21668172.016 7 115828405.971 7     -3704.430          43.000    21668179.938 6  90088776.678 6     -2881.224          38.000  
R11  19664657.883 5 105081596.349 5      -329.520          30.000                                                                  
E04  24657390.594 8 129575450.163 8     -1756.277          51.000    24657391.133 8  99285079.105 8     -1345.684          51.000  
E01  23664022.766 8 124355259.680 8      -470.859          51.000    23664024.906 8  95285269.576 8      -360.771          51.000  
E31  25176016.156 6 132300836.195 6      1701.402          37.000                                                                  
C22  24414711.727 6 127133990.225 6     -1969.539          36.000  
C27  23776668.797 4 123811395.428 4      -173.383          29.000  
C30  23648952.531 7 123146324.507 7      2520.500          44.000  
> 2020 05 14 07 27  0.0000000  0 17      -0.000000000000
G13  24322811.188 5 127817232.18825     -3823.367          33.000                                                                  
G12  20796234.562 8 109284970.163 8      1896.082          51.000    20796233.023 8  85157107.623 8      1477.467          51.000  
G15  22740959.281 8 119504528.712 8     -3366.816          51.000    22740958.883 8  93120406.855 8     -2623.497          51.000  
G24  20151283.367 8 105895703.384 8       170.410          51.000    20151284.492 8  82516142.033 8       132.784          51.000  
G17  23178975.812 6 121806344.182 6     -2140.602          36.000    23178974.484 5  94914028.717 5     -1668.002          34.000  
G19  21603253.469 6 113525903.359 6      -595.895          38.000    21603250.727 4  88461691.180 4      -464.340          28.000  
G25  23032224.102 7 121035280.243 7      3141.137          47.000    23032227.680 7  94313158.448 7      2447.640          47.000  
R10  22504904.703 5 119963449.989 5     -2899.777          32.000                                                                  
R21  21632100.992 6 115757382.035 6      3076.840          39.000    21632098.938 5  90033474.527 5      2393.098          32.000  
R01  21689004.500 7 115939767.662 7     -3718.789          42.000    21689013.352 6  90175391.259 6     -2892.398          38.000  
R11  19666542.164 4 105091652.933 4      -340.816          29.000                                                                  
E04  24667456.688 8 129628345.661 8     -1769.086          51.000    24667457.234 8  99325609.396 8     -1355.540          51.000  
E01  23666734.023 8 124369507.436 8      -477.910          51.000    23666735.953 8  95296186.690 8      -366.236          51.000  
E31  25166324.070 5 132249912.609 5      1694.793          32.000    25166324.438 5 101334365.907 5      1298.749          34.000  
C22  24426092.805 6 127193283.054 6     -1982.352          40.000  
C27  23777728.469 4 123816865.50224      -191.648          28.000  
C30  23634466.094 7 123070897.601 7      2509.008          44.000  
> 2020 05 14 07 27 30.0000000  0 16      -0.000000000000
G12  20785457.781 8 109228337.754 8      1893.609          50.000    20785455.375 8  85112978.475 8      1475.540          51.000  
G15  22760210.992 8 119605696.142 8     -3363.473          51.000    22760210.789 8  93199238.561 8     -2620.889          51.000  
G24  20150356.422 8 105890832.000 8       168.375          51.000    20150357.352 8  82512346.136 8       131.201          51.000  
G17  23191246.719 5 121870828.337 5     -2143.750          34.000    23191248.492 5  94964276.271 5     -1670.452          30.000  
G19  21606725.406 6 113544145.945 6      -606.410          39.000    21606722.469 5  88475915.183 5      -472.521          34.000  
G25  23014321.125 7 120941197.585 7      3145.047          47.000    23014324.383 8  94239847.312 8      2450.687          48.000  
R10  22521240.141 5 120050539.018 5     -2891.461          30.000                                                                  
R21  21614911.289 6 115665396.339 6      3070.020          41.000    21614909.883 5  89961930.060 5      2387.793          34.000  
R01  21709918.797 6 116051564.242 6     -3720.059          39.000    21709926.664 6  90262344.063 6     -2893.383          37.000  
R12  21216439.539 5 113334008.09525      2300.387          33.000                                                                  
E04  24677597.156 8 129681635.896 8     -1769.535          51.000    24677597.492 8  99366442.140 8     -1355.887          51.000  
E01  23669488.133 8 124383979.980 8      -472.727          51.000    23669489.812 8  95307276.027 8      -362.216          51.000  
E21  26350873.375 5 138474755.464 5     -2181.793          34.000                                                                  
E31                                                                  25156671.695 5 101295495.013 5      1303.544          33.000  
C22  24437553.977 6 127252979.349 6     -1983.254          40.000  
C30  23620050.617 7 122995829.177 7      2509.445          47.000  
> 2020 05 14 07 28  0.0000000  0 13      -0.000000000000
G12  20774740.148 8 109172017.315 8      1856.059          50.000    20774737.336 8  85069092.458 8      1446.280          50.000  
G15  22779488.234 8 119706997.818 8     -3394.949          50.000    22779488.156 8  93278174.875 8     -2645.416          50.000  
G24  20149486.125 8 105886258.456 8       131.293          51.000    20149486.898 8  82508782.326 8       102.306          51.000  
G17  23203578.961 5 121935632.395 5     -2181.984          33.000    23203581.492 5  95014778.434 5     -1700.254          32.000  
G19  21610303.781 6 113562947.469 6      -652.207          38.000                                                                  
G25  22996442.367 7 120847241.585 7      3113.574          47.000    22996445.031 8  94166634.872 8      2426.166          48.000  
R10  22537573.266 5 120137616.420 5     -2918.508          32.000                                                                  
R21  21597804.320 5 115573856.172 5      3027.934          35.000    21597805.438 5  89890732.157 5      2355.060          32.000  
R01  21730886.930 5 116163648.120 5     -3757.227          34.000    21730892.633 5  90349520.377 5     -2922.288          34.000  
E04  24687785.031 8 129735179.137 8     -1805.184          51.000    24687784.859 8  99407468.742 8     -1383.202          51.000  
E01  23672258.133 8 124398536.257 8      -502.836          51.000    23672259.719 8  95318429.529 8      -385.311          51.000  
C22  24449067.328 5 127312937.706 5     -2018.484          34.000  
C30  23605678.727 8 122920982.243 8      2475.223          50.000  
> 2020 05 14 07 28 30.0000000  0 15      -0.000000000000
G12  20764140.117 8 109116315.404 8      1859.148          49.000    20764137.766 8  85025688.368 8      1448.688          49.000  
G15  22798848.328 8 119808736.944 8     -3385.914          49.000    22798848.664 8  93357452.077 8     -2638.378          49.000  
G24  20148730.844 8 105882289.611 8       134.887          51.000    20148731.633 8  82505689.710 8       105.107          51.000  
G19  21614046.625 5 113582612.479 5      -657.234          34.000                                                                  
G25  22978645.961 7 120753719.004 7      3122.910          47.000    22978648.711 7  94093760.162 7      2433.437          47.000  
R10  22553965.789 5 120224992.227 5     -2904.641          34.000                                                                  
R21  21580837.977 5 115483076.941 5      3026.312          34.000    21580842.930 5  89820126.117 5      2353.796          31.000  
R01  21751962.359 5 116276325.949 5     -3753.336          31.000    21751969.758 5  90437158.759 5     -2919.259          33.000  
R11  19672597.305 5 105123962.453 5      -369.328          32.000                                                                  
E04  24698078.859 8 129789279.806 8     -1799.969          51.000    24698078.539 8  99448922.476 8     -1379.263          51.000  
E01  23675102.086 8 124413481.395 8      -492.031          51.000    23675103.688 8  95329880.993 8      -377.041          51.000  
E31  25137459.125 5 132098239.867 5      1684.027          34.000    25137464.086 5 101218144.785 5      1290.297          31.000  
C22  24460692.594 5 127373458.869 5     -2013.730          31.000  
C27  23781524.375 5 123836622.66225      -239.676          30.000  
C30  23591408.016 8 122846662.096 8      2481.086          51.000  
> 2020 05 14 07 29  0.0000000  0 16      -0.000000000000
G12  20753571.727 8 109060779.663 8      1843.793          50.000    20753570.320 8  84982413.757 8      1436.722          50.000  
G15  22818204.578 8 119910458.170 8     -3395.004          48.000    22818205.633 7  93436715.372 7     -2645.455          47.000  
G24  20148004.383 8 105878472.321 8       120.109          51.000    20148005.219 8  82502715.196 8        93.592          51.000  
G19  21617867.852 5 113602687.800 5      -680.094          35.000                                                                  
G25  22960845.539 7 120660178.121 7      3113.910          45.000    22960849.141 7  94020871.173 7      2426.424          45.000  
R02  20881113.477 5 111425217.446 5       624.012          31.000    20881111.336 4  86664065.55024       485.343          25.000  
R10  22570327.805 5 120312206.644 5     -2909.203          30.000                                                                  
R01  21773065.094 6 116389132.574 6     -3767.023          39.000    21773072.281 5  90524897.206 5     -2929.908          32.000  
R11  19674700.375 5 105135220.793 5      -381.555          31.000                                                                  
E04  24708393.062 8 129843483.958 8     -1813.129          51.000    24708392.828 8  99490455.507 8     -1389.305          51.000  
E01  23677933.844 8 124428362.106 8      -499.586          51.000    23677935.422 8  95341283.088 8      -382.779          51.000  
E21  26388471.664 5 138672354.641 5     -2194.578          33.000                                                                  
E31  25127862.734 5 132047813.080 5      1677.066          35.000                                                                  
C22  24472338.922 5 127434092.233 5     -2027.785          33.000  
C27  23782968.875 4 123844103.105 4      -258.773          29.000  
C30  23577151.930 8 122772422.354 8      2468.789          51.000  
> 2020 05 14 07 29 30.0000000  0 12      -0.000000000000
G12  20743093.320 8 109005715.631 8      1826.527          50.000    20743092.602 8  84939506.717 8      1423.268          50.000  
G15  22837615.227 8 120012464.033 8     -3405.949          48.000    22837616.742 8  93516200.446 8     -2653.987          48.000  
G24  20147365.242 8 105875113.591 8       103.258          51.000    20147366.062 8  82500097.994 8        80.458          51.000  
G25  22943099.844 7 120566925.307 7      3102.441          46.000    22943103.867 7  93948206.645 7      2417.488          45.000  
R21  21547140.758 5 115302749.268 5      2983.340          35.000    21547139.992 4  89679892.59024      2320.376          26.000  
R01  21794251.516 7 116502374.447 7     -3783.016          43.000    21794257.164 5  90612974.156 5     -2942.349          32.000  
E04  24718785.531 8 129898095.600 8     -1828.211          51.000    24718785.523 8  99532300.772 8     -1400.802          51.000  
E01  23680811.352 8 124443483.140 8      -509.012          51.000    23680812.828 8  95352869.327 8      -390.025          51.000  
E21  26401010.375 5 138738245.283 5     -2199.152          32.000                                                                  
E31  25118308.023 5 131997602.468 5      1668.949          35.000                                                                  
C22  24484064.742 6 127495138.125 6     -2042.668          40.000  
C30  23562968.984 8 122698567.860 8      2454.434          50.000  
> 2020 05 14 07 30  0.0000000  0 14      -0.000000000000
G12  20732701.602 8 108951107.142 8      1812.941          50.000    20732701.273 8  84896954.646 8      1412.682          50.000  
G15  22857077.125 8 120114735.383 8     -3413.039          49.000    22857078.188 8  93595892.389 8     -2659.515          49.000  
G24  20146810.328 8 105872196.967 8        90.184          51.000    20146811.070 8  82497825.305 8        70.273          51.000  
G25  22925406.148 7 120473944.811 7      3095.332          46.000    22925409.430 7  93875754.325 7      2411.948          46.000  
R21  21530467.570 6 115213500.653 6      2965.332          37.000    21530466.273 4  89610477.239 4      2306.382          29.000  
R01  21815516.094 7 116616030.005 7     -3795.055          44.000    21815519.711 5  90701372.840 5     -2951.713          32.000  
R11  19679129.375 5 105158908.20825      -405.371          32.000                                                                  
R12  21152663.930 5 112993316.804 5      2253.586          33.000    21152651.586 4  87883661.851 4      1752.792          28.000  
E04  24729252.562 8 129953096.836 8     -1839.531          51.000    24729253.039 8  99574444.547 8     -1409.503          51.000  
E01  23683731.258 8 124458827.281 8      -514.824          51.000    23683732.602 8  95364626.511 8      -394.461          51.000  
E21  26413563.312 5 138804211.092 5     -2200.105          30.000                                                                  
E31  25108793.352 5 131947600.306 5      1663.758          31.000                                                                  
C22  24495866.422 7 127556577.765 7     -2054.145          43.000  
C30  23548856.906 8 122625084.318 8      2443.602          51.000  
> 2020 05 14 07 30 30.0000000  0 13      -0.000000000000
G13  24476013.242 5 128622284.98825     -3842.762          32.000                                                                  
G12  20722385.523 8 108896895.839 8      1800.812          51.000    20722385.070 8  84854712.046 8      1403.228          51.000  
G15  22876578.203 8 120217210.305 8     -3418.773          51.000    22876578.273 8  93675742.945 8     -2663.983          51.000  
G24  20146328.352 8 105869663.739 8        78.363          51.000    20146329.016 8  82495851.362 8        61.062          51.000  
G25  22907753.445 7 120381178.583 7      3089.090          47.000    22907755.797 7  93803468.984 7      2407.084          47.000  
R21  21513893.484 6 115124803.158 6      2947.766          38.000    21513888.062 4  89541504.313 4      2292.698          26.000  
R01  21836845.891 6 116730034.348 6     -3805.535          41.000    21836847.250 5  90790042.791 5     -2959.864          32.000  
E04  24739782.438 8 130008427.199 8     -1849.398          51.000    24739783.117 8  99616840.506 8     -1417.018          51.000  
E01  23686682.148 8 124474334.801 8      -519.262          51.000    23686683.367 8  95376508.886 8      -397.858          51.000  
E31  25099308.773 5 131897756.202 5      1660.531          33.000    25099303.945 5 101064515.981 5      1272.326          35.000  
C22  24507731.133 7 127618350.311 7     -2064.176          44.000  
C27  23787899.773 5 123869868.871 5      -312.902          31.000  
C30  23534805.477 8 122551915.373 8      2434.008          51.000  
> 2020 05 14 07 31  0.0000000  0 12      -0.000000000000
G12  20712153.469 8 108843124.028 8      1797.320          51.000    20712152.531 8  84812811.927 8      1400.510          51.000  
G15  22896125.547 8 120319928.481 8     -3415.773          51.000    22896123.945 8  93755783.011 8     -2661.646          51.000  
G24  20145927.398 8 105867556.357 8        75.371          51.000    20145928.055 8  82494209.240 8        58.731          51.000  
G25  22890149.531 7 120288669.593 7      3091.672          45.000    22890151.672 7  93731384.081 7      2409.096          45.000  
R10  22636013.898 5 120662227.826 5     -2912.336          32.000                                                                  
R21  21497430.625 5 115036703.610 5      2938.848          35.000    21497426.469 4  89472982.537 4      2285.774          29.000  
R01  21858247.258 5 116844426.050 5     -3806.719          34.000    21858247.008 5  90879013.979 5     -2960.788          31.000  
E04  24750382.570 8 130064127.365 8     -1850.594          51.000    24750383.391 8  99659519.832 8     -1417.952          51.000  
E01  23689671.883 8 124490047.165 8      -514.918          51.000    23689673.133 8  95388548.224 8      -394.569          51.000  
E21  26438702.320 5 138936316.959 5     -2191.230          33.000                                                                  
C22  24519666.367 7 127680495.174 7     -2065.496          43.000  
C30  23520823.328 8 122479104.887 8      2433.234          51.000  
> 2020 05 14 07 31 30.0000000  0 11      -0.000000000000
G12  20701984.961 8 108789685.823 8      1773.352          51.000    20701983.938 8  84771171.792 8      1381.836          51.000  
G15  22915698.172 8 120422781.152 8     -3433.004          50.000    22915693.844 8  93835927.839 8     -2675.072          49.000  
G24  20145587.391 8 105865769.240 8        51.840          51.000    20145588.102 8  82492816.675 8        40.395          51.000  
G25  22872574.062 7 120196312.740 7      3073.582          44.000    22872576.781 7  93659417.696 7      2395.000          44.000  
R21  21481060.828 5 114949097.922 5      2909.574          34.000    21481055.812 4  89404844.865 4      2263.000          28.000  
R11  19686200.688 4 105196689.355 4      -436.848          29.000    19686199.312 4  81819647.247 4      -339.773          27.000  
E04  24761032.156 8 130120089.908 8     -1872.195          51.000    24761033.328 8  99702400.201 8     -1434.492          51.000  
E01  23692680.461 8 124505857.691 8      -531.047          51.000    23692681.781 8  95400662.775 8      -406.894          51.000  
E21  26451265.547 5 139002336.257 5     -2202.695          35.000                                                                  
C22  24531651.922 7 127742904.995 7     -2087.246          44.000  
C30  23506890.273 8 122406549.969 8      2411.852          51.000  
> 2020 05 14 07 32  0.0000000  0 16      -0.000000000000
G13  24541857.984 5 128968329.41525     -3851.023          31.000                                                                  
G12  20691898.594 8 108736680.298 8      1759.398          51.000    20691897.938 8  84729868.785 8      1370.960          51.000  
G15  22935314.211 8 120525864.325 8     -3440.133          49.000    22935309.227 8  93916252.261 8     -2680.627          49.000  
G24  20145327.125 8 105864401.209 8        38.387          51.000    20145327.836 8  82491750.665 8        29.912          51.000  
G17  23305170.852 4 122469482.31124     -2277.965          29.000                                                                  
G19  21643487.828 5 113737313.94425      -812.914          31.000                                                                  
G25  22855046.695 7 120104207.402 7      3065.582          45.000    22855050.102 7  93587647.301 7      2388.766          45.000  
R10  22668927.945 4 120837751.18224     -2927.422          28.000                                                                  
R01  21901218.969 5 117074138.818 5     -3840.859          35.000    21901219.789 5  91057659.935 5     -2987.339          31.000  
R12  21102312.016 5 112724463.492 5      2225.547          30.000                                                                  
E04  24771749.398 8 130176411.854 8     -1883.621          51.000    24771751.734 8  99745555.987 8     -1443.352          51.000  
E01  23695726.531 8 124521864.208 8      -537.066          51.000    23695727.883 8  95412927.513 8      -411.540          51.000  
E21  26463842.859 5 139068417.160 5     -2204.199          33.000                                                                  
C22  24543707.578 7 127805675.006 7     -2098.625          45.000  
C27  23793752.203 5 123900305.368 5      -364.406          31.000  
C30  23493025.164 8 122334350.363 8      2400.434          49.000  
> 2020 05 14 07 32 30.0000000  0 16      -0.000000000000
G13  24563842.367 5 129083875.952 5     -3851.629          35.000                                                                  
G12  20681890.211 8 108684085.881 8      1746.410          51.000    20681889.727 8  84688886.100 8      1360.839          51.000  
G15  22954968.969 7 120629153.174 7     -3446.215          47.000    22954966.539 7  93996737.006 7     -2685.366          47.000  
G24  20145142.609 8 105863431.231 8        25.754          51.000    20145143.297 8  82490994.830 8        20.068          51.000  
G17  23318226.141 5 122538104.17325     -2290.609          30.000    23318227.391 4  95484241.93324     -1784.891          29.000  
G25  22837563.602 7 120012332.563 7      3058.695          46.000    22837566.781 7  93516056.541 7      2383.400          47.000  
R02  20860398.641 4 111314664.44324       432.219          29.000                                                                  
R21  21448637.500 4 114775650.83124      2871.344          29.000                                                                  
R01  21922801.930 5 117189519.150 5     -3851.496          35.000    21922804.312 5  91147400.131 5     -2995.615          31.000  
R11  19691206.984 6 105223456.937 6      -456.273          38.000    19691213.453 5  81840482.672 5      -354.876          33.000  
E04  24782529.539 8 130233069.930 8     -1894.012          50.000    24782533.430 8  99788969.324 8     -1451.251          50.000  
E01  23698805.547 8 124538044.221 8      -542.059          51.000    23698807.039 8  95425325.183 8      -415.299          51.000  
E21  26476426.164 5 139134551.255 5     -2203.758          32.000                                                                  
C22  24555828.000 7 127868781.268 7     -2109.051          46.000  
C27  23795892.930 4 123911458.38924      -380.922          27.000  
C30  23479223.664 7 122262486.526 7      2390.066          45.000  
> 2020 05 14 07 33  0.0000000  0 16      -0.000000000000
G13  24585840.312 5 129199464.032 5     -3853.879          32.000                                                                  
G12  20671961.188 8 108631909.916 8      1732.227          51.000    20671960.484 8  84648229.519 8      1349.787          51.000  
G15  22974663.844 8 120732652.170 8     -3453.426          48.000    22974663.984 8  94077385.541 8     -2690.982          48.000  
G24  20145035.211 8 105862866.510 8        12.184          51.000    20145035.922 8  82490554.774 8         9.494          51.000  
G17  23331348.602 5 122607061.372 5     -2305.047          33.000    23331350.984 5  95537986.082 5     -1796.141          31.000  
G25  22820126.109 7 119920696.293 7      3050.527          47.000    22820128.391 7  93444651.696 7      2377.038          47.000  
R02  20858049.828 5 111302208.498 5       403.836          32.000    20858050.484 4  86568369.100 4       314.098          25.000  
R10  22701897.945 5 121013564.130 5     -2932.883          32.000                                                                  
R21  21432608.070 5 114689803.660 5      2851.383          33.000                                                                  
R01  21944449.008 5 117305245.786 5     -3863.430          33.000    21944453.680 5  91237409.657 5     -3004.890          31.000  
R11  19693801.195 6 105237316.094 6      -467.227          40.000    19693808.102 5  81851262.122 5      -363.392          35.000  
E04  24793375.078 8 130290069.878 8     -1905.648          50.000    24793379.195 8  99832644.588 8     -1460.134          49.000  
E01  23701918.688 8 124554404.199 8      -548.254          51.000    23701920.297 8  95437860.752 8      -420.106          51.000  
E21  26489017.938 5 139200703.181 5     -2205.637          34.000                                                                  
C22  24568013.195 7 127932228.455 7     -2120.527          46.000  
C30  23465487.391 7 122190967.721 7      2378.305          46.000  
> 2020 05 14 07 33 30.0000000  0 15      -0.000000000000
G13  24607853.797 5 129315128.314 5     -3857.078          33.000                                                                  
G12  20662112.500 8 108580156.005 8      1717.176          51.000    20662111.305 8  84607901.819 8      1338.059          51.000  
G15  22994399.156 8 120836361.947 8     -3461.219          48.000    22994400.711 8  94158198.322 8     -2697.054          48.000  
G24  20145005.641 8 105862711.117 8        -2.566          51.000    20145006.453 8  82490433.684 8        -2.000          51.000  
G17  23344548.461 5 122676429.039 5     -2319.367          31.000    23344551.203 5  95592039.769 5     -1807.303          32.000  
G19  21657971.703 5 113813424.473 5      -878.520          31.000                                                                  
G25  22802734.688 7 119829302.777 7      3041.621          46.000    22802736.352 7  93373436.013 7      2370.095          46.000  
R02  20855853.727 5 111290515.057 5       374.645          32.000    20855846.789 4  86559214.26924       291.390          25.000  
R21  21416680.164 5 114604567.593 5      2829.738          32.000    21416677.805 4  89136881.002 4      2200.917          29.000  
R01  21966164.945 5 117421317.355 5     -3874.926          30.000    21966167.641 5  91327687.408 5     -3013.832          30.000  
R11  19696457.117 6 105251499.283 6      -479.043          40.000    19696462.391 5  81862293.495 5      -372.592          34.000  
E04  24804287.125 8 130347413.534 8     -1917.996          51.000    24804289.578 8  99876583.177 8     -1469.604          49.000  
E01  23705066.648 8 124570946.845 8      -555.219          51.000    23705068.164 8  95450536.285 8      -425.437          51.000  
C22  24580262.398 7 127996017.483 7     -2132.766          44.000  
C30  23451819.852 8 122119799.203 8      2365.570          49.000  
> 2020 05 14 07 34  0.0000000  0 14      -0.000000000000
G13  24629881.977 5 129430881.856 5     -3851.383          33.000                                                                  
G12  20652347.469 8 108528840.196 8      1711.453          51.000    20652345.805 8  84567915.487 8      1333.600          51.000  
G15  23014177.234 8 120940295.569 8     -3459.930          48.000    23014179.609 8  94239185.508 8     -2696.053          48.000  
G24  20145056.914 8 105862981.146 8        -7.832          51.000    20145057.922 8  82490644.086 8        -6.103          51.000  
G25  22785392.539 7 119738168.666 7      3041.816          46.000    22785394.312 7  93302422.442 7      2370.247          46.000  
R02  20853821.297 5 111279668.589 5       355.273          30.000    20853826.023 4  86550777.136 4       276.327          28.000  
R10  22734949.289 5 121189714.449 5     -2931.684          32.000                                                                  
R21  21400862.352 6 114519950.578 6      2818.609          41.000    21400864.352 4  89071067.853 4      2192.243          25.000  
R11  19699174.523 6 105266021.833 6      -481.312          38.000    19699176.766 5  81873588.765 5      -374.354          33.000  
E04  24815268.109 8 130405115.196 8     -1921.086          51.000    24815268.789 8  99920796.080 8     -1471.957          50.000  
E01  23708252.305 8 124587687.240 8      -552.988          51.000    23708253.820 8  95463363.325 8      -423.730          51.000  
C22  24592578.852 7 128060161.589 7     -2135.789          44.000  
C27  23802956.914 5 123948248.059 5      -425.941          33.000  
C30  23438223.977 8 122048998.645 8      2362.027          51.000  
> 2020 05 14 07 34 30.0000000  0 14      -0.000000000000
G13  24651933.477 5 129546763.46825     -3860.027          34.000                                                                  
G12  20642651.297 8 108477886.620 8      1690.332          51.000    20642649.766 8  84528211.418 8      1317.142          51.000  
G15  23033982.969 7 121044374.154 7     -3473.742          47.000    23033985.602 7  94320285.670 7     -2706.813          47.000  
G24  20145174.688 8 105863600.706 8       -28.621          51.000    20145175.922 8  82491126.847 8       -22.302          51.000  
G25  22768085.234 7 119647218.518 7      3026.594          46.000    22768087.383 7  93231552.234 7      2358.388          46.000  
R21  21385150.711 6 114435878.985 6      2791.211          38.000    21385154.711 5  89005687.921 5      2170.951          33.000  
R01  22009771.578 5 117654411.660 5     -3896.738          34.000    22009775.320 4  91509040.033 4     -3030.800          26.000  
R11  19701938.758 6 105280805.856 6      -499.305          36.000    19701940.664 5  81885087.461 5      -388.348          32.000  
E04  24826302.789 8 130463097.066 8     -1939.480          51.000    24826302.609 8  99965223.698 8     -1486.114          51.000  
E01  23711460.906 8 124604548.442 8      -566.137          51.000    23711462.688 8  95476282.934 8      -433.823          51.000  
E31  25024360.797 5 131503913.473 5      1620.777          33.000                                                                  
C22  24604948.688 7 128124582.797 7     -2154.113          45.000  
C27  23805498.602 5 123961476.977 5      -450.324          31.000  
C30  23424684.773 8 121978492.586 8      2343.098          51.000  
> 2020 05 14 07 35  0.0000000  0 13      -0.000000000000
G12  20633041.680 8 108427387.636 8      1689.824          51.000    20633040.312 8  84488861.578 8      1316.747          51.000  
G15  23053832.789 7 121148686.982 7     -3466.785          44.000    23053835.773 7  94401568.374 7     -2701.392          44.000  
G24  20145376.492 8 105864661.808 8       -28.582          51.000    20145377.789 8  82491953.675 8       -22.272          51.000  
G25  22750830.742 7 119556545.352 7      3031.855          45.000    22750832.766 7  93160897.855 7      2362.489          45.000  
R21  21369559.688 6 114352450.731 6      2784.547          38.000    21369566.914 5  88940799.427 5      2165.762          33.000  
R01  22031674.055 6 117771477.276 6     -3893.953          37.000    22031671.922 4  91600075.88824     -3028.628          25.000  
R11  19704769.773 6 105295944.539 6      -496.227          38.000    19704774.211 5  81896861.971 5      -385.954          34.000  
E04  24837407.742 8 130521449.773 8     -1936.977          51.000    24837407.688 8 100009935.475 8     -1484.187          51.000  
E01  23714709.891 8 124621621.940 8      -558.418          51.000    23714711.977 8  95489365.210 8      -427.885          51.000  
E31  25015125.062 5 131455365.765 5      1629.312          34.000                                                                  
C22  24617389.414 7 128189369.992 7     -2151.473          46.000  
C27  23808145.469 5 123975262.062 5      -454.387          30.000  
C30  23411219.820 8 121908374.420 8      2344.855          51.000  
> 2020 05 14 07 35 30.0000000  0 14      -0.000000000000
G12  20623516.570 8 108377332.656 8      1655.074          51.000    20623515.141 8  84449857.683 8      1289.669          51.000  
G15  23073724.180 7 121253220.777 7     -3494.055          43.000    23073727.602 7  94483023.274 7     -2722.641          42.000  
G24  20145660.555 8 105866155.341 8       -63.098          51.000    20145661.906 8  82493117.453 8       -49.167          51.000  
G25  22733626.961 7 119466139.415 7      3003.016          43.000    22733628.156 7  93090451.693 7      2340.013          42.000  
R02  20848647.656 5 111252042.095 5       258.305          33.000                                                                  
R21  21354087.234 5 114269659.045 5      2742.727          34.000    21354093.758 5  88876405.854 5      2133.232          33.000  
R01  22053642.195 6 117888890.852 6     -3925.848          39.000                                                                  
R11  19707666.812 6 105311426.807 6      -527.863          40.000    19707673.414 5  81908903.644 5      -410.560          34.000  
E04  24848580.500 8 130580161.313 8     -1969.129          51.000    24848581.117 8 100054922.212 8     -1508.790          51.000  
E01  23717997.109 8 124638896.506 8      -585.277          51.000    23717999.438 8  95502601.558 8      -448.492          51.000  
E21  26552066.664 5 139532053.854 5     -2219.520          33.000                                                                  
E31  25005925.430 5 131407004.394 5      1602.742          34.000                                                                  
C22  24629898.594 7 128254510.368 7     -2183.410          46.000  
C30  23397827.344 8 121838635.769 8      2312.156          51.000  
> 2020 05 14 07 36  0.0000000  0 13      -0.000000000000
G12  20614099.242 8 108327845.192 8      1650.699          51.000    20614097.742 8  84411296.001 8      1286.260          51.000  
G15  23093680.805 7 121358095.861 7     -3491.035          43.000    23093684.055 7  94564744.147 7     -2720.288          43.000  
G24  20146050.344 8 105868204.456 8       -66.902          51.000    20146051.812 8  82494714.148 8       -52.135          51.000  
G19  21684564.836 5 113953142.25125      -982.828          33.000                                                                  
G25  22716497.281 6 119376124.830 6      3004.410          41.000    22716498.188 7  93020310.509 7      2341.103          42.000  
R21  21338757.891 6 114187633.173 6      2732.176          36.000    21338764.500 5  88812607.987 5      2125.026          33.000  
R01  22075696.359 6 118006773.140 6     -3926.395          38.000                                                                  
R11  19710652.211 6 105327377.510 6      -528.879          38.000    19710659.930 5  81921309.706 5      -411.353          34.000  
E04  24859844.273 8 130639353.393 8     -1970.477          51.000    24859845.492 8 100100277.171 8     -1509.844          51.000  
E01  23721345.984 8 124656494.784 8      -581.426          51.000    23721348.398 8  95516085.939 8      -445.511          51.000  
C22  24642499.086 8 128320123.606 8     -2184.508          48.000  
C27  23813777.781 4 124004557.74224      -500.793          29.000  
C30  23384531.203 8 121769400.789 8      2309.863          49.000  
> 2020 05 14 07 36 30.0000000  0 16      -0.000000000000
G13  24740203.758 5 130010629.16425     -3868.016          32.000                                                                  
G12  20604716.867 8 108278540.645 8      1635.301          51.000    20604715.391 8  84372876.870 8      1274.261          51.000  
G15  23113629.828 7 121462924.773 7     -3498.559          45.000    23113631.086 7  94646428.974 7     -2726.150          45.000  
G24  20146472.594 8 105870424.393 8       -81.977          51.000    20146474.125 8  82496443.951 8       -63.881          51.000  
G19  21690235.406 6 113982946.413 6     -1005.465          38.000                                                                  
G25  22699369.195 6 119286117.254 6      2995.066          41.000    22699369.930 6  92950174.770 6      2333.819          41.000  
R02  20845983.562 5 111237798.054 5       211.633          31.000    20845984.742 4  86518266.078 4       164.606          26.000  
R21  21323500.336 6 114105984.936 6      2710.379          37.000    21323507.000 5  88749103.737 5      2108.073          30.000  
R01  22097760.125 5 118124727.846 5     -3937.938          32.000                                                                  
R11  19713651.242 6 105343404.379 6      -540.453          38.000    19713658.227 5  81933775.042 5      -420.349          32.000  
R12  20991382.469 5 112131817.167 5      2164.367          33.000                                                                  
E04  24871125.586 8 130698639.336 8     -1982.844          51.000    24871127.250 8 100145704.052 8     -1519.359          51.000  
E01  23724683.078 8 124674030.945 8      -588.629          51.000    23724685.516 8  95529522.726 8      -451.022          51.000  
C22  24655116.844 8 128385825.665 8     -2196.590          48.000  
C27  23816730.477 5 124019953.522 5      -518.809          30.000  
C30  23371258.727 7 121700289.849 7      2296.629          47.000  
> 2020 05 14 07 37  0.0000000  0 14      -0.000000000000
G12  20595408.891 8 108229625.802 8      1620.902          51.000    20595407.719 8  84334761.406 8      1263.044          51.000  
G15  23133609.320 7 121567911.609 7     -3505.258          47.000    23133608.039 7  94728236.832 7     -2731.374          47.000  
G24  20146966.914 8 105873022.346 8       -95.965          51.000    20146968.367 8  82498468.308 8       -74.778          51.000  
G19  21696023.695 6 114013362.296 6     -1027.160          38.000    21696020.656 5  88841584.827 5      -800.388          31.000  
G25  22682282.250 6 119196324.492 6      2986.242          40.000    22682283.773 6  92880206.376 6      2326.943          40.000  
R10  22834471.297 5 121720178.209 5     -2954.711          32.000                                                                  
R01  22119875.305 5 118242960.621 5     -3948.609          30.000                                                                  
R11  19716704.211 6 105359717.592 6      -551.902          37.000    19716709.328 5  81946463.129 5      -429.257          31.000  
R12  20979239.680 5 112066942.982 5      2156.422          33.000                                                                  
E04  24882463.633 8 130758224.471 8     -1994.242          51.000    24882465.344 8 100191360.193 8     -1528.078          51.000  
E01  23728047.602 8 124691711.209 8      -594.828          51.000    23728049.992 8  95543069.939 8      -455.802          51.000  
E21  26589979.406 5 139731284.968 5     -2215.277          35.000                                                                  
C22  24667790.383 8 128451819.061 8     -2207.719          48.000  
C30  23358049.086 7 121631510.039 7      2284.008          44.000  
> 2020 05 14 07 37 30.0000000  0 18      -0.000000000000
G13  24784386.953 5 130242826.52725     -3869.672          32.000                                                                  
G12  20586197.281 8 108181217.850 8      1609.574          51.000    20586196.164 8  84297040.921 8      1254.214          51.000  
G15  23153640.594 8 121673170.573 8     -3508.609          48.000    23153637.234 7  94810256.732 7     -2733.985          46.000  
G24  20147555.492 8 105876115.281 8      -106.809          51.000    20147556.820 8  82500878.369 8       -83.228          51.000  
G17  23452862.805 5 123245619.45625     -2419.812          30.000                                                                  
G25  22665258.898 6 119106864.120 6      2981.207          40.000    22665261.602 6  92810496.983 6      2323.019          40.000  
R02  20843908.898 5 111226739.826 5       158.859          35.000                                                                  
R21  21293347.492 5 113944574.498 5      2670.555          33.000    21293336.438 4  88623540.543 4      2077.095          27.000  
R01  22142065.977 5 118361585.821 5     -3956.027          31.000                                                                  
R11  19719832.891 6 105376435.480 6      -559.070          36.000    19719836.820 5  81959465.947 5      -434.833          31.000  
R12  20967153.109 5 112002372.905 5      2151.578          32.000                                                                  
E04  24893880.938 8 130818224.121 8     -2002.336          51.000    24893882.359 8 100237333.952 8     -1534.291          51.000  
E01  23731461.602 8 124709651.813 8      -597.910          51.000    23731463.914 8  95556816.630 8      -458.133          51.000  
E21  26602625.422 5 139797754.993 5     -2213.336          35.000    26602617.055 5 107117715.260 5     -1695.865          32.000  
E31  24969394.000 5 131215072.455 5      1593.117          34.000    24969385.477 5 100541387.112 5      1220.806          34.000  
C22  24680541.070 7 128518217.147 7     -2215.562          46.000  
C27  23822887.133 5 124051932.757 5      -551.480          32.000  
C30  23344924.867 7 121563179.093 7      2274.785          44.000  
> 2020 05 14 07 38  0.0000000  0 15      -0.000000000000
G12  20577069.461 8 108133252.147 8      1592.219          50.000    20577067.922 8  84259665.029 8      1240.687          50.000  
G15  23173710.508 7 121778634.218 7     -3518.227          47.000    23173706.414 7  94892436.146 7     -2741.476          46.000  
G24  20148225.992 8 105879638.956 8      -123.934          51.000    20148227.211 8  82503624.073 8       -96.575          51.000  
G19  21708002.023 6 114076302.695 6     -1070.512          41.000    21708001.484 3  88890629.948 3      -834.165          21.000  
G25  22648286.633 6 119017672.299 6      2969.484          41.000    22648290.375 7  92740996.903 7      2313.888          42.000  
R02  20843115.180 5 111222510.324 5       127.566          35.000                                                                  
R10  22867763.516 5 121897664.422 5     -2960.066          32.000                                                                  
R01  22164320.289 5 118480533.250 5     -3969.531          34.000                                                                  
R11  19723023.914 6 105393491.986 6      -573.504          36.000    19723027.055 5  81972732.139 5      -446.056          30.000  
R12  20955110.438 6 111938042.012 6      2141.254          36.000                                                                  
E04  24905365.180 8 130878572.215 8     -2016.750          51.000    24905365.977 8 100283574.670 8     -1545.279          51.000  
E01  23734912.641 8 124727787.497 8      -607.047          51.000    23734914.938 8  95570712.802 8      -465.200          51.000  
E31                                                                  24960327.453 5 100504904.473 5      1214.167          33.000  
C22  24693356.406 7 128584953.508 7     -2229.352          46.000  
C30  23331876.680 7 121495235.028 7      2259.059          47.000  
> 2020 05 14 07 38 30.0000000  0 17      -0.000000000000
G12  20568005.047 8 108085620.318 8      1581.262          50.000    20568003.164 8  84222549.318 8      1232.152          50.000  
G15  23193797.734 7 121884190.799 7     -3520.930          47.000    23193793.648 7  94974687.983 7     -2743.583          45.000  
G24  20148957.977 8 105883485.470 8      -134.465          51.000    20148959.117 8  82506621.344 8      -104.778          51.000  
G19  21714160.156 6 114108657.487 6     -1088.598          37.000    21714158.969 5  88915849.489 5      -848.252          31.000  
G25  22631344.656 6 118928641.060 6      2963.988          40.000    22631347.898 6  92671621.978 6      2309.602          40.000  
R02  20842462.977 5 111219020.702 5       103.633          32.000    20842476.406 4  86503678.177 4        80.594          28.000  
R10  22884423.289 5 121986451.990 5     -2960.195          35.000                                                                  
R21  21263658.438 4 113785737.04224      2627.691          29.000    21263659.086 5  88500016.57825      2043.760          30.000  
R01  22186614.398 5 118599687.644 5     -3975.941          31.000                                                                  
R11  19726257.852 6 105410775.910 6      -580.711          41.000    19726260.328 5  81986175.211 5      -451.664          31.000  
R12  20943092.031 5 111873839.874 5      2137.234          33.000    20943086.523 4  87012966.411 4      1662.297          28.000  
E04  24916895.008 8 130939158.350 8     -2024.426          51.000    24916895.242 8 100329997.773 8     -1551.202          51.000  
E01  23738379.969 8 124746008.801 8      -609.672          51.000    23738382.305 8  95584674.566 8      -467.181          51.000  
E31                                                                  24951279.703 5 100468463.148 5      1212.488          30.000  
C22  24706216.227 8 128651917.812 8     -2236.668          48.000  
C27  23829448.859 5 124086135.333 5      -586.070          35.000  
C30  23318883.383 8 121427571.921 8      2249.926          50.000  
> 2020 05 14 07 39  0.0000000  0 16      -0.000000000000
G12  20559030.453 8 108038459.374 8      1566.570          50.000    20559028.633 8  84185800.541 8      1220.704          50.000  
G15  23213927.797 7 121989974.958 7     -3527.520          46.000    23213923.305 6  95057117.136 6     -2748.717          41.000  
G24  20149777.484 8 105887791.641 8      -148.816          51.000    20149778.594 8  82509976.788 8      -115.961          51.000  
G19  21720447.156 6 114141722.067 6     -1109.984          37.000    21720443.031 4  88941595.475 4      -864.914          29.000  
G25  22614459.484 6 118839908.218 6      2955.191          39.000    22614460.422 6  92602479.560 6      2302.747          39.000  
R02  20841958.883 5 111216292.73025        74.258          31.000                                                                  
R10  22901104.867 4 122075369.787 4     -2963.543          29.000                                                                  
R21  21248995.797 5 113707283.820 5      2606.254          34.000    21249002.867 5  88438997.384 5      2027.087          33.000  
R01  22208973.453 4 118719303.03224     -3986.707          27.000                                                                  
R11  19729561.492 7 105428426.331 7      -591.848          44.000    19729563.203 5  81999903.262 5      -460.326          33.000  
E04  24928495.703 8 131000117.898 8     -2035.840          51.000    24928495.711 8 100376706.994 8     -1559.975          51.000  
E01  23741889.641 8 124764452.077 8      -616.125          51.000    23741892.070 8  95598806.411 8      -472.099          51.000  
E21  26640601.812 5 139997299.008 5     -2217.434          34.000                                                                  
C22  24719146.078 8 128719243.344 8     -2247.781          48.000  
C27  23832902.375 4 124104047.314 4      -604.875          26.000  
C30  23305970.945 8 121360327.572 8      2236.879          51.000  
> 2020 05 14 07 39 30.0000000  0 15      -0.000000000000
G12  20550137.102 8 107991724.065 8      1549.227          51.000    20550135.680 8  84149383.437 8      1207.190          51.000  
G15  23234091.625 7 122095938.525 7     -3536.504          45.000    23234083.117 6  95139686.047 6     -2755.721          36.000  
G24  20150675.898 8 105892512.582 8      -165.777          51.000    20150677.125 8  82513655.435 8      -129.174          51.000  
G19  21726855.703 6 114175402.162 6     -1134.926          36.000                                                                  
G25  22597622.414 6 118751311.261 6      2943.879          38.000    22597618.352 6  92533471.929 6      2293.932          39.000  
R02  20841651.234 4 111214608.58124        43.719          29.000    20841651.156 4  86500261.96224        34.003          29.000  
R10  22917794.445 5 122164373.979 5     -2969.078          30.000                                                                  
R21  21234454.250 5 113629477.878 5      2580.988          34.000    21234462.289 5  88378481.707 5      2007.442          34.000  
R11  19732925.414 7 105446396.380 7      -605.770          42.000    19732927.766 5  82013879.905 5      -471.154          35.000  
R12  20919198.867 4 111746196.33024      2118.820          29.000                                                                  
E04  24940158.164 8 131061403.813 8     -2049.723          51.000    24940158.469 8 100423666.282 8     -1570.523          51.000  
E01  23745432.930 8 124783071.222 8      -624.996          51.000    23745435.398 8  95613073.019 8      -478.857          51.000  
C22  24732136.367 8 128786882.589 8     -2261.367          49.000  
C27  23836422.602 5 124122476.512 5      -625.152          32.000  
C30  23293130.773 8 121293458.977 8      2221.145          51.000  
> 2020 05 14 07 40  0.0000000  0 12      -0.000000000000
G12  20541323.703 8 107945408.225 8      1536.730          51.000    20541322.438 8  84113293.174 8      1197.453          51.000  
G15  23254287.547 7 122202072.116 7     -3540.645          43.000    23254274.789 5  95222387.368 5     -2758.954          34.000  
G24  20151651.969 8 105897642.020 8      -177.914          51.000    20151653.391 8  82517652.382 8      -138.634          51.000  
G19  21733384.469 5 114209713.643 5     -1153.945          35.000                                                                  
G25  22580832.266 6 118663080.449 6      2936.984          36.000    22580831.461 5  92464720.713 5      2288.563          35.000  
R10  22934508.914 5 122253452.422 5     -2970.289          35.000                                                                  
R21  21220033.164 4 113552316.179 4      2562.098          28.000    21220043.594 5  88318466.999 5      1992.743          35.000  
R11  19736347.680 6 105464679.340 6      -614.719          39.000    19736349.289 5  82028099.969 5      -478.118          35.000  
E04  24951880.758 8 131123008.134 8     -2058.887          51.000    24951881.664 8 100470869.574 8     -1577.527          51.000  
E01  23749008.430 8 124801859.254 8      -629.117          51.000    23749010.789 8  95627469.038 8      -482.072          51.000  
C22  24745185.156 8 128854826.771 8     -2270.066          49.000  
C30  23280361.656 8 121226961.732 8      2210.223          51.000  
> 2020 05 14 07 40 30.0000000  0 16      -0.000000000000
G12  20532587.133 8 107899495.691 8      1524.508          51.000    20532585.641 8  84077517.159 8      1187.928          51.000  
G15  23274512.344 6 122308357.104 6     -3544.691          41.000    23274503.961 6  95305206.688 6     -2762.101          39.000  
G24  20152702.750 8 105903164.203 8      -189.754          51.000    20152704.320 8  82521955.358 8      -147.860          51.000  
G19  21740030.508 5 114244632.079 5     -1174.188          33.000                                                                  
G25  22564085.945 5 118575082.563 5      2930.504          32.000    22564089.500 5  92396150.924 5      2283.513          32.000  
R10  22951230.828 5 122342591.06325     -2970.875          30.000                                                                  
R21  21205732.469 6 113475785.862 6      2541.180          38.000    21205742.297 5  88258943.441 5      1976.470          34.000  
R01  22276342.664 5 119079450.499 5     -4014.383          31.000    22276348.883 4  92617353.624 4     -3122.298          27.000  
R11  19739825.094 6 105483258.273 6      -623.215          40.000    19739825.016 5  82042550.224 5      -484.720          33.000  
R12  20895456.086 5 111619407.740 5      2107.703          31.000                                                                  
E04  24963660.281 8 131184913.196 8     -2067.656          51.000    24963662.062 8 100518303.287 8     -1584.312          51.000  
E01  23752612.781 8 124820799.426 8      -633.012          51.000    23752614.969 8  95641981.629 8      -485.050          51.000  
E31  24915426.992 5 130931453.216 5      1562.547          33.000                                                                  
C22  24758288.438 8 128923057.462 8     -2278.332          48.000  
C27  23843792.148 6 124160886.942 6      -655.574          36.000  
C30  23267660.578 8 121160821.864 8      2199.500          51.000  
> 2020 05 14 07 41  0.0000000  0 14      -0.000000000000
G12  20523926.734 8 107853984.951 8      1509.117          51.000    20523925.172 8  84042054.237 8      1175.936          51.000  
G15  23294765.320 6 122414788.931 6     -3551.172          39.000    23294763.508 6  95388140.469 6     -2767.148          39.000  
G24  20153828.047 8 105909077.829 8      -204.793          51.000    20153829.719 8  82526563.366 8      -159.579          51.000  
G19  21746793.188 6 114280196.396 6     -1196.000          36.000                                                                  
G25  22547384.070 5 118487316.674 5      2920.297          35.000    22547390.469 5  92327761.915 5      2275.557          34.000  
R21  21191551.852 6 113399888.886 6      2518.176          37.000    21191558.953 5  88199912.440 5      1958.585          33.000  
R01  22298909.109 5 119200027.279 5     -4024.227          34.000    22298906.016 4  92711146.51424     -3129.955          25.000  
R11  19743356.523 6 105502131.211 6      -635.203          39.000    19743356.992 5  82057229.194 5      -494.050          34.000  
E04  24975496.445 8 131247115.709 8     -2079.625          51.000    24975499.180 8 100565964.923 8     -1593.444          51.000  
E01  23756245.477 8 124839889.407 8      -640.039          51.000    23756247.414 8  95656609.007 8      -490.435          51.000  
E31  24906521.289 5 130884672.736 5      1555.777          34.000                                                                  
C22  24771445.547 8 128991570.446 8     -2289.641          49.000  
C27  23847628.047 5 124180825.105 5      -673.648          34.000  
C30  23255027.945 8 121095039.626 8      2185.520          51.000  
> 2020 05 14 07 41 30.0000000  0 13      -0.000000000000
G12  20515355.828 8 107808945.592 8      1499.879          51.000    20515354.453 8  84006958.627 8      1168.737          51.000  
G15  23315058.695 5 122521434.303 5     -3552.039          32.000    23315061.836 5  95471240.731 5     -2767.823          32.000  
G24  20155041.203 8 105915452.757 8      -213.723          51.000    20155042.883 8  82531530.820 8      -166.537          51.000  
G25  22530739.562 5 118399852.739 5      2916.809          35.000    22530746.547 5  92259608.244 5      2272.839          35.000  
R21  21177502.445 6 113324699.432 6      2501.023          39.000    21177507.148 5  88141431.869 5      1945.241          32.000  
R01  22321529.039 5 119320922.024 5     -4028.316          35.000    22321523.469 4  92805175.848 4     -3133.133          27.000  
R11  19746955.945 7 105521368.076 7      -640.609          42.000    19746957.875 5  82072191.226 5      -498.249          34.000  
E04  24987402.328 8 131309683.347 8     -2085.199          51.000    24987405.570 8 100613906.350 8     -1597.751          51.000  
E01  23759919.656 8 124859197.888 8      -640.797          51.000    23759921.344 8  95671403.807 8      -490.992          51.000  
E31  24897649.359 5 130838030.789 5      1555.695          30.000                                                                  
C22  24784669.531 8 129060431.950 8     -2294.844          48.000  
C27  23851558.906 5 124201309.555 5      -686.195          32.000  
C30  23242477.516 8 121029685.635 8      2177.641          51.000  
> 2020 05 14 07 42  0.0000000  0 14      -0.000000000000
G12  20506828.609 8 107764135.171 8      1489.695          51.000    20506827.422 8  83972041.413 8      1160.802          51.000  
G24  20156296.156 8 105922047.180 8      -223.641          51.000    20156297.844 8  82536669.322 8      -174.265          51.000  
G19  21760681.867 5 114353160.031 5     -1229.535          35.000                                                                  
G25  22514107.305 5 118312449.560 5      2912.734          32.000    22514113.242 5  92191501.766 5      2269.661          31.000  
R02  20842254.805 5 111217860.265 5       -83.098          32.000    20842249.102 4  86502776.25624       -64.632          28.000  
R21  21163538.789 6 113249974.588 6      2482.840          37.000    21163543.688 5  88083312.638 5      1931.104          30.000  
R01  22344147.273 5 119441880.851 5     -4033.344          34.000    22344154.859 4  92899246.295 4     -3137.043          29.000  
R11  19750577.852 6 105540722.249 6      -647.188          41.000    19750579.992 5  82087244.474 5      -503.368          33.000  
E04  24999331.625 8 131372372.227 8     -2091.801          51.000    24999334.859 8 100661940.672 8     -1602.740          51.000  
E01  23763589.242 8 124878481.946 8      -642.504          51.000    23763590.758 8  95686179.892 8      -492.311          51.000  
E31  24888774.562 5 130791395.715 5      1554.648          34.000                                                                  
C22  24797913.594 7 129129399.349 7     -2300.688          47.000  
C27  23855568.930 6 124222132.307 6      -699.609          39.000  
C30  23229963.383 8 120964521.725 8      2168.734          51.000  
> 2020 05 14 07 42 30.0000000  0 14      -0.000000000000
G12  20498412.086 8 107719905.436 8      1465.453          51.000    20498410.852 8  83937576.683 8      1141.912          51.000  
G24  20157659.758 8 105929212.226 8      -247.594          51.000    20157661.297 8  82542252.478 8      -192.930          51.000  
G25  22497554.273 6 118225459.232 6      2893.398          38.000    22497558.617 6  92123717.041 6      2254.594          39.000  
R02  20842851.992 5 111221011.57125      -120.598          33.000    20842837.930 4  86505242.94624       -93.798          26.000  
R21  21149728.414 6 113176075.957 6      2450.168          39.000    21149733.945 4  88025835.984 4      1905.687          29.000  
R01  22366848.820 5 119563262.654 5     -4052.168          34.000    22366861.273 4  92993654.413 4     -3151.687          29.000  
R11  19754288.789 7 105560550.821 7      -667.879          42.000    19754290.867 5  82102666.654 5      -519.461          34.000  
E04  25011350.969 8 131435532.252 8     -2112.312          51.000    25011353.578 8 100710335.996 8     -1618.556          51.000  
E01  23767321.039 8 124898092.494 8      -658.293          51.000    23767322.469 8  95701206.133 8      -504.422          51.000  
E21  26729383.430 5 140463851.041 5     -2227.266          34.000                                                                  
E31  24879958.586 5 130745061.270 5      1539.148          35.000    24879959.305 5 100181283.558 5      1179.692          35.000  
C22  24811244.047 7 129198818.455 7     -2320.707          46.000  
C27  23859705.477 5 124243624.543 5      -727.430          30.000  
C30  23217552.898 8 120899898.116 8      2145.906          51.000  
> 2020 05 14 07 43  0.0000000  0 14      -0.000000000000
G12  20490081.203 8 107676126.811 8      1452.602          51.000    20490080.055 8  83903463.466 8      1131.901          51.000  
G15  23376077.031 5 122842113.17125     -3571.719          30.000    23376085.414 4  95721144.43924     -2783.158          29.000  
G24  20159107.359 8 105936818.954 8      -259.980          51.000    20159108.836 8  82548179.791 8      -202.582          51.000  
G17  23609279.062 5 124067599.16625     -2558.762          33.000                                                                  
G25  22481054.867 6 118138753.084 6      2886.238          38.000    22481059.312 6  92056153.827 6      2249.021          39.000  
R21  21136048.555 6 113102875.397 6      2429.500          36.000    21136054.578 5  87968902.353 5      1889.618          30.000  
R01  22389607.969 5 119684928.566 5     -4059.633          34.000    22389622.992 5  93088283.450 5     -3157.496          31.000  
R11  19758064.180 6 105580721.755 6      -677.258          41.000    19758065.906 5  82118355.106 5      -526.759          34.000  
E04  25023435.406 8 131499032.508 8     -2121.449          51.000    25023436.414 8 100758991.992 8     -1625.536          51.000  
E01  23771090.250 8 124917899.603 8      -662.574          51.000    23771091.758 8  95716382.989 8      -507.678          51.000  
E21  26742096.008 5 140530670.649 5     -2227.391          34.000                                                                  
C22  24824636.148 7 129268558.627 7     -2328.988          46.000  
C27  23863915.086 5 124265697.881 5      -742.797          34.000  
C30  23205221.586 8 120835688.616 8      2134.352          50.000  
> 2020 05 14 07 43 30.0000000  0 12      -0.000000000000
G12  20481837.719 8 107632806.893 8      1438.133          51.000    20481836.391 8  83869707.704 8      1120.626          51.000  
G15  23396498.797 5 122949423.854 5     -3578.344          33.000    23396505.484 5  95804773.152 5     -2788.321          33.000  
G24  20160640.367 8 105944874.808 8      -274.207          51.000    20160641.969 8  82554457.067 8      -213.668          51.000  
R21  21122501.180 6 113030383.583 6      2406.641          36.000    21122506.438 4  87912519.804 4      1871.829          27.000  
R01  22412423.797 5 119806880.782 5     -4068.238          35.000    22412436.641 4  93183135.104 4     -3164.186          29.000  
R11  19761905.180 6 105601241.976 6      -688.012          38.000    19761906.352 5  82134315.201 5      -535.126          33.000  
E04  25035585.711 8 131562878.381 8     -2132.156          51.000    25035584.344 8 100807912.803 8     -1633.776          50.000  
E01  23774898.023 8 124937909.721 8      -668.598          51.000    23774899.742 8  95731715.409 8      -512.329          51.000  
E31  24862440.438 5 130653013.245 5      1530.492          33.000    24862437.750 5 100110740.881 5      1172.811          33.000  
C22  24838091.297 7 129338624.379 7     -2339.223          47.000  
C27  23868246.711 5 124288277.362 5      -760.016          33.000  
C30  23192971.242 8 120771902.154 8      2120.793          49.000  
> 2020 05 14 07 44  0.0000000  0 12      -0.000000000000
G12  20473640.047 8 107589726.379 8      1427.438          51.000    20473638.297 8  83836138.474 8      1112.289          51.000  
G15  23416913.844 6 123056697.908 6     -3579.777          36.000    23416919.055 6  95888363.364 6     -2789.438          36.000  
G24  20162217.211 8 105953161.201 8      -284.656          51.000    20162218.898 8  82560913.997 8      -221.810          51.000  
R01  22435250.180 5 119928892.058 5     -4072.992          35.000    22435260.602 4  93278032.773 4     -3167.884          26.000  
R11  19765769.414 6 105621888.035 6      -694.949          40.000    19765769.742 5  82150373.253 5      -540.513          32.000  
R12  20813622.188 5 111182249.178 5      2057.668          34.000                                                                  
E04  25047759.484 8 131626849.096 8     -2139.004          51.000    25047755.922 8 100856929.254 8     -1638.900          49.000  
E01  23778702.461 8 124957903.093 8      -670.762          51.000    23778704.391 8  95747034.996 8      -513.990          51.000  
E31  24853686.219 6 130607031.489 6      1528.629          36.000    24853686.516 5 100075500.773 5      1171.419          33.000  
C22  24851567.203 7 129408795.975 7     -2345.352          47.000  
C27  23872650.703 5 124311185.650 5      -773.594          32.000  
C30  23180761.016 8 120708323.447 8      2111.219          49.000  
> 2020 05 14 07 44 30.0000000  0 11      -0.000000000000
G12  20465542.031 8 107547170.794 8      1405.953          51.000    20465540.305 8  83802978.268 8      1095.548          51.000  
G15  23437376.523 6 123164222.210 6     -3591.914          36.000    23437380.625 6  95972148.579 6     -2798.895          37.000  
G24  20163892.211 8 105961963.772 8      -305.809          51.000    20163894.000 8  82567773.144 8      -238.292          51.000  
G25  22431819.594 5 117880026.22925      2856.680          33.000                                                                  
R02  20846750.211 5 111241876.32525      -234.711          32.000    20846754.094 4  86521457.60224      -182.553          28.000  
R01  22458139.758 5 120051247.752 5     -4087.797          34.000                                                                  
R11  19769710.305 7 105642949.694 7      -712.758          42.000    19769710.211 5  82166754.594 5      -554.364          32.000  
E04  25060010.117 8 131691228.191 8     -2156.656          51.000    25060005.852 8 100906258.665 8     -1652.441          49.000  
E01  23782557.875 8 124978164.337 8      -683.578          51.000    23782559.836 8  95762559.833 8      -523.787          51.000  
C22  24865117.344 7 129479353.567 7     -2362.098          47.000  
C30  23168646.117 8 120645236.962 8      2090.875          51.000  
> 2020 05 14 07 45  0.0000000  0 15      -0.000000000000
G12  20457538.414 8 107505112.048 8      1398.621          51.000    20457537.070 8  83770205.220 8      1089.835          51.000  
G15  23457880.453 6 123271966.166 6     -3590.406          39.000    23457884.578 6  96056104.896 6     -2797.720          40.000  
G24  20165660.055 8 105971254.247 8      -312.809          51.000    20165661.844 8  82575012.486 8      -243.747          51.000  
G19  21805176.141 5 114587024.143 5     -1359.840          34.000    21805177.906 3  89288557.405 3     -1059.616          22.000  
G25  22415519.617 5 117794378.344 5      2854.070          35.000    22415524.391 5  91787814.851 5      2223.961          34.000  
R02  20848127.352 5 111249217.551 5      -254.324          33.000    20848128.938 4  86527167.844 4      -197.814          29.000  
R21  21082584.312 5 112816776.094 5      2341.188          33.000    21082570.641 4  87746359.993 4      1820.918          27.000  
R01  22481086.547 5 120173915.088 5     -4089.438          34.000                                                                  
R11  19773724.055 7 105664398.440 7      -716.453          43.000    19773724.352 5  82183436.937 5      -557.241          33.000  
R12  20790628.328 5 111059436.77025      2042.395          30.000                                                                  
E04  25072331.758 8 131755986.142 8     -2159.852          48.000    25072329.172 8 100955878.364 8     -1655.021          49.000  
E01  23786458.945 8 124998665.015 8      -682.383          51.000    23786460.586 8  95778268.133 8      -522.865          51.000  
C22  24878736.031 7 129550266.993 7     -2364.820          47.000  
C27  23881806.773 6 124358830.517 6      -807.875          36.000  
C30  23156621.352 8 120582616.962 8      2084.430          51.000  
> 2020 05 14 07 45 30.0000000  0 13      -0.000000000000
G12  20449586.297 8 107463323.159 8      1391.504          51.000    20449584.898 8  83737642.449 8      1084.289          51.000  
G15  23478382.578 6 123379699.995 6     -3588.238          41.000    23478385.828 6  96140053.294 6     -2796.034          41.000  
G24  20167477.617 8 105980805.800 8      -319.746          51.000    20167479.258 8  82582455.243 8      -249.153          51.000  
G25  22399242.656 5 117708836.738 5      2852.133          34.000    22399245.438 5  91721159.108 5      2222.451          34.000  
R02  20849628.453 5 111257227.339 5      -275.332          33.000    20849628.969 4  86533397.628 4      -214.147          28.000  
R21  21069505.648 6 112746857.333 6      2325.035          38.000                                                                  
R01  22504048.477 5 120296658.313 5     -4089.438          33.000    22504064.133 4  93564105.639 4     -3180.680          27.000  
R11  19777767.148 7 105686002.905 7      -719.570          42.000    19777768.742 5  82200240.385 5      -559.666          34.000  
E04  25084682.000 8 131820894.234 8     -2163.129          48.000    25084682.102 8 101005613.112 8     -1657.436          51.000  
E01  23790362.430 8 125019177.399 8      -680.910          51.000    23790363.523 8  95793985.411 8      -521.746          51.000  
C22  24892379.234 8 129621308.682 8     -2367.184          48.000  
C27  23886502.977 4 124383288.060 4      -817.789          28.000  
C30  23144643.414 8 120520240.282 8      2078.152          51.000  
> 2020 05 14 07 46  0.0000000  0 13      -0.000000000000
G12  20441739.648 8 107422090.170 8      1368.320          50.000    20441738.242 8  83705512.843 8      1066.224          50.000  
G15  23498936.461 6 123487707.011 6     -3601.438          40.000    23498939.070 6  96224214.645 6     -2806.313          40.000  
G24  20169399.406 8 105990904.951 8      -342.637          51.000    20169401.055 8  82590324.710 8      -266.990          51.000  
G19  21820946.711 6 114669898.446 6     -1402.633          39.000    21820947.344 4  89353130.017 4     -1092.961          27.000  
G25  22383040.898 6 117623688.108 6      2835.203          38.000    22383040.766 6  91654809.560 6      2209.247          38.000  
R10  23136080.070 5 123327919.49825     -2999.992          30.000                                                                  
R21  21056591.758 6 112677751.958 6      2292.785          38.000    21056586.219 4  87638205.139 4      1783.287          27.000  
R01  22527078.227 5 120419763.956 5     -4106.508          33.000    22527093.875 4  93659854.402 4     -3193.954          28.000  
R11  19781893.484 6 105708053.440 6      -739.207          38.000    19781896.453 5  82217390.792 5      -574.942          33.000  
E04  25097115.727 8 131886236.782 8     -2182.180          50.000    25097118.305 8 101055680.741 8     -1672.097          51.000  
E01  23794322.562 8 125039986.886 8      -695.500          51.000    23794323.352 8  95809930.340 8      -532.898          51.000  
C22  24906100.891 8 129692759.462 8     -2385.316          48.000  
C30  23132766.383 8 120458392.105 8      2055.887          51.000  
> 2020 05 14 07 46 30.0000000  0 14      -0.000000000000
G12  20433947.953 8 107381146.097 8      1359.625          51.000    20433946.633 8  83673608.365 8      1059.448          51.000  
G15  23519490.078 6 123595717.999 6     -3600.895          39.000    23519493.641 6  96308378.995 6     -2805.893          38.000  
G24  20171374.812 8 106001285.117 8      -351.102          51.000    20171376.539 8  82598413.124 8      -273.586          51.000  
G25  22366863.094 6 117538666.522 6      2831.738          39.000    22366862.242 6  91588559.016 6      2206.550          39.000  
R10  23152949.625 5 123417860.358 5     -2997.801          33.000                                                                  
R21  21043782.898 6 112609203.368 6      2275.309          39.000    21043781.508 5  87584889.776 5      1769.688          32.000  
R01  22550123.531 5 120542956.160 5     -4108.402          32.000    22550138.008 4  93755670.479 4     -3195.428          27.000  
R11  19786052.609 7 105730278.329 7      -744.113          42.000    19786056.586 5  82234676.826 5      -578.752          33.000  
R12  20756417.969 5 110876657.84225      2023.504          35.000    20756416.055 5  86237399.78725      1573.837          30.000  
E04  25109581.703 8 131951745.271 8     -2186.602          51.000    25109585.992 8 101105875.542 8     -1675.470          51.000  
E01  23798288.258 8 125060826.096 8      -695.395          51.000    23798289.211 8  95825898.045 8      -532.853          51.000  
C22  24919849.664 8 129764352.422 8     -2389.184          48.000  
C27  23896202.242 4 124433783.077 4      -855.492          28.000  
C30  23120940.320 8 120396810.006 8      2047.938          51.000  
> 2020 05 14 07 47  0.0000000  0 12      -0.000000000000
G12  20426238.086 8 107340629.417 8      1343.277          51.000    20426236.797 8  83642036.924 8      1046.713          51.000  
G15  23540069.602 6 123703868.427 6     -3607.621          39.000    23540074.094 6  96392651.963 6     -2811.137          40.000  
G24  20173430.133 8 106012084.938 8      -367.133          51.000    20173431.719 8  82606828.562 8      -286.078          51.000  
G25  22350735.312 6 117453910.919 6      2820.652          37.000    22350735.234 6  91522515.726 6      2197.915          37.000  
R21  21031103.336 5 112541356.152 5      2249.473          32.000    21031101.070 5  87532119.687 5      1749.584          32.000  
R01  22573209.977 5 120666370.560 5     -4117.801          30.000    22573224.672 4  93851659.402 4     -3202.738          26.000  
R11  19790270.320 6 105752818.110 6      -756.668          40.000    19790274.070 5  82252207.725 5      -588.523          32.000  
E04  25122105.695 8 132017556.364 8     -2198.941          51.000    25122110.648 8 101156302.224 8     -1684.916          51.000  
E01  23802285.680 8 125081832.766 8      -703.180          51.000    23802286.969 8  95841994.061 8      -538.818          51.000  
C22  24933651.234 7 129836222.062 7     -2400.363          47.000  
C27  23901199.945 5 124459762.806 5      -874.590          30.000  
C30  23109191.469 8 120335632.875 8      2032.273          48.000  
> 2020 05 14 07 47 30.0000000  0 11      -0.000000000000
G12  20418641.359 8 107300707.200 8      1327.957          51.000    20418640.016 8  83610928.723 8      1034.772          51.000  
G15  23560706.922 6 123812322.663 6     -3613.516          38.000    23560711.789 6  96477161.725 6     -2815.733          38.000  
G24  20175597.078 8 106023471.517 8      -382.160          51.000    20175598.594 8  82615701.213 8      -297.787          51.000  
G17  23743326.219 5 124772021.22625     -2658.723          31.000                                                                  
R01  22596368.875 4 120790158.970 4     -4126.441          28.000                                                                  
R11  19794578.820 7 105775842.262 7      -768.191          42.000    19794580.945 5  82270115.354 5      -597.485          34.000  
E04  25134719.023 8 132083835.491 8     -2209.887          51.000    25134723.797 8 101207087.519 8     -1693.312          51.000  
E01  23806346.508 8 125103173.422 8      -709.648          51.000    23806348.109 8  95858345.986 8      -543.784          51.000  
C29  25851969.703 5 134617995.994 5      3469.539          35.000  
C22  24947537.359 8 129908531.442 8     -2410.406          48.000  
C30  23097551.195 7 120275028.118 7      2017.699          46.000  
> 2020 05 14 07 48  0.0000000  0 13      -0.000000000000
G12  20411057.578 8 107260854.153 8      1317.324          51.000    20411055.797 8  83579874.398 8      1026.487          51.000  
G15  23581301.797 6 123920552.525 6     -3613.832          37.000    23581307.758 5  96561496.648 5     -2815.971          35.000  
G24  20177775.891 8 106034920.708 8      -392.598          51.000    20177777.438 8  82624622.642 8      -305.920          51.000  
R02  20859476.906 5 111309689.646 5      -415.414          34.000    20859476.422 5  86574230.78425      -323.103          31.000  
R21  21006126.055 5 112407646.131 5      2205.789          32.000    21006133.594 5  87428178.972 5      1715.614          30.000  
R01  22619500.305 4 120913810.397 4     -4130.035          29.000                                                                  
R11  19798878.055 7 105798816.193 7      -775.156          42.000    19798878.852 5  82287983.948 5      -602.902          35.000  
E04  25147321.070 8 132150055.689 8     -2216.297          51.000    25147325.375 8 101257827.655 8     -1698.149          51.000  
E01  23810370.789 8 125124322.217 8      -711.648          51.000    23810372.555 8  95874550.893 8      -545.280          51.000  
C29  25831937.172 5 134513691.357 5      3473.199          31.000  
C22  24961407.422 8 129980757.492 8     -2415.996          48.000  
C27  23911474.844 5 124513278.925 5      -905.824          34.000  
C30  23085921.562 8 120214476.954 8      2007.684          48.000  
> 2020 05 14 07 48 30.0000000  0 12      -0.000000000000
G12  20403588.703 8 107221603.690 8      1290.715          51.000    20403586.328 8  83549289.616 8      1005.752          51.000  
G15  23601955.266 5 124029088.611 5     -3630.277          34.000    23601961.406 4  96646069.994 4     -2828.798          29.000  
G24  20180067.867 8 106046964.690 8      -418.992          51.000    20180069.320 8  82634007.539 8      -326.488          51.000  
G17  23773792.125 5 124932148.54425     -2691.176          35.000                                                                  
R02  20861894.664 5 111322620.694 5      -455.820          31.000    20861898.906 4  86584287.707 4      -354.539          29.000  
R21  20993843.648 5 112341906.047 5      2168.715          33.000    20993848.727 4  87377047.802 4      1686.779          28.000  
R11  19803269.484 7 105822281.777 7      -797.844          44.000    19803270.273 6  82306234.906 6      -620.545          36.000  
E04  25160012.680 8 132216748.471 8     -2238.441          51.000    25160016.555 8 101308929.920 8     -1715.164          51.000  
E01  23814460.008 8 125145811.830 8      -729.492          51.000    23814461.836 8  95891016.945 8      -558.905          51.000  
C22  24975362.359 7 130053426.054 7     -2437.133          47.000  
C27  23916771.406 4 124540766.807 4      -935.453          28.000  
C30  23074405.633 8 120154509.586 8      1981.656          51.000  
> 2020 05 14 07 49  0.0000000  0 16      -0.000000000000
G12  20396231.953 8 107182942.499 8      1284.969          51.000    20396229.797 8  83519164.033 8      1001.275          51.000  
G15  23622665.164 5 124137915.377 5     -3626.312          33.000                                                                  
G24  20182470.617 8 106059591.200 8      -424.590          51.000    20182472.070 8  82643846.356 8      -330.849          51.000  
G17  23789156.242 6 125012890.881 6     -2693.824          36.000                                                                  
G19  21871020.852 5 114932965.95825     -1522.688          31.000                                                                  
R02  20864498.953 5 111336537.805 5      -473.832          31.000    20864506.539 4  86595145.125 4      -368.542          26.000  
R21  20981723.555 6 112277045.416 6      2153.215          38.000    20981727.898 4  87326615.691 4      1674.723          26.000  
R01  22665973.359 4 121162230.37124     -4147.031          27.000                                                                  
R11  19807749.695 7 105846225.557 7      -799.688          43.000    19807750.578 6  82324857.821 6      -621.979          36.000  
R12  20700219.195 5 110576465.941 5      1982.434          33.000                                                                  
E04  25172790.555 8 132283899.146 8     -2239.855          50.000    25172794.320 8 101360383.019 8     -1716.281          51.000  
E01  23818611.586 8 125167628.644 8      -726.551          51.000    23818613.570 8  95907733.712 8      -556.726          51.000  
E31  24767882.781 5 130156108.627 5      1478.035          32.000                                                                  
C22  24989399.008 7 130126521.625 7     -2437.676          46.000  
C27  23922177.438 5 124569059.272 5      -943.398          33.000  
C30  23063000.352 8 120095114.875 8      1976.340          51.000  
> 2020 05 14 07 49 30.0000000  0 15      -0.000000000000
G12  20388930.766 8 107144574.929 8      1272.445          50.000    20388929.266 8  83489267.253 8       991.519          50.000  
G15  23643373.117 5 124246734.090 5     -3628.285          32.000    23643376.609 5  96815675.645 5     -2827.236          31.000  
G24  20184927.992 8 106072504.886 8      -436.715          51.000    20184929.438 8  82653908.946 8      -340.300          51.000  
G17  23804558.992 5 125093798.146 5     -2702.973          32.000    23804568.117 5  97475732.388 5     -2106.213          30.000  
G25  22270882.000 6 117034250.714 6      2776.262          38.000    22270883.039 6  91195520.997 6      2163.324          38.000  
R21  20969712.625 5 112212766.226 5      2131.520          35.000                                                                  
R11  19812263.031 7 105870346.334 7      -808.480          44.000    19812263.906 6  82343618.460 6      -628.815          36.000  
R12  20689094.453 5 110517095.866 5      1975.922          32.000    20689092.633 4  85957685.09524      1536.828          25.000  
E04  25185598.578 8 132351210.138 8     -2247.797          50.000    25185602.195 8 101411958.939 8     -1722.324          51.000  
E01  23822769.117 8 125189476.272 8      -730.168          51.000    23822771.367 8  95924474.090 8      -559.498          51.000  
E21  26907686.375 5 141400862.567 5     -2235.504          32.000    26907690.430 5 108346116.734 5     -1712.994          35.000  
C29  25771992.617 5 134201535.024 5      3470.539          32.000  
C22  25003460.961 7 130199748.486 7     -2444.457          46.000  
C27  23927657.367 6 124597586.057 6      -958.672          36.000  
C30  23051649.086 8 120036001.508 8      1964.199          51.000  
> 2020 05 14 07 50  0.0000000  0 15      -0.000000000000
G12  20381712.055 8 107106641.799 8      1257.758          50.000    20381710.727 8  83459708.958 8       980.071          50.000  
G15  23664105.523 5 124355683.102 5     -3632.879          32.000    23664110.539 5  96900571.048 5     -2830.812          32.000  
G24  20187466.727 8 106085846.297 8      -451.395          51.000    20187468.164 8  82664304.819 8      -351.736          51.000  
G17  23820025.383 5 125175074.557 5     -2713.621          35.000    23820032.195 5  97539057.654 5     -2114.510          33.000  
G25  22255064.484 6 116951126.024 6      2766.605          40.000    22255066.344 6  91130748.517 6      2155.794          39.000  
R21  20957836.344 5 112149215.221 5      2107.078          35.000    20957835.258 4  87227172.36524      1638.842          27.000  
R01  22712589.148 5 121411361.476 5     -4158.488          33.000    22712598.578 4  94431141.51924     -3234.380          26.000  
R11  19816836.125 7 105894787.161 7      -819.359          45.000    19816837.570 6  82362627.998 6      -637.283          37.000  
E04  25198464.203 8 132418820.688 8     -2258.168          51.000    25198466.500 8 101463764.390 8     -1730.318          51.000  
E01  23826959.188 8 125211495.114 8      -736.277          51.000    23826961.742 8  95941345.657 8      -564.179          51.000  
E21                                                                  26920459.273 6 108397541.934 6     -1714.204          36.000  
C29  25752007.305 5 134097465.169 5      3470.164          32.000  
C22  25017575.000 7 130273243.777 7     -2453.723          46.000  
C27  23933235.531 5 124626624.002 5      -976.480          31.000  
C30  23040378.727 8 119977310.921 8      1949.887          51.000  
> 2020 05 14 07 50 30.0000000  0 15      -0.000000000000
G12  20374572.266 8 107069123.283 8      1243.262          50.000    20374570.836 8  83430473.751 8       968.776          50.000  
G15  23684858.523 5 124464740.227 5     -3637.445          33.000    23684864.477 5  96985550.604 5     -2834.377          34.000  
G24  20190083.266 8 106099596.615 8      -465.566          51.000    20190084.508 8  82675019.327 8      -362.779          51.000  
G17  23835551.898 5 125256664.535 5     -2725.340          35.000    23835554.562 6  97602614.116 6     -2123.639          36.000  
G25  22239294.562 6 116868259.901 6      2757.492          39.000    22239298.000 6  91066177.584 6      2148.699          39.000  
R21  20946094.727 6 112086375.507 6      2082.414          37.000    20946095.188 5  87178297.005 5      1619.656          31.000  
R01  22735951.383 5 121536212.966 5     -4165.254          35.000    22735953.547 4  94528250.123 4     -3239.646          28.000  
R11  19821465.383 7 105919527.624 7      -830.199          44.000    19821468.469 6  82381870.570 6      -645.711          39.000  
E04  25211383.180 8 132486709.406 8     -2267.906          51.000    25211383.312 8 101515782.949 8     -1737.798          51.000  
E01  23831177.938 8 125233664.931 8      -741.941          51.000    23831180.781 8  95958332.904 8      -568.486          51.000  
E21                                                                  26933235.195 5 108448979.418 5     -1715.024          35.000  
E31  24742677.297 5 130023643.242 5      1463.973          33.000                                                                  
C22  25031736.773 7 130346985.407 7     -2462.617          47.000  
C27  23938904.797 5 124656152.687 5      -992.562          33.000  
C30  23029185.453 8 119919025.334 8      1935.598          51.000  
> 2020 05 14 07 51  0.0000000  0 15      -0.000000000000
G12  20367514.805 8 107032037.071 8      1229.926          51.000    20367513.570 8  83401575.416 8       958.384          51.000  
G15  23705635.703 5 124573920.458 5     -3640.660          35.000    23705641.594 6  97070626.099 6     -2836.879          36.000  
G24  20192780.898 8 106113773.233 8      -478.715          51.000    20192782.086 8  82686066.020 8      -373.025          51.000  
G17  23851141.039 6 125338583.730 6     -2735.562          36.000    23851144.773 6  97666447.214 6     -2131.608          36.000  
G25  22223577.805 6 116785670.737 6      2749.461          39.000    22223579.867 6  91001822.511 6      2142.438          39.000  
R02  20876366.844 5 111399929.581 5      -581.262          35.000                                                                  
R21  20934488.953 6 112024268.171 6      2059.133          38.000    20934491.844 5  87129991.403 5      1601.551          31.000  
R01  22759347.820 5 121661256.111 5     -4169.992          32.000    22759346.172 4  94625505.716 4     -3243.334          28.000  
R11  19826154.281 7 105944585.546 7      -839.738          43.000    19826158.742 6  82401360.059 6      -653.130          39.000  
E04  25224358.273 8 132554892.265 8     -2276.727          51.000    25224357.070 8 101568026.879 8     -1744.479          51.000  
E01  23835428.656 8 125256002.857 8      -746.496          51.000    23835431.672 8  95975448.966 8      -571.928          51.000  
E31  24734334.766 5 129979803.919 5      1459.770          32.000                                                                  
C22  25045948.781 8 130420988.368 8     -2470.230          48.000  
C27  23944670.625 5 124686188.380 5     -1008.598          32.000  
C30  23018074.031 8 119861164.034 8      1922.547          51.000  
> 2020 05 14 07 51 30.0000000  0 14      -0.000000000000
G12  20360534.641 8 106995356.175 8      1215.453          51.000    20360533.531 8  83372992.905 8       947.107          51.000  
G15  23726430.953 6 124683193.953 6     -3644.582          38.000    23726436.312 6  97155774.257 6     -2839.935          38.000  
G24  20195554.602 8 106128349.555 8      -493.090          51.000    20195555.977 8  82697424.175 8      -384.226          51.000  
G17  23866787.391 6 125420802.055 6     -2746.426          36.000    23866791.539 6  97730513.401 6     -2140.073          36.000  
G25  22207909.594 6 116703332.466 6      2739.844          38.000    22207908.648 6  90937662.893 6      2134.950          37.000  
R02  20879711.516 5 111417778.628 5      -609.141          32.000    20879713.562 4  86658286.435 4      -473.776          25.000  
R21  20923016.133 6 111962869.190 6      2034.355          40.000    20923013.242 4  87082247.49424      1582.271          28.000  
R01  22782773.234 5 121786458.665 5     -4177.090          32.000    22782768.680 4  94722885.328 4     -3248.854          27.000  
R11  19830898.141 7 105969933.210 7      -850.207          43.000    19830902.555 6  82421074.836 6      -661.275          41.000  
E04  25237383.852 8 132623340.559 8     -2286.555          51.000    25237382.984 8 101620474.236 8     -1752.057          51.000  
E01  23839706.125 8 125278481.451 8      -752.152          51.000    23839709.180 8  95992672.809 8      -576.352          51.000  
C29  25692058.789 5 133785292.800 5      3468.219          32.000  
C22  25060205.297 8 130495223.328 8     -2478.770          49.000  
C30  23007039.445 8 119803702.125 8      1908.230          51.000  
> 2020 05 14 07 52  0.0000000  0 13      -0.000000000000
G12  20353633.781 8 106959090.998 8      1202.441          51.000    20353632.156 8  83344734.315 8       936.968          51.000  
G15  23747245.734 6 124792569.110 6     -3647.496          36.000    23747250.438 5  97241001.544 5     -2842.209          35.000  
G24  20198406.531 8 106143336.546 8      -505.875          51.000    20198408.258 8  82709102.330 8      -394.191          51.000  
G17  23882492.617 6 125503328.287 6     -2755.328          37.000    23882495.438 6  97794819.521 6     -2147.010          38.000  
G25  22192291.062 5 116621256.409 5      2731.742          31.000    22192289.391 5  90873707.563 5      2128.634          30.000  
R21  20911677.977 7 111902192.305 7      2011.047          42.000    20911678.148 5  87035054.463 5      1564.151          32.000  
R11  19835698.094 7 105995580.881 7      -859.410          44.000    19835702.492 7  82441023.063 7      -668.430          42.000  
E04  25250461.430 8 132692063.329 8     -2294.816          50.000    25250461.984 8 101673131.920 8     -1758.406          51.000  
E01  23844012.438 8 125301110.858 8      -756.309          51.000    23844015.406 8  96010012.213 8      -579.533          51.000  
C29  25672077.688 5 133681242.882 5      3468.320          34.000  
C22  25074507.531 8 130569698.401 8     -2485.992          49.000  
C27  23956463.266 4 124747586.791 4     -1041.227          29.000  
C30  22996083.367 8 119746651.919 8      1895.352          51.000  
> 2020 05 14 07 52 30.0000000  0 15      -0.000000000000
G12  20346815.188 8 106923258.122 8      1186.125          51.000    20346813.156 8  83316812.598 8       924.254          51.000  
G15  23768082.211 5 124902059.396 5     -3652.777          35.000    23768085.977 5  97326318.614 5     -2846.324          34.000  
G24  20201339.766 8 106158750.523 8      -522.039          51.000    20201341.562 8  82721113.209 8      -406.784          51.000  
G17  23898259.422 6 125586176.171 6     -2768.203          36.000    23898260.078 6  97859376.282 6     -2157.042          36.000  
G25  22176722.891 4 116539459.914 4      2720.582          29.000    22176724.172 4  90809969.846 4      2119.929          28.000  
R02  20886859.203 5 111455877.39225      -663.812          34.000    20886856.656 4  86687909.63924      -516.299          28.000  
R21  20900478.258 7 111842257.455 7      1984.328          42.000    20900478.125 4  86988438.475 4      1543.361          28.000  
R11  19840556.984 7 106021545.475 7      -871.750          42.000    19840561.453 7  82461217.738 7      -678.028          43.000  
R12  20623308.055 5 110165602.368 5      1929.258          33.000    20623298.594 4  85684343.413 4      1500.531          26.000  
E04  25263593.945 8 132761075.239 8     -2306.371          50.000    25263595.781 8 101726011.146 8     -1767.259          51.000  
E01  23848350.539 8 125323906.979 8      -763.852          51.000    23848353.492 8  96027479.353 8      -585.292          51.000  
E21  26984375.562 5 141803848.123 5     -2242.469          33.000                                                                  
C29  25652099.891 5 133577218.347 5      3466.125          31.000  
C22  25088858.328 8 130644427.173 8     -2496.352          48.000  
C30  22985209.102 8 119690031.390 8      1879.055          49.000  
> 2020 05 14 07 53  0.0000000  0 14      -0.000000000000
G12  20340064.742 8 106887783.977 8      1174.914          51.000    20340062.875 8  83289170.399 8       915.518          51.000  
G24  20204340.328 8 106174518.282 8      -533.129          51.000    20204341.914 8  82733399.753 8      -415.428          51.000  
G17  23914073.086 5 125669269.510 5     -2775.781          33.000    23914071.852 5  97924124.297 5     -2162.950          33.000  
G25  22161194.828 6 116457869.702 6      2714.719          38.000    22161198.281 6  90746393.036 6      2115.363          37.000  
R02  20890643.602 5 111476089.695 5      -688.582          34.000    20890655.445 4  86703671.726 4      -535.570          27.000  
R21  20889403.414 6 111782992.854 6      1962.547          41.000    20889403.633 5  86942343.889 5      1526.435          33.000  
R11  19845461.156 7 106047751.450 7      -879.242          43.000    19845465.359 7  82481600.162 7      -683.852          43.000  
E04  25276767.297 8 132830301.004 8     -2312.605          51.000    25276769.586 8 101779054.235 8     -1771.985          51.000  
E01  23852706.312 8 125346795.742 8      -766.047          51.000    23852709.195 8  96045017.481 8      -586.962          51.000  
E21  26997160.039 5 141871025.766 5     -2240.453          35.000                                                                  
E31  24701215.898 5 129805766.200 5      1441.770          32.000    24701219.977 5  99461568.406 5      1104.530          31.000  
C29  25632111.102 4 133473130.03724      3468.492          28.000  
C22  25103243.609 8 130719334.278 8     -2501.375          49.000  
C30  22974403.789 8 119633769.363 8      1867.848          49.000  
> 2020 05 14 07 53 30.0000000  0 12      -0.000000000000
G12  20333427.062 8 106852903.153 8      1155.570          51.000    20333425.484 8  83261990.534 8       900.445          51.000  
G15  23809821.977 4 125121435.83224     -3662.020          28.000                                                                  
G24  20207452.961 8 106190874.626 8      -552.402          51.000    20207454.133 8  82746144.954 8      -430.444          51.000  
G25  22145752.945 6 116376721.511 6      2700.203          39.000    22145755.867 6  90683160.691 6      2104.055          39.000  
R02  20894619.188 5 111497282.683 5      -720.074          34.000    20894621.539 4  86720138.10124      -560.058          25.000  
R21  20878499.234 6 111724640.342 6      1932.734          40.000    20878500.625 5  86896958.740 5      1503.238          32.000  
R11  19850455.125 6 106074437.663 6      -895.039          38.000    19850459.148 7  82502356.014 7      -696.148          43.000  
E04  25290025.633 8 132899973.737 8     -2327.250          50.000    25290027.930 8 101832439.832 8     -1783.144          51.000  
E01  23857124.258 8 125370011.506 8      -776.664          51.000    23857126.945 8  96062806.167 8      -595.140          51.000  
E21  27009978.734 5 141938396.560 5     -2246.297          34.000                                                                  
C22  25117707.883 8 130794649.821 8     -2514.734          49.000  
C30  22963712.922 8 119578100.257 8      1848.465          50.000  
> 2020 05 14 07 54  0.0000000  0 13      -0.000000000000
G12  20326843.391 8 106818306.042 8      1139.016          51.000    20326841.922 8  83235031.746 8       887.545          51.000  
G24  20210618.734 8 106207510.442 8      -568.719          51.000    20210619.609 8  82759107.905 8      -443.158          51.000  
G25  22130336.711 6 116295706.400 6      2688.379          37.000    22130337.289 6  90620032.051 6      2094.841          38.000  
R02  20898716.305 5 111519138.668 5      -748.801          33.000    20898713.391 3  86737121.16923      -582.398          23.000  
R21  20867707.234 5 111666887.853 5      1905.641          34.000    20867706.820 5  86852040.085 5      1482.162          32.000  
R01  22900337.930 5 122415071.729 5     -4209.363          33.000                                                                  
R11  19855480.531 6 106101288.599 6      -907.332          41.000    19855483.938 7  82523240.090 7      -705.703          43.000  
E04  25303309.367 8 132969781.975 8     -2338.590          50.000    25303312.008 8 101885929.258 8     -1791.961          51.000  
E01  23861545.305 8 125393244.044 8      -784.113          51.000    23861547.758 8  96080607.702 8      -600.853          51.000  
E21  27022773.391 5 142005631.660 5     -2249.180          33.000                                                                  
C29  25592190.180 5 133265295.733 5      3459.305          33.000  
C22  25132191.562 8 130870064.365 8     -2524.836          51.000  
C30  22953077.750 8 119522718.867 8      1831.852          51.000  
> 2020 05 14 07 54 30.0000000  0 12      -0.000000000000
G12  20320330.664 8 106784081.543 8      1142.676          51.000    20320329.312 8  83208363.314 8       890.397          51.000  
G24  20213854.672 8 106224514.849 8      -564.875          51.000    20213855.445 8  82772358.086 8      -440.162          51.000  
G19  21973450.234 5 115471216.781 5     -1727.113          35.000    21973451.781 4  89977610.535 4     -1345.803          29.000  
G25  22114962.562 6 116214914.269 6      2697.605          37.000    22114960.117 6  90557077.139 6      2102.031          36.000  
R01  22923929.234 5 122541164.263 5     -4196.293          34.000                                                                  
R11  19860553.125 6 106128395.078 6      -899.500          40.000    19860556.469 7  82544322.876 7      -699.611          43.000  
E04  25316635.805 8 133039813.172 8     -2329.898          51.000    25316638.602 8 101939589.532 8     -1785.278          51.000  
E01  23865986.383 8 125416582.057 8      -771.547          51.000    23865988.617 8  96098490.056 8      -591.192          51.000  
C29  25572213.695 5 133161275.632 5      3475.734          35.000  
C22  25146710.586 8 130945663.670 8     -2514.992          50.000  
C27  23987667.438 5 124910017.162 5     -1113.082          31.000  
C30  22942515.227 8 119467715.243 8      1835.156          51.000  
> 2020 05 14 07 55  0.0000000  0 15      -0.000000000000
G12  20313916.156 8 106750373.110 8      1122.980          51.000    20313915.062 8  83182097.013 8       875.053          51.000  
G15  23872536.266 5 125451026.59925     -3661.352          30.000    23872527.305 4  97754007.59224     -2853.002          24.000  
G24  20217188.039 8 106242031.216 8      -584.406          51.000    20217188.680 8  82786007.196 8      -455.382          51.000  
G19  21983439.039 5 115523740.95625     -1752.223          34.000                                                                  
G25  22099658.422 6 116134489.343 6      2682.961          39.000    22099655.602 6  90494408.396 6      2090.620          39.000  
R21  20846537.930 6 111553631.055 6      1868.055          36.000    20846537.820 5  86763943.254 5      1452.929          30.000  
R01  22947564.273 5 122667498.463 5     -4206.965          35.000                                                                  
R11  19865700.797 7 106155902.550 7      -915.559          43.000    19865704.453 7  82565717.587 7      -712.101          44.000  
R22  23098838.875 6 123302780.552 6      4491.352          39.000    23098844.016 5  95902172.13425      3493.274          31.000  
E04  25330032.227 8 133110209.203 8     -2344.418          51.000    25330034.617 8 101993529.333 8     -1796.433          51.000  
E01  23870474.727 8 125440168.616 8      -782.254          51.000    23870476.859 8  96116562.855 8      -599.381          51.000  
C29  25552259.281 5 133057375.242 5      3469.414          32.000  
C22  25161291.609 8 131021587.448 8     -2528.172          49.000  
C27  23994190.203 5 124943994.798 5     -1133.988          34.000  
C30  22932052.812 8 119413233.363 8      1815.281          51.000  
> 2020 05 14 07 55 30.0000000  0 14      -0.000000000000
G12  20307554.039 8 106716939.954 8      1108.508          51.000    20307552.992 8  83156045.216 8       863.773          51.000  
G24  20220573.086 8 106259819.344 8      -598.793          51.000    20220573.484 8  82799868.057 8      -466.589          51.000  
G25  22084378.641 6 116054191.557 6      2672.547          37.000    22084377.078 6  90431838.744 6      2082.508          38.000  
R21  20836141.266 6 111498015.224 6      1842.355          38.000    20836146.234 5  86720686.742 5      1432.953          30.000  
R01  22971196.734 6 122793825.070 6     -4212.090          37.000                                                                  
R11  19870877.461 7 106183565.846 7      -926.121          45.000    19870881.672 7  82587233.470 7      -720.317          43.000  
R22  23073615.648 6 123168140.511 6      4487.121          40.000    23073621.758 5  95797451.628 5      3489.984          34.000  
R12  20559005.688 5 109822079.114 5      1890.035          34.000    20559001.391 4  85417196.426 4      1470.028          27.000  
E04  25343452.000 8 133180727.579 8     -2353.805          51.000    25343453.664 8 102047562.858 8     -1803.614          50.000  
E01  23874964.453 8 125463762.496 8      -787.879          51.000    23874966.602 8  96134641.255 8      -603.640          51.000  
C29  25532282.820 5 132953358.146 5      3467.930          31.000  
C22  25175888.258 7 131097594.606 7     -2536.246          47.000  
C27  24000779.484 4 124978357.61724     -1150.633          29.000  
C30  22921644.914 8 119359036.295 8      1800.473          51.000  
> 2020 05 14 07 56  0.0000000  0 13      -0.000000000000
G12  20301338.867 8 106684278.605 8      1094.812          51.000    20301337.547 8  83130594.788 8       853.098          51.000  
G24  20224104.406 8 106278376.350 8      -612.426          51.000    20224104.609 8  82814328.047 8      -477.218          51.000  
G17  24010243.703 5 126174680.809 5     -2831.379          31.000    24010240.250 5  98317913.389 5     -2206.273          31.000  
G25  22069217.641 5 115974518.235 5      2664.266          34.000    22069217.680 5  90369755.646 5      2076.049          33.000  
R21  20825957.258 6 111443508.680 6      1817.809          38.000    20825958.133 4  86678292.851 4      1413.851          28.000  
R01  22994921.055 6 122920644.741 6     -4216.453          36.000    22994920.992 4  95604946.69524     -3279.464          25.000  
R11  19876178.188 7 106211889.996 7      -936.039          46.000    19876182.008 7  82609263.340 7      -728.031          43.000  
R22  23048480.531 6 123033968.101 6      4483.695          38.000    23048486.406 6  95693095.366 6      3487.319          37.000  
E04  25356988.953 8 133251863.139 8     -2362.578          51.000    25356989.672 8 102102069.265 8     -1810.246          49.000  
E01  23879549.992 8 125487859.831 8      -792.770          51.000    23879552.156 8  96153105.421 8      -607.414          51.000  
C29  25512379.617 5 132849718.564 5      3467.586          33.000  
C22  25190594.008 7 131174174.588 7     -2543.492          45.000  
C30  22911386.492 8 119305617.761 8      1786.410          51.000  
> 2020 05 14 07 56 30.0000000  0 14      -0.000000000000
G12  20295157.070 8 106651792.797 8      1074.188          51.000    20295155.891 8  83105281.156 8       837.029          51.000  
G24  20227668.422 8 106297105.553 8      -632.988          51.000    20227668.656 8  82828922.217 8      -493.238          51.000  
G17  24026458.930 4 126259892.65624     -2846.922          28.000    24026457.617 4  98384320.89124     -2218.387          29.000  
G25  22054061.656 4 115894873.907 4      2648.855          29.000    22054063.859 5  90307695.202 5      2064.053          30.000  
R21  20815866.812 5 111389506.873 5      1785.582          30.000    20815868.461 5  86636291.608 5      1388.792          35.000  
R01  23018622.859 5 123047346.609 5     -4226.633          33.000    23018622.383 4  95703488.989 4     -3287.382          26.000  
R11  19881489.078 7 106240268.515 7      -952.754          46.000    19881492.344 7  82631335.535 7      -741.031          43.000  
R22  23023321.039 6 122899662.154 6      4473.340          38.000    23023326.398 6  95588635.195 6      3479.265          36.000  
R12  20537976.195 4 109709786.73124      1867.551          29.000                                                                  
E04  25370529.234 8 133323017.920 8     -2378.008          51.000    25370529.102 8 102156590.404 8     -1822.057          49.000  
E01  23884117.789 8 125511863.914 8      -804.348          51.000    23884119.961 8  96171498.150 8      -616.319          51.000  
C29  25492435.930 5 132745868.034 5      3459.680          34.000  
C22  25205294.992 7 131250734.066 7     -2557.414          44.000  
C30  22901164.508 8 119252388.733 8      1765.352          51.000  
> 2020 05 14 07 57  0.0000000  0 11      -0.000000000000
G12  20289056.820 8 106619735.035 8      1069.203          51.000    20289055.711 8  83080301.082 8       833.146          51.000  
G24  20231313.227 8 106316259.626 8      -637.883          51.000    20231313.547 8  82843847.463 8      -497.052          51.000  
R21  20805922.617 5 111336336.620 5      1769.695          35.000    20805920.617 5  86594923.389 5      1376.427          33.000  
R01  23042350.211 5 123174183.723 5     -4222.930          30.000    23042348.188 4  95802133.47224     -3284.508          25.000  
R11  19886857.961 8 106268957.917 8      -953.629          48.000    19886860.469 7  82653649.507 7      -741.712          42.000  
R22  22998186.312 6 122765483.595 6      4478.297          37.000    22998190.922 6  95484274.177 6      3483.121          36.000  
E04  25384120.617 8 133394442.954 8     -2377.668          51.000    25384120.562 8 102211318.629 8     -1821.785          50.000  
E01  23888715.805 8 125536027.117 8      -800.410          51.000    23888718.141 8  96190012.806 8      -613.272          51.000  
C29  25472499.953 5 132642059.135 5      3467.059          32.000  
C22  25220039.719 7 131327521.011 7     -2556.062          42.000  
C30  22891027.070 8 119199601.285 8      1759.754          51.000  
> 2020 05 14 07 57 30.0000000  0 14      -0.000000000000
G12  20283033.797 8 106588082.597 8      1048.090          51.000    20283032.273 8  83055636.830 8       816.691          51.000  
G24  20235034.438 8 106335815.925 8      -658.773          51.000    20235035.016 8  82859086.124 8      -513.330          51.000  
R02  20931602.945 5 111694631.625 5      -927.707          35.000    20931613.734 4  86873674.037 4      -721.550          26.000  
R11  19892280.742 8 106297935.126 8      -970.844          49.000    19892282.812 7  82676187.332 7      -755.101          42.000  
R22  22973072.500 6 122631413.891 6      4466.828          36.000    22973076.438 5  95379997.797 5      3474.203          33.000  
R12  20517039.352 5 109597956.11225      1854.922          32.000                                                                  
E04  25397758.727 8 133466113.757 8     -2393.141          51.000    25397759.664 8 102266235.176 8     -1833.688          51.000  
E01  23893339.789 8 125560326.231 8      -812.355          51.000    23893342.266 8  96208631.598 8      -622.401          51.000  
E21  27112503.328 6 142477153.365 6     -2246.738          36.000                                                                  
E13  26783349.969 6 140747450.243 6      -445.855          40.000    26783351.727 5 107845456.858 5      -341.782          35.000  
C29  25452568.234 5 132538271.380 5      3459.266          32.000  
C22  25234823.867 6 131404510.271 6     -2569.844          41.000  
C27  24028205.586 5 125121087.754 5     -1219.344          30.000  
C30  22880970.453 8 119147234.484 8      1738.328          51.000  
> 2020 05 14 07 58  0.0000000  0 15      -0.000000000000
G12  20277104.805 8 106556925.902 8      1031.383          51.000    20277103.156 8  83031358.878 8       803.675          51.000  
G24  20238849.609 8 106355865.889 8      -675.418          51.000    20238850.523 8  82874709.457 8      -526.300          51.000  
G17  24075451.656 5 126517351.81325     -2876.613          30.000    24075453.531 5  98584934.28525     -2241.518          31.000  
R21  20786455.961 6 111232116.826 6      1708.812          37.000    20786457.812 5  86513868.919 5      1329.077          33.000  
R11  19897774.695 8 106327291.807 8      -983.734          50.000    19897776.844 7  82699020.275 7      -765.127          42.000  
R22  22947996.547 6 122497549.449 6      4459.719          38.000    22947999.758 5  95275881.058 5      3468.674          32.000  
R12  20506661.891 5 109542489.924 5      1843.223          32.000                                                                  
E04  25411460.750 8 133538119.105 8     -2404.598          51.000    25411462.789 8 102321408.071 8     -1842.521          51.000  
E01  23898006.805 8 125584851.338 8      -820.145          51.000    23898009.312 8  96227423.547 8      -628.408          51.000  
E21  27125345.281 5 142544651.794 5     -2250.426          31.000    27125344.719 5 109222526.803 5     -1724.135          34.000  
E13  26785954.195 6 140761132.138 6      -463.914          38.000    26785955.008 5 107855940.361 5      -355.120          34.000  
C29  25432657.812 5 132434596.868 5      3454.418          33.000  
C22  25249663.805 6 131481789.028 6     -2579.633          40.000  
C27  24035295.711 4 125158087.063 4     -1238.602          27.000  
C30  22871012.352 8 119095379.644 8      1720.988          51.000  
> 2020 05 14 07 58 30.0000000  0 18      -0.000000000000
G12  20271251.734 8 106526168.864 8      1018.812          51.000    20271250.375 8  83007392.383 8       793.883          51.000  
G24  20242740.570 8 106376313.751 8      -688.016          51.000    20242741.859 8  82890642.851 8      -536.116          51.000  
G17  24091895.586 5 126603762.77125     -2884.293          32.000    24091895.172 5  98652265.16025     -2247.502          31.000  
G19  22056336.703 5 115906860.389 5     -1890.883          34.000    22056333.180 5  90316995.876 5     -1473.416          31.000  
G25  21993983.812 4 115579166.138 4      2612.891          28.000    21993988.234 4  90061683.647 4      2036.022          25.000  
R02  20942353.039 5 111752014.002 5      -981.441          35.000                                                                  
R21  20776941.367 5 111181208.869 5      1685.008          31.000    20776947.258 5  86474273.823 5      1310.568          35.000  
R11  19903321.266 8 106356930.559 8      -992.371          50.000    19903323.000 7  82722072.616 7      -771.847          42.000  
R22  22922941.000 6 122363797.094 6      4457.105          37.000    22922943.688 4  95171851.540 4      3466.641          28.000  
R12  20496314.461 5 109487252.30225      1837.891          32.000                                                                  
E04  25425207.969 8 133610361.410 8     -2411.676          51.000    25425210.727 8 102376762.535 8     -1847.917          51.000  
E01  23902698.547 8 125609506.158 8      -823.637          51.000    23902700.938 8  96246314.895 8      -631.099          51.000  
E21                                                                  27138189.398 5 109274234.747 5     -1723.309          35.000  
E13  26788638.086 5 140775237.775 5      -476.695          34.000    26788639.438 5 107866748.588 5      -365.601          35.000  
C29  25412751.219 5 132330942.660 5      3455.074          32.000  
C22  25264540.352 6 131559259.711 6     -2584.898          39.000  
C27  24042465.125 5 125195425.092 5     -1253.047          34.000  
C30  22861135.070 8 119043943.455 8      1707.809          51.000  
> 2020 05 14 07 59  0.0000000  0 17      -0.000000000000
G12  20265466.602 8 106495767.455 8      1005.625          51.000    20265465.398 8  82983702.996 8       783.604          51.000  
G24  20246698.891 8 106397115.311 8      -700.941          51.000    20246700.414 8  82906851.851 8      -546.188          51.000  
G17  24108380.531 5 126690384.215 5     -2892.684          35.000    24108378.875 5  98719762.265 5     -2254.040          35.000  
R02  20947937.016 5 111781807.992 5     -1007.051          35.000                                                                  
R21  20767553.117 5 111131016.789 5      1660.539          33.000    20767567.312 4  86435242.558 4      1291.525          28.000  
R01  23137493.438 5 123682770.918 5     -4245.367          31.000                                                                  
R11  19908912.133 8 106386806.653 8     -1001.559          50.000    19908913.477 7  82745309.554 7      -778.990          43.000  
R22  22897897.406 5 122230116.918 5      4453.230          35.000                                                                  
E04  25438991.648 8 133682795.210 8     -2419.504          51.000    25438994.727 8 102432263.727 8     -1853.841          51.000  
E01  23907406.500 8 125634246.557 8      -827.902          51.000    23907408.789 8  96265271.820 8      -634.373          51.000  
E21                                                                  27151022.859 5 109325907.464 5     -1722.938          35.000  
E31  24604558.414 6 129297858.434 6      1383.117          36.000    24604563.867 5  99072382.057 5      1059.807          32.000  
E13                                                                  26791397.250 6 107877847.684 6      -376.296          36.000  
C29  25392840.289 5 132227267.774 5      3454.492          32.000  
C22  25279444.648 6 131636876.421 6     -2591.242          38.000  
C27  24049722.906 6 125233208.952 6     -1268.273          36.000  
C30  22851329.953 8 118992884.180 8      1693.883          51.000  
> 2020 05 14 07 59 30.0000000  0 15      -0.000000000000
G12  20259772.359 8 106465844.829 8       991.066          50.000    20259771.484 8  82960386.690 8       772.260          50.000  
G24  20250748.055 8 106418394.217 8      -715.684          51.000    20250749.633 8  82923432.799 8      -557.676          51.000  
G17  24124929.148 6 126777341.455 6     -2902.695          36.000    24124926.758 6  98787521.087 6     -2261.841          37.000  
R21  20758340.000 5 111081642.905 5      1633.621          33.000                                                                  
R11  19914570.680 8 106417045.047 8     -1012.402          50.000    19914572.016 7  82768828.278 7      -787.424          44.000  
R22  22872890.219 5 122096638.874 5      4446.332          31.000    22872890.570 4  94964069.42524      3458.259          26.000  
E04  25452835.086 8 133755542.018 8     -2428.645          50.000    25452838.086 8 102488004.760 8     -1860.848          51.000  
E01  23912154.133 8 125659195.379 8      -833.551          51.000    23912156.273 8  96284388.442 8      -638.692          51.000  
E21                                                                  27163870.648 5 109377639.274 5     -1723.907          34.000  
E31  24596683.047 5 129256474.229 5      1377.270          35.000                                                                  
E13                                                                  26794250.852 6 107889331.835 6      -388.089          37.000  
C29  25372949.594 5 132123696.520 5      3452.059          34.000  
C22  25294401.594 6 131714758.745 6     -2599.293          39.000  
C27  24057081.211 5 125271528.759 5     -1284.246          32.000  
C30  22841620.305 8 118942325.514 8      1678.426          51.000  
