     3.02           OBSERVATION DATA    M (MIXED)           RINEX VERSION / TYPE
SAVERINEX           SC600               20200510 055930 LCL PGM / RUN BY / DATE
       G = GPS       R = GLONASS       C = COMPASS          COMMENT
       S = SBAS      J = QZSS          E = GALILEO          COMMENT
BEAN                                                        MARKER NAME
1                                                           MARKER NUMBER
GEODETIC                                                    MARKER TYPE
Unige DICCA         GTER                                    OBSERVER / AGENCY
SC60291900056       SC600               2.12(191226)        REC # / TYPE / VERS
                    HEMA45          NONE                    ANT # / TYPE
  4509407.8091   693652.4678  4442337.6214                  APPROX POSITION XYZ
        0.0000        0.0000        0.0000                  ANTENNA: DELTA H/E/N
G    8 C1C L1C D1C S1C C2Y L2Y D2Y S2Y                      SYS / # / OBS TYPES
R    8 C1C L1C D1C S1C C2P L2P D2P S2P                      SYS / # / OBS TYPES
C    8 C1I L1I D1I S1I C7I L7I D7I S7I                      SYS / # / OBS TYPES
E    8 C1C L1C D1C S1C C7Q L7Q D7Q S7Q                      SYS / # / OBS TYPES
DBHZ                                                        COMMENT
     30.000                                                 INTERVAL
  2020    05    10    03    00    0.0000000     GPS         TIME OF FIRST OBS
  2020    05    10    03    59   30.0000000     GPS         TIME OF LAST OBS
     0                                                      RCV CLOCK OFFS APPL
G L1C  0.00000                                              SYS / PHASE SHIFT
G L2Y  0.00000                                              SYS / PHASE SHIFT
R L1C  0.00000                                              SYS / PHASE SHIFT
R L2P  0.25000                                              SYS / PHASE SHIFT
C L1I  0.00000                                              SYS / PHASE SHIFT
C L7I  0.00000                                              SYS / PHASE SHIFT
E L1C  0.50000                                              SYS / PHASE SHIFT
E L7Q -0.25000                                              SYS / PHASE SHIFT
 13 R01  1 R02 -4 R03  5 R07  5 R08  6 R10 -5 R11  0 R12 -1 GLONASS SLOT / FRQ #
    R13 -2 R14 -7 R17  4 R22 -3 R23  3                      GLONASS SLOT / FRQ #
 C1C   71.950 C2C   71.950 C2P   71.950                     GLONASS COD/PHS/BIS
    18                                                      LEAP SECONDS
*** Above antenna height is from mark to ANTENNA BOTTOM.    COMMENT
    17     4        0.0000        ANT MEASURE TYPE/HEIGT    COMMENT
    0.0000    0.0000    0.0458    0.0405    0.0000          COMMENT
                    BASE STATION                            COMMENT
                                                            END OF HEADER
> 2020 05 10 03 00  0.0000000  0 14        .000000000000
G05  20562490.070 8 108056618.719 8       180.160          49.000    20562488.648 8  84199928.632 8       140.385          49.000
G07  21774605.406 8 114426317.902 8     -2030.102          48.000    21774603.867 8  89163334.591 8     -1581.894          48.000
G28  22582136.430 7 118670006.396 7      2912.695          44.000    22582134.367 6  92470131.683 6      2269.633          38.000
G30  20369281.359 8 107041317.721 8      -260.461          51.000    20369281.977 8  83408833.455 8      -202.957          51.000
R02  20245198.172 8 108032256.051 8     -2174.992          51.000    20245201.508 8  84025070.733 8     -1691.661          50.000
R12  20398732.781 6 108966432.723 6     -2631.711          41.000    20398738.508 4  84751636.591 4     -2046.886          25.000
R13  19477431.977 6 104008411.831 6      1692.926          40.000    19477434.969 7  80895410.532 7      1316.720          43.000
C05  39796310.844 6 207229833.220 6        -1.055          36.000    39796309.078 6 160243238.463 6         -.595          41.000
C14  21499316.094 8 111952584.601 8       194.430          48.000    21499314.273 8  86568846.516 8       150.436          51.000
C21  25754938.891 7 134112711.619 7     -3111.836          46.000
C24  22571452.250 8 117535500.550 8      1918.281          51.000
C26  21843362.203 8 113744155.985 8     -1093.820          51.000
E01  24164432.203 8 126984959.152 8      1091.855          51.000    24164433.984 8  97300188.263 8       836.626          51.000
E04  23444049.133 8 123199295.310 8       171.062          51.000    23444048.516 8  94399445.647 8       131.128          51.000
> 2020 05 10 03 00 30.0000000  0 15        .000000000000
G05  20561502.867 8 108051431.457 8       164.754          50.000    20561501.344 8  84195886.616 8       128.380          50.000
G07  21786206.586 7 114487281.948 7     -2035.289          47.000    21786204.602 7  89210839.047 7     -1585.936          47.000
G13  22027286.477 5 115754140.955 5      2412.645          34.000
G28  22565522.195 7 118582691.555 7      2907.301          46.000    22565519.797 6  92402094.126 6      2265.429          41.000
G30  20370797.438 8 107049284.057 8      -271.441          51.000    20370797.891 8  83415040.986 8      -211.513          51.000
R02  20257456.547 8 108097668.495 8     -2186.762          51.000    20257459.922 8  84075947.054 8     -1700.815          49.000
R12  20413551.023 7 109045587.744 7     -2646.246          42.000    20413563.945 4  84813201.696 4     -2058.188          27.000
R13  19467975.375 6 103957912.664 6      1673.062          39.000    19467978.102 7  80856133.412 7      1301.274          43.000
C05  39796302.734 6 207229791.414 6         2.898          36.000    39796301.039 6 160243206.174 6         2.220          41.000
C14  21498221.219 8 111946883.007 8       184.902          48.000    21498219.367 8  86564437.706 8       142.933          51.000
C21  25772865.680 7 134206057.873 7     -3112.059          44.000
C24  22560424.898 8 117478071.245 8      1909.512          51.000
C26  21849688.812 8 113777099.720 8     -1103.320          51.000
E01  24158225.461 8 126952342.481 8      1081.816          51.000    24158227.086 8  97275196.286 8       828.906          51.000
E04  23443079.984 8 123194203.614 8       167.551          51.000    23443079.680 8  94395544.217 8       128.401          51.000
> 2020 05 10 03 01  0.0000000  0 14        .000000000000
G05  20560649.734 8 108046947.840 8       135.113          51.000    20560648.125 8  84192392.888 8       105.283          50.000
G07  21797882.016 7 114548636.509 7     -2054.266          47.000    21797879.516 7  89258647.802 7     -1600.726          47.000
G28  22548985.023 7 118495781.692 7      2887.723          47.000    22548982.102 6  92334372.139 6      2250.170          41.000
G30  20372421.984 8 107057820.659 8      -296.621          51.000    20372422.773 8  83421692.902 8      -231.133          51.000
R02  20269826.844 8 108163678.298 8     -2212.910          51.000    20269829.875 8  84127288.014 8     -1721.152          49.000
R12  20428496.031 6 109125422.005 6     -2674.902          39.000
R13  19458677.641 6 103908261.951 6      1638.281          40.000    19458680.211 7  80817516.216 7      1274.219          43.000
C05  39796317.648 6 207229868.478 6        -6.902          36.000    39796316.062 6 160243266.545 6        -5.485          41.000
C14  21497226.469 7 111941704.049 7       161.359          47.000    21497224.984 8  86560432.993 8       124.773          51.000
C21  25790839.891 7 134299652.668 7     -3126.668          43.000
C24  22549493.617 8 117421144.486 8      1886.594          51.000
C26  21856116.602 8 113810570.689 8     -1127.062          51.000
E01  24152121.359 8 126920264.820 8      1057.648          51.000    24152122.516 8  97250617.298 8       810.445          51.000
E04  23442176.977 8 123189458.535 8       149.863          51.000    23442176.898 8  94391908.378 8       114.848          51.000
> 2020 05 10 03 01 30.0000000  0 15        .000000000000
G05  20559900.711 8 108043011.733 8       122.625          50.000    20559898.992 8  84189325.794 8        95.552          50.000
G07  21809601.578 7 114610223.026 7     -2056.125          46.000    21809598.773 7  89306637.279 7     -1602.175          46.000
G28  22532495.164 8 118409122.347 8      2884.961          48.000    22532491.578 7  92266845.375 7      2248.022          43.000
G30  20374124.945 8 107066769.441 8      -304.703          51.000    20374125.750 8  83428665.984 8      -237.431          51.000
R02  20282278.836 8 108230125.228 8     -2221.656          51.000    20282281.805 8  84178968.988 8     -1727.955          49.000
R12  20443537.984 6 109205772.256 6     -2686.273          40.000
R13  19449509.336 6 103859301.755 6      1621.023          40.000    19449511.672 7  80779436.049 7      1260.796          43.000
C05  39796325.742 6 207229910.625 6         -.281          36.000    39796324.164 6 160243299.125 6         -.260          41.000
C14  21496302.219 7 111936892.836 7       154.750          47.000    21496301.367 8  86556712.631 8       119.699          51.000
C21  25808830.977 6 134393339.094 6     -3123.914          41.000
C24  22538628.125 8 117364565.419 8      1880.637          51.000
C26  21862615.234 8 113844411.708 8     -1133.727          51.000
E01  24146090.180 8 126888569.577 8      1050.645          51.000    24146091.125 8  97226331.340 8       805.075          51.000
E04  23441310.297 8 123184903.548 8       149.207          51.000    23441310.461 8  94388418.201 8       114.298          51.000
E21  25694629.656 5 135026190.703 5     -1748.039          33.000
> 2020 05 10 03 02  0.0000000  0 15        .000000000000
G05  20559255.461 8 108039621.006 8       105.184          50.000    20559253.641 8  84186683.669 8        81.961          50.000
G07  21821364.562 7 114672037.433 7     -2062.980          46.000    21821361.945 7  89354804.330 7     -1607.517          46.000
G28  22516052.312 7 118322714.088 7      2877.258          47.000    22516049.195 7  92199514.252 7      2242.019          43.000
G30  20375905.641 8 107076127.060 8      -317.453          51.000    20375906.445 8  83435957.644 8      -247.366          51.000
R02  20294812.352 8 108297006.568 8     -2235.312          51.000    20294815.586 8  84230987.806 8     -1738.576          49.000
R12  20458675.180 6 109286632.227 6     -2702.590          37.000
R13  19440469.719 6 103811030.093 6      1598.781          40.000    19440471.992 7  80741891.415 7      1243.497          44.000
R14  22843758.383 5 121770087.064 5      4277.195          35.000
C05                                                                  39796324.867 7 160243302.129 7         1.281          42.000
C14  21495448.633 8 111932447.812 8       143.242          48.000    21495447.852 8  86553275.470 8       110.694          51.000
C21  25826838.562 7 134487113.757 7     -3126.055          42.000
C24  22527828.016 8 117308332.512 8      1869.895          51.000
C26  21869184.352 8 113878619.047 8     -1145.090          51.000
E01  24140131.266 8 126857254.898 8      1038.648          51.000    24140132.156 8  97202336.997 8       795.895          51.000
E04  23440479.516 8 123180536.906 8       143.551          51.000    23440479.898 8  94385072.342 8       110.032          51.000
> 2020 05 10 03 02 30.0000000  0 16        .000000000000
G05  20558715.914 8 108036786.023 8        82.586          50.000    20558714.250 8  84184474.585 8        64.353          50.000
G07  21833172.336 7 114734088.256 7     -2075.082          43.000    21833170.445 7  89403155.628 7     -1616.944          43.000
G28  22499658.844 7 118236569.372 7      2864.375          46.000    22499656.898 7  92132388.488 7      2231.981          45.000
G30  20377765.859 8 107085902.401 8      -335.410          51.000    20377766.742 8  83443574.798 8      -261.359          51.000
R02  20307429.289 8 108364331.513 8     -2254.207          51.000    20307431.922 8  84283351.648 8     -1753.272          48.000
R12  20473909.578 5 109368008.311 5     -2724.105          34.000    20473908.727 4  85063960.135 4     -2118.749          26.000
R13  19431561.258 6 103763458.843 6      1571.453          40.000    19431563.656 7  80704891.560 7      1222.244          44.000
R14  22819713.641 5 121641913.881 5      4267.105          34.000
C05                                                                  39796320.203 7 160243283.027 7        -1.084          42.000
C14  21494667.570 8 111928379.501 8       126.699          49.000    21494666.680 8  86550129.584 8        97.972          51.000
C21  25844865.586 7 134580985.165 7     -3133.102          43.000
C24  22517095.750 8 117252456.273 8      1854.039          48.000
C26  21875825.320 8 113913200.957 8     -1161.543          51.000
E01  24134246.625 8 126826331.028 8      1021.648          51.000    24134247.219 8  97178642.109 8       782.807          51.000
E04  23439686.453 8 123176368.991 8       133.047          51.000    23439687.109 8  94381878.758 8       101.912          51.000
E19  26414216.773 5 138807646.709 5     -2111.516          34.000
> 2020 05 10 03 03  0.0000000  0 16        .000000000000
G05  20558295.891 8 108034579.447 8        61.758          51.000    20558294.570 8  84182755.171 8        48.123          51.000
G07  21845038.453 7 114796446.077 7     -2084.945          43.000    21845037.102 7  89451746.164 7     -1624.633          43.000
G28  22483330.031 8 118150763.701 8      2853.055          48.000    22483328.977 7  92065526.907 7      2223.159          44.000
G30  20379719.180 8 107096166.935 8      -351.766          51.000    20379720.203 8  83451573.139 8      -274.103          51.000
R02  20320143.117 8 108432172.734 8     -2271.379          51.000    20320144.844 8  84336117.024 8     -1766.628          48.000
R12  20489252.398 6 109449970.166 6     -2743.246          38.000    20489256.117 4  85127708.326 4     -2133.636          26.000
R13  19422797.625 6 103716662.005 6      1545.406          41.000    19422799.984 7  80668494.025 7      1201.983          44.000
R14  22795719.289 5 121514004.944 5      4257.809          33.000
C05  39796325.438 6 207229909.269 6        -2.527          37.000    39796323.789 6 160243297.318 6        -2.114          41.000
C21  25862925.328 7 134675024.119 7     -3138.820          44.000
C24  22506446.156 8 117197009.368 8      1839.789          48.000
C26  21882551.578 8 113948227.803 8     -1176.312          51.000
E01  24128450.305 8 126795871.018 8      1006.285          51.000    24128450.359 8  97155302.629 8       771.050          51.000
E04  23438944.961 8 123172472.952 8       124.012          51.000    23438946.039 8  94378893.482 8        95.064          51.000
E19  26426283.148 5 138871059.102 5     -2118.148          34.000
E21  25724853.000 6 135184960.197 6     -1784.348          37.000
> 2020 05 10 03 03 30.0000000  0 16        .000000000000
G05  20557986.117 8 108032951.820 8        44.688          51.000    20557985.125 8  84181486.890 8        34.821          51.000
G07  21856953.023 7 114859058.557 7     -2091.398          43.000    21856951.734 7  89500535.126 7     -1629.658          43.000
G28  22467056.945 8 118065249.096 8      2845.559          48.000    22467056.508 7  91998892.141 7      2217.318          44.000
G30  20381755.742 8 107106869.233 8      -363.918          51.000    20381756.789 8  83459912.602 8      -283.572          51.000
R02  20332943.508 8 108500478.386 8     -2284.500          51.000    20332945.141 8  84389243.632 8     -1776.833          49.000
R12  20504696.250 6 109532463.167 6     -2758.504          39.000    20504700.680 4  85191869.468 4     -2145.506          29.000
R13  19414170.078 6 103670589.861 6      1523.668          41.000    19414172.070 7  80632660.139 7      1185.075          44.000
R14  22771763.492 5 121386311.754 5      4252.992          31.000    22771763.766 4  94411575.003 4      3307.886          27.000
C05  39796327.758 6 207229921.019 6         -.078          36.000    39796326.047 7 160243306.406 7         -.251          42.000
C21  25881007.336 7 134769179.415 7     -3140.449          44.000
C24  22495871.039 8 117141942.517 8      1829.301          51.000
C26  21889353.688 8 113983648.139 8     -1187.156          51.000
E01  24122732.703 8 126765824.811 8       994.637          51.000    24122732.750 8  97132280.229 8       762.103          51.000
E04  23438245.500 8 123168798.874 8       118.789          51.000    23438247.250 8  94376078.281 8        91.047          51.000
E19  26438376.641 6 138934615.723 6     -2121.328          37.000
E21  25735060.641 5 135238590.939 5     -1793.398          35.000
> 2020 05 10 03 04  0.0000000  0 16        .000000000000
G05  20557788.367 8 108031913.250 8        25.031          51.000    20557787.562 8  84180677.617 8        19.505          51.000
G07  21868917.766 7 114921933.830 7     -2100.059          44.000    21868916.195 7  89549528.845 7     -1636.409          44.000
G28  22450841.367 7 117980038.139 7      2835.551          47.000    22450842.055 7  91932493.998 7      2209.520          45.000
G30  20383877.328 8 107118017.965 8      -378.777          51.000    20383878.086 8  83468599.911 8      -295.151          51.000
R02  20345832.383 8 108569257.972 8     -2300.238          51.000    20345834.758 8  84442738.860 8     -1789.074          49.000
R12  20520239.266 5 109615493.066 5     -2776.484          34.000    20520246.188 4  85256448.434 4     -2159.479          29.000
R13  19405680.055 6 103625252.457 6      1499.289          41.000    19405682.219 7  80597397.730 7      1166.114          45.000
R14  22747849.898 5 121258847.588 5      4245.168          31.000    22747853.016 4  94312436.201 4      3301.797          29.000
C05  39796330.555 6 207229935.532 6          .043          37.000    39796328.812 6 160243317.624 6         -.233          41.000
C21  25899112.586 7 134863459.391 7     -3144.227          43.000
C24  22485372.141 8 117087266.076 8      1816.316          51.000
C26  21896232.898 8 114019470.069 8     -1200.445          51.000
E01  24117095.648 8 126736202.541 8       980.574          51.000    24117096.039 8  97109582.670 8       751.349          51.000
E04  23437590.250 8 123165357.033 8       111.105          51.000    23437592.547 8  94373441.019 8        85.094          51.000
E19  26450500.508 6 138998326.323 6     -2126.273          36.000
E21  25745330.328 5 135292624.363 5     -1804.199          32.000
> 2020 05 10 03 04 30.0000000  0 15        .000000000000
G05  20557701.297 8 108031455.867 8         4.344          51.000    20557700.539 8  84180321.209 8         3.385          51.000
G07  21880930.781 7 114985062.363 7     -2109.875          44.000    21880929.133 7  89598719.896 7     -1644.058          43.000
G28  22434682.953 8 117895125.696 8      2824.145          48.000    22434684.375 7  91866328.456 7      2200.632          43.000
G30  20386082.070 8 107129604.084 8      -394.793          51.000    20386082.969 8  83477628.060 8      -307.631          51.000
R02  20358808.414 8 108638502.497 8     -2317.184          51.000    20358811.391 8  84496595.714 8     -1802.254          49.000
R03  19467105.352 5 104208933.509 5      1344.902          35.000    19467111.508 5  81051417.743 5      1046.035          32.000
R12  20535881.148 6 109699048.147 6     -2795.117          37.000    20535877.055 4  85321418.551 4     -2173.980          24.000
R13  19397326.523 6 103580643.739 6      1473.383          41.000    19397328.461 7  80562702.070 7      1145.964          44.000
R14  22723978.641 5 121131607.178 5      4236.398          32.000    22723983.977 5  94213471.515 5      3294.983          31.000
C05  39796332.344 6 207229944.881 6        -1.098          36.000    39796330.523 7 160243324.868 7        -1.099          42.000
C21  25917239.031 6 134957855.067 6     -3149.582          40.000
C24  22474947.156 8 117032972.890 8      1802.156          51.000
C26  21903187.375 8 114055684.212 8     -1214.891          51.000
E01  24111538.008 8 126706996.698 8       965.340          51.000    24111538.539 8  97087204.168 8       739.676          51.000
E04  23436977.891 8 123162140.041 8       102.250          51.000    23436980.477 8  94370976.043 8        78.368          51.000
> 2020 05 10 03 05  0.0000000  0 15        .000000000000
G05  20557729.133 8 108031601.548 8       -14.180          51.000    20557728.422 8  84180434.722 8       -11.049          51.000
G07  21892995.859 7 115048464.335 7     -2117.176          43.000    21892994.234 7  89648123.996 7     -1649.747          43.000
G28  22418586.391 8 117810536.367 8      2815.117          49.000    22418587.766 6  91800414.715 6      2193.601          40.000
G30  20388374.039 8 107141648.631 8      -408.352          51.000    20388375.188 8  83487013.429 8      -318.196          51.000
R02  20371875.961 8 108708233.577 8     -2331.582          51.000    20371878.828 8  84550831.009 8     -1813.453          48.000
R03  19459606.867 5 104168810.363 5      1330.367          31.000    19459614.422 5  81020210.790 5      1034.727          32.000
R12  20551625.750 5 109783146.916 5     -2812.051          31.000    20551626.289 4  85386834.614 4     -2187.151          28.000
R13  19389113.586 6 103536786.482 6      1450.199          41.000    19389115.500 7  80528590.859 7      1127.933          45.000
R14  22700153.906 5 121004615.634 5      4229.648          31.000    22700162.758 5  94114700.336 5      3289.733          32.000
C05  39796337.289 6 207229970.859 6          .219          36.000    39796335.500 6 160243344.963 6         -.278          41.000
C21  25935391.656 6 135052386.962 6     -3152.492          40.000
C24  22464599.828 8 116979085.522 8      1790.207          51.000
C26  21910221.289 8 114092310.822 8     -1226.969          51.000
E01  24106063.547 8 126678229.664 8       952.379          51.000    24106064.641 8  97065161.897 8       729.748          51.000
E04  23436412.758 8 123159170.496 8        95.664          51.000    23436415.367 8  94368700.680 8        73.268          51.000
> 2020 05 10 03 05 30.0000000  0 14        .000000000000
G05  20557864.688 8 108032312.774 8       -33.504          51.000    20557863.812 8  84180988.916 8       -26.107          51.000
G07  21905105.266 6 115112099.225 6     -2125.293          41.000    21905103.781 6  89697709.614 6     -1656.072          41.000
G28  22402544.414 8 117726234.347 8      2804.961          48.000    22402544.742 6  91734724.925 6      2185.687          37.000
G30  20390745.617 8 107154111.681 8      -422.629          51.000    20390746.547 8  83496724.889 8      -329.321          51.000
R02  20385027.398 8 108778411.204 8     -2346.934          51.000    20385030.203 8  84605413.593 8     -1825.393          48.000
R03  19452201.016 5 104129157.401 5      1313.707          34.000    19452207.805 5  80989369.588 5      1021.772          32.000
R13  19381033.766 6 103493642.679 6      1425.918          41.000    19381036.391 7  80495034.600 7      1109.047          45.000
R14  22676369.570 5 120877836.903 5      4221.922          31.000    22676379.805 5  94016094.661 5      3283.717          33.000
C05  39796338.023 6 207229974.889 6          .121          36.000    39796336.258 6 160243348.060 6         -.097          41.000
C21  25953563.102 6 135147015.488 6     -3155.973          38.000
C24  22454322.422 8 116925566.245 8      1777.559          51.000
C26  21917326.781 8 114129309.978 8     -1239.785          51.000
E01  24100665.062 8 126649863.016 8       938.594          51.000    24100667.086 8  97043426.409 8       719.203          51.000
E04  23435887.492 8 123156410.130 8        88.305          51.000    23435889.930 8  94366585.584 8        67.662          51.000
> 2020 05 10 03 06  0.0000000  0 15        .000000000000
G05  20558104.664 8 108033572.992 8       -56.992          51.000    20558103.406 8  84181970.908 8       -44.409          51.000
G07  21917255.281 7 115175948.794 7     -2137.543          42.000    21917253.977 7  89747462.549 7     -1665.615          42.000
G28  22386554.242 7 117642205.583 7      2790.734          45.000    22386552.859 6  91669248.050 6      2174.601          39.000
G30  20393193.484 8 107166975.495 8      -441.285          51.000    20393194.344 8  83506748.638 8      -343.859          51.000
R02  20398259.078 8 108849017.659 8     -2366.602          51.000    20398261.773 8  84660329.707 8     -1840.690          48.000
R03  19444878.422 5 104089959.684 5      1293.191          33.000    19444884.844 5  80958882.489 5      1005.812          33.000
R12  20583396.445 6 109952743.024 6     -2849.793          37.000    20583398.711 4  85518834.618 4     -2216.509          28.000
R13  19373084.656 6 103451196.070 6      1397.035          41.000    19373087.422 7  80462020.565 7      1086.583          45.000
R14  22652623.234 5 120751256.744 5      4210.176          35.000    22652633.250 4  93917643.487 4      3274.581          29.000
C05  39796331.383 6 207229940.528 6        -4.316          36.000    39796329.625 6 160243321.466 6        -3.078          41.000
C21  25971749.461 6 135241722.960 6     -3163.855          37.000
C24  22444111.648 8 116872399.198 8      1760.566          51.000
C26  21924500.156 8 114166663.585 8     -1256.762          51.000
E01  24095339.820 8 126621880.499 8       920.535          51.000    24095342.367 8  97021985.242 8       705.348          51.000
E04  23435399.086 8 123153842.860 8        76.594          51.000    23435401.008 8  94364618.455 8        58.680          51.000
> 2020 05 10 03 06 30.0000000  0 14        .000000000000
G05  20558470.406 8 108035494.859 8       -72.688          51.000    20558468.953 8  84183468.462 8       -56.640          51.000
G07  21929467.352 7 115240124.121 7     -2142.207          44.000    21929465.984 7  89797469.265 7     -1669.252          43.000
G28  22370637.148 6 117558565.143 6      2783.977          40.000    22370635.836 6  91604073.711 6      2169.332          40.000
G30  20395738.859 8 107180351.675 8      -451.980          51.000    20395739.836 8  83517171.641 8      -352.193          51.000
R02  20411592.234 8 108920166.003 8     -2378.219          51.000    20411595.156 8  84715667.300 8     -1849.729          49.000
R03  19437663.273 5 104051334.668 5      1280.184          34.000    19437669.445 5  80928840.702 5       995.692          34.000
R13  19365287.570 6 103409561.540 6      1376.793          41.000    19365290.812 7  80429638.178 7      1070.839          45.000
R14  22628935.773 5 120624992.869 5      4204.949          31.000    22628944.758 4  93819438.248 4      3270.516          28.000
C05  39796338.742 6 207229979.196 6         -.039          36.000    39796337.094 7 160243351.404 7         -.372          42.000
C21  25989973.484 6 135336619.846 6     -3164.059          38.000
C24  22433990.180 8 116819696.650 8      1751.375          51.000
C26  21931763.023 8 114204481.771 8     -1265.879          51.000
E01  24090109.133 8 126594395.037 8       910.281          51.000    24090112.039 8  97000924.950 8       697.539          51.000
E04  23434968.984 8 123151581.889 8        72.688          51.000    23434970.305 8  94362886.028 8        55.675          51.000
> 2020 05 10 03 07  0.0000000  0 15        .000000000000
G05  20558936.977 8 108037946.605 8       -91.566          51.000    20558935.383 8  84185378.901 8       -71.350          51.000
G07  21941716.070 7 115304491.280 7     -2149.727          43.000    21941714.117 7  89847625.467 7     -1675.112          43.000
G28  22354768.820 6 117475183.715 6      2773.848          38.000    22354769.031 6  91539101.113 6      2161.437          36.000
G30  20398356.453 8 107194106.948 8      -465.777          51.000    20398357.281 8  83527890.044 8      -362.943          51.000
R02  20425001.672 8 108991721.652 8     -2392.977          51.000    20425004.570 8  84771321.711 8     -1861.201          49.000
R03  19430530.641 5 104013149.948 5      1264.520          35.000    19430534.266 5  80899141.471 5       983.515          33.000
R12  20615550.594 5 110124578.868 5     -2879.176          34.000    20615544.922 4  85652430.218 4     -2239.368          27.000
R13  19357617.938 7 103368605.922 7      1352.559          42.000    19357621.055 7  80397783.801 7      1051.987          44.000
R14  22605283.406 5 120498913.827 5      4198.660          33.000    22605290.656 4  93721376.848 4      3265.631          29.000
C05  39796334.977 6 207229959.064 6          .691          36.000    39796333.484 6 160243336.593 6          .435          41.000
C21  26008209.422 7 135431573.910 7     -3167.051          42.000
C24  22423933.445 8 116767328.351 8      1738.996          51.000
C26  21939089.289 8 114242632.044 8     -1278.094          51.000
E01  24084948.266 8 126567274.912 8       896.891          51.000    24084951.086 8  96980144.578 8       687.225          51.000
E04  23434572.148 8 123149495.648 8        65.598          51.000    23434572.906 8  94361287.478 8        50.221          51.000
> 2020 05 10 03 07 30.0000000  0 15        .000000000000
G05  20559516.969 8 108040993.931 8      -112.137          51.000    20559515.078 8  84187753.454 8       -87.379          51.000
G07  21954013.508 7 115369114.121 7     -2158.930          44.000    21954011.070 7  89897980.910 7     -1682.283          44.000
G28  22338965.117 7 117392129.671 7      2762.324          43.000    22338965.117 7  91474383.649 7      2152.460          42.000
G30  20401058.328 8 107208305.831 8      -481.266          51.000    20401059.195 8  83538954.116 8      -375.012          51.000
R02  20438499.992 8 109063750.483 8     -2409.496          51.000    20438502.766 8  84827344.146 8     -1874.053          49.000
R03  19423494.844 6 103975474.802 6      1246.520          39.000    19423494.945 5  80869838.584 5       969.515          33.000
R13  19350087.891 6 103328396.354 6      1327.109          41.000    19350090.883 7  80366509.688 7      1032.196          44.000
R14  22581678.742 5 120373079.191 5      4189.211          31.000    22581679.688 4  93623493.361 4      3258.275          28.000
C05  39796332.719 6 207229946.981 6         -.023          36.000    39796331.234 7 160243327.258 7         -.335          42.000
C21  26026469.586 7 135526648.918 7     -3171.766          44.000
C24  22413953.688 8 116715359.974 8      1724.961          51.000
C26  21946491.602 8 114281177.831 8     -1292.062          51.000
E01  24079869.547 8 126540586.001 8       881.828          51.000    24079872.242 8  96959694.629 8       675.680          51.000
E04  23434220.969 8 123147650.278 8        56.906          51.000    23434221.461 8  94359873.490 8        43.580          51.000
E19  26536150.555 5 139448411.977 5     -2161.227          32.000    26536150.117 5 106850077.817 5     -1656.190          35.000
> 2020 05 10 03 08  0.0000000  0 15        .000000000000
G05  20560207.594 8 108044623.341 8      -131.871          51.000    20560205.844 8  84190581.572 8      -102.757          51.000
G07  21966356.734 7 115433977.288 7     -2167.316          44.000    21966353.516 7  89948523.614 7     -1688.815          43.000
G28  22323221.594 7 117309391.575 7      2751.246          47.000    22323221.578 7  91409912.434 7      2143.828          47.000
G30  20403841.766 8 107222933.412 8      -496.066          51.000    20403842.734 8  83550352.243 8      -386.545          51.000
R02  20452084.195 8 109136237.359 8     -2425.172          51.000    20452086.641 8  84883722.823 8     -1886.245          49.000
R03  19416551.031 6 103938297.284 6      1229.559          39.000    19416550.938 6  80840922.763 6       956.323          36.000
R13  19342695.477 6 103288920.110 6      1302.328          41.000    19342698.109 7  80335805.961 7      1012.922          43.000
R14  22558123.195 5 120247498.107 5      4180.078          31.000    22558120.047 4  93525813.358 4      3251.178          25.000
C05  39796329.086 6 207229928.242 6         -.434          37.000    39796327.594 6 160243312.762 6         -.347          41.000
C21  26044750.070 7 135621830.032 7     -3175.781          45.000
C24  22404048.195 8 116663778.465 8      1711.656          51.000
C26  21953967.055 8 114320103.897 8     -1305.082          51.000
E01  24074870.453 8 126514314.798 8       867.473          51.000    24074873.031 8  96939564.770 8       664.717          51.000
E04  23433912.859 8 123146032.533 8        48.910          51.000    23433913.375 8  94358633.909 8        37.510          51.000
E19  26548496.320 5 139513285.672 5     -2165.922          32.000    26548494.211 5 106899784.882 5     -1660.309          31.000
> 2020 05 10 03 08 30.0000000  0 14        .000000000000
G05  20561007.539 8 108048827.911 8      -149.844          51.000    20561006.039 8  84193857.844 8      -116.761          51.000
G07  21978743.844 6 115499071.626 6     -2173.781          41.000    21978740.234 6  89999246.466 6     -1693.856          40.000
G28  22307537.250 8 117226964.884 8      2742.164          51.000    22307536.969 7  91345683.837 7      2136.751          47.000
G30  20406705.188 8 107237981.142 8      -508.691          51.000    20406706.062 8  83562077.743 8      -396.383          51.000
R02  20465752.750 8 109209174.024 8     -2438.848          51.000    20465755.367 8  84940451.342 8     -1896.882          50.000
R03  19409698.070 6 103901612.343 6      1214.621          41.000    19409699.250 6  80812390.029 6       944.705          37.000
R13  19335438.773 6 103250169.907 6      1279.637          40.000    19335440.719 7  80305666.931 7       995.270          42.000
R14  22534614.180 5 120122155.872 5      4173.828          35.000    22534609.117 4  93428335.077 4      3246.314          24.000
C05  39796322.922 6 207229896.427 6         1.078          36.000    39796321.250 6 160243287.370 6         1.003          41.000
C21  26063048.867 7 135717108.647 7     -3177.789          45.000
C24  22394215.734 8 116612577.149 8      1700.242          51.000
C26  21961513.453 8 114359401.324 8     -1316.168          51.000
E01  24069949.773 8 126488454.250 8       855.066          51.000    24069951.648 8  96919749.557 8       655.196          51.000
E04  23433646.719 8 123144635.561 8        42.785          51.000    23433647.398 8  94357563.500 8        32.742          51.000
> 2020 05 10 03 09  0.0000000  0 15        .000000000000
G05  20561921.422 8 108053630.644 8      -170.223          51.000    20561920.148 8  84197600.213 8      -132.641          51.000
G07  21991178.891 7 115564418.759 7     -2182.488          42.000    21991175.664 6  90050166.334 6     -1700.637          41.000
G13  21798591.359 5 114552363.633 5      2303.312          30.000
G28  22291917.156 8 117144875.731 8      2730.461          51.000    22291916.328 8  91281718.254 8      2127.632          48.000
G30  20409652.789 8 107253471.244 8      -523.918          51.000    20409653.656 8  83574147.959 8      -408.248          51.000
R02  20479509.414 8 109282583.511 8     -2455.012          51.000    20479512.469 8  84997547.612 8     -1909.451          49.000
R03  19402941.664 6 103865446.272 6      1196.781          40.000    19402943.703 6  80784260.846 6       930.830          37.000
R13  19328322.734 6 103212170.672 6      1253.691          39.000    19328324.273 7  80276111.958 7       975.096          42.000
R14  22511152.539 5 119997079.327 5      4164.695          35.000
C05  39796318.289 6 207229872.564 6          .539          36.000    39796316.609 6 160243268.940 6          .245          41.000
C21  26081369.945 7 135812506.679 7     -3182.086          45.000
C24  22384460.688 8 116561779.768 8      1686.336          51.000
C26  21969135.422 8 114399091.648 8     -1329.734          51.000
E01  24065111.641 8 126463027.949 8       840.043          51.000    24065112.594 8  96900267.069 8       643.678          51.000
E04  23433427.352 8 123143483.243 8        34.039          51.000    23433428.133 8  94356680.545 8        26.058          51.000
> 2020 05 10 03 09 30.0000000  0 16        .000000000000
G05  20562940.102 8 108058982.967 8      -188.867          51.000    20562938.648 8  84201770.869 8      -147.166          51.000
G07  22003652.359 6 115629967.967 6     -2189.969          40.000    22003649.289 6  90101243.587 6     -1706.472          41.000
G13  21785455.961 5 114483326.628 5      2296.988          33.000
G28  22276352.297 8 117063077.748 8      2720.367          51.000    22276350.969 7  91217979.561 7      2119.767          47.000
G30  20412675.070 8 107269353.449 8      -537.301          51.000    20412676.023 8  83586523.709 8      -418.676          51.000
R02  20493345.266 8 109356415.040 8     -2469.406          51.000    20493348.383 8  85054972.143 8     -1920.649          49.000
R03  19396274.289 7 103829751.271 7      1180.820          43.000    19396275.672 6  80756498.074 6       918.419          38.000
R12  20697591.328 5 110562816.444 5     -2961.766          30.000
R13  19321337.211 6 103174871.821 6      1230.410          38.000    19321339.508 7  80247101.775 7       956.986          43.000
R14  22487730.305 5 119872221.559 5      4156.516          35.000
C05  39796306.070 6 207229807.979 6         1.590          36.000    39796304.383 7 160243219.773 7         1.015          42.000
C21  26099703.648 7 135907974.195 7     -3184.551          45.000
C24  22374773.914 8 116511338.245 8      1674.066          51.000
C26  21976823.531 8 114439124.652 8     -1341.422          51.000
E01  24060346.430 8 126437987.050 8       826.891          51.000    24060347.117 8  96881079.909 8       633.630          51.000
E04  23433245.523 8 123142527.045 8        27.254          51.000    23433246.289 8  94355947.868 8        20.868          51.000
> 2020 05 10 03 10  0.0000000  0 14        .000000000000
G05  20564093.172 8 108065041.989 8      -205.316          51.000    20564091.664 8  84206492.189 8      -159.987          51.000
G07  22016193.719 6 115695874.695 6     -2194.223          39.000    22016190.562 6  90152599.441 6     -1709.784          39.000
G28  22260872.742 8 116981730.527 8      2712.523          51.000    22260871.031 7  91154592.125 7      2113.655          46.000
G30  20415801.664 8 107285783.836 8      -548.336          51.000    20415802.742 8  83599326.608 8      -427.275          51.000
R02  20507290.062 8 109430826.752 8     -2481.480          51.000    20507292.969 8  85112847.909 8     -1930.040          48.000
R03  19389724.602 7 103794689.691 7      1166.859          42.000    19389726.219 6  80729227.958 6       907.557          39.000
R12  20714289.406 6 110651948.175 6     -2974.480          36.000    20714292.344 4  86062690.349 4     -2313.485          27.000
R13  19314513.328 6 103138435.157 6      1209.062          37.000    19314515.539 7  80218762.118 7       940.379          42.000
C05  39796316.180 6 207229861.405 6         4.840          36.000    39796314.414 7 160243260.293 7         3.706          42.000
C21  26118079.984 7 136003665.699 7     -3185.004          44.000
C24  22365185.508 8 116461408.905 8      1664.195          51.000
C26  21984606.750 8 114479654.491 8     -1350.844          50.000
E01  24055684.484 8 126413489.029 8       816.012          51.000    24055685.109 8  96862308.736 8       625.265          51.000
E04  23433131.141 8 123141924.640 8        22.699          51.000    23433131.750 8  94355486.283 8        17.390          51.000
> 2020 05 10 03 10 30.0000000  0 14        .000000000000
G05  20565339.875 8 108071593.587 8      -228.016          51.000    20565338.617 8  84211597.314 8      -177.678          51.000
G07  22028761.883 5 115761924.646 5     -2205.039          35.000    22028759.016 5  90204065.402 5     -1718.209          35.000
G28  22245437.797 8 116900621.967 8      2698.172          48.000    22245435.836 7  91091390.688 7      2102.472          45.000
G30  20418991.508 8 107302546.442 8      -565.652          51.000    20418992.555 8  83612388.377 8      -440.768          51.000
R02  20521302.055 8 109505600.359 8     -2499.902          51.000    20521304.953 7  85171005.140 7     -1944.368          47.000
R03  19383252.586 7 103760045.146 7      1146.535          42.000    19383253.469 6  80702282.215 6       891.753          39.000
R12  20731059.086 6 110741580.579 6     -2993.562          36.000    20731050.195 5  86132322.401 5     -2328.323          33.000
R13  19307809.727 6 103102642.361 6      1181.203          37.000    19307812.859 7  80190923.301 7       918.717          43.000
C05  39796307.586 6 207229815.923 6         2.230          36.000    39796305.875 7 160243225.923 7         1.392          42.000
C21  26136457.820 7 136099367.227 7     -3191.508          42.000
C24  22355654.742 8 116411779.519 8      1647.867          51.000
C26  21992444.031 8 114520466.744 8     -1366.504          50.000
E01  24051085.078 8 126389319.353 8       798.797          51.000    24051085.148 8  96843789.153 8       612.050          50.000
E04  23433043.297 8 123141461.861 8        11.812          51.000    23433043.859 8  94355131.688 8         9.021          51.000
> 2020 05 10 03 11  0.0000000  0 14        .000000000000
G05  20566704.438 8 108078764.708 8      -247.098          51.000    20566703.180 8  84217185.191 8      -192.544          51.000
G07  22041381.055 6 115828239.160 6     -2212.797          37.000    22041378.961 6  90255739.093 6     -1724.254          38.000
G28  22230072.695 7 116819881.752 7      2687.520          47.000    22230070.578 7  91028476.276 7      2094.174          42.000
G30  20422268.523 8 107319767.355 8      -579.438          51.000    20422269.578 8  83625807.286 8      -451.510          51.000
R02  20535406.086 8 109580863.696 8     -2514.645          51.000    20535408.883 7  85229543.285 7     -1955.835          47.000
R03  19376882.516 7 103725949.516 7      1129.699          42.000    19376883.852 6  80675763.373 6       878.655          39.000
R12  20747923.711 6 110831619.118 6     -3008.785          36.000    20747916.953 5  86202370.030 5     -2340.169          33.000
R13  19301251.562 6 103067623.057 6      1157.086          39.000    19301255.531 7  80163686.092 7       899.956          44.000
C05  39796304.727 6 207229801.656 6         2.277          36.000    39796302.891 7 160243214.099 7         1.776          42.000
C21  26154860.750 6 136195203.520 6     -3194.242          40.000
C24  22346205.992 8 116362576.778 8      1635.137          51.000
C26  22000360.117 8 114561685.925 8     -1378.520          50.000
E01  24046572.438 8 126365605.534 8       785.125          51.000    24046571.719 8  96825618.848 8       601.580          51.000
E04  23433006.297 8 123141266.542 8         4.293          51.000    23433006.789 8  94354982.022 8         3.265          51.000
> 2020 05 10 03 11 30.0000000  0 13        .000000000000
G05  20568187.336 8 108086557.662 8      -268.930          51.000    20568186.148 8  84223257.622 8      -209.556          51.000
G07  22054051.344 6 115894821.493 6     -2222.531          39.000    22054050.086 6  90307621.397 6     -1731.846          38.000
G28  22214778.828 7 116739515.294 7      2673.699          46.000    22214775.852 6  90965853.150 6      2083.405          39.000
G30  20425633.086 8 107337448.050 8      -595.809          51.000    20425634.109 8  83639584.451 8      -464.266          51.000
R02  20549602.320 8 109656618.438 8     -2532.203          51.000    20549605.250 7  85288463.650 7     -1969.491          47.000
R03  19370615.656 6 103692408.006 6      1110.027          41.000    19370617.367 6  80649675.536 6       863.355          39.000
R13  19294839.164 6 103033381.040 6      1129.637          39.000    19294843.094 7  80137053.396 7       878.606          43.000
C05  39796307.891 6 207229818.074 6         -.340          37.000    39796306.062 6 160243226.798 6         -.133          41.000
C21  26173287.961 6 136291175.962 6     -3199.785          38.000
C24  22336839.836 8 116313803.824 8      1619.715          51.000
C26  22008353.992 8 114603312.979 8     -1393.137          49.000
E01  24042147.000 8 126342350.383 8       768.547          51.000    24042146.320 8  96807799.997 8       588.887          51.000
E04  23433020.719 8 123141341.824 8        -5.996          51.000    23433021.047 8  94355039.703 8        -4.606          51.000
> 2020 05 10 03 12  0.0000000  0 13        .000000000000
G05  20569774.914 8 108094900.988 8      -287.305          51.000    20569773.930 8  84229758.909 8      -223.874          51.000
G07  22066758.727 6 115961598.076 6     -2229.395          39.000    22066757.484 6  90359655.087 6     -1737.187          39.000
G28  22199542.508 7 116659453.433 7      2663.500          43.000    22199538.734 6  90903467.330 6      2075.461          38.000
G30  20429071.125 8 107355515.478 8      -608.852          51.000    20429072.148 8  83653662.966 8      -474.430          51.000
R02  20563877.242 8 109732790.799 8     -2546.055          51.000    20563880.398 8  85347708.817 8     -1980.262          48.000
R03  19364439.695 7 103659349.148 7      1093.863          43.000    19364441.305 6  80623963.083 6       850.783          40.000
R13  19288558.734 6 102999843.093 6      1106.191          40.000    19288562.906 7  80110968.361 7       860.371          44.000
C05  39796303.461 6 207229794.839 6         1.594          36.000    39796301.641 7 160243208.846 7         1.181          42.000
C21  26191728.477 6 136387212.143 6     -3202.504          39.000
C24  22327542.508 8 116265389.981 8      1607.809          51.000
C26  22016412.398 8 114645275.101 8     -1404.293          51.000
E01  24037795.320 8 126319482.208 8       755.809          51.000    24037795.188 8  96790277.667 8       579.108          51.000
E04  23433072.945 8 123141616.364 8       -12.465          51.000    23433073.117 8  94355250.061 8        -9.587          51.000
> 2020 05 10 03 12 30.0000000  0 15        .000000000000
G05  20571469.102 8 108103804.742 8      -306.699          51.000    20571468.086 8  84236696.898 8      -238.986          51.000
G07  22079505.000 6 116028577.480 6     -2236.598          36.000    22079503.414 6  90411846.815 6     -1742.800          37.000
G28  22184365.516 6 116579709.191 6      2652.289          41.000    22184363.578 6  90841328.910 6      2066.716          41.000
G30  20432584.555 8 107373978.855 8      -622.527          51.000    20432585.625 8  83668050.019 8      -485.086          51.000
R02  20578232.336 8 109809390.586 8     -2560.930          51.000    20578235.516 8  85407286.424 8     -1991.834          48.000
R03  19358356.820 7 103626786.286 7      1076.586          43.000    19358358.508 6  80598636.419 6       837.345          41.000
R13  19282412.594 6 102967020.427 6      1081.754          40.000    19282416.352 7  80085439.639 7       841.364          43.000
R14  22348293.383 5 119128984.330 5      4102.789          32.000    22348295.750 4  92655882.104 4      3191.058          26.000
C05  39796293.289 6 207229742.403 6         1.852          36.000    39796291.562 6 160243168.285 6         1.275          41.000
C21  26210185.641 6 136483321.138 6     -3205.277          41.000
C24  22318316.078 8 116217346.184 8      1594.859          51.000
C26  22024537.258 8 114687581.098 8     -1416.406          50.000
E01  24033519.453 8 126297011.743 8       741.977          51.000    24033519.578 8  96773060.044 8       568.501          51.000
E04  23433165.156 8 123142101.151 8       -20.094          51.000    23433165.148 8  94355621.517 8       -15.382          51.000
E21  25929264.875 6 136259208.840 6     -1982.844          36.000
> 2020 05 10 03 13  0.0000000  0 14        .000000000000
G05  20573267.648 8 108113256.909 8      -331.848          51.000    20573266.508 8  84244062.216 8      -258.580          51.000
G07  22092286.883 5 116095750.153 5     -2250.184          31.000    22092284.836 5  90464185.436 5     -1753.384          31.000
G28  22169248.734 7 116500272.129 7      2635.215          45.000    22169248.102 7  90779429.851 7      2053.414          44.000
G30  20436170.812 8 107392824.044 8      -642.109          51.000    20436171.836 8  83682734.576 8      -500.345          51.000
R02  20592664.445 8 109886403.173 8     -2581.766          51.000    20592667.875 8  85467185.080 8     -2008.040          48.000
R03  19352364.711 7 103594708.393 7      1053.270          45.000    19352366.172 6  80573686.937 6       819.210          41.000
R13  19276398.195 6 102934900.764 6      1051.305          40.000    19276400.922 7  80060457.683 7       817.681          43.000
R14  22325222.727 5 119005994.360 5      4087.934          35.000    22325230.391 5  92560222.757 5      3179.507          31.000
C05  39796275.203 6 207229647.732 6        -3.469          36.000    39796273.367 6 160243095.087 6        -2.984          41.000
C24  22309158.352 8 116169660.068 8      1575.980          51.000
C26  22032724.625 8 114730216.380 8     -1434.184          49.000
E01  24029316.609 8 126274926.150 8       722.145          51.000    24029317.055 8  96756137.315 8       553.370          51.000
E04  23433295.148 8 123142783.792 8       -33.590          51.000    23433294.891 8  94356144.586 8       -25.807          51.000
E21  25940603.977 5 136318808.973 5     -1998.418          35.000
> 2020 05 10 03 13 30.0000000  0 15        .000000000000
G05  20575174.992 8 108123279.419 8      -350.910          51.000    20575173.758 8  84251871.960 8      -273.436          51.000
G07  22105108.656 6 116163141.131 6     -2256.758          36.000    22105103.898 6  90516714.898 6     -1758.510          36.000
G09  24392876.453 5 128185430.616 5     -3047.980          31.000
G13  21681767.492 5 113938468.219 5      2239.180          33.000
G28  22154196.492 7 116421167.283 7      2623.945          47.000    22154196.055 7  90717789.691 7      2044.633          45.000
G30  20439833.695 8 107412072.243 8      -655.695          51.000    20439834.656 8  83697733.201 8      -510.931          51.000
R02  20607178.070 8 109963850.433 8     -2596.414          51.000    20607181.203 8  85527421.832 8     -2019.433          48.000
R03  19346467.445 7 103563140.357 7      1036.184          45.000    19346468.531 6  80549134.016 6       805.921          41.000
R13  19270519.625 6 102903506.171 6      1026.676          41.000    19270521.820 7  80036039.676 7       798.526          44.000
R14  22302202.086 5 118883267.320 5      4078.449          33.000    22302208.852 5  92464768.419 5      3172.127          32.000
C05                                                                  39796251.422 6 160243006.445 6        -2.407          41.000
C24  22300073.672 8 116122354.380 8      1563.238          51.000
C26  22040979.375 8 114773201.574 8     -1445.914          49.000
E01  24025191.398 8 126253248.023 8       708.367          51.000    24025192.383 8  96739526.810 8       542.784          51.000
E04  23433467.250 8 123143687.248 8       -41.211          51.000    23433466.844 8  94356836.848 8       -31.595          51.000
> 2020 05 10 03 14  0.0000000  0 16        .000000000000
G05  20577230.102 8 108134077.839 8      -365.766          51.000    20577228.844 8  84260286.302 8      -285.012          51.000
G07  22118008.875 6 116230931.399 6     -2259.297          37.000    22118003.703 6  90569538.465 6     -1760.491          37.000
G13  21668996.367 5 113871356.912 5      2236.641          33.000
G28  22139247.062 7 116342602.760 7      2617.016          47.000    22139246.492 7  90656570.590 7      2039.233          45.000
G30  20443612.219 8 107431927.968 8      -664.906          51.000    20443613.148 8  83713205.203 8      -518.109          51.000
R02  20621812.375 8 110041940.347 8     -2606.461          51.000    20621815.023 8  85588158.444 8     -2027.247          49.000
R03  19340705.312 7 103532294.326 7      1023.379          46.000    19340705.922 6  80525142.664 6       795.961          41.000
R12  20850934.180 5 111381944.386 5     -3101.973          31.000
R13  19264816.023 6 102873046.587 6      1006.887          39.000    19264817.703 7  80012348.878 7       783.134          43.000
R14  22279269.281 5 118761014.404 5      4074.465          33.000    22279273.344 5  92369682.858 5      3169.031          32.000
C05  39796266.289 6 207229601.230 6         1.723          36.000    39796264.703 6 160243059.901 6         1.151          41.000
C24  22291101.258 8 116075633.412 8      1554.664          51.000
C26  22049340.508 8 114816738.884 8     -1453.297          49.000
E01  24021183.008 8 126232183.224 8       698.996          51.000    24021184.570 8  96723386.239 8       535.591          51.000
E04  23433720.594 8 123145017.724 8       -44.465          51.000    23433720.125 8  94357856.314 8       -34.079          51.000
E31  26017266.227 7 136721652.197 7      2950.672          45.000    26017268.625 7 104760757.511 7      2260.946          45.000
> 2020 05 10 03 14 30.0000000  0 18        .000000000000
G05  20579360.781 8 108145273.746 8      -383.992          51.000    20579359.500 8  84269010.369 8      -299.215          51.000
G07  22130915.250 5 116298754.777 5     -2265.727          35.000    22130909.453 5  90622387.821 5     -1765.501          35.000
G09  24427670.688 5 128368291.986 5     -3048.941          34.000
G13  21656235.805 6 113804276.698 6      2231.480          36.000
G28  22124328.727 7 116264202.870 7      2606.336          47.000    22124327.789 7  90595479.781 7      2030.911          46.000
G30  20447434.016 8 107452011.641 8      -677.465          51.000    20447435.008 8  83728854.816 8      -527.892          51.000
R02  20636495.031 8 110120288.168 8     -2620.105          51.000    20636497.391 8  85649095.625 8     -2037.860          49.000
R03  19335006.125 7 103501786.926 7      1007.043          46.000    19335006.898 7  80501414.705 7       783.256          42.000
R12  20868386.234 6 111475141.813 6     -3116.613          37.000    20868358.305 4  86702823.480 4     -2424.036          27.000
R13  19259214.945 6 102843138.050 6       983.461          40.000    19259216.516 7  79989086.678 7       764.914          43.000
R14  22256353.070 5 118638855.226 5      4066.148          34.000    22256356.281 4  92274670.162 4      3162.563          29.000
C05  39796242.906 6 207229479.149 6         3.414          36.000    39796241.258 6 160242965.505 6         2.238          41.000
C24  22282169.391 8 116029122.793 8      1542.727          51.000
C26  22057734.852 8 114860451.750 8     -1464.152          48.000
E01  24017219.117 8 126211353.520 8       686.152          51.000    24017221.188 8  96707425.823 8       525.750          51.000
E04  23433983.195 8 123146397.450 8       -51.043          51.000    23433982.844 8  94358913.515 8       -39.081          51.000
E19  26711535.398 5 140370066.868 5     -2227.016          32.000
E31  26000425.047 7 136633145.925 7      2946.117          47.000    26000426.672 7 104692941.011 7      2257.492          47.000
> 2020 05 10 03 15  0.0000000  0 15        .000000000000
G05  20581616.164 8 108157125.380 8      -402.766          51.000    20581614.719 8  84278245.393 8      -313.843          51.000
G07  22143876.555 5 116366868.056 5     -2272.090          33.000    22143872.172 5  90675463.133 5     -1770.463          33.000
G28  22109491.164 7 116186228.649 7      2595.281          47.000    22109489.867 7  90534720.677 7      2022.300          46.000
G30  20451347.898 8 107472580.535 8      -690.488          51.000    20451349.188 8  83744882.535 8      -538.043          51.000
R02  20651274.914 8 110199154.162 8     -2634.266          51.000    20651277.195 8  85710435.821 8     -2048.873          49.000
R03  19329419.805 7 103471883.625 7       989.953          46.000    19329421.172 7  80478156.575 7       769.964          43.000
R12  20885934.562 6 111568894.274 6     -3130.391          37.000    20885907.641 4  86775712.871 4     -2434.754          25.000
R13  19253766.133 6 102814043.158 6       959.621          40.000    19253767.836 7  79966457.330 7       746.372          43.000
R14  22233502.086 5 118517054.640 5      4057.387          33.000
C05  39796231.898 6 207229422.004 6         4.098          36.000    39796230.281 6 160242921.295 6         3.008          41.000
C24  22273327.023 8 115983079.169 8      1530.203          51.000
C26  22066212.148 8 114904594.684 8     -1475.359          48.000
E01  24013349.367 8 126191017.560 8       672.965          51.000    24013351.430 8  96691843.721 8       515.592          51.000
E04  23434304.258 8 123148085.474 8       -58.098          51.000    23434304.188 8  94360206.945 8       -44.582          51.000
E31  25983630.062 8 136544884.836 8      2941.309          48.000    25983631.117 7 104625312.390 7      2253.580          47.000
> 2020 05 10 03 15 30.0000000  0 16        .000000000000
G05  20583975.039 8 108169520.954 8      -426.086          51.000    20583973.367 8  84287904.290 8      -332.015          51.000
G07  22156871.289 6 116435158.188 6     -2282.777          38.000    22156869.203 6  90728676.270 6     -1778.784          37.000
G28  22094713.688 8 116108571.385 8      2579.391          49.000    22094711.812 7  90474208.552 7      2009.918          45.000
G30  20455332.789 8 107493521.944 8      -708.258          51.000    20455334.406 8  83761200.504 8      -551.889          51.000
R02  20666130.492 8 110278425.052 8     -2653.047          51.000    20666132.289 8  85772090.953 8     -2063.481          48.000
R03  19323925.742 7 103442473.318 7       968.172          47.000    19323927.148 7  80455281.878 7       753.023          43.000
R12  20903562.305 5 111663046.732 5     -3148.680          35.000
R13  19248448.688 6 102785648.721 6       930.914          41.000    19248450.117 7  79944372.777 7       724.044          42.000
R14  22210696.594 5 118395502.492 5      4044.152          33.000    22210703.680 4  92085425.163 4      3145.449          28.000
C05  39796212.164 6 207229319.193 6          .434          36.000    39796210.570 6 160242841.799 6          .142          41.000
C24  22264553.273 8 115937392.449 8      1513.113          51.000
C26  22074750.617 7 114949055.557 7     -1491.180          47.000
E01  24009552.492 8 126171063.992 8       654.879          51.000    24009554.383 8  96676554.622 8       501.778          51.000
E04  23434662.727 8 123149970.828 8       -70.066          51.000    23434662.992 8  94361651.573 8       -53.624          51.000
E21  25998194.617 5 136621434.686 5     -2044.512          33.000
E31  25966860.469 8 136456758.933 8      2931.395          48.000    25966860.914 8 104557787.345 8      2246.205          48.000
> 2020 05 10 03 16  0.0000000  0 16        .000000000000
G05  20586483.055 8 108182701.084 8      -445.176          51.000    20586481.555 8  84298174.516 8      -346.890          51.000
G07  22169945.422 6 116503864.159 6     -2289.945          41.000    22169944.664 5  90782213.360 5     -1784.373          34.000
G28  22080042.750 8 116031473.813 8      2567.848          51.000    22080040.555 7  90414132.559 7      2000.920          46.000
G30  20459434.055 8 107515075.015 8      -721.277          51.000    20459435.906 8  83777995.099 8      -562.034          51.000
R02  20681107.141 8 110358343.255 8     -2667.219          51.000    20681108.867 8  85834249.528 8     -2074.507          48.000
R03  19318570.023 8 103413802.715 8       950.754          48.000    19318571.156 7  80432982.544 7       739.475          44.000
R12  20921315.383 5 111757862.158 5     -3162.844          35.000    20921287.953 4  86922706.122 4     -2459.990          27.000
R13  19243308.445 6 102758199.544 6       906.422          41.000    19243309.852 7  79923023.445 7       704.998          43.000
R14  22187985.250 5 118274445.728 5      4034.074          35.000    22187996.156 6  91991269.932 6      3137.613          36.000
C05  39796229.539 6 207229408.927 6          .953          36.000    39796227.836 6 160242911.163 6          .979          41.000
C24  22255894.055 8 115892301.375 8      1500.391          51.000
C26  22083394.977 7 114994070.970 7     -1502.449          46.000
E01  24005873.898 8 126151733.321 8       641.316          51.000    24005875.805 8  96661742.819 8       491.383          51.000
E04  23435104.633 8 123152294.472 8       -77.383          51.000    23435105.195 8  94363432.038 8       -59.341          51.000
E21  26009913.875 5 136683018.331 5     -2053.676          35.000
E31  25950162.297 8 136369010.125 8      2925.984          48.000    25950162.258 7 104490551.253 7      2242.042          47.000
> 2020 05 10 03 16 30.0000000  0 17        .000000000000
G05  20589071.477 8 108196303.368 8      -453.551          51.000    20589069.766 8  84308773.707 8      -353.413          51.000
G07  22183029.789 6 116572621.918 6     -2285.633          40.000    22183028.055 5  90835790.724 5     -1781.016          34.000
G09  24497494.406 5 128735191.086 5     -3054.117          33.000    24497507.109 5 100313196.284 5     -2379.832          32.000
G28  22065410.039 8 115954575.927 8      2566.742          51.000    22065407.688 7  90354212.153 7      2000.059          45.000
G30  20463582.555 8 107536876.046 8      -723.875          51.000    20463584.375 8  83794982.921 8      -564.058          51.000
R02  20696135.305 8 110438539.962 8     -2670.828          50.000    20696137.195 7  85896624.724 7     -2077.311          47.000
R03  19313283.703 8 103385505.138 8       943.980          48.000    19313284.969 7  80410973.310 7       734.210          45.000
R12  20939110.414 6 111852897.662 6     -3166.312          37.000    20939080.406 4  86996668.161 4     -2462.684          29.000
R13  19238276.047 6 102731327.346 6       892.941          41.000    19238277.656 7  79902122.861 7       694.510          44.000
R14  22165300.008 6 118153519.221 6      4035.676          37.000    22165309.688 6  91897215.987 6      3138.859          40.000
C05  39796214.789 6 207229333.010 6        11.914          36.000    39796213.055 7 160242851.695 7         9.424          42.000
C24  22247280.195 8 115847447.237 8      1498.012          51.000
C26  22092076.742 7 115039280.079 7     -1503.332          46.000
E01  24002244.930 8 126132663.193 8       638.180          51.000    24002246.750 8  96647130.663 8       489.016          51.000
E04  23435561.273 8 123154694.505 8       -74.387          51.000    23435561.898 8  94365271.033 8       -57.007          51.000
E21  26021658.781 5 136744729.978 5     -2052.047          35.000
E31  25933466.859 7 136281277.487 7      2931.078          47.000    25933466.766 7 104423327.562 7      2245.825          47.000
> 2020 05 10 03 17  0.0000000  0 16        .000000000000
G05  20591777.359 8 108210523.184 8      -470.121          50.000    20591775.641 8  84319854.087 8      -366.328          50.000
G07  22196184.758 6 116641721.516 6     -2289.930          37.000    22196155.117 6  90889546.686 6     -1784.361          37.000
G28  22050853.055 8 115878076.287 8      2557.426          51.000    22050850.859 7  90294602.042 7      1992.799          45.000
G30  20467815.383 8 107559119.551 8      -734.758          51.000    20467817.211 8  83812315.509 8      -572.539          51.000
R02  20711252.367 8 110519212.392 8     -2682.766          49.000    20711255.227 8  85959369.949 8     -2086.595          48.000
R03  19308105.125 8 103357781.848 8       928.805          49.000    19308105.930 7  80389410.760 7       722.404          45.000
R12  20956989.703 5 111948472.563 5     -3178.211          35.000    20956960.875 4  87070962.156 4     -2471.945          27.000
R13  19233388.992 6 102705231.167 6       871.523          40.000    19233391.023 7  79881825.838 7       677.852          44.000
R14  22142676.578 6 118032924.511 6      4028.617          38.000    22142684.727 6  91803420.067 6      3133.369          41.000
C05  39796205.250 6 207229283.322 6        14.891          36.000    39796203.539 6 160242813.259 6        11.832          41.000
C24  22238748.578 8 115803024.364 8      1487.547          51.000
C26  22100832.453 7 115084875.141 7     -1512.109          43.000
E01  23998703.000 8 126114049.421 8       626.875          51.000    23998704.516 8  96632868.174 8       480.333          51.000
E04  23436069.836 8 123157367.165 8       -79.566          51.000    23436070.359 8  94367318.922 8       -60.960          51.000
E21  26033464.750 5 136806761.702 5     -2058.973          35.000
E31  25916811.609 7 136193758.169 7      2927.715          46.000    25916811.898 7 104356267.322 7      2243.281          46.000
> 2020 05 10 03 17 30.0000000  0 15        .000000000000
G05  20594566.016 8 108225177.104 8      -505.996          50.000    20594564.195 8  84331272.714 8      -394.283          51.000
G28  22036336.781 7 115801794.007 7      2528.785          47.000    22036335.508 7  90235161.286 7      1970.482          45.000
G30  20472097.195 8 107581621.182 8      -764.695          51.000    20472099.211 8  83829849.253 8      -595.863          51.000
R02  20726424.359 8 110600173.555 8     -2714.090          51.000    20726427.516 8  86022339.771 8     -2110.956          48.000
R03  19302999.102 8 103330448.790 8       894.059          49.000    19303000.031 7  80368151.702 7       695.379          46.000
R12  20974917.789 6 112044270.847 6     -3208.254          38.000
R13  19228612.219 6 102679724.668 6       829.918          40.000    19228614.594 7  79861987.446 7       645.492          44.000
R14  22120080.500 6 117912478.926 6      4002.402          40.000    22120088.180 7  91709740.131 7      3112.980          42.000
C05  39796166.094 6 207229079.448 6         -.922          36.000    39796164.359 6 160242655.623 6         -.797          41.000
C24  22230265.305 8 115758851.861 8      1458.027          51.000
C26  22109627.117 7 115130673.126 7     -1540.117          44.000
E01  23995213.039 8 126095709.039 8       596.395          51.000    23995214.359 8  96618815.172 8       456.993          51.000
E04  23436595.562 8 123160129.961 8      -103.902          51.000    23436596.086 8  94369435.881 8       -79.610          51.000
E21  26045295.273 5 136868949.833 5     -2084.766          34.000
E31  25900162.031 7 136106270.647 7      2905.266          45.000    25900163.188 7 104289231.439 7      2226.155          46.000
> 2020 05 10 03 18  0.0000000  0 15        .000000000000
G05  20597501.547 8 108240602.273 8      -521.242          50.000    20597499.500 8  84343292.332 8      -406.163          51.000
G28  22021925.656 7 115726069.002 7      2520.672          46.000    22021925.680 7  90176154.765 7      1964.160          42.000
G30  20476492.070 8 107604716.960 8      -773.898          51.000    20476494.047 8  83847845.959 8      -603.038          51.000
R02  20741715.203 8 110681765.756 8     -2724.324          51.000    20741718.023 8  86085800.370 8     -2118.919          48.000
R03  19298030.773 8 103303851.629 8       880.137          50.000    19298031.875 7  80347465.023 7       684.551          46.000
R12  20992967.812 5 112140681.768 5     -3218.305          35.000
R13  19224010.359 6 102655150.690 6       809.605          40.000    19224012.852 7  79842874.351 7       629.693          44.000
R14  22097578.102 6 117792527.228 6      3996.004          40.000    22097584.531 7  91616444.370 7      3108.003          42.000
C05  39796161.523 6 207229055.550 6         3.715          36.000    39796159.852 7 160242637.139 7         2.734          42.000
C24  22221894.758 8 115715264.301 8      1448.945          51.000
C26  22118525.391 7 115177006.655 7     -1547.617          45.000
E01  23991839.320 8 126077979.337 8       586.672          51.000    23991840.430 8  96605230.109 8       449.534          51.000
E04  23437202.781 8 123163320.707 8      -107.648          51.000    23437203.273 8  94371880.740 8       -82.442          51.000
E21  26057213.781 5 136931582.879 5     -2090.316          34.000
E31  25883582.836 7 136019153.629 7      2903.566          45.000    25883585.602 8 104222479.456 8      2224.751          48.000
> 2020 05 10 03 18 30.0000000  0 14        .000000000000
G05  20600537.117 8 108256553.374 8      -540.262          51.000    20600535.008 8  84355721.765 8      -420.983          51.000
G28  22007574.430 7 115650658.569 7      2508.500          45.000    22007575.016 7  90117393.416 7      1954.678          43.000
G30  20480953.133 8 107628160.423 8      -787.066          51.000    20480955.062 8  83866113.596 8      -613.298          51.000
R02  20757077.266 8 110763737.726 8     -2738.492          51.000    20757079.836 8  86149556.326 8     -2129.938          48.000
R03  19293153.367 8 103277742.711 8       862.312          50.000    19293154.422 7  80327158.091 7       670.688          46.000
R13  19219536.133 6 102631260.306 6       785.082          39.000    19219539.180 7  79824292.953 7       610.619          44.000
R14  22075123.805 7 117672823.731 7      3985.906          42.000    22075128.031 7  91523341.675 7      3100.152          42.000
C05  39796144.773 6 207228968.603 6         4.094          37.000    39796143.164 7 160242569.896 7         3.232          42.000
C24  22213590.109 8 115672019.115 8      1435.945          51.000
C26  22127479.461 7 115223630.993 7     -1558.727          45.000
E01  23988535.203 8 126060615.222 8       572.879          51.000    23988535.758 8  96591925.153 8       438.965          51.000
E04  23437844.953 8 123166694.712 8      -115.371          51.000    23437845.305 8  94374466.027 8       -88.440          51.000
E21  26069174.859 5 136994441.848 5     -2098.898          35.000
E31  25867028.336 7 135932163.368 7      2897.734          46.000    25867032.906 8 104155824.580 8      2220.333          49.000
> 2020 05 10 03 19  0.0000000  0 15        .000000000000
G05  20603694.242 8 108273144.306 8      -561.164          50.000    20603692.336 8  84368649.773 8      -437.271          51.000
G07  22249085.188 5 116919731.383 5     -2331.387          34.000
G28  21993305.805 7 115575679.012 7      2494.551          47.000    21993305.516 7  90058967.817 7      1943.806          42.000
G30  20485501.844 8 107652064.229 8      -801.980          51.000    20485503.828 8  83884739.945 8      -624.920          51.000
R02  20772531.383 8 110846204.271 8     -2754.641          50.000    20772533.906 8  86213696.928 8     -2142.501          48.000
R03  19288388.969 8 103252239.893 8       842.430          49.000    19288390.219 7  80307322.576 7       655.223          47.000
R13  19215211.844 6 102608169.373 6       759.004          40.000    19215215.070 7  79806333.363 7       590.336          43.000
R14  22052739.016 7 117553486.878 7      3974.180          43.000    22052740.750 7  91430524.152 7      3091.032          42.000
C05  39796137.570 6 207228931.443 6         2.914          37.000    39796136.039 6 160242541.181 6         2.105          41.000
C24  22205373.445 8 115629229.603 8      1421.121          51.000
C26  22136510.172 7 115270657.391 7     -1571.711          43.000
E01  23985322.102 8 126043730.619 8       557.199          51.000    23985322.375 8  96578987.606 8       427.011          51.000
E04  23438543.820 8 123170366.442 8      -124.934          51.000    23438544.062 8  94377279.428 8       -95.719          51.000
E21  26081201.023 6 137057640.036 6     -2109.777          36.000    26081204.055 5 105018204.234 5     -1616.427          34.000
E31  25850520.594 7 135845415.267 7      2889.918          47.000    25850526.375 8 104089355.248 8      2214.422          50.000
> 2020 05 10 03 19 30.0000000  0 15        .000000000000
G05  20606952.797 8 108290269.468 8      -580.602          50.000    20606951.492 8  84381994.057 8      -452.417          50.000
G28  21979100.219 8 115501027.630 8      2482.039          50.000    21979098.906 7  90000797.926 7      1934.056          42.000
G30  20490118.070 8 107676322.286 8      -815.336          51.000    20490119.859 8  83903642.334 8      -635.327          51.000
R02  20788058.062 8 110929058.141 8     -2769.113          51.000    20788060.547 8  86278138.828 8     -2153.755          48.000
R03  19283718.594 8 103227239.195 8       824.145          51.000    19283720.016 7  80287877.577 7       641.001          47.000
R12  21047565.422 5 112432305.845 5     -3260.273          32.000
R13  19211017.555 6 102585771.345 6       734.082          40.000    19211020.852 7  79788912.695 7       570.953          44.000
R14  22030403.219 7 117434413.023 7      3963.820          44.000    22030403.219 7  91337911.168 7      3082.971          42.000
C05  39796120.055 6 207228840.278 6         2.996          37.000    39796118.492 6 160242470.659 6         2.441          41.000
C24  22197224.156 8 115586792.306 8      1407.836          51.000
C26  22145597.438 6 115317980.290 6     -1583.410          41.000
E01  23982180.273 8 126027220.765 8       543.207          51.000    23982180.750 8  96566337.212 8       416.233          51.000
E04  23439279.492 8 123174231.667 8      -132.910          51.000    23439279.766 8  94380241.106 8      -101.825          51.000
E21  26093271.891 6 137121068.016 6     -2119.152          36.000    26093273.953 5 105066804.812 5     -1623.533          34.000
E31  25834039.906 8 135758805.998 8      2883.816          49.000    25834045.945 8 104022992.300 8      2209.657          50.000
> 2020 05 10 03 20  0.0000000  0 14        .000000000000
G05  20610331.508 8 108308025.238 8      -601.605          51.000    20610330.414 8  84395829.727 8      -468.783          51.000
G28  21964976.320 8 115426804.624 8      2467.793          50.000    21964974.305 7  89942961.819 7      1922.956          42.000
G30  20494820.023 8 107701030.193 8      -830.301          51.000    20494821.359 8  83922895.262 8      -646.988          51.000
R02  20803675.352 8 111012396.048 8     -2785.156          50.000    20803678.039 8  86342957.241 8     -2166.233          49.000
R03  19279160.438 8 103202840.970 8       803.984          50.000    19279161.977 7  80268901.185 7       625.321          47.000
R13  19206971.055 6 102564163.996 6       708.055          40.000    19206974.547 7  79772107.029 7       550.709          43.000
R14  22008134.891 7 117315703.721 7      3951.723          45.000    22008133.648 6  91245581.713 6      3073.562          41.000
C05  39796110.680 6 207228791.017 6         1.430          36.000    39796109.031 6 160242432.566 6         1.323          41.000
C24  22189160.523 8 115544803.592 8      1392.965          51.000
C26  22154760.484 7 115365694.047 7     -1596.305          43.000
E01  23979128.109 8 126011182.599 8       527.461          51.000    23979128.766 8  96554048.222 8       404.167          51.000
E04  23440070.344 8 123178387.810 8      -142.617          51.000    23440070.867 8  94383425.675 8      -109.317          51.000
E21  26105405.141 5 137184828.840 5     -2129.492          34.000    26105406.188 5 105115654.397 5     -1631.779          34.000
E31  25817604.773 8 135672433.932 8      2875.793          51.000    25817610.289 8 103956811.107 8      2203.584          51.000
> 2020 05 10 03 20 30.0000000  0 15        .000000000000
G05  20613817.125 8 108326342.421 8      -620.176          51.000    20613816.039 8  84410102.879 8      -483.254          51.000
G09  24638017.148 4 129473653.611 4     -3090.074          28.000
G28  21950921.078 8 115352942.730 8      2455.719          50.000    21950919.016 7  89885407.100 7      1913.547          43.000
G30  20499594.148 8 107726117.212 8      -842.895          51.000    20499595.445 8  83942443.602 8      -656.798          51.000
R02  20819370.172 8 111096146.458 8     -2798.773          51.000    20819372.984 8  86408096.424 8     -2176.824          48.000
R03  19274702.344 8 103178976.681 8       786.273          51.000    19274703.781 7  80250340.061 7       611.546          47.000
R13  19203059.602 6 102543277.013 6       683.941          40.000    19203062.562 7  79755861.604 7       531.954          43.000
R14  21985921.070 7 117197290.957 7      3941.699          44.000    21985919.305 6  91153482.909 6      3065.766          39.000
C05  39796096.062 6 207228714.734 6         2.891          37.000    39796094.367 7 160242373.579 7         2.009          42.000
C24  22181170.062 8 115503194.997 8      1380.367          51.000
C26  22163985.094 7 115413728.152 7     -1606.660          42.000
E01  23976152.391 8 125995546.595 8       514.203          51.000    23976153.047 8  96542067.380 8       394.009          51.000
E04  23440903.297 8 123182765.914 8      -149.930          51.000    23440904.062 8  94386780.322 8      -114.872          51.000
E21  26117586.219 5 137248841.540 5     -2138.023          32.000    26117586.156 5 105164697.445 5     -1638.031          35.000
E31  25801201.812 8 135586231.021 8      2870.227          51.000    25801206.383 8 103890759.543 8      2199.315          50.000
> 2020 05 10 03 21  0.0000000  0 14        .000000000000
G05  20617416.320 8 108345256.435 8      -640.766          51.000    20617415.266 8  84424841.070 8      -499.298          51.000
G28  21936941.938 8 115279479.995 8      2441.719          49.000    21936939.711 7  89828163.392 7      1902.638          43.000
G30  20504446.836 8 107751617.843 8      -857.383          51.000    20504448.375 8  83962314.240 8      -668.091          51.000
R02  20835149.266 8 111180344.659 8     -2814.449          51.000    20835151.211 7  86473583.941 7     -2189.013          47.000
R03  19270351.328 8 103155684.687 8       766.367          51.000    19270352.398 7  80232224.072 7       596.063          47.000
R13  19199289.516 6 102523146.599 6       658.070          39.000    19199292.719 7  79740204.648 7       511.832          44.000
R14  21963769.453 7 117079213.977 7      3929.668          42.000    21963767.398 6  91061645.288 6      3056.411          37.000
C05  39796083.047 6 207228646.958 6         1.676          36.000    39796081.414 6 160242321.162 6         1.269          41.000
C24  22173259.445 8 115462002.337 8      1365.730          51.000
C26  22173277.273 6 115462116.457 6     -1619.430          41.000
E01  23973260.133 8 125980348.597 8       498.863          51.000    23973260.875 8  96530422.155 8       382.300          51.000
E04  23441785.438 8 123187402.343 8      -159.293          51.000    23441786.273 8  94390332.909 8      -122.044          51.000
E21                                                                  26129820.203 5 105213962.114 5     -1646.193          34.000
E31  25784838.031 8 135500234.587 8      2862.680          51.000    25784841.117 8 103824866.210 8      2193.479          49.000
> 2020 05 10 03 21 30.0000000  0 16        .000000000000
G05  20621134.609 8 108364796.217 8      -658.770          50.000    20621133.344 8  84440066.866 8      -513.327          50.000
G07  22316120.500 5 117272012.138 5     -2364.914          33.000
G28  21923044.953 8 115206448.260 8      2430.188          49.000    21923042.750 7  89771255.585 7      1893.653          45.000
G30  20509383.555 8 107777560.363 8      -869.219          51.000    20509385.000 8  83982529.184 8      -677.313          51.000
R02  20851017.492 8 111265018.803 8     -2827.387          51.000    20851019.008 7  86539441.604 7     -2199.079          47.000
R03  19266113.375 8 103132997.387 8       749.141          51.000    19266113.898 7  80214578.390 7       582.665          47.000
R12  21121433.586 5 112826884.326 5     -3314.043          35.000    21121437.727 4  87754253.333 4     -2577.595          29.000
R13  19195667.219 6 102503801.903 6       634.863          40.000    19195669.922 7  79725158.761 7       493.783          44.000
R14  21941685.773 6 116961505.605 6      3920.645          36.000    21941684.750 6  90970094.383 6      3049.390          37.000
C05  39796077.219 6 207228616.795 6         3.832          36.000    39796075.664 6 160242297.840 6         2.589          41.000
C24  22165434.008 8 115421255.158 8      1353.719          51.000
C26  22182642.961 6 115510886.418 6     -1629.215          39.000
E01  23970457.094 8 125965618.073 8       486.164          51.000    23970458.109 8  96519135.140 8       372.518          51.000
E04  23442722.539 8 123192327.122 8      -165.992          51.000    23442723.367 8  94394106.441 8      -127.222          51.000
E21                                                                  26142114.930 5 105263468.686 5     -1652.087          33.000
E31  25768519.109 8 135414475.606 8      2857.562          51.000    25768520.359 8 103759154.810 8      2189.606          49.000
> 2020 05 10 03 22  0.0000000  0 16        .000000000000
G05  20624966.766 8 108384934.709 8      -681.816          51.000    20624965.555 8  84455759.169 8      -531.289          51.000
G07  22329656.875 5 117343144.060 5     -2375.363          35.000
G28  21909225.422 8 115133823.254 8      2413.410          51.000    21909223.109 7  89714664.699 7      1880.579          45.000
G30  20514398.945 8 107803916.544 8      -886.023          50.000    20514400.211 8  84003066.454 8      -690.408          50.000
R02  20866969.719 8 111350140.559 8     -2845.473          51.000    20866970.938 7  86605647.354 7     -2213.148          47.000
R03  19261983.586 8 103110889.343 8       726.594          51.000    19261983.617 8  80197383.260 8       565.128          48.000
R12  21140099.625 5 112926584.794 5     -3330.582          35.000    21140107.578 4  87831798.002 4     -2590.456          26.000
R13  19192186.844 6 102485216.133 6       606.160          39.000    19192189.336 7  79710703.163 7       471.458          45.000
R14  21919661.203 5 116844141.562 5      3905.332          33.000    21919667.844 6  90878811.153 6      3037.474          39.000
C05  39796073.578 6 207228597.744 6         -.094          36.000    39796071.992 6 160242283.101 6         -.085          41.000
C24  22157689.602 8 115380927.252 8      1336.656          51.000
C26  22192077.164 7 115560009.817 7     -1644.125          42.000
E01  23967737.984 8 125951328.112 8       468.332          51.000    23967739.125 8  96508185.701 8       358.861          51.000
E04  23443709.562 8 123197513.953 8      -177.844          51.000    23443710.469 8  94398080.756 8      -136.213          51.000
E21                                                                  26154464.719 5 105313195.247 5     -1661.551          31.000
E31  25752240.125 8 135328928.663 8      2847.406          51.000    25752239.883 8 103693605.881 8      2181.776          49.000
> 2020 05 10 03 22 30.0000000  0 16        .000000000000
G05  20628867.859 8 108405434.846 8      -691.676          51.000    20628866.430 8  84471733.290 8      -538.968          51.000
G07  22343219.570 5 117414372.081 5     -2371.684          34.000
G28  21895438.797 8 115061371.095 8      2409.758          51.000    21895436.375 7  89658208.495 7      1877.733          47.000
G30  20519447.836 8 107830448.833 8      -889.578          51.000    20519449.180 8  84023740.981 8      -693.178          51.000
R02  20882960.336 8 111435469.327 8     -2850.086          51.000    20882961.656 7  86672014.108 7     -2216.737          46.000
R03  19257917.195 8 103089121.879 8       717.488          51.000    19257917.383 8  80180453.008 8       558.046          48.000
R12  21158794.484 5 113026449.766 5     -3333.410          33.000
R13  19188803.523 6 102467148.972 6       591.188          39.000    19188806.055 7  79696650.920 7       459.812          44.000
R14  21897659.102 6 116726884.765 6      3904.367          38.000    21897670.828 6  90787611.293 6      3036.727          39.000
C05  39796027.125 6 207228356.646 6         9.387          37.000    39796025.469 7 160242095.868 7         7.452          42.000
C24  22149980.883 8 115340784.853 8      1332.676          51.000
C26  22201533.930 7 115609250.881 7     -1645.820          42.000
E01  23965057.664 8 125937242.444 8       463.797          51.000    23965058.766 8  96497392.808 8       355.353          51.000
E04  23444701.531 8 123202727.104 8      -176.602          51.000    23444702.742 8  94402075.245 8      -135.279          51.000
E21                                                                  26166822.766 5 105362948.545 5     -1661.273          31.000
E31  25735956.430 8 135243358.934 8      2850.426          50.000    25735955.859 8 103628039.469 8      2184.072          51.000
> 2020 05 10 03 23  0.0000000  0 17        .000000000000
G05  20632911.180 8 108426682.863 8      -716.469          51.000    20632909.625 8  84488290.175 8      -558.287          51.000
G07  22356817.109 5 117485841.633 5     -2385.117          32.000    22356826.906 4  91547468.836 4     -1858.509          28.000
G28  21881759.086 8 114989480.998 8      2391.133          51.000    21881756.438 7  89602190.255 7      1863.220          47.000
G30  20524603.797 8 107857542.685 8      -908.195          51.000    20524604.992 8  84044853.074 8      -707.685          51.000
R02  20899062.742 8 111521396.095 8     -2869.840          51.000    20899064.711 8  86738846.027 8     -2232.098          48.000
R03  19253988.570 8 103068091.279 8       692.910          51.000    19253988.742 8  80164095.876 8       538.930          48.000
R12  21177592.398 4 113126868.438 4     -3352.629          29.000
R13  19185590.906 6 102449992.615 6       561.086          40.000    19185593.227 7  79683307.074 7       436.400          44.000
R14  21875755.102 6 116610130.384 6      3888.176          40.000    21875767.656 6  90696802.324 6      3024.134          40.000
C05  39796011.305 6 207228273.630 6         4.395          37.000    39796009.664 6 160242032.457 6         3.274          41.000
C24  22142380.945 8 115301211.408 8      1313.785          51.000
C26  22211085.633 6 115658991.058 6     -1662.633          38.000
E01  23962489.789 8 125923747.764 8       444.242          51.000    23962490.992 8  96487052.747 8       340.396          51.000
E04  23445772.133 8 123208353.844 8      -190.262          51.000    23445773.758 8  94406386.637 8      -145.752          51.000
E19  26931760.016 5 141527354.041 5     -2308.473          32.000
E21                                                                  26179262.102 5 105413039.577 5     -1671.997          31.000
E31  25719742.180 8 135158154.649 8      2838.312          51.000    25719742.352 8 103562753.049 8      2174.841          51.000
> 2020 05 10 03 23 30.0000000  0 15        .000000000000
G05  20637102.195 8 108448707.487 8      -736.273          51.000    20637100.867 8  84505452.199 8      -573.720          51.000
G28  21868192.180 8 114918183.969 8      2377.559          51.000    21868188.828 7  89546634.128 7      1852.643          47.000
G30  20529871.797 8 107885225.391 8      -921.727          51.000    20529872.672 8  84066424.017 8      -718.225          51.000
R02  20915282.062 8 111607948.235 8     -2884.340          50.000    20915285.180 8  86806164.364 8     -2243.375          50.000
R03  19250203.172 8 103047828.343 8       673.645          51.000    19250203.367 8  80148335.813 8       523.946          48.000
R12  21196499.977 5 113227895.255 5     -3365.180          30.000    21196499.273 4  88066141.491 4     -2617.362          25.000
R13  19182554.367 6 102433776.485 6       535.930          41.000    19182556.727 7  79670694.549 7       416.834          44.000
R14  21853952.633 6 116493910.179 6      3876.016          37.000    21853964.734 6  90606408.817 6      3014.679          40.000
C05  39796031.688 6 207228380.035 6         4.016          37.000    39796030.102 6 160242114.719 6         3.190          41.000
C24  22134896.219 8 115262235.603 8      1300.016          51.000
C26  22220738.117 6 115709256.897 6     -1673.277          40.000
E01  23960039.773 8 125910872.622 8       429.785          51.000    23960040.984 8  96477187.399 8       329.385          51.000
E04  23446927.078 8 123214423.343 8      -198.758          51.000    23446928.945 8  94411037.286 8      -152.292          51.000
E19  26944993.617 5 141596896.905 5     -2313.602          32.000
E31  25703603.438 8 135073345.840 8      2831.312          51.000    25703604.562 8 103497769.661 8      2169.423          51.000
> 2020 05 10 03 24  0.0000000  0 15        .000000000000
G05  20641357.547 8 108471069.913 8      -755.973          51.000    20641356.383 8  84522877.460 8      -589.070          51.000
G28  21854655.000 8 114847044.127 8      2363.805          51.000    21854650.672 7  89491200.480 7      1841.926          46.000
G30  20535168.117 8 107913057.621 8      -935.168          51.000    20535168.945 8  84088111.480 8      -728.702          51.000
R02  20931535.234 8 111694680.348 8     -2899.016          51.000    20931539.086 8  86873622.682 8     -2254.790          49.000
R03  19246478.492 8 103027889.033 8       654.254          51.000    19246478.852 8  80132827.465 8       508.864          48.000
R12  21215432.383 5 113329023.156 5     -3377.828          34.000    21215434.711 4  88144802.931 4     -2627.200          28.000
R13  19179610.188 6 102418054.278 6       511.141          40.000    19179612.617 7  79658466.180 7       397.554          44.000
R14  21832168.336 6 116377782.860 6      3864.465          36.000    21832178.578 6  90516087.526 6      3005.695          41.000
C05  39796004.992 6 207228240.817 6         3.973          36.000    39796003.352 7 160242007.067 7         2.969          42.000
C24  22127443.055 8 115223423.732 8      1286.133          51.000
C26  22230408.859 7 115759612.950 7     -1684.852          42.000
E01  23957624.109 8 125898178.953 8       415.227          51.000    23957625.164 8  96467461.097 8       318.182          51.000
E04  23448083.203 8 123220498.110 8      -207.402          51.000    23448085.133 8  94415691.968 8      -158.934          51.000
E19  26958210.859 5 141666349.932 5     -2318.305          34.000
E31  25687457.062 8 134988495.913 8      2824.184          51.000    25687458.898 8 103432754.783 8      2163.991          51.000
> 2020 05 10 03 24 30.0000000  0 15        .000000000000
G05  20645732.055 8 108494058.338 8      -776.727          51.000    20645731.094 8  84540790.517 8      -605.241          51.000
G28  21841202.477 8 114776352.571 8      2348.973          51.000    21841197.688 7  89436116.155 7      1830.368          45.000
G30  20540547.602 8 107941326.643 8      -949.625          51.000    20540548.594 8  84110139.285 8      -739.968          51.000
R02  20947877.266 8 111781883.378 8     -2914.539          51.000    20947880.594 8  86941447.306 8     -2266.861          48.000
R03  19242869.453 8 103008569.397 8       633.691          51.000    19242869.922 8  80117801.087 8       492.874          48.000
R12  21234442.539 4 113430570.412 4     -3392.387          29.000    21234446.641 4  88223784.220 4     -2638.520          27.000
R13  19176813.164 6 102403119.388 6       484.586          40.000    19176816.023 7  79646850.169 7       376.900          43.000
R14  21810457.578 6 116262043.829 6      3851.395          39.000    21810466.008 7  90426068.268 7      2995.529          42.000
C05  39795986.047 6 207228141.869 6         2.594          36.000    39795984.344 7 160241930.542 7         2.139          42.000
C24  22120075.938 8 115185061.947 8      1271.188          51.000
C26  22240151.242 7 115810343.377 7     -1697.520          43.000
E01  23955297.883 8 125885955.191 8       399.633          51.000    23955299.047 8  96458094.860 8       306.206          51.000
E04  23449295.352 8 123226867.241 8      -217.215          51.000    23449297.125 8  94420572.207 8      -166.410          51.000
E19  26971463.992 5 141735993.478 5     -2324.879          35.000
E31  25671357.992 8 134903894.897 8      2815.836          51.000    25671360.430 8 103367930.624 8      2157.645          51.000
> 2020 05 10 03 25  0.0000000  0 14        .000000000000
G05  20650238.781 8 108517741.341 8      -793.781          51.000    20650238.180 8  84559244.814 8      -618.531          51.000
G28  21827848.398 8 114706181.138 8      2337.590          49.000    21827844.555 7  89381437.113 7      1821.499          45.000
G30  20546023.070 8 107970100.492 8      -960.273          51.000    20546024.172 8  84132560.460 8      -748.265          51.000
R02  20964320.570 8 111869627.106 8     -2926.527          51.000    20964323.453 8  87009692.438 8     -2276.188          48.000
R03  19239389.773 8 102989942.154 8       616.777          51.000    19239390.344 8  80103313.235 8       479.716          48.000
R13  19174176.734 6 102389041.532 6       462.348          39.000    19174180.000 7  79635900.732 7       359.604          44.000
R14  21788833.711 6 116146766.147 6      3842.492          37.000    21788840.562 7  90336407.846 7      2988.605          43.000
C05  39795988.031 6 207228152.022 6         4.969          37.000    39795986.305 6 160241938.403 6         3.890          41.000
C24  22112808.625 8 115147219.319 8      1259.910          51.000
C26  22249978.367 7 115861515.099 7     -1705.746          42.000
E01  23953074.281 8 125874270.669 8       387.699          51.000    23953075.719 8  96449141.800 8       297.056          51.000
E04  23450576.719 8 123233600.671 8      -223.379          51.000    23450578.141 8  94425731.601 8      -171.143          51.000
E19  26984764.016 5 141805890.735 5     -2326.781          34.000
E31  25655319.531 8 134819613.650 8      2811.203          50.000    25655322.461 8 103303351.489 8      2154.045          51.000
> 2020 05 10 03 25 30.0000000  0 14        .000000000000
G05  20654829.266 8 108541865.276 8      -816.141          51.000    20654829.016 8  84578042.682 8      -635.954          51.000
G28  21814545.523 8 114636279.244 8      2321.059          50.000    21814542.945 7  89326968.106 7      1808.617          45.000
G30  20551546.156 8 107999124.931 8      -976.211          51.000    20551547.125 8  84155176.902 8      -760.684          51.000
R02  20980816.305 8 111957652.913 8     -2943.461          51.000    20980819.445 8  87078156.897 8     -2289.362          48.000
R03  19235991.375 8 102971751.155 8       594.473          51.000    19235992.070 8  80089164.683 8       462.368          48.000
R13  19171652.719 6 102375563.894 6       434.766          39.000    19171656.398 7  79625418.144 7       338.151          44.000
R14  21767246.172 5 116031696.162 5      3827.609          35.000    21767254.523 7  90246908.845 7      2977.026          42.000
C05  39795962.789 6 207228020.566 6         2.758          37.000    39795961.102 6 160241836.761 6         1.830          41.000
C24  22105592.875 8 115109645.529 8      1243.492          51.000
C26  22259842.219 7 115912875.958 7     -1719.645          42.000
E01  23950905.039 8 125862872.322 8       370.707          51.000    23950906.562 8  96440408.006 8       284.060          51.000
E04  23451879.344 8 123240446.025 8      -234.594          51.000    23451880.414 8  94430976.736 8      -179.721          51.000
E19  26998064.125 5 141875778.481 5     -2333.852          34.000
E31  25639293.734 8 134735400.668 8      2801.461          50.000    25639297.000 8 103238824.660 8      2146.556          51.000
> 2020 05 10 03 26  0.0000000  0 14        .000000000000
G05  20659539.195 8 108566617.176 8      -834.055          49.000    20659539.031 8  84597329.869 8      -649.916          50.000
G28  21801330.523 8 114566836.152 8      2308.473          50.000    21801329.008 7  89272856.638 7      1798.813          45.000
G30  20557152.414 8 108028585.771 8      -987.863          51.000    20557153.070 8  84178133.396 8      -769.764          51.000
R02  20997400.406 8 112046149.669 8     -2956.305          51.000    20997403.258 7  87146987.690 7     -2299.348          46.000
R03  19232710.562 8 102954189.265 8       576.297          51.000    19232711.430 8  80075505.437 8       448.231          49.000
R13  19169276.539 6 102362875.485 6       411.207          40.000    19169280.305 7  79615549.388 7       319.828          45.000
R14  21745733.914 6 115917026.320 6      3817.066          40.000    21745743.156 6  90157721.130 6      2968.829          39.000
C05  39795945.938 6 207227932.951 6         3.621          36.000    39795944.250 6 160241768.997 6         2.806          41.000
C24  22098463.828 8 115072526.179 8      1231.148          50.000
C26  22269777.344 6 115964609.561 6     -1729.406          41.000
E01  23948825.633 8 125851947.152 8       357.625          51.000    23948827.414 8  96432036.790 8       274.042          51.000
E04  23453239.125 8 123247590.920 8      -241.785          51.000    23453239.844 8  94436451.406 8      -185.273          51.000
E19  27011398.586 5 141945857.653 5     -2337.438          33.000
E31  25623316.969 8 134651444.530 8      2795.562          50.000    25623320.188 8 103174494.619 8      2142.111          51.000
> 2020 05 10 03 26 30.0000000  0 14        .000000000000
G05  20664357.664 8 108591938.161 8      -853.910          50.000    20664357.492 8  84617060.497 8      -665.385          50.000
G28  21788192.531 8 114497795.724 8      2294.223          51.000    21788191.766 7  89219058.926 7      1787.706          45.000
G30  20562830.422 8 108058423.108 8     -1001.215          51.000    20562830.734 8  84201383.275 8      -780.164          51.000
R02  21014061.172 8 112135056.930 8     -2970.730          51.000    21014064.430 7  87216137.746 7     -2310.571          47.000
R03  19229536.398 8 102937198.906 8       556.461          50.000    19229537.594 8  80062290.715 8       432.803          48.000
R13  19167037.156 6 102350916.424 6       385.918          40.000    19167040.789 7  79606247.902 7       300.158          45.000
R14  21724287.539 7 115802700.086 7      3804.723          42.000    21724296.227 5  90068800.764 5      2959.232          35.000
C05  39795926.312 6 207227831.203 6         3.008          37.000    39795924.711 6 160241690.296 6         2.761          41.000
C24  22091411.008 8 115035803.510 8      1217.117          51.000
C26  22279771.859 6 116016656.279 6     -1740.539          41.000
E01  23946825.375 8 125841436.550 8       343.090          51.000    23946827.297 8  96423983.192 8       262.884          51.000
E04  23454644.953 8 123254977.363 8      -250.508          51.000    23454645.414 8  94442111.161 8      -191.995          51.000
E19                                                                  27024757.117 5 108817496.892 5     -1794.974          34.000
E31  25607378.734 8 134567688.092 8      2788.199          50.000    25607381.508 8 103110317.625 8      2136.388          51.000
> 2020 05 10 03 27  0.0000000  0 14        .000000000000
G05  20669285.992 8 108617836.187 8      -872.984          50.000    20669285.523 8  84637240.779 8      -680.248          50.000
G28  21775133.375 8 114429169.043 8      2280.637          51.000    21775132.914 7  89165583.622 7      1777.120          45.000
G30  20568581.359 8 108088644.314 8     -1013.848          51.000    20568581.719 8  84224932.287 8      -790.011          51.000
R02  21030800.516 8 112224381.515 8     -2984.484          51.000    21030804.109 8  87285612.406 8     -2321.266          48.000
R03  19226470.891 8 102920790.568 8       537.145          49.000    19226472.438 8  80049528.667 8       417.779          48.000
R13  19164935.711 6 102339694.792 6       361.789          40.000    19164939.172 7  79597519.982 7       281.391          45.000
R14  21702907.383 7 115688728.959 7      3793.051          42.000    21702913.258 5  89980156.704 5      2950.157          31.000
C05  39795905.781 6 207227723.788 6         3.871          36.000    39795904.109 6 160241607.253 6         2.863          41.000
C24  22084436.641 8 114999486.422 8      1203.750          51.000
C26  22289828.078 6 116069023.014 6     -1751.070          41.000
E01  23944905.805 8 125831349.048 8       329.094          50.000    23944907.859 8  96416253.777 8       252.205          51.000
E04  23456098.633 8 123262614.602 8      -258.844          51.000    23456098.711 8  94447963.068 8      -198.335          51.000
E19                                                                  27038141.414 5 108871391.830 5     -1798.509          33.000
E31  25591480.820 8 134484141.490 8      2781.383          51.000    25591483.070 8 103046301.418 8      2131.142          51.000
> 2020 05 10 03 27 30.0000000  0 15        .000000000000
G05  20674327.664 8 108644331.127 8      -893.125          49.000    20674327.023 8  84657886.174 8      -695.942          49.000
G07  22480877.555 5 118137808.625 5     -2443.051          32.000
G28  21762157.328 8 114360979.452 8      2265.574          50.000    21762156.805 7  89112448.856 7      1765.383          45.000
G30  20574409.070 8 108119268.900 8     -1027.602          51.000    20574409.562 8  84248795.605 8      -800.728          51.000
R02  21047622.070 8 112314143.186 8     -2999.344          51.000    21047625.484 8  87355427.071 8     -2332.820          48.000
R03  19223518.578 8 102904987.453 8       516.609          49.000    19223520.195 8  80037237.357 8       401.807          48.000
R13  19162976.172 6 102329231.513 6       336.141          40.000    19162979.422 7  79589381.879 7       261.443          44.000
R14  21681596.367 6 115575136.953 6      3780.258          37.000    21681600.172 5  89891807.455 5      2940.201          31.000
C05  39795888.016 6 207227631.504 6         2.668          37.000    39795886.445 6 160241535.874 6         2.139          41.000
C24  22077543.906 8 114963595.729 8      1189.090          51.000
C25  25693318.164 6 133791857.585 6      3166.398          37.000
C26  22299949.383 6 116121728.766 6     -1762.484          41.000
E01  23943070.414 8 125821705.290 8       314.016          50.000    23943072.969 8  96408864.413 8       240.588          51.000
E04  23457604.039 8 123270524.008 8      -268.250          51.000    23457603.812 8  94454023.520 8      -205.536          51.000
E31  25575627.148 8 134400827.013 8      2773.219          51.000    25575628.914 8 102982463.070 8      2124.916          51.000
> 2020 05 10 03 28  0.0000000  0 14        .000000000000
G05  20679475.367 8 108671383.059 8      -912.863          49.000    20679474.555 8  84678965.592 8      -711.322          49.000
G28  21749257.242 8 114293189.915 8      2251.273          50.000    21749256.398 7  89059625.814 7      1754.239          42.000
G30  20580305.891 8 108150256.520 8     -1040.676          51.000    20580306.008 8  84272941.799 8      -810.916          51.000
R02  21064517.695 8 112404301.059 8     -3013.508          51.000    21064520.961 7  87425549.849 7     -2343.839          47.000
R03  19220672.234 8 102889751.826 8       496.668          49.000    19220674.195 8  80025387.435 8       386.300          48.000
R13  19161150.992 6 102319486.021 6       311.223          41.000    19161154.266 7  79581802.072 7       242.062          45.000
R14  21660346.711 6 115461887.516 6      3767.578          37.000    21660350.805 5  89803724.559 5      2930.342          35.000
C05  39795865.727 6 207227515.599 6         2.539          37.000    39795864.164 6 160241446.235 6         2.114          41.000
C24  22070725.961 8 114928092.982 8      1175.270          51.000
C25  25675081.336 6 133696896.104 6      3161.820          37.000
C26  22310127.836 7 116174733.093 7     -1773.496          42.000
E01  23941312.312 8 125812466.202 8       299.504          51.000    23941314.969 8  96401785.085 8       229.502          51.000
E04  23459153.766 8 123278667.109 8      -277.082          51.000    23459153.391 8  94460263.033 8      -212.277          51.000
E31  25559810.305 8 134317707.083 8      2765.695          50.000    25559811.789 8 102918773.779 8      2119.184          51.000
> 2020 05 10 03 28 30.0000000  0 14        .000000000000
G05  20684739.867 8 108699048.070 8      -929.727          50.000    20684739.000 8  84700522.731 8      -724.462          49.000
G28  21736444.469 8 114225859.060 8      2239.445          49.000    21736442.484 6  89007160.216 6      1745.025          41.000
G30  20586282.141 8 108181661.949 8     -1051.020          51.000    20586281.898 8  84297413.555 8      -818.976          51.000
R02  21081498.188 8 112494910.635 8     -3025.070          51.000    21081500.938 7  87496023.970 7     -2352.832          47.000
R03  19217942.555 8 102875142.684 8       479.281          48.000    19217945.180 7  80014024.759 7       372.771          47.000
R13  19159471.023 6 102310514.925 6       289.043          40.000    19159473.742 7  79574824.561 7       224.811          43.000
R14  21639176.172 6 115349039.849 6      3757.871          40.000    21639179.992 6  89715954.211 6      2922.792          39.000
C05  39795849.656 6 207227431.668 6         4.891          37.000    39795848.055 6 160241381.334 6         3.939          41.000
C24  22063993.984 8 114893034.025 8      1163.934          51.000
C25  25656875.398 6 133602100.040 6      3159.762          36.000
C26  22320375.047 7 116228089.963 7     -1781.527          44.000
E01  23939642.031 8 125803687.632 8       287.695          51.000    23939644.445 8  96395058.627 8       220.439          51.000
E04  23460758.773 8 123287100.535 8      -283.145          51.000    23460758.117 8  94466725.006 8      -216.952          51.000
E31  25544040.922 8 134234839.215 8      2760.762          49.000    25544042.602 8 102855277.628 8      2115.350          51.000
> 2020 05 10 03 29  0.0000000  0 14        .000000000000
G05  20690108.875 8 108727261.601 8      -950.211          50.000    20690108.094 8  84722507.293 8      -740.424          50.000
G28  21723707.375 8 114158925.014 8      2223.836          49.000    21723703.656 6  88955003.855 6      1732.862          41.000
G30  20592325.477 8 108213419.976 8     -1065.094          51.000    20592325.500 8  84322160.090 8      -829.943          51.000
R02  21098550.828 8 112585905.889 8     -3040.207          51.000    21098553.188 7  87566798.062 7     -2364.609          47.000
R03  19215318.562 8 102861096.738 8       458.168          48.000    19215321.117 7  80003100.130 7       356.353          47.000
R13  19157923.477 6 102302252.326 6       262.660          40.000    19157925.852 7  79568398.105 7       204.294          44.000
R14  21618070.922 7 115236532.118 7      3743.996          45.000    21618074.898 7  89628448.230 7      2911.997          43.000
C05  39795827.539 6 207227316.508 6         3.680          37.000    39795825.945 7 160241292.283 7         2.821          42.000
C24  22057334.781 8 114858355.783 8      1148.973          51.000
C25  25638690.594 6 133507407.351 6      3154.156          36.000
C26  22330677.133 7 116281734.466 7     -1793.453          45.000
E01  23938047.133 8 125795305.542 8       272.215          51.000    23938049.453 8  96388636.001 8       208.610          51.000
E04  23462406.945 8 123295760.969 8      -293.027          51.000    23462405.945 8  94473360.930 8      -224.504          51.000
E31  25528307.078 8 134152160.967 8      2752.156          49.000    25528309.438 8 102791926.763 8      2108.825          51.000
> 2020 05 10 03 29 30.0000000  0 16        .000000000000
G05  20695579.625 8 108756008.929 8      -966.031          50.000    20695578.336 8  84744907.824 8      -752.749          50.000
G13  21292568.797 5 111893204.229 5      2014.707          31.000
G28  21711043.555 8 114092376.201 8      2212.777          50.000    21711038.969 7  88903147.650 7      1724.242          42.000
G30  20598432.945 8 108245515.418 8     -1074.449          51.000    20598433.336 8  84347169.533 8      -837.233          51.000
R02  21115672.180 8 112677271.570 8     -3050.617          50.000    21115674.398 7  87637860.212 7     -2372.702          44.000
R03  19212797.734 8 102847602.085 8       441.613          48.000    19212799.898 7  79992604.317 7       343.477          46.000
R12  21428276.820 5 114465958.970 5     -3505.398          33.000
R13  19156505.773 6 102294683.508 6       241.723          40.000    19156508.305 7  79562511.259 7       188.007          44.000
R14  21597027.797 8 115124352.778 8      3734.828          48.000    21597031.812 7  89541197.614 7      2904.866          45.000
C05  39795796.836 6 207227156.351 6         7.270          36.000    39795795.172 6 160241168.444 6         5.226          41.000
C24  22050745.703 8 114824044.704 8      1138.535          51.000
C25  25620522.945 5 133412805.418 5      3152.527          35.000
C26  22341031.211 7 116335651.092 7     -1801.066          44.000
E01  23936525.211 8 125787305.980 8       261.211          51.000    23936527.273 8  96382506.470 8       200.146          51.000
E04  23464095.586 8 123304635.110 8      -298.398          51.000    23464094.562 8  94480160.596 8      -228.658          51.000
E31  25512607.055 8 134069659.923 8      2747.973          48.000    25512610.109 8 102728711.681 8      2105.640          51.000
> 2020 05 10 03 30  0.0000000  0 15        .000000000000
G05  20701179.938 8 108785438.395 8      -988.477          50.000    20701178.578 8  84767839.866 8      -770.241          50.000
G28  21698482.133 8 114026364.124 8      2195.211          51.000    21698478.359 7  88851709.663 7      1710.554          45.000
G30  20604632.562 8 108278096.092 8     -1090.301          51.000    20604633.234 8  84372557.079 8      -849.585          51.000
R02  21132891.281 8 112769156.652 8     -3067.617          51.000    21132892.945 7  87709326.355 7     -2385.924          44.000
R03  19210407.836 7 102834812.182 7       418.426          47.000    19210410.500 7  79982656.613 7       325.442          46.000
R13  19155246.516 6 102287959.103 6       213.855          40.000    19155248.617 7  79557281.168 7       166.329          44.000
R14  21576075.414 8 115012656.172 8      3719.043          49.000    21576078.977 7  89454322.466 7      2892.589          46.000
C05  39795785.891 6 207227099.016 6         4.168          36.000    39795784.195 6 160241124.087 6         3.217          41.000
C24  22044255.828 8 114790248.755 8      1121.754          51.000
C25  25602402.141 6 133318443.405 6      3144.613          36.000
C26  22351465.719 7 116389985.959 7     -1814.348          46.000
E01  23935104.359 8 125779837.838 8       243.902          51.000    23935106.047 8  96376784.129 8       186.892          51.000
E04  23465853.297 8 123313872.657 8      -310.211          51.000    23465852.312 8  94487238.710 8      -237.655          51.000
E19  27119016.125 5 142511390.173 5     -2374.887          32.000    27119016.430 5 109197039.880 5     -1819.422          35.000
E31  25496969.867 8 133987486.641 8      2737.438          49.000    25496973.289 8 102665747.757 8      2097.517          51.000
> 2020 05 10 03 30 30.0000000  0 15        .000000000000
G05  20706874.570 8 108815362.666 8     -1007.254          51.000    20706873.133 8  84791157.461 8      -784.873          51.000
G28  21685987.922 8 113960704.524 8      2181.270          51.000    21685985.086 7  88800546.332 7      1699.691          46.000
G30  20610888.867 8 108310974.054 8     -1102.352          51.000    20610889.711 8  84398176.264 8      -858.975          51.000
R02  21150173.000 8 112861370.610 8     -3080.816          51.000    21150173.805 7  87781048.314 7     -2396.191          46.000
R03  19208115.133 8 102822538.868 8       398.953          48.000    19208117.578 7  79973110.690 7       310.297          46.000
R13  19154109.938 6 102281889.012 6       189.844          40.000    19154111.844 7  79552559.994 7       147.656          45.000
R14  21555178.234 8 114901255.465 8      3706.898          48.000    21555180.969 7  89367677.487 7      2883.143          45.000
C05  39795759.148 6 207226959.696 6         4.582          36.000    39795757.430 6 160241016.342 6         3.628          41.000
C24  22037829.188 8 114756783.223 8      1108.422          51.000
C25  25584292.477 6 133224137.442 6      3141.512          36.000
C26  22361944.625 7 116444552.496 7     -1824.184          47.000
E01  23933748.977 8 125772714.327 8       230.281          51.000    23933750.312 8  96371325.864 8       176.446          51.000
E04  23467644.766 8 123323287.487 8      -318.312          51.000    23467643.773 8  94494452.677 8      -243.917          51.000
E19                                                                  27132583.781 6 109251662.657 6     -1822.622          36.000
E31  25481360.203 8 133905455.930 8      2730.488          48.000    25481363.641 8 102602893.068 8      2092.294          51.000
> 2020 05 10 03 31  0.0000000  0 15        .000000000000
G05  20712679.391 8 108845865.819 8     -1026.086          51.000    20712677.727 8  84814926.166 8      -799.547          51.000
G28  21673577.484 8 113895484.646 8      2166.984          51.000    21673575.195 7  88749725.652 7      1688.559          46.000
G30  20617217.773 8 108344233.074 8     -1114.688          51.000    20617218.750 8  84424092.371 8      -868.588          51.000
R02  21167532.391 8 112953998.804 8     -3094.059          51.000    21167533.078 8  87853092.430 8     -2406.490          48.000
R03  19205935.578 8 102810870.364 8       379.168          49.000    19205937.484 7  79964035.208 7       294.908          46.000
R13  19153111.805 6 102276558.903 6       165.742          40.000    19153113.820 7  79548414.372 7       128.911          44.000
R14  21534352.422 7 114790239.843 7      3694.363          47.000    21534354.531 7  89281332.012 7      2873.394          45.000
C05  39795732.797 6 207226822.634 6         5.109          36.000    39795731.109 6 160240910.369 6         3.634          41.000
C24  22031481.742 8 114723732.573 8      1095.148          51.000
C25  25566210.945 6 133129973.308 6      3136.711          38.000
C26  22372484.016 7 116499433.350 7     -1834.320          47.000
E01  23932475.320 8 125766020.376 8       216.254          51.000    23932476.336 8  96366196.739 8       165.734          51.000
E04  23469486.266 8 123332965.330 8      -326.668          51.000    23469485.406 8  94501868.171 8      -250.331          51.000
E19                                                                  27146177.375 5 109306393.713 5     -1825.770          34.000
E31  25465794.297 8 133823654.367 8      2723.082          48.000    25465797.523 8 102540213.974 8      2086.592          51.000
> 2020 05 10 03 31 30.0000000  0 15        .000000000000
G05  20718592.398 8 108876940.053 8     -1045.457          51.000    20718591.117 8  84839139.853 8      -814.642          51.000
G28  21661249.594 8 113830698.947 8      2152.223          51.000    21661247.336 7  88699243.307 7      1677.057          45.000
G30  20623617.477 8 108377863.992 8     -1127.250          51.000    20623618.477 8  84450298.288 8      -878.377          51.000
R02  21184967.023 8 113047031.639 8     -3107.938          49.000    21184968.328 8  87925451.298 8     -2417.285          48.000
R03  19203867.797 8 102799800.810 8       358.902          49.000    19203869.719 7  79955425.544 7       279.146          46.000
R13  19152250.641 6 102271959.715 6       140.852          40.000    19152252.602 7  79544837.231 7       109.551          45.000
R14  21513596.648 7 114679604.040 7      3681.340          46.000    21513599.883 7  89195281.917 7      2863.264          45.000
C05  39795705.484 6 207226680.296 6         4.598          36.000    39795703.789 6 160240800.273 6         3.543          41.000
C24  22025212.211 8 114691089.275 8      1081.215          50.000
C25  25548155.062 6 133035944.362 6      3132.270          39.000
C26  22383081.781 7 116554619.147 7     -1844.793          47.000
E01  23931281.836 8 125759747.955 8       201.934          51.000    23931282.523 8  96361390.604 8       154.737          51.000
E04  23471376.391 8 123342898.894 8      -335.434          51.000    23471375.773 8  94509479.603 8      -257.039          51.000
E19                                                                  27159797.664 5 109361249.928 5     -1829.617          31.000
E31  25450270.672 7 133742075.550 7      2715.508          47.000    25450273.648 8 102477705.546 8      2080.645          51.000
> 2020 05 10 03 32  0.0000000  0 15        .000000000000
G05  20724620.430 8 108908618.230 8     -1064.340          51.000    20724619.469 8  84863824.153 8      -829.356          51.000
G07  22607737.125 5 118804459.948 5     -2494.051          33.000    22607730.828 5  92574877.739 5     -1943.416          33.000
G28  21649011.055 8 113766384.379 8      2137.648          51.000    21649008.234 7  88649128.096 7      1665.700          43.000
G30  20630094.305 8 108411900.010 8     -1139.566          51.000    20630094.992 8  84476819.868 8      -887.971          51.000
R02  21202482.516 8 113140502.260 8     -3121.160          48.000    21202484.938 7  87998150.735 7     -2427.566          46.000
R03  19201918.898 8 102789367.080 8       338.863          50.000    19201920.820 7  79947310.405 7       263.560          46.000
R13  19151532.797 6 102268126.094 6       116.789          40.000    19151534.828 7  79541855.532 7        90.836          45.000
R14  21492919.750 8 114569385.884 8      3668.688          49.000    21492923.773 7  89109556.654 7      2853.424          45.000
C05  39795683.602 6 207226567.722 6         5.363          37.000    39795682.016 6 160240712.445 6         3.845          41.000
C24  22019028.094 8 114658887.643 8      1067.695          51.000
C25  25530131.680 6 132942086.075 6      3127.418          38.000
C26  22393744.289 7 116610142.327 7     -1854.617          47.000
E01  23930174.891 8 125753931.314 8       188.109          51.000    23930175.633 8  96356933.719 8       144.091          51.000
E04  23473321.680 8 123353123.251 8      -343.934          51.000    23473321.297 8  94517313.847 8      -263.540          51.000
E31  25434795.961 7 133660755.431 7      2708.188          47.000    25434799.016 8 102415395.302 8      2075.102          51.000
> 2020 05 10 03 32 30.0000000  0 16        .000000000000
G05  20730741.422 8 108940784.846 8     -1082.719          50.000    20730740.727 8  84888889.057 8      -843.677          50.000
G28  21636840.000 8 113702427.228 8      2123.605          48.000    21636836.500 7  88599291.395 7      1654.758          43.000
G30  20636625.953 8 108446224.211 8     -1151.328          51.000    20636626.367 8  84503566.009 8      -897.139          51.000
R02  21220058.172 8 113234292.407 8     -3134.020          49.000    21220060.930 7  88071098.637 7     -2437.571          44.000
R03  19200067.219 8 102779453.153 8       319.258          51.000    19200068.984 7  79939599.568 7       248.309          47.000
R12  21547610.688 5 115103433.679 5     -3572.316          35.000
R13  19150935.969 6 102264939.977 6        92.957          39.000    19150938.398 7  79539377.454 7        72.300          44.000
R14  21472300.578 8 114459470.756 8      3656.336          51.000    21472304.031 7  89024067.108 7      2843.817          43.000
C05  39795645.234 6 207226367.571 6         5.648          36.000    39795643.758 7 160240558.426 7         4.416          42.000
C24  22012907.164 8 114627013.351 8      1054.621          50.000
C25  25512119.000 6 132848285.074 6      3123.730          37.000
C26  22404449.633 8 116665886.819 8     -1864.145          49.000
E01  23929132.742 8 125748454.712 8       174.492          51.000    23929133.680 8  96352737.380 8       133.726          51.000
E04  23475300.336 8 123363523.399 8      -352.047          51.000    23475300.211 8  94525282.788 8      -269.723          51.000
E19  27187099.828 5 142869172.558 5     -2395.863          33.000
E31  25419348.617 8 133579579.885 8      2701.160          48.000    25419351.836 8 102353195.829 8      2069.597          51.000
> 2020 05 10 03 33  0.0000000  0 16        .000000000000
G05  20736984.070 8 108973591.761 8     -1102.637          50.000    20736983.789 8  84914452.858 8      -859.197          50.000
G28  21624765.539 7 113638982.954 7      2107.750          42.000    21624762.531 7  88549854.362 7      1642.406          42.000
G30  20643241.312 8 108480988.487 8     -1164.527          51.000    20643241.992 8  84530655.065 8      -907.424          51.000
R02  21237723.312 8 113328555.867 8     -3148.250          51.000    21237724.891 7  88144414.554 7     -2448.642          43.000
R03  19198342.047 8 102770216.937 8       298.184          51.000    19198343.758 7  79932415.818 7       231.921          47.000
R12  21567711.984 5 115210798.055 5     -3583.477          34.000
R13  19150489.414 6 102262555.465 6        67.766          38.000    19150491.883 7  79537522.813 7        52.707          44.000
R14  21451767.867 8 114350016.607 8      3642.410          51.000    21451769.312 7  88938936.133 7      2832.986          42.000
C05  39795619.812 6 207226234.648 6         4.695          37.000    39795618.203 6 160240455.626 6         3.957          41.000
C24  22006878.023 8 114595618.321 8      1040.148          50.000
C25  25494147.258 5 132754694.436 5      3118.070          35.000
C26  22415225.977 8 116722002.727 8     -1875.023          48.000
E01  23928184.461 8 125743471.132 8       159.586          51.000    23928185.383 8  96348918.796 8       122.271          51.000
E04  23477341.820 8 123374253.081 8      -361.535          51.000    23477342.062 8  94533504.226 8      -277.026          51.000
E19  27200801.711 6 142941160.291 6     -2401.031          36.000
E31  25403958.570 8 133498703.511 8      2692.477          50.000    25403961.578 8 102291225.595 8      2063.120          51.000
> 2020 05 10 03 33 30.0000000  0 16        .000000000000
G05  20743332.492 8 109006953.009 8     -1121.953          51.000    20743332.352 8  84940448.620 8      -874.249          51.000
G28  21612772.070 6 113575968.749 6      2092.543          39.000    21612771.328 6  88500752.392 6      1630.550          40.000
G30  20649923.953 8 108516106.332 8     -1177.219          51.000    20649925.039 8  84558019.628 8      -917.313          51.000
R02  21255460.633 8 113423204.411 8     -3162.039          51.000    21255462.086 7  88218029.991 7     -2459.367          46.000
R03  19196727.781 8 102761573.268 8       277.527          51.000    19196729.062 7  79925692.962 7       215.855          47.000
R12  21587867.594 5 115318454.401 5     -3594.031          35.000
R13  19150176.484 6 102260885.220 6        43.340          39.000    19150179.445 7  79536223.746 7        33.709          44.000
R14  21431305.586 8 114240939.788 8      3628.945          51.000    21431304.977 6  88854098.638 6      2822.513          41.000
C05  39795590.820 6 207226083.574 6         4.730          37.000    39795589.258 6 160240338.785 6         3.785          41.000
C24  22000925.047 8 114564618.316 8      1026.121          51.000
C25  25476201.719 5 132661231.057 5      3112.859          33.000
C26  22426056.844 8 116778403.944 8     -1885.465          48.000
E01  23927313.664 8 125738895.110 8       145.160          51.000    23927314.516 8  96345412.515 8       111.203          51.000
E04  23479430.195 8 123385227.671 8      -370.441          51.000    23479430.766 8  94541913.328 8      -283.878          51.000
E19  27214522.773 6 143013265.215 6     -2406.316          36.000
E31  25388609.734 8 133418042.543 8      2684.477          51.000    25388612.398 8 102229420.434 8      2056.970          51.000
> 2020 05 10 03 34  0.0000000  0 16        .000000000000
G05  20749788.273 8 109040878.082 8     -1137.746          50.000    20749788.070 8  84966883.713 8      -886.558          50.000
G28  21600865.016 7 113513397.324 7      2080.852          46.000    21600865.172 7  88451995.407 7      1621.443          46.000
G30  20656675.633 8 108551586.948 8     -1186.227          51.000    20656676.711 8  84585666.851 8      -924.332          51.000
R02  21273270.984 8 113518247.411 8     -3172.012          48.000    21273274.367 8  88291952.316 8     -2467.120          49.000
R03  19195226.195 8 102753534.620 8       260.395          51.000    19195227.523 8  79919440.670 8       202.529          48.000
R12  21608078.984 5 115426409.750 5     -3600.309          31.000    21608080.266 4  89776155.442 4     -2800.240          25.000
R13  19149999.359 6 102259939.026 6        22.199          38.000    19150002.203 7  79535487.799 7        17.266          44.000
R14  21410916.156 8 114132253.820 8      3618.824          51.000    21410914.469 7  88769565.134 7      2814.641          42.000
C05  39795560.406 6 207225924.910 6         7.543          36.000    39795558.805 6 160240216.100 6         5.957          41.000
C24  21995050.445 8 114534023.862 8      1015.523          51.000
C25  25458283.695 5 132567906.470 5      3110.547          33.000
C26  22436944.750 8 116835099.277 8     -1892.293          49.000
E01  23926522.469 8 125734736.930 8       134.059          51.000    23926523.203 8  96342226.379 8       102.723          51.000
E04  23481567.305 8 123396458.236 8      -376.141          51.000    23481568.234 8  94550518.568 8      -288.239          51.000
E19  27228267.664 6 143085499.485 6     -2407.551          36.000
E31  25373304.172 8 133337608.898 8      2679.750          51.000    25373306.602 8 102167789.461 8      2053.264          51.000
> 2020 05 10 03 34 30.0000000  0 16        .000000000000
G05  20756361.266 8 109075419.555 8     -1166.770          50.000    20756360.703 8  84993799.142 8      -909.171          50.000
G07  22679348.109 5 119180758.361 5     -2529.340          32.000
G28  21589053.703 8 113451323.711 8      2055.805          51.000    21589053.562 7  88403626.328 7      1601.926          46.000
G30  20663506.203 8 108587482.174 8     -1208.508          51.000    20663507.227 8  84613637.137 8      -941.694          51.000
R02  21291163.836 7 113613737.301 7     -3195.664          46.000    21291170.102 8  88366222.241 8     -2485.513          49.000
R03  19193848.078 8 102746157.069 8       229.613          51.000    19193849.656 8  79913702.551 8       178.588          48.000
R13  19149967.648 6 102259769.832 6       -12.500          40.000    19149970.742 7  79535356.236 7        -9.722          43.000
R14  21390610.234 8 114024015.013 8      3595.309          50.000    21390608.305 7  88685379.441 7      2796.351          43.000
C05  39795538.641 6 207225811.347 6        -2.262          37.000    39795537.031 6 160240128.248 6        -1.459          41.000
C24  21989263.734 8 114503887.748 8       991.875          51.000
C25  25440400.219 6 132474774.736 6      3096.152          36.000
C26  22447898.938 8 116892139.734 8     -1912.086          49.000
E01  23925820.805 8 125731049.516 8       109.930          51.000    23925821.391 8  96339400.956 8        84.271          51.000
E04  23483763.320 8 123407998.535 8      -395.043          51.000    23483764.656 8  94559361.125 8      -302.644          51.000
E19  27242047.031 5 143157916.222 5     -2421.762          34.000
E31  25358052.086 8 133257457.190 8      2661.906          51.000    25358054.602 8 102106374.516 8      2039.657          51.000
> 2020 05 10 03 35  0.0000000  0 15        .000000000000
G05  20763049.516 8 109110566.557 8     -1178.531          51.000    20763048.695 8  85021186.395 8      -918.336          51.000
G28  21577335.781 8 113389739.937 8      2047.648          51.000    21577334.844 7  88355638.972 7      1595.567          47.000
G30  20670413.492 8 108623780.407 8     -1213.508          51.000    20670414.672 8  84641921.465 8      -945.591          51.000
R02  21309139.867 7 113709662.552 7     -3201.551          47.000    21309146.883 8  88440830.853 8     -2490.092          50.000
R03  19192591.695 8 102739431.410 8       216.527          50.000    19192593.125 8  79908471.478 8       168.410          48.000
R13  19150079.320 6 102260365.814 6       -29.641          40.000    19150082.438 7  79535819.788 7       -23.051          43.000
R14  21370386.852 8 113916215.892 8      3589.090          50.000    21370385.852 7  88601535.723 7      2791.514          44.000
C05  39795523.539 6 207225733.846 6         5.258          37.000    39795521.930 6 160240067.552 6         4.014          41.000
C24  21983562.906 8 114474199.973 8       985.250          51.000
C25  25422549.477 5 132381826.869 5      3098.695          35.000
C26  22458917.117 8 116949513.552 8     -1914.879          50.000
E01  23925206.469 8 125727822.352 8       103.074          51.000    23925207.180 8  96336928.202 8        78.940          51.000
E04  23486016.438 8 123419838.915 8      -396.590          51.000    23486018.203 8  94568433.610 8      -303.878          51.000
E19  27255859.094 5 143230505.676 5     -2419.520          34.000
E31  25342851.703 8 133177578.609 8      2661.203          51.000    25342854.281 8 102045168.856 8      2039.065          51.000
> 2020 05 10 03 35 30.0000000  0 16        .000000000000
G05  20769818.469 8 109146136.565 8     -1197.355          51.000    20769817.359 8  85048903.289 8      -933.004          51.000
G28  21565676.859 8 113328467.599 8      2032.578          51.000    21565675.086 7  88307894.283 7      1583.827          47.000
G30  20677362.961 8 108660299.530 8     -1225.621          51.000    20677364.039 8  84670377.924 8      -955.029          51.000
R02  21327163.914 8 113805837.349 8     -3214.562          48.000    21327170.234 8  88515633.509 8     -2500.215          49.000
R03  19191423.180 8 102733175.585 8       195.992          50.000    19191424.422 8  79903605.827 8       152.438          48.000
R13  19150300.000 6 102261542.944 6       -53.727          40.000    19150302.727 7  79536735.341 7       -41.787          43.000
R14  21350212.398 8 113808675.631 8      3575.602          49.000    21350213.281 7  88517893.322 7      2781.023          46.000
C05  39795480.766 6 207225511.347 6         5.402          37.000    39795479.234 6 160239895.493 6         4.002          41.000
C24  21977913.633 8 114444781.498 8       971.574          51.000
C25  25404697.680 5 132288885.044 5      3093.797          34.000
C26  22469964.562 8 117007039.917 8     -1924.578          50.000
E01  23924645.359 8 125724874.383 8        89.086          51.000    23924646.141 8  96334669.360 8        68.249          51.000
E04  23488292.367 8 123431799.089 8      -405.242          51.000    23488294.336 8  94577597.891 8      -310.480          51.000
E19  27269669.281 5 143303080.767 5     -2423.555          33.000
E21  26506091.844 5 139290452.677 5     -2389.504          33.000
E31  25327668.891 8 133097793.753 8      2653.391          51.000    25327671.414 8 101984035.009 8      2033.153          50.000
> 2020 05 10 03 36  0.0000000  0 18        .000000000000
G05  20776719.234 8 109182400.020 8     -1212.109          51.000    20776718.055 8  85077160.525 8      -944.501          51.000
G07  22722691.617 5 119408530.039 5     -2534.246          32.000
G13  21147032.852 4 111128407.572 4      1912.938          29.000
G28  21554128.648 8 113267779.555 8      2021.340          50.000    21554126.828 7  88260604.908 7      1575.070          47.000
G30  20684405.820 8 108697309.325 8     -1233.621          51.000    20684406.688 8  84699216.720 8      -961.263          51.000
R02  21345286.039 8 113902535.290 8     -3223.637          50.000    21345291.742 7  88590843.008 7     -2507.273          47.000
R03  19190394.438 8 102727667.139 8       179.418          49.000    19190395.484 8  79899321.498 8       139.547          49.000
R13  19150680.688 6 102263575.290 6       -73.629          41.000    19150683.219 7  79538316.082 7       -57.267          43.000
R14  21330138.641 8 113701671.901 8      3566.051          48.000    21330141.617 8  88434668.198 8      2773.595          48.000
C05  39795462.039 6 207225413.498 6         9.133          36.000    39795460.422 6 160239819.801 6         7.186          41.000
C24  21972367.414 8 114415901.022 8       961.770          51.000
C25  25386897.828 5 132196218.979 5      3092.391          32.000
C26  22481092.383 8 117064985.748 8     -1930.422          50.000
E01  23924188.797 8 125722476.401 8        78.914          51.000    23924189.727 8  96332831.946 8        60.446          51.000
E04  23490642.883 8 123444150.716 8      -410.098          51.000    23490644.672 8  94587062.121 8      -314.201          51.000
E19  27283529.250 5 143375913.424 5     -2424.336          34.000    27283531.766 5 109859474.022 5     -1857.431          33.000
E21  26519767.664 5 139362319.049 5     -2393.125          31.000
E31  25312555.688 8 133018375.149 8      2649.285          51.000    25312557.789 8 101923181.809 8      2029.975          49.000
> 2020 05 10 03 36 30.0000000  0 17        .000000000000
G05  20783736.594 8 109219276.131 8     -1235.852          51.000    20783735.312 8  85105895.158 8      -963.001          51.000
G07  22737220.336 6 119484864.777 6     -2544.219          37.000    22737194.633 4  93105008.446 4     -1982.505          29.000
G13  21136163.734 4 111071289.917 4      1900.273          29.000
G28  21542676.086 8 113207597.365 8      2001.211          48.000    21542674.867 7  88213709.699 7      1559.385          47.000
G30  20691526.453 8 108734727.764 8     -1250.527          51.000    20691527.250 8  84728373.945 8      -974.437          51.000
R02  21363490.820 8 113999673.670 8     -3241.695          50.000    21363495.312 7  88666395.033 7     -2521.322          44.000
R03  19189489.609 8 102722825.622 8       153.883          48.000    19189491.227 8  79895555.846 8       119.687          49.000
R13  19151206.008 6 102266379.481 6      -102.602          40.000    19151208.516 7  79540497.129 7       -79.801          44.000
R14  21310150.883 8 113595125.467 8      3547.527          49.000    21310154.969 8  88351798.724 8      2759.185          48.000
C05  39795451.805 6 207225360.410 6         4.117          37.000    39795450.211 6 160239778.731 6         3.507          41.000
C24  21966909.156 8 114387478.649 8       943.281          51.000
C25  25369138.188 5 132103749.994 5      3081.812          32.000
C26  22492285.203 8 117123269.515 8     -1944.844          50.000
E01  23923821.289 8 125720547.408 8        60.094          51.000    23923822.453 8  96331353.874 8        46.058          51.000
E04  23493052.625 8 123456813.655 8      -423.668          51.000    23493054.188 8  94596764.893 8      -324.665          51.000
E19                                                                  27297427.352 5 109915425.340 5     -1864.450          33.000
E31  25297497.203 8 132939243.488 8      2636.543          51.000    25297498.719 8 101862548.486 8      2020.238          49.000
> 2020 05 10 03 37  0.0000000  0 16        .000000000000
G05  20790839.391 8 109256601.088 8     -1254.180          51.000    20790838.000 8  85134979.550 8      -977.283          51.000
G07  22751757.414 5 119561242.312 5     -2549.453          33.000    22751725.852 4  93164523.328 4     -1986.578          29.000
G28  21531288.812 7 113147760.770 7      1986.426          47.000    21531288.617 7  88167083.759 7      1547.864          46.000
G30  20698693.672 8 108772391.196 8     -1262.020          51.000    20698694.547 8  84757722.074 8      -983.392          51.000
R02  21381746.289 8 114097085.600 8     -3254.070          49.000    21381749.438 7  88742159.748 7     -2530.947          45.000
R03  19188679.625 8 102718487.250 8       133.648          48.000    19188680.516 8  79892181.591 8       103.949          49.000
R13  19151844.273 6 102269789.228 6      -126.172          41.000    19151846.875 7  79543149.152 7       -98.134          44.000
R14  21290218.672 8 113488874.275 8      3534.238          50.000    21290222.586 7  88269158.898 7      2748.852          47.000
C05  39795419.383 6 207225191.329 6         5.059          36.000    39795417.781 6 160239647.972 6         4.038          41.000
C24  21961507.906 8 114359353.620 8       930.125          51.000
C25  25351386.977 5 132011318.376 5      3077.840          31.000
C26  22503511.859 8 117181728.715 8     -1954.023          50.000
E01  23923512.445 8 125718924.779 8        46.566          51.000    23923513.594 8  96330110.554 8        35.681          51.000
E04  23495490.789 8 123469626.158 8      -432.047          51.000    23495492.367 8  94606582.261 8      -331.055          51.000
E19                                                                  27311326.914 5 109971390.512 5     -1867.398          32.000
E31  25282462.938 8 132860237.884 8      2629.012          51.000    25282463.711 8 101802011.752 8      2014.402          49.000
> 2020 05 10 03 37 30.0000000  0 14        .000000000000
G05  20798051.797 8 109294502.405 8     -1273.340          51.000    20798050.344 8  85164513.046 8      -992.213          51.000
G28  21519992.766 8 113088401.016 8      1970.344          49.000    21519992.773 7  88120829.391 7      1535.333          45.000
G30  20705931.805 8 108810427.146 8     -1274.402          51.000    20705932.703 8  84787360.468 8      -993.041          51.000
R02  21400076.227 8 114194900.161 8     -3267.613          48.000    21400079.836 8  88818237.707 8     -2541.477          48.000
R03  19187987.617 7 102714784.920 7       112.406          47.000    19187988.727 8  79889302.017 8        87.427          49.000
R13  19152620.453 6 102273934.626 6      -150.852          40.000    19152623.297 7  79546373.371 7      -117.329          44.000
R14  21270367.094 8 113383051.645 8      3519.902          51.000    21270369.109 7  88186852.444 7      2737.705          46.000
C05  39795389.203 6 207225033.990 6         4.887          36.000    39795387.625 6 160239526.303 6         3.661          41.000
C24  21956187.969 8 114331653.674 8       915.906          51.000
C26  22514796.391 8 117240489.320 8     -1963.996          50.000
E01  23923286.391 8 125717737.034 8        32.059          51.000    23923287.617 8  96329200.461 8        24.534          51.000
E04  23497981.898 8 123482717.611 8      -441.352          51.000    23497983.648 8  94616613.370 8      -338.175          51.000
E19                                                                  27325254.703 5 110027476.813 5     -1871.786          30.000
E31  25267477.414 8 132781488.568 8      2620.328          51.000    25267477.727 8 101741671.384 8      2007.844          49.000
> 2020 05 10 03 38  0.0000000  0 14        .000000000000
G05  20805376.234 8 109332992.417 8     -1293.066          51.000    20805374.547 8  85194505.275 8     -1007.581          51.000
G07  22780924.281 6 119714506.191 6     -2561.031          39.000    22780930.227 4  93284089.439 4     -1995.618          29.000
G28  21508790.797 8 113029532.795 8      1953.891          51.000    21508789.938 7  88074958.078 7      1522.515          42.000
G30  20713242.953 8 108848847.375 8     -1287.258          51.000    20713243.828 8  84817298.302 8     -1003.058          51.000
R02  21418483.344 7 114293129.352 7     -3281.387          45.000    21418488.375 8  88894638.183 8     -2552.190          49.000
R03  19187417.773 8 102711733.584 8        90.672          49.000    19187418.961 8  79886928.760 8        70.526          49.000
R13  19153536.586 6 102278828.067 6      -175.340          40.000    19153539.609 7  79550179.393 7      -136.375          43.000
R14  21250599.055 8 113277673.468 8      3505.000          51.000    21250599.328 7  88104891.684 7      2726.114          46.000
C05  39795363.805 6 207224902.568 6         3.633          36.000    39795362.195 7 160239423.871 7         3.072          42.000
C24  21950952.180 8 114304391.893 8       901.152          51.000
C26  22526140.680 8 117299562.757 8     -1974.574          49.000
E01  23923145.500 8 125716996.990 8        17.062          51.000    23923146.797 8  96328633.408 8        13.098          51.000
E04  23500528.625 8 123496101.686 8      -451.082          51.000    23500530.578 8  94626868.702 8      -345.679          51.000
E31  25252543.180 8 132703010.083 8      2611.238          51.000    25252543.789 8 101681538.534 8      2000.783          50.000
> 2020 05 10 03 38 30.0000000  0 15        .000000000000
G05  20812807.055 8 109372041.864 8     -1309.688          51.000    20812805.547 8  85224933.416 8     -1020.536          51.000
G07  22795553.898 6 119791386.611 6     -2563.879          38.000    22795555.867 5  93344007.897 5     -1997.855          35.000
G28  21497677.781 8 112971130.268 8      1940.215          51.000    21497675.516 7  88029449.633 7      1511.856          42.000
G30  20720621.562 8 108887622.439 8     -1297.066          51.000    20720622.523 8  84847512.638 8     -1010.701          51.000
R02  21436962.195 7 114391742.722 7     -3292.406          44.000    21436968.547 8  88971337.485 8     -2560.757          48.000
R03  19186964.461 8 102709305.929 8        71.820          48.000    19186965.109 8  79885040.624 8        55.860          48.000
R13  19154586.977 6 102284438.687 6      -197.941          39.000    19154590.133 7  79554543.213 7      -153.954          44.000
R14  21230909.336 8 113172713.881 8      3492.938          50.000    21230909.812 7  88023256.493 7      2716.729          47.000
C05  39795337.805 6 207224766.187 6         5.867          36.000    39795336.250 6 160239319.182 6         4.344          41.000
C24  21945795.273 8 114277540.377 8       889.469          51.000
C25  25298324.133 5 131734989.715 5      3063.086          33.000
C26  22537539.461 8 117358919.460 8     -1982.066          50.000
E01  23923084.609 8 125716676.153 8         4.984          51.000    23923085.945 8  96328387.578 8         3.825          51.000
E04  23503125.680 8 123509750.845 8      -458.172          51.000    23503127.805 8  94637327.129 8      -351.010          51.000
E31  25237655.078 8 132624775.676 8      2605.012          50.000    25237656.828 8 101621592.697 8      1996.015          50.000
> 2020 05 10 03 39  0.0000000  0 14        .000000000000
G05  20820330.203 8 109411578.101 8     -1327.633          50.000    20820329.414 8  85255740.847 8     -1034.519          50.000
G28  21486639.953 8 112913123.388 8      1925.203          51.000    21486636.453 7  87984249.489 7      1500.158          42.000
G30  20728053.711 8 108926678.812 8     -1308.246          51.000    20728054.859 8  84877946.166 8     -1019.413          51.000
R02  21455499.000 7 114490665.360 7     -3304.301          45.000    21455506.609 7  89048277.428 7     -2570.009          47.000
R03  19186613.750 8 102707430.151 8        51.508          50.000    19186614.469 8  79883581.671 8        40.065          48.000
R13  19155757.961 6 102290693.068 6      -221.004          39.000    19155761.664 7  79559407.753 7      -171.892          44.000
R14  21211284.266 8 113068102.075 8      3479.590          48.000    21211285.664 7  87941891.744 7      2706.348          47.000
C05                                                                  39795295.953 6 160239156.862 6         5.053          41.000
C24  21940703.875 8 114251027.705 8       876.438          51.000
C25  25280692.945 6 131643142.380 6      3058.680          38.000
C26  22548978.922 8 117418486.252 8     -1990.707          50.000
E01  23923089.703 8 125716701.966 8        -8.312          51.000    23923091.062 8  96328407.365 8        -6.348          51.000
E04  23505759.625 8 123523593.355 8      -466.367          51.000    23505761.516 8  94647933.724 8      -357.322          51.000
E31  25222800.086 8 132546714.498 8      2597.449          50.000    25222802.789 8 101561779.596 8      1990.244          50.000
> 2020 05 10 03 39 30.0000000  0 14        .000000000000
G05  20827964.445 8 109451697.910 8     -1347.383          50.000    20827964.352 8  85287003.024 8     -1049.909          49.000
G28  21475696.289 8 112855612.413 8      1908.363          51.000    21475692.617 7  87939435.756 7      1487.036          43.000
G30  20735557.914 8 108966113.447 8     -1321.152          51.000    20735559.062 8  84908674.435 8     -1029.469          51.000
R02  21474114.484 8 114589995.915 8     -3318.148          50.000    21474120.180 7  89125534.555 7     -2580.779          44.000
R03  19186385.320 8 102706207.686 8        29.430          50.000    19186386.016 8  79882630.884 8        22.890          48.000
R13  19157068.039 6 102297689.268 6      -245.992          39.000    19157071.484 7  79564849.238 7      -191.330          43.000
R14  21191743.188 7 112963940.407 7      3464.074          47.000    21191745.664 7  87860877.097 7      2694.280          47.000
C05  39795261.641 6 207224369.594 6         5.430          36.000    39795260.117 7 160239012.465 7         4.232          42.000
C24  21935696.023 8 114224951.243 8       861.547          51.000
C25  25263093.352 6 131551477.145 6      3052.242          39.000
C26  22560476.984 8 117478358.918 8     -2001.246          49.000
E01  23923179.367 8 125717172.379 8       -23.418          51.000    23923180.477 8  96328767.819 8       -18.004          51.000
E04  23508449.336 8 123537728.095 8      -476.398          51.000    23508450.562 8  94658764.252 8      -365.065          51.000
E31  25207997.406 8 132468926.237 8      2588.094          50.000    25208000.281 8 101502175.620 8      1983.052          50.000
> 2020 05 10 03 40  0.0000000  0 15        .000000000000
G05  20835705.367 8 109492376.421 8     -1358.887          51.000    20835705.500 8  85318700.570 8     -1058.873          50.000
G07  22839579.977 6 120022767.308 6     -2572.512          37.000
G28  21464842.648 8 112798575.643 8      1899.648          51.000    21464839.211 7  87894991.527 7      1480.246          44.000
G30  20743129.289 8 109005901.338 8     -1325.859          51.000    20743130.352 8  84939677.994 8     -1033.137          51.000
R02  21492802.477 8 114689708.309 8     -3323.602          51.000    21492804.656 7  89203088.538 7     -2585.026          42.000
R03  19186274.578 8 102705616.236 8        15.633          50.000    19186275.438 7  79882170.835 7        12.159          47.000
R13  19158512.375 6 102305401.986 6      -262.500          39.000    19158515.727 7  79570848.025 7      -204.167          44.000
R14  21172282.828 7 112860207.479 7      3457.043          45.000    21172285.750 7  87780195.933 7      2688.811          47.000
C05  39795225.758 6 207224182.583 6        12.512          36.000    39795224.273 6 160238867.834 6         9.756          41.000
C24  21930767.664 8 114199287.636 8       854.855          51.000
C25  25245522.375 6 131459971.870 6      3053.777          41.000
C26  22572028.656 8 117538512.408 8     -2003.562          49.000
E01  23923349.102 8 125718063.438 8       -30.328          51.000    23923349.945 8  96329450.575 8       -23.250          51.000
E04  23511190.195 8 123552132.039 8      -478.316          50.000    23511191.156 8  94669801.025 8      -366.421          51.000
E31  25193242.594 8 132391388.684 8      2586.734          50.000    25193245.281 8 101442763.742 8      1982.100          51.000
> 2020 05 10 03 40 30.0000000  0 16        .000000000000
G05  20843542.500 8 109533560.229 8     -1366.418          50.000    20843542.820 8  85350791.844 8     -1064.744          50.000
G07  22854307.344 6 120100149.514 6     -2566.250          37.000
G28  21454069.711 8 112741963.213 8      1894.949          51.000    21454066.812 7  87850877.954 7      1476.584          45.000
G30  20750757.719 8 109045989.101 8     -1326.438          51.000    20750758.711 8  84970915.216 8     -1033.588          51.000
R02  21511551.562 8 114789747.879 8     -3324.996          51.000    21511550.703 7  89280896.920 7     -2586.114          42.000
R03  19186272.227 8 102705603.956 8         5.887          51.000    19186273.047 7  79882161.270 7         4.579          47.000
R12  21875736.297 5 116856160.132 5     -3705.848          31.000    21875734.953 4  90888191.983 4     -2882.326          26.000
R13  19160080.859 6 102313776.721 6      -275.285          39.000    19160084.109 7  79577361.714 7      -214.111          44.000
R14  21152892.102 7 112756853.126 7      3453.922          44.000    21152896.117 7  87699809.153 7      2686.381          46.000
C05  39795179.906 6 207223943.816 6        23.758          36.000    39795178.406 6 160238683.217 6        18.244          41.000
C24  21925908.641 8 114173985.248 8       852.141          51.000
C25  25227971.312 7 131368576.110 7      3059.426          42.000
C26  22583624.039 8 117598893.425 8     -2001.777          49.000
E01  23923588.828 8 125719322.607 8       -33.176          51.000    23923589.555 8  96330415.395 8       -25.420          51.000
E04  23513972.461 8 123566753.554 8      -476.039          51.000    23513973.352 8  94681004.526 8      -364.781          51.000
E31  25178525.898 8 132314051.079 8      2589.457          51.000    25178528.727 8 101383505.082 8      1984.162          51.000
> 2020 05 10 03 41  0.0000000  0 15        .000000000000
G05  20851489.406 8 109575320.690 8     -1423.535          51.000    20851489.539 8  85383332.441 8     -1109.248          51.000
G07  22869066.602 5 120177699.779 5     -2609.824          32.000
G28  21443391.328 8 112685848.271 8      1840.254          51.000    21443388.805 7  87807152.004 7      1433.964          47.000
G30  20758456.672 8 109086446.942 8     -1376.652          51.000    20758457.742 8  85002440.790 8     -1072.716          51.000
R02  21530374.547 8 114890185.591 8     -3376.773          51.000    21530373.484 7  89359015.108 7     -2626.376          44.000
R03  19186391.867 8 102706245.320 8       -54.668          51.000    19186392.484 7  79882660.085 7       -42.520          46.000
R13  19161786.797 6 102322884.911 6      -338.180          38.000    19161789.406 7  79584445.846 7      -263.029          44.000
R14  21133587.039 8 112653952.198 8      3400.129          48.000    21133591.469 7  87619775.068 7      2644.545          45.000
C05  39795137.703 6 207223724.298 6       -15.043          36.000    39795136.266 6 160238513.422 6       -11.327          41.000
C24  21921132.547 8 114149114.964 8       800.129          51.000
C25  25210454.398 7 131277361.995 7      3015.617          42.000
C26  22595276.438 8 117659571.284 8     -2049.070          48.000
E01  23923912.070 8 125721021.082 8       -85.891          51.000    23923912.938 8  96331716.835 8       -65.851          51.000
E04  23516810.070 8 123581664.779 8      -523.762          51.000    23516810.883 8  94692429.996 8      -401.360          51.000
E31  25163861.117 8 132236986.361 8      2542.352          51.000    25163864.250 8 101324455.518 8      1948.027          51.000
> 2020 05 10 03 41 30.0000000  0 15        .000000000000
G05  20859584.891 8 109617860.823 8     -1419.887          51.000    20859584.273 8  85416480.597 8     -1106.405          51.000
G28  21432846.656 8 112630437.728 8      1846.371          49.000    21432845.164 8  87763974.969 8      1438.731          48.000
G30  20766264.789 8 109127478.451 8     -1366.211          51.000    20766265.898 8  85034413.391 8     -1064.580          51.000
R02  21549309.203 8 114991227.964 8     -3366.941          48.000    21549310.555 7  89437603.636 7     -2618.729          46.000
R03  19186673.258 8 102707750.468 8       -53.348          51.000    19186673.773 7  79883830.730 7       -41.493          46.000
R13  19163669.000 6 102332933.737 6      -339.398          39.000    19163671.406 7  79592261.607 7      -263.977          45.000
R14  21114408.445 8 112551715.123 8      3407.941          51.000    21114411.680 7  87540257.388 7      2650.624          45.000
C05  39795138.219 6 207223727.123 6         7.016          36.000    39795136.812 6 160238515.610 6         5.491          41.000
C24  21916478.797 8 114124879.838 8       808.203          51.000
C25  25193009.891 6 131186533.796 6      3031.961          38.000
C26  22607024.172 7 117720747.406 7     -2036.574          47.000
E01  23924357.828 8 125723363.409 8       -77.801          51.000    23924359.023 8  96333511.605 8       -59.611          51.000
E04  23519741.992 8 123597071.165 8      -510.828          51.000    23519742.719 8  94704234.876 8      -391.402          51.000
E19  27437572.344 5 144185416.744 5     -2475.664          32.000
E31  25149287.586 8 132160400.821 8      2555.855          51.000    25149290.961 8 101265773.103 8      1958.383          51.000
> 2020 05 10 03 42  0.0000000  0 16        .000000000000
G05  20867750.852 8 109660771.008 8     -1442.270          51.000    20867749.211 8  85449917.082 8     -1123.846          51.000
G07  22898703.203 5 120333497.157 5     -2600.984          33.000
G28  21422358.398 8 112575325.679 8      1826.223          49.000    21422358.008 8  87721030.533 8      1423.031          48.000
G30  20774104.133 8 109168674.260 8     -1381.746          51.000    20774105.016 8  85066514.023 8     -1076.685          51.000
R02  21568276.969 7 115092459.185 7     -3383.375          45.000    21568282.797 7  89516339.081 7     -2631.511          47.000
R03  19187038.430 8 102709705.071 8       -78.629          50.000    19187039.047 7  79885350.929 7       -61.159          46.000
R13  19165649.016 6 102343506.592 6      -367.387          36.000    19165651.391 7  79600484.920 7      -285.745          44.000
R14  21095277.539 8 112449730.613 8      3389.359          51.000    21095279.359 7  87460936.130 7      2636.171          46.000
C05  39795103.844 6 207223548.146 6         3.188          37.000    39795102.500 6 160238377.195 6         2.416          41.000
C24  21911869.305 8 114100875.523 8       790.574          51.000
C25  25175558.195 5 131095688.399 5      3022.242          31.000
C26  22618789.969 7 117782015.766 7     -2049.504          46.000
E01  23924848.391 8 125725941.116 8       -95.656          51.000    23924849.656 8  96335486.736 8       -73.280          51.000
E04  23522690.672 8 123612565.206 8      -523.766          51.000    23522691.055 8  94716106.927 8      -401.339          51.000
E19  27451724.336 5 144259772.042 5     -2483.543          34.000
E31  25134727.758 8 132083887.797 8      2543.270          51.000    25134731.492 8 101207146.233 8      1948.850          51.000
> 2020 05 10 03 42 30.0000000  0 15        .000000000000
G05  20876032.148 8 109704287.792 8     -1458.152          51.000    20876029.602 8  85483826.275 8     -1136.223          51.000
G28  21411972.820 8 112520751.191 8      1812.707          49.000    21411972.930 8  87678504.933 8      1412.499          48.000
G30  20782019.555 8 109210269.970 8     -1390.719          51.000    20782020.180 8  85098926.269 8     -1083.677          51.000
R02  21587326.672 8 115194117.413 8     -3393.227          48.000    21587334.469 8  89595406.598 8     -2639.176          48.000
R03  19187533.305 8 102712351.791 8       -97.191          50.000    19187533.336 7  79887409.490 7       -75.593          46.000
R13  19167772.227 6 102354843.408 6      -388.145          38.000    19167774.328 7  79609302.408 7      -301.893          46.000
R14  21076239.320 8 112348241.573 8      3377.234          51.000    21076240.930 7  87382000.237 7      2626.738          47.000
C05  39795079.656 6 207223422.157 6         5.875          37.000    39795078.258 6 160238279.756 6         4.631          41.000
C24  21907348.914 8 114077336.767 8       779.348          51.000
C25  25158146.320 5 131005061.804 5      3019.965          30.000
C26  22630618.742 8 117843609.630 8     -2056.031          48.000
E01  23925428.602 8 125728990.713 8      -107.066          51.000    23925429.750 8  96337823.437 8       -82.029          51.000
E04  23525701.328 8 123628384.402 8      -530.273          51.000    23525701.242 8  94728228.108 8      -406.275          51.000
E19  27465910.977 5 144334335.704 5     -2485.125          34.000
E31  25120226.859 8 132007685.560 8      2537.352          50.000    25120231.180 8 101148757.493 8      1944.163          51.000
> 2020 05 10 03 43  0.0000000  0 15        .000000000000
G05  20884411.016 8 109748319.090 8     -1478.352          51.000    20884408.375 8  85518136.374 8     -1151.962          51.000
G28  21401672.844 8 112466624.947 8      1794.574          49.000    21401672.977 7  87636328.604 7      1398.370          47.000
G30  20789993.406 8 109252173.151 8     -1404.094          51.000    20789994.023 8  85131578.092 8     -1094.099          51.000
R02  21606440.594 8 115296109.398 8     -3407.465          49.000    21606447.797 7  89674733.661 7     -2650.253          46.000
R03  19188139.984 8 102715599.570 8      -120.383          49.000    19188140.102 7  79889935.532 7       -93.631          47.000
R13  19170020.531 6 102366849.248 6      -413.648          38.000    19170022.859 7  79618640.289 7      -321.727          45.000
R14  21057277.031 8 112247157.811 8      3360.480          51.000    21057278.531 7  87303379.531 7      2613.704          47.000
C05  39795048.344 6 207223259.031 6         4.402          36.000    39795047.000 6 160238153.611 6         3.126          41.000
C24  21902900.648 8 114054173.252 8       763.785          51.000
C25  25140763.867 5 130914564.770 5      3012.391          32.000
C26  22642492.438 7 117905437.071 7     -2066.996          47.000
E01  23926081.117 8 125732420.701 8      -122.773          51.000    23926082.398 8  96340451.610 8       -94.097          51.000
E04  23528756.594 8 123644438.195 8      -541.148          51.000    23528756.133 8  94740529.054 8      -414.610          51.000
E19  27480112.766 5 144408967.400 5     -2491.383          33.000    27480112.250 5 110651025.392 5     -1908.823          34.000
E31  25105767.984 8 131931704.377 8      2526.891          49.000    25105772.633 8 101090538.132 8      1936.186          51.000
> 2020 05 10 03 43 30.0000000  0 15        .000000000000
G05  20892892.258 8 109792889.797 8     -1493.887          51.000    20892889.852 8  85552866.798 8     -1164.068          51.000
G28  21391463.711 8 112412975.053 8      1781.254          50.000    21391463.523 7  87594523.484 7      1387.990          46.000
G30  20798030.570 8 109294409.056 8     -1412.555          51.000    20798031.188 8  85164489.177 8     -1100.692          51.000
R02  21625621.445 8 115398460.133 8     -3416.887          49.000    21625627.445 7  89754339.737 7     -2657.579          45.000
R03  19188864.484 8 102719476.443 8      -138.984          50.000    19188864.797 8  79892950.860 8      -108.099          48.000
R13  19172399.422 6 102379550.428 6      -434.133          39.000    19172401.266 7  79628518.940 7      -337.662          45.000
R14  21038396.258 8 112146509.028 8      3348.449          51.000    21038397.219 7  87225097.140 7      2604.349          47.000
C05  39795014.961 6 207223085.241 6         6.484          36.000    39795013.641 7 160238019.188 7         5.069          42.000
C24  21898529.203 8 114031411.316 8       752.777          51.000
C25  25123414.445 5 130824224.814 5      3009.711          35.000
C26  22654415.555 7 117967522.809 7     -2073.051          46.000
E01  23926810.883 8 125736257.241 8      -133.863          51.000    23926812.531 8  96343391.295 8      -102.541          51.000
E04  23531861.648 8 123660753.692 8      -547.371          51.000    23531860.883 8  94753030.527 8      -419.408          51.000
E19  27494335.258 5 144483707.203 5     -2493.008          33.000    27494336.156 5 110708304.960 5     -1909.853          34.000
E31  25091356.711 8 131855972.206 8      2521.066          51.000    25091360.742 8 101032509.587 8      1931.726          51.000
> 2020 05 10 03 44  0.0000000  0 15        .000000000000
G05  20901474.297 8 109837990.423 8     -1512.336          51.000    20901472.438 8  85588010.157 8     -1178.441          51.000
G28  21381344.180 8 112359795.380 8      1764.652          51.000    21381343.875 7  87553084.796 7      1375.054          46.000
G30  20806129.234 8 109336968.239 8     -1424.258          51.000    20806129.875 8  85197652.146 8     -1109.811          51.000
R02  21644867.484 8 115501159.038 8     -3429.199          49.000    21644872.648 7  89834216.658 7     -2667.155          46.000
R03  19189705.344 8 102723975.374 8      -160.480          50.000    19189705.383 8  79896450.054 8      -124.818          48.000
R13  19174906.031 6 102392936.662 6      -457.715          40.000    19174908.531 7  79638930.490 7      -356.000          46.000
R14  21019595.570 8 112046289.373 8      3333.383          51.000    21019596.234 7  87147148.501 7      2592.628          47.000
C05  39794977.953 6 207222892.763 6         6.965          36.000    39794976.672 6 160237870.336 6         5.271          41.000
C24  21894233.109 8 114009042.780 8       738.820          51.000
C25  25106095.922 6 130734035.230 6      3003.770          39.000
C26  22666386.234 7 118029857.175 7     -2082.203          46.000
E01  23927616.523 8 125740491.727 8      -147.871          51.000    23927618.328 8  96346635.887 8      -113.298          51.000
E04  23535014.992 8 123677323.265 8      -556.766          51.000    23535014.031 8  94765726.685 8      -426.592          51.000
E19  27508580.461 5 144558566.520 5     -2497.648          34.000    27508580.961 5 110765669.292 5     -1913.684          35.000
E31  25076991.773 8 131780482.202 8      2512.117          51.000    25076994.227 8 100974666.613 8      1924.866          50.000
> 2020 05 10 03 44 30.0000000  0 15        .000000000000
G05  20910160.023 8 109883636.975 8     -1531.070          51.000    20910158.906 8  85623578.901 8     -1193.042          51.000
G28  21371317.742 8 112307104.686 8      1747.832          50.000    21371316.484 7  87512027.097 7      1361.944          44.000
G30  20814292.258 8 109379866.066 8     -1435.957          51.000    20814293.070 8  85231079.015 8     -1118.928          51.000
R02  21664181.758 8 115604221.998 8     -3441.762          48.000    21664186.320 7  89914376.738 7     -2676.926          46.000
R03  19190665.211 8 102729115.131 8      -182.477          49.000    19190665.727 8  79900447.658 8      -141.926          49.000
R13  19177544.016 6 102407023.320 6      -481.699          39.000    19177546.414 7  79649886.763 7      -374.652          45.000
R14  21000878.336 8 111946518.277 8      3317.812          51.000    21000878.648 7  87069548.758 7      2580.521          45.000
C05  39794940.695 6 207222698.439 6         6.176          36.000    39794939.406 6 160237720.049 6         4.881          41.000
C24  21890016.000 8 113987084.228 8       724.695          51.000
C25  25088810.180 6 130644013.793 6      2997.559          40.000
C26  22678407.312 7 118092455.138 7     -2091.406          45.000
E01  23928501.180 8 125745140.509 8      -162.223          51.000    23928503.000 8  96350197.931 8      -124.286          51.000
E04  23538220.055 8 123694164.232 8      -566.281          51.000    23538218.992 8  94778630.803 8      -433.925          51.000
E19  27522850.031 5 144633553.133 5     -2501.691          32.000    27522851.289 5 110823131.138 5     -1917.470          35.000
E31  25062676.109 8 131705252.505 8      2502.922          51.000    25062677.227 8 100917023.093 8      1917.898          50.000
> 2020 05 10 03 45  0.0000000  0 17        .000000000000
G05  20918950.828 8 109929834.938 8     -1548.680          51.000    20918949.914 8  85659577.306 8     -1206.763          51.000
G13  20958715.250 5 110138791.219 5      1754.926          32.000
G28  21361385.969 8 112254912.067 8      1731.883          50.000    21361383.945 7  87471357.511 7      1349.519          44.000
G30  20822520.789 8 109423108.305 8     -1446.754          51.000    20822521.727 8  85264774.240 8     -1127.344          51.000
R02  21683564.922 7 115707653.893 7     -3453.480          47.000    21683569.273 7  89994823.783 7     -2686.040          46.000
R03  19191746.367 8 102734903.986 8      -203.465          49.000    19191747.492 8  79904950.094 8      -158.250          49.000
R12  22065833.586 4 117871721.543 4     -3795.285          29.000
R13  19180313.977 6 102421816.191 6      -504.332          40.000    19180316.609 7  79661392.331 7      -392.258          45.000
R14  20982247.219 8 111847205.482 8      3303.129          51.000    20982246.422 7  86992305.483 7      2569.103          45.000
C05  39794904.352 6 207222509.292 6         6.422          36.000    39794903.133 6 160237573.777 6         5.050          41.000
C24  21885878.969 8 113965542.503 8       711.480          51.000
C25  25071558.742 6 130554168.600 6      2992.004          39.000
C26  22690480.000 7 118155322.036 7     -2099.668          43.000
E01  23929465.867 8 125750210.135 8      -175.695          51.000    23929467.789 8  96354082.448 8      -134.558          51.000
E04  23541478.125 8 123711284.137 8      -574.820          51.000    23541477.070 8  94791748.648 8      -440.516          51.000
E19                                                                  27537146.656 5 110880695.599 5     -1920.496          34.000
E31  25048411.258 8 131630291.528 8      2494.605          50.000    25048411.797 8 100859585.461 8      1911.460          50.000
> 2020 05 10 03 45 30.0000000  0 15        .000000000000
G05  20927842.125 8 109976558.511 8     -1566.281          51.000    20927840.914 8  85695985.287 8     -1220.479          51.000
G28  21351544.391 8 112203194.997 8      1715.973          49.000    21351542.570 7  87431058.517 7      1337.122          45.000
G30  20830810.000 8 109466669.068 8     -1457.395          51.000    20830810.961 8  85298717.677 8     -1135.632          51.000
R02  21703011.609 7 115811428.319 7     -3464.941          47.000    21703016.703 7  90075537.228 7     -2694.954          46.000
R03  19192944.219 8 102741318.077 8      -224.336          50.000    19192945.828 8  79909938.833 8      -174.480          49.000
R13  19183211.031 6 102437288.343 6      -527.148          40.000    19183214.062 7  79673426.246 7      -410.004          44.000
R14  20963697.727 8 111748328.033 8      3288.527          50.000    20963697.133 7  86915400.841 7      2557.743          46.000
C05  39794864.438 6 207222301.045 6         6.754          36.000    39794863.164 6 160237412.715 6         5.458          41.000
C24  21881817.117 8 113944393.247 8       698.348          51.000
C25  25054337.836 6 130464476.485 6      2987.156          39.000
C26  22702599.844 7 118218432.007 7     -2107.738          44.000
E01  23930505.906 8 125755675.577 8      -188.898          51.000    23930507.922 8  96358270.254 8      -144.740          51.000
E04  23544784.547 8 123728659.008 8      -583.508          51.000    23544783.477 8  94805061.857 8      -447.094          51.000
E19                                                                  27551463.234 6 110938343.690 6     -1922.888          36.000
E31  25034193.172 8 131555576.006 8      2486.277          50.000    25034193.633 8 100802335.899 8      1905.070          50.000
> 2020 05 10 03 46  0.0000000  0 17        .000000000000
G05  20936825.312 8 110023763.950 8     -1581.559          51.000    20936823.750 8  85732768.732 8     -1232.386          51.000
G07  23018234.594 5 120961638.016 5     -2631.930          33.000
G28  21341785.336 8 112151912.296 8      1702.168          50.000    21341783.773 7  87391098.001 7      1326.362          44.000
G30  20839151.586 8 109510504.621 8     -1465.715          51.000    20839152.547 8  85332875.251 8     -1142.115          51.000
R02  21722515.258 8 115915500.526 8     -3474.141          50.000    21722520.375 7  90156482.310 7     -2702.109          45.000
R03  19194250.898 8 102748315.719 8      -243.055          50.000    19194252.906 8  79915381.448 8      -189.043          49.000
R12  22108549.672 5 118099879.002 5     -3806.711          32.000
R13  19186227.422 6 102453395.528 6      -547.453          40.000    19186230.305 7  79685954.044 7      -425.797          44.000
R14  20945222.180 8 111649845.923 8      3276.082          50.000    20945222.922 7  86838803.671 7      2548.064          47.000
C05  39794812.852 6 207222031.848 6         9.855          36.000    39794811.461 6 160237204.556 6         7.636          41.000
C24  21877822.484 8 113923594.360 8       687.398          50.000
C25  25037140.203 6 130374896.669 6      2984.176          39.000
C26  22714757.969 7 118281741.449 7     -2113.660          44.000
E01  23931613.125 8 125761493.969 8      -199.906          51.000    23931615.172 8  96362728.508 8      -153.148          51.000
E04  23548131.469 8 123746246.927 8      -589.875          51.000    23548130.109 8  94818538.324 8      -451.994          51.000
E19  27565791.039 5 144859212.342 5     -2511.426          34.000    27565793.430 6 110996042.494 6     -1924.127          38.000
E31  25020014.383 8 131481064.889 8      2480.312          51.000    25020015.078 8 100745242.964 8      1900.445          51.000
> 2020 05 10 03 46 30.0000000  0 17        .000000000000
G05  20945917.531 8 110071541.463 8     -1602.141          51.000    20945915.727 8  85769997.938 8     -1248.421          51.000
G07  23033282.305 5 121040715.097 5     -2638.133          31.000    23033282.203 5  94317439.639 5     -2055.688          31.000
G28  21332127.109 8 112101157.450 8      1683.059          50.000    21332125.281 7  87351548.756 7      1311.474          44.000
G30  20847562.688 8 109554705.011 8     -1479.461          51.000    20847563.742 8  85367317.104 8     -1152.827          51.000
R02  21742091.812 8 116019961.140 8     -3488.426          49.000    21742096.328 6  90237729.442 6     -2713.220          41.000
R03  19195684.484 8 102755990.932 8      -267.277          50.000    19195686.836 8  79921351.052 8      -207.882          49.000
R12  22129961.859 6 118214249.852 6     -3816.289          36.000
R13  19189379.750 6 102470229.111 6      -573.102          41.000    19189382.805 7  79699046.831 7      -445.746          44.000
R14  20926838.461 8 111551853.840 8      3258.164          50.000    20926840.844 8  86762587.624 8      2534.128          48.000
C05  39794766.828 6 207221793.362 6         7.211          36.000    39794765.461 6 160237019.350 6         5.718          41.000
C24  21873912.719 8 113903236.252 8       671.211          51.000
C25  25019983.766 6 130285520.837 6      2976.039          36.000
C26  22726971.078 7 118345339.212 7     -2124.707          43.000
E01  23932804.836 8 125767756.201 8      -216.129          51.000    23932806.820 8  96367526.838 8      -165.638          51.000
E04  23551536.305 8 123764139.822 8      -601.586          51.000    23551534.891 8  94832248.467 8      -460.958          51.000
E19  27580151.094 6 144934671.505 6     -2517.680          37.000    27580153.484 6 111053861.886 6     -1929.314          39.000
E31  25005892.391 8 131406850.882 8      2468.770          51.000    25005893.328 8 100688377.681 8      1891.625          51.000
> 2020 05 10 03 47  0.0000000  0 17        .000000000000
G05  20955114.422 8 110119869.168 8     -1619.672          51.000    20955112.578 8  85807655.875 8     -1262.082          51.000
G07  23048358.789 5 121119943.232 5     -2641.688          34.000    23048361.055 5  94379189.458 5     -2058.461          34.000
G28  21322565.898 8 112050912.208 8      1666.742          50.000    21322563.953 7  87312396.610 7      1298.760          44.000
G30  20856039.156 8 109599248.891 8     -1490.047          51.000    20856040.234 8  85402026.613 8     -1161.075          51.000
R02  21761735.906 7 116124788.288 7     -3499.957          46.000    21761738.367 6  90319261.459 6     -2722.195          40.000
R03  19197240.875 8 102764324.711 8      -288.359          49.000    19197243.641 8  79927832.866 8      -224.280          48.000
R12  22151415.070 6 118328845.212 6     -3823.102          37.000    22151418.156 4  92033587.953 4     -2973.523          25.000
R13  19192663.734 6 102487766.363 6      -595.957          41.000    19192667.320 7  79712686.926 7      -463.522          44.000
R14  20908543.539 8 111454334.074 8      3243.211          51.000    20908547.320 8  86686738.907 8      2522.497          49.000
C05  39794722.695 6 207221563.904 6         7.980          36.000    39794721.383 6 160236841.905 6         6.156          41.000
C24  21870084.320 8 113883298.992 8       657.977          51.000
C25  25002863.555 5 130196330.312 5      2969.887          33.000
C26  22739235.492 7 118409203.893 7     -2132.844          43.000
E01  23934077.125 8 125774441.745 8      -229.484          51.000    23934079.102 8  96372649.526 8      -175.842          51.000
E04  23554995.359 8 123782318.196 8      -610.301          51.000    23554994.094 8  94846177.339 8      -467.666          51.000
E19  27594537.344 6 145010268.015 6     -2521.883          38.000    27594539.430 6 111111786.438 6     -1932.229          39.000
E31  24991823.289 8 131332915.258 8      2460.344          51.000    24991824.523 8 100631725.715 8      1885.142          51.000
> 2020 05 10 03 47 30.0000000  0 17        .000000000000
G05  20964416.773 8 110168752.573 8     -1638.684          51.000    20964415.188 8  85845746.841 8     -1276.896          51.000
G07  23063457.766 5 121199297.531 5     -2647.629          33.000    23063459.398 5  94441031.859 5     -2063.087          32.000
G28  21313103.109 8 112001184.162 8      1648.859          51.000    21313101.180 7  87273647.505 7      1284.825          44.000
G30  20864581.945 8 109644141.261 8     -1502.230          51.000    20864582.898 8  85437007.674 8     -1170.569          51.000
R02  21781448.562 7 116229986.495 7     -3512.852          44.000    21781452.883 7  90401082.215 7     -2732.218          45.000
R03  19198921.859 8 102773324.226 8      -311.094          49.000    19198924.664 7  79934832.473 7      -241.962          47.000
R12  22172909.695 6 118443667.975 6     -3830.863          36.000    22172917.055 4  92122902.893 4     -2979.560          28.000
R13  19196080.703 6 102506012.455 6      -619.957          41.000    19196083.992 7  79726878.323 7      -482.189          43.000
R14  20890338.922 8 111357295.295 8      3226.477          50.000    20890343.602 8  86611264.275 8      2509.479          48.000
C05  39794681.742 6 207221349.857 6         7.188          36.000    39794680.492 6 160236677.157 6         5.213          41.000
C24  21866337.945 8 113863788.722 8       643.184          51.000
C25  24985775.797 6 130107332.639 6      2963.305          36.000
C26  22751552.516 7 118473340.226 7     -2142.340          45.000
E01  23935431.117 8 125781556.460 8      -244.387          51.000    23935432.938 8  96378101.059 8      -187.230          51.000
E04  23558509.883 8 123800788.889 8      -620.586          51.000    23558508.977 8  94860330.190 8      -475.520          51.000
E19  27608951.148 6 145086007.471 6     -2527.008          40.000    27608952.180 6 111169820.533 6     -1936.183          38.000
E31  24977808.344 8 131259265.684 8      2450.164          51.000    24977810.242 8 100575292.917 8      1877.386          51.000
> 2020 05 10 03 48  0.0000000  0 16        .000000000000
G05  20973823.547 8 110218186.494 8     -1656.863          51.000    20973822.469 8  85884266.776 8     -1291.059          51.000
G28  21303738.766 8 111951972.245 8      1631.805          51.000    21303736.477 7  87235300.547 7      1271.536          45.000
G30  20873190.117 8 109689377.217 8     -1513.430          51.000    20873191.195 8  85472256.475 8     -1179.293          51.000
R02  21801231.602 7 116335550.696 7     -3524.906          47.000    21801237.000 7  90483187.732 7     -2741.594          47.000
R03  19200727.141 8 102782987.343 8      -333.117          49.000    19200729.422 7  79942348.224 7      -259.091          47.000
R12  22194446.109 6 118558711.263 6     -3838.305          37.000    22194454.844 4  92212380.957 4     -2985.351          28.000
R13  19199629.344 6 102524961.742 6      -643.500          41.000    19199632.711 7  79741616.678 7      -500.500          43.000
R14  20872224.898 8 111260736.292 8      3210.629          51.000    20872229.602 8  86536162.800 8      2497.156          48.000
C05  39794643.234 6 207221149.848 6         6.582          36.000    39794642.039 6 160236522.476 6         4.845          41.000
C24  21862673.195 8 113844701.769 8       629.250          51.000
C25  24968721.328 6 130018525.392 6      2956.777          38.000
C26  22763920.820 7 118537743.080 7     -2151.289          46.000
E01  23936866.047 8 125789096.228 8      -258.441          51.000    23936867.430 8  96383878.279 8      -198.027          51.000
E04  23562079.586 8 123819548.847 8      -630.168          51.000    23562078.711 8  94874704.686 8      -482.883          51.000
E19  27623391.328 6 145161886.214 6     -2531.887          41.000    27623390.734 6 111227961.374 6     -1939.954          37.000
E31  24963847.023 8 131185899.885 8      2440.789          51.000    24963849.500 8 100519077.557 8      1870.179          51.000
> 2020 05 10 03 48 30.0000000  0 16        .000000000000
G05  20983334.109 8 110268166.487 8     -1674.555          51.000    20983333.344 8  85923212.241 8     -1304.845          51.000
G28  21294472.438 8 111903274.714 8      1615.219          51.000    21294469.898 7  87197354.423 7      1258.612          46.000
G30  20881862.844 8 109734952.148 8     -1524.230          51.000    20881864.172 8  85507769.410 8     -1187.712          51.000
R02  21821082.984 8 116441475.246 8     -3536.105          50.000    21821088.117 8  90565573.471 8     -2750.304          49.000
R03  19202656.266 8 102793311.734 8      -354.590          50.000    19202658.164 7  79950378.288 7      -275.792          47.000
R12  22216021.672 5 118673968.450 5     -3845.199          34.000    22216030.508 4  92302025.420 4     -2990.711          27.000
R13  19203308.828 6 102544609.592 6      -665.852          41.000    19203311.898 7  79756898.351 7      -517.885          42.000
R14  20854201.297 8 111164656.015 8      3195.254          51.000    20854204.984 7  86461433.714 7      2485.197          47.000
C05  39794606.773 6 207220959.630 6         6.887          36.000    39794605.539 6 160236375.370 6         5.078          41.000
C24  21859088.977 8 113826034.699 8       615.832          51.000
C25  24951702.328 6 129929906.438 6      2951.238          39.000
C26  22776339.211 7 118602407.524 7     -2159.184          45.000
E01  23938381.078 8 125797057.201 8      -271.887          51.000    23938382.195 8  96389978.250 8      -208.302          51.000
E04  23565703.828 8 123838595.279 8      -639.176          51.000    23565702.984 8  94889298.685 8      -489.758          51.000
E19  27637856.828 6 145237900.359 6     -2535.496          40.000    27637854.070 5 111286205.894 5     -1942.998          35.000
E31  24949939.047 8 131112815.880 8      2432.000          50.000    24949942.148 8 100463078.109 8      1863.475          51.000
> 2020 05 10 03 49  0.0000000  0 16        .000000000000
G05  20992946.875 8 110318683.615 8     -1692.797          50.000    20992946.258 8  85962576.229 8     -1319.062          50.000
G28  21285302.688 8 111855085.703 8      1597.930          51.000    21285299.867 7  87159804.558 7      1245.140          46.000
G30  20890598.430 8 109780857.292 8     -1535.484          51.000    20890599.727 8  85543539.653 8     -1196.481          51.000
R02  21841000.297 8 116547751.007 8     -3548.207          50.000    21841004.234 8  90648232.393 8     -2759.717          49.000
R03  19204707.664 8 102804290.948 8      -376.852          50.000    19204709.266 7  79958917.674 7      -293.107          47.000
R12  22237635.258 5 118789428.716 5     -3851.730          35.000    22237643.703 4  92391827.822 4     -2995.787          27.000
R13  19207117.172 6 102564945.560 6      -689.117          41.000    19207119.516 7  79772715.221 7      -535.977          43.000
R14  20836266.789 8 111069049.324 8      3179.070          51.000    20836268.219 7  86387073.007 7      2472.613          45.000
C05  39794570.711 6 207220772.011 6         6.570          36.000    39794569.602 6 160236230.260 6         5.135          41.000
C24  21855583.656 8 113807780.003 8       601.734          51.000
C25  24934716.742 6 129841469.632 6      2944.898          37.000
C26  22788805.805 7 118667324.639 7     -2168.043          45.000
E01  23939974.766 8 125805431.423 8      -285.820          51.000    23939975.922 8  96396394.859 8      -219.008          51.000
E04  23569381.148 8 123857921.250 8      -648.750          51.000    23569380.492 8  94904106.865 8      -497.043          51.000
E19  27652345.867 6 145314042.364 6     -2539.906          40.000    27652341.070 5 111344548.331 5     -1945.827          34.000
E31  24936083.609 8 131040007.476 8      2422.551          51.000    24936087.102 8 100407289.851 8      1856.213          51.000
> 2020 05 10 03 49 30.0000000  0 16        .000000000000
G05  21002660.633 8 110369730.922 8     -1710.500          51.000    21002660.008 8  86002353.337 8     -1332.857          51.000
G07  23124132.562 5 121518105.001 5     -2665.500          34.000    23124136.836 5  94689450.385 5     -2077.013          34.000
G28  21276228.750 8 111807401.393 8      1580.887          51.000    21276225.578 7  87122647.979 7      1231.860          46.000
G30  20899395.617 8 109827085.952 8     -1546.566          51.000    20899396.492 8  85579561.979 8     -1205.117          51.000
R02  21860980.805 7 116654370.469 7     -3559.844          47.000    21860984.547 8  90731158.661 8     -2768.767          48.000
R03  19206880.562 8 102815920.539 8      -398.648          50.000    19206881.727 7  79967962.893 7      -310.060          46.000
R12  22259285.461 6 118905083.389 6     -3858.570          36.000    22259294.562 4  92481781.473 4     -3001.110          25.000
R13  19211053.219 6 102585962.850 6      -712.070          41.000    19211055.695 7  79789062.012 7      -553.832          43.000
R14  20818419.781 8 110973913.192 8      3163.180          50.000    20818420.547 7  86313078.316 7      2460.254          46.000
C05  39794534.234 6 207220581.852 6         6.527          36.000    39794533.086 6 160236083.216 6         4.727          41.000
C24  21852156.453 8 113789932.215 8       587.977          51.000
C26  22801319.219 7 118732487.464 7     -2176.324          44.000
E01  23941645.992 8 125814212.996 8      -299.707          51.000    23941646.984 8  96403123.589 8      -229.640          51.000
E04  23573110.703 8 123877521.885 8      -658.137          51.000    23573110.336 8  94919125.522 8      -504.293          51.000
E19  27666857.734 6 145390306.397 6     -2544.227          40.000    27666853.031 5 111402984.373 5     -1949.589          35.000
E31  24922280.141 8 130967470.641 8      2413.176          51.000    24922283.531 8 100351709.687 8      1849.030          51.000
> 2020 05 10 03 50  0.0000000  0 16        .000000000000
G05  21012483.648 8 110421351.189 8     -1726.355          51.000    21012482.961 8  86042576.916 8     -1345.212          51.000
G07  23139367.953 5 121598172.125 5     -2667.906          34.000    23139372.375 4  94751840.346 4     -2078.897          29.000
G28  21267259.500 8 111760267.997 8      1565.672          51.000    21267256.000 7  87085920.659 7      1220.004          46.000
G30  20908262.547 8 109873681.146 8     -1555.375          51.000    20908263.086 8  85615869.910 8     -1211.981          51.000
R02  21881032.695 7 116761376.835 7     -3569.375          46.000    21881037.500 7  90814385.843 7     -2776.181          47.000
R03  19209183.758 8 102828246.794 8      -418.531          51.000    19209184.359 7  79977549.978 7      -325.524          47.000
R12  22280980.070 5 119020974.138 5     -3862.801          32.000    22280989.648 4  92571925.243 4     -3004.398          26.000
R13  19215125.203 6 102607705.531 6      -732.836          41.000    19215127.336 7  79805972.994 7      -569.984          42.000
R14  20800669.008 8 110879294.709 8      3149.234          49.000    20800671.141 7  86239486.183 7      2449.405          47.000
C05  39794505.758 6 207220434.200 6         7.898          36.000    39794504.531 6 160235968.221 6         6.219          41.000
C24  21848815.500 8 113772535.092 8       576.199          51.000
C26  22813888.047 7 118797938.422 7     -2182.703          44.000
E01  23943403.031 8 125823445.685 8      -311.457          51.000    23943403.406 8  96410197.979 8      -238.646          51.000
E04  23576901.055 8 123897442.067 8      -665.492          51.000    23576901.133 8  94934389.010 8      -509.872          51.000
E19  27681401.008 6 145466736.587 6     -2546.695          39.000    27681398.219 6 111461547.770 6     -1951.223          37.000
E31  24908537.344 8 130895251.004 8      2405.844          51.000    24908540.367 8 100296372.570 8      1843.469          51.000
> 2020 05 10 03 50 30.0000000  0 17        .000000000000
G05  21022399.828 8 110473460.039 8     -1745.449          51.000    21022398.938 8  86083181.194 8     -1360.090          51.000
G07  23154594.281 5 121678213.356 5     -2673.355          32.000
G28  21258379.391 8 111713604.026 8      1547.289          51.000    21258375.766 7  87049559.104 7      1205.680          46.000
G30  20917182.984 8 109920558.269 8     -1567.555          51.000    20917183.609 8  85652397.529 8     -1221.471          51.000
R02  21901142.195 8 116868683.782 8     -3582.227          50.000    21901146.250 7  90897846.795 7     -2786.176          43.000
R03  19211601.008 8 102841185.709 8      -441.961          51.000    19211601.539 7  79987613.569 7      -343.747          46.000
R12  22302702.359 5 119137013.149 5     -3870.289          32.000
R13  19219316.594 6 102630086.118 6      -756.906          40.000    19219318.695 7  79823380.132 7      -588.705          43.000
R14  20782999.531 8 110785111.844 8      3131.773          49.000    20783003.484 7  86166232.801 7      2435.824          47.000
C05  39794469.359 6 207220244.580 6         6.695          36.000    39794468.148 6 160235821.597 6         5.247          41.000
C24  21845545.195 8 113755505.943 8       561.148          51.000
C25  24883958.031 6 129577294.925 6      2927.285          37.000
C26  22826496.500 7 118863593.402 7     -2192.234          44.000
E01  23945229.945 8 125833045.670 8      -326.453          51.000    23945230.281 8  96417553.804 8      -250.145          51.000
E04  23580736.586 8 123917598.969 8      -676.188          50.000    23580737.250 8  94949833.906 8      -518.130          51.000
E19  27695960.047 6 145543249.360 6     -2551.938          39.000    27695959.570 6 111520174.456 6     -1955.620          39.000
E31  24894839.414 8 130823266.584 8      2395.180          51.000    24894841.812 8 100241215.689 8      1835.274          51.000
> 2020 05 10 03 51  0.0000000  0 15        .000000000000
G05  21032415.430 8 110526090.363 8     -1766.953          51.000    21032414.328 8  86124191.809 8     -1376.847          51.000
G28  21249595.273 8 111667445.617 8      1526.207          50.000    21249592.102 7  87013591.514 7      1189.252          46.000
G30  20926163.352 8 109967750.555 8     -1582.230          51.000    20926164.164 8  85689170.723 8     -1232.907          51.000
R02  21921314.680 8 116976324.626 8     -3597.582          51.000    21921316.508 6  90981567.411 6     -2798.122          39.000
R03  19214139.320 8 102854773.748 8      -467.852          50.000    19214139.930 7  79998182.044 7      -363.885          46.000
R13  19223633.688 6 102653138.389 6      -783.617          39.000    19223635.656 7  79841309.676 7      -609.480          42.000
R14  20765418.836 8 110691401.585 8      3111.676          49.000    20765424.406 8  86093346.977 8      2420.189          48.000
C05  39794431.727 6 207220048.476 6         2.848          36.000    39794430.539 6 160235669.937 6         2.253          41.000
C24  21842351.992 8 113738878.811 8       543.566          51.000
C25  24867116.516 6 129489577.750 6      2916.754          39.000
C26  22839150.453 7 118929485.084 7     -2204.332          44.000
E01  23947133.109 8 125843046.906 8      -344.039          51.000    23947133.898 8  96425217.087 8      -263.605          51.000
E04  23584623.836 8 123938027.655 8      -689.531          50.000    23584625.148 8  94965487.059 8      -528.303          51.000
E19  27710541.953 6 145619878.867 6     -2560.172          40.000    27710543.320 6 111578890.546 6     -1961.753          41.000
E31  24881193.031 8 130751553.157 8      2381.957          51.000    24881194.492 8 100186266.467 8      1825.121          51.000
> 2020 05 10 03 51 30.0000000  0 15        .000000000000
G05  21042526.453 8 110579221.099 8     -1779.035          51.000    21042524.758 8  86165592.364 8     -1386.261          51.000
G28  21240903.930 8 111621774.791 8      1514.590          49.000    21240901.352 7  86978003.845 7      1180.200          46.000
G30  20935199.758 8 110015237.288 8     -1587.375          51.000    20935200.562 8  85726173.348 8     -1236.916          51.000
R02  21941544.836 8 117084277.111 8     -3603.348          50.000    21941544.984 6  91065530.342 6     -2802.607          38.000
R03  19216795.156 8 102868991.702 8      -484.059          50.000    19216796.102 7  80009240.440 7      -376.490          47.000
R13  19228072.062 6 102676839.974 6      -800.473          39.000    19228074.023 7  79859744.234 7      -622.590          43.000
R14  20747924.508 8 110598146.755 8      3101.223          51.000    20747930.258 8  86020815.411 8      2412.062          49.000
C05  39794389.234 6 207219826.674 6         8.441          36.000    39794387.953 6 160235498.426 6         6.174          41.000
C24  21839232.195 8 113722634.252 8       535.473          51.000
C25  24850303.898 6 129402019.458 6      2916.398          41.000
C26  22851845.703 7 118995592.625 7     -2206.988          43.000
E01  23949108.797 8 125853429.393 8      -352.109          51.000    23949109.477 8  96433172.493 8      -269.816          51.000
E04  23588559.141 8 123958709.217 8      -693.305          49.000    23588560.906 8  94981333.963 8      -531.227          51.000
E19  27725142.523 6 145696605.223 6     -2558.645          40.000    27725144.750 6 111637680.861 6     -1960.696          40.000
E31  24867594.648 8 130680092.617 8      2378.051          51.000    24867595.258 8 100131511.029 8      1822.146          50.000
> 2020 05 10 03 52  0.0000000  0 15        .000000000000
G05  21052736.164 8 110632871.083 8     -1796.969          51.000    21052734.242 8  86207397.551 8     -1400.235          51.000
G28  21232309.797 8 111576613.370 8      1496.852          48.000    21232307.828 7  86942813.090 7      1166.378          47.000
G30  20944295.758 8 110063037.104 8     -1598.488          51.000    20944296.406 8  85763419.927 8     -1245.575          51.000
R02  21961836.312 8 117192560.289 8     -3614.934          49.000    21961836.430 6  91149750.510 6     -2811.615          37.000
R03  19219572.539 8 102883861.127 8      -506.555          49.000    19219573.812 7  80020805.536 7      -393.987          47.000
R13  19232635.750 6 102701209.513 6      -823.387          38.000    19232637.766 7  79878698.316 7      -640.412          43.000
R14  20730520.531 8 110505369.724 8      3084.602          51.000    20730526.062 8  85948655.498 8      2399.135          49.000
C05  39794345.539 6 207219599.108 6         8.023          36.000    39794344.148 6 160235322.441 6         6.038          41.000
C24  21836189.492 8 113706791.833 8       521.371          51.000
C25  24833523.820 7 129314641.043 7      2909.750          42.000
C26  22864585.914 7 119061934.239 7     -2215.191          42.000
E01  23951160.805 8 125864212.508 8      -366.105          51.000    23951161.203 8  96441434.868 8      -280.510          51.000
E04  23592546.539 8 123979664.069 8      -703.035          50.000    23592548.281 8  94997390.298 8      -538.704          51.000
E19  27739765.180 6 145773448.390 6     -2563.629          38.000    27739767.391 6 111696560.627 6     -1964.133          38.000
E31  24854048.305 8 130608906.143 8      2368.352          51.000    24854048.758 8 100076965.581 8      1814.660          50.000
> 2020 05 10 03 52 30.0000000  0 17        .000000000000
G05  21063046.523 8 110687052.156 8     -1814.793          51.000    21063044.898 8  86249616.565 8     -1414.124          51.000
G07  23215837.383 5 121999994.058 5     -2688.305          35.000    23215850.367 5  95065022.739 5     -2094.792          33.000
G13  20814225.938 5 109379495.183 5      1619.066          30.000
G28  21223815.641 8 111531977.035 8      1479.258          49.000    21223814.711 8  86908031.516 8      1152.668          48.000
G30  20953453.695 8 110111162.752 8     -1609.441          51.000    20953454.430 8  85800920.410 8     -1254.110          51.000
R02  21982191.750 8 117301186.383 8     -3626.578          48.000    21982192.133 6  91234237.510 6     -2820.669          40.000
R03  19222474.445 8 102899397.414 8      -528.906          49.000    19222475.898 7  80032889.313 7      -411.372          47.000
R13  19237326.734 6 102726259.757 6      -846.426          39.000    19237328.844 7  79898181.839 7      -658.331          43.000
R14  20713209.195 8 110413087.129 8      3068.020          50.000    20713214.094 8  85876880.183 8      2386.237          48.000
C05  39794303.336 6 207219379.997 6         7.152          36.000    39794302.102 6 160235152.995 6         5.389          41.000
C24  21833226.500 8 113691365.328 8       507.383          51.000
C25  24816781.156 7 129227457.585 7      2902.848          42.000
C26  22877373.453 7 119128522.364 7     -2223.672          42.000
E01  23953291.422 8 125875409.749 8      -380.102          51.000    23953292.086 8  96450014.568 8      -291.211          51.000
E04  23596588.906 8 124000906.849 8      -712.848          51.000    23596590.508 8  95013667.238 8      -546.187          51.000
E19  27754412.711 6 145850421.743 6     -2567.895          40.000    27754413.836 6 111755540.191 6     -1967.605          38.000
E31  24840556.922 8 130538009.133 8      2358.496          51.000    24840557.914 8 100022641.912 8      1807.135          51.000
> 2020 05 10 03 53  0.0000000  0 15        .000000000000
G05  21073454.242 8 110741746.565 8     -1831.691          51.000    21073453.008 8  86292235.575 8     -1427.292          51.000
G28  21215418.484 8 111487850.043 8      1462.430          50.000    21215418.078 8  86873646.843 8      1139.553          48.000
G30  20962670.148 8 110159596.063 8     -1619.551          51.000    20962671.234 8  85838660.655 8     -1261.988          51.000
R02  22002608.211 8 117410136.241 8     -3636.973          48.000    22002610.445 7  91318976.341 7     -2828.757          44.000
R03  19225497.844 8 102915583.976 8      -550.402          49.000    19225499.547 7  80045478.845 7      -428.091          47.000
R13  19242141.500 6 102751971.229 6      -867.910          38.000    19242143.867 7  79918179.632 7      -675.041          44.000
R14  20695987.266 8 110321284.053 8      3052.035          49.000    20695990.203 7  85805477.853 7      2373.808          44.000
C05  39794259.734 6 207219152.690 6         7.348          36.000    39794258.414 6 160234977.177 6         5.941          41.000
C24  21830340.180 8 113676337.789 8       494.293          51.000
C25  24800073.125 7 129140453.462 7      2897.309          44.000
C26  22890204.672 6 119195338.676 6     -2231.211          40.000
E01  23955497.523 8 125887003.640 8      -393.035          51.000    23955498.242 8  96458898.197 8      -301.175          51.000
E04  23600683.211 8 124022421.164 8      -721.695          51.000    23600684.430 8  95030152.231 8      -552.978          51.000
E19  27769081.945 6 145927508.253 6     -2571.629          41.000    27769081.695 6 111814606.420 6     -1970.436          38.000
E31  24827117.578 8 130467385.952 8      2349.547          51.000    24827119.469 8  99968528.038 8      1800.293          51.000
> 2020 05 10 03 53 30.0000000  0 15        .000000000000
G05  21083960.367 8 110796957.849 8     -1848.957          51.000    21083959.406 8  86335257.348 8     -1440.746          51.000
G28  21207119.922 8 111444239.214 8      1445.012          50.000    21207119.633 8  86839664.365 8      1125.983          49.000
G30  20971945.883 8 110208340.782 8     -1630.043          51.000    20971947.211 8  85876643.557 8     -1270.160          51.000
R02  22023087.273 8 117519413.360 8     -3648.090          50.000    22023090.414 7  91403969.658 7     -2837.403          46.000
R03  19228644.359 8 102932427.005 8      -572.445          50.000    19228645.930 7  80058578.950 7      -445.235          47.000
R13  19247080.914 6 102778346.687 6      -890.594          38.000    19247083.195 7  79938693.867 7      -692.684          44.000
R14  20678855.938 8 110229967.745 8      3035.695          48.000    20678856.430 7  85734454.108 7      2361.096          43.000
C05  39794215.516 6 207218922.269 6         7.922          36.000    39794214.180 6 160234799.011 6         6.086          41.000
C24  21827531.492 8 113661713.950 8       480.734          51.000
C25  24783400.602 7 129053634.840 7      2890.828          45.000
C26  22903080.281 6 119262386.621 6     -2238.680          36.000
E01  23957780.016 8 125898998.579 8      -406.520          51.000    23957780.469 8  96468089.113 8      -311.498          51.000
E04  23604830.375 8 124044212.524 8      -731.055          51.000    23604831.156 8  95046849.500 8      -560.153          51.000
E19  27783773.672 6 146004712.648 6     -2575.504          40.000    27783773.078 6 111873763.016 6     -1973.501          39.000
E31  24813731.609 8 130397042.907 8      2340.043          51.000    24813734.305 8  99914628.794 8      1793.014          51.000
> 2020 05 10 03 54  0.0000000  0 16        .000000000000
G05  21094563.531 8 110852680.285 8     -1861.961          50.000    21094563.031 8  86378677.406 8     -1450.882          50.000
G28  21198919.000 8 111401142.301 8      1431.992          50.000    21198918.859 8  86806082.353 8      1115.838          48.000
G30  20981279.977 8 110257391.863 8     -1636.113          51.000    20981281.250 8  85914865.156 8     -1274.893          51.000
R02  22043627.180 8 117629011.646 8     -3654.543          50.000    22043630.398 7  91489212.739 7     -2842.425          47.000
R03  19231912.977 8 102949923.424 8      -590.086          51.000    19231914.297 7  80072187.240 7      -458.956          46.000
R12  22455666.203 5 119954064.095 5     -3906.102          33.000
R13  19252143.266 6 102805380.699 6      -907.984          37.000    19252145.719 7  79959720.294 7      -706.210          44.000
R14  20661815.562 8 110139136.742 8      3023.520          49.000    20661816.523 7  85663807.776 7      2351.626          45.000
C05  39794170.000 6 207218685.226 6        11.945          36.000    39794168.695 6 160234615.699 6         9.192          41.000
C24  21824799.680 8 113647489.899 8       471.391          51.000
C25  24766763.398 7 128966999.068 7      2888.680          45.000
C26  22915999.336 5 119329660.902 5     -2242.453          34.000
E01  23960137.820 8 125911390.174 8      -415.598          51.000    23960138.305 8  96477583.983 8      -318.475          51.000
E04  23609029.602 8 124066277.671 8      -736.039          51.000    23609029.789 8  95063756.541 8      -563.996          51.000
E19  27798487.008 6 146082030.726 6     -2575.305          39.000    27798487.000 6 111933006.681 6     -1972.929          39.000
E31  24800398.711 8 130326977.432 8      2334.914          51.000    24800401.898 8  99860942.251 8      1789.081          51.000
> 2020 05 10 03 54 30.0000000  0 16        .000000000000
G05  21105253.328 8 110908858.933 8     -1883.406          49.000    21105253.281 8  86422452.956 8     -1467.592          49.000
G28  21190805.984 8 111358507.883 8      1410.152          51.000    21190805.867 7  86772860.730 7      1098.820          47.000
G30  20990661.969 8 110306694.642 8     -1650.891          51.000    20990663.164 8  85953282.904 8     -1286.408          51.000
R02  22064216.648 8 117738875.042 8     -3669.609          51.000    22064219.461 7  91574661.985 7     -2854.144          46.000
R03  19235294.055 8 102968019.657 8      -616.469          51.000    19235294.641 7  80086262.069 7      -479.476          47.000
R12  22477632.969 6 120071396.413 6     -3916.617          36.000
R13  19257318.492 6 102833016.730 6      -934.246          38.000    19257321.211 7  79981214.975 7      -726.636          44.000
R14  20644857.023 8 110048738.993 8      3002.781          51.000    20644858.938 7  85593498.392 7      2335.497          47.000
C05  39794113.062 6 207218388.878 6         7.266          36.000    39794111.883 6 160234386.522 6         5.833          41.000
C24  21822134.562 8 113633612.529 8       453.617          51.000
C25  24750150.953 7 128880494.494 7      2878.148          43.000
C26  22928951.312 6 119397107.201 6     -2254.383          36.000
E01  23962561.133 8 125924124.564 8      -433.477          51.000    23962561.531 8  96487341.485 8      -332.108          51.000
E04  23613270.898 8 124088563.745 8      -749.801          51.000    23613270.516 8  95080832.862 8      -574.544          51.000
E19  27813211.648 6 146159408.963 6     -2583.578          40.000    27813212.641 6 111992296.478 6     -1979.376          39.000
E31  24787108.992 8 130257137.520 8      2320.973          51.000    24787112.297 8  99807428.541 8      1778.429          51.000
> 2020 05 10 03 55  0.0000000  0 16        .000000000000
G05  21116056.180 8 110965629.905 8     -1900.398          50.000    21116056.203 8  86466690.071 8     -1480.830          50.000
G28  21182807.391 8 111316474.730 8      1392.883          50.000    21182806.945 7  86740107.638 7      1085.366          46.000
G30  21000117.789 8 110356385.292 8     -1661.020          51.000    21000119.078 8  85992002.895 8     -1294.301          51.000
R02  22084881.078 8 117849141.434 8     -3680.344          51.000    22084883.578 7  91660424.632 7     -2862.493          45.000
R03  19238813.602 8 102986856.580 8      -638.383          51.000    19238813.664 7  80100912.981 7      -496.520          47.000
R12  22499643.438 5 120188968.356 5     -3921.246          35.000
R13  19262632.531 6 102861392.532 6      -956.617          39.000    19262635.203 7  80003285.039 7      -744.036          44.000
R14  20628007.008 8 109958916.062 8      2986.254          51.000    20628009.523 8  85523636.114 8      2322.642          49.000
C05  39794070.914 6 207218169.560 6         7.969          36.000    39794069.742 6 160234216.922 6         6.065          41.000
C24  21819562.211 8 113620217.815 8       440.281          51.000
C25  24733589.000 7 128794258.503 7      2871.770          43.000
C26  22941962.094 6 119464860.166 6     -2261.961          36.000
E01  23965075.656 8 125937338.502 8      -446.594          51.000    23965075.992 8  96497466.447 8      -342.177          51.000
E04  23617580.531 8 124111208.712 8      -758.977          51.000    23617579.336 8  95098184.161 8      -581.494          51.000
E19  27827973.969 6 146236984.246 6     -2587.070          40.000    27827975.539 6 112051737.312 6     -1982.468          39.000
E31  24773888.711 8 130187661.833 8      2311.641          51.000    24773891.867 8  99754193.918 8      1771.296          51.000
> 2020 05 10 03 55 30.0000000  0 16        .000000000000
G05  21126954.227 8 111022899.297 8     -1917.359          51.000    21126954.016 8  86511315.587 8     -1494.046          51.000
G28  21174905.547 8 111274951.713 8      1375.488          49.000    21174904.844 7  86707752.072 7      1071.809          44.000
G30  21009629.617 8 110406370.233 8     -1671.203          51.000    21009631.016 8  86030952.191 8     -1302.236          51.000
R02  22105602.539 8 117959715.406 8     -3690.949          50.000    22105605.547 7  91746426.556 7     -2870.741          45.000
R03  19242454.141 8 103006340.836 8      -660.359          51.000    19242453.406 7  80116067.378 7      -513.613          47.000
R12  22521679.336 6 120306682.868 6     -3926.516          36.000    22521681.148 4  93571932.813 4     -3053.957          28.000
R13  19268066.984 6 102890412.297 6      -978.133          40.000    19268069.539 7  80025855.971 7      -760.770          45.000
R14  20611248.094 8 109869576.458 8      2969.777          51.000    20611250.828 8  85454149.760 8      2309.827          50.000
C05  39794026.117 6 207217935.996 6         7.867          36.000    39794024.891 6 160234036.287 6         6.222          41.000
C24  21817065.078 8 113607214.004 8       426.852          51.000
C25  24717061.109 7 128708200.714 7      2865.703          43.000
C26  22955014.500 6 119532826.792 6     -2269.062          37.000
E01  23967663.680 8 125950939.032 8      -459.867          51.000    23967664.117 8  96507887.638 8      -352.384          51.000
E04  23621940.938 8 124134120.697 8      -768.316          51.000    23621939.148 8  95115740.084 8      -588.752          51.000
E19  27842756.047 6 146314664.126 6     -2591.219          39.000    27842758.141 6 112111258.244 6     -1985.500          39.000
E31  24760720.164 8 130118459.274 8      2302.086          51.000    24760723.227 8  99701168.596 8      1763.936          51.000
> 2020 05 10 03 56  0.0000000  0 16        .000000000000
G05  21137948.492 8 111080672.813 8     -1934.691          51.000    21137947.836 8  86556333.924 8     -1507.549          51.000
G28  21167102.469 8 111233948.521 8      1357.699          48.000    21167101.648 7  86675801.557 7      1057.947          45.000
G30  21019198.719 8 110456656.054 8     -1681.672          51.000    21019200.109 8  86070135.923 8     -1310.394          51.000
R02  22126382.336 8 118070602.151 8     -3701.906          49.000    22126386.117 7  91832671.863 7     -2879.257          45.000
R03  19246216.969 8 103026481.432 8      -682.816          51.000    19246215.477 7  80131732.296 7      -531.079          47.000
R12  22543742.945 5 120424545.173 5     -3931.512          35.000    22543746.359 4  93663603.449 4     -3057.842          28.000
R13  19273623.164 6 102920082.148 6     -1000.047          40.000    19273625.961 7  80048932.532 7      -777.814          45.000
R14  20594581.609 8 109780730.431 8      2952.785          51.000    20594584.500 8  85385047.274 8      2296.608          50.000
C05  39793980.086 6 207217696.152 6         7.289          36.000    39793978.898 6 160233850.805 6         6.050          41.000
C24  21814644.766 8 113594608.671 8       413.082          51.000
C25  24700570.039 7 128622330.015 7      2858.867          43.000
C26  22968109.508 6 119601013.493 6     -2277.023          37.000
E01  23970326.797 8 125964933.435 8      -473.500          51.000    23970327.352 8  96518610.610 8      -362.788          51.000
E04  23626353.422 8 124157308.110 8      -778.012          51.000    23626351.398 8  95133507.043 8      -596.094          51.000
E19  27857559.203 5 146392456.174 5     -2595.336          35.000    27857561.562 6 112170865.104 6     -1988.888          37.000
E31  24747605.172 8 130049539.015 8      2292.152          51.000    24747607.930 8  99648359.572 8      1756.354          51.000
> 2020 05 10 03 56 30.0000000  0 16        .000000000000
G05  21149040.562 8 111138960.145 8     -1951.027          51.000    21149039.547 8  86601752.618 8     -1520.281          51.000
G28  21159400.750 8 111193477.340 8      1340.660          48.000    21159400.250 7  86644265.568 7      1044.670          47.000
G30  21028826.828 8 110507252.352 8     -1691.309          51.000    21028828.164 8  86109561.585 8     -1317.903          51.000
R02  22147222.930 8 118181811.357 8     -3711.926          49.000    22147227.148 7  91919167.948 7     -2887.053          47.000
R03  19250104.141 8 103047290.149 8      -704.363          51.000    19250102.484 7  80147916.858 7      -547.838          47.000
R12  22565835.703 5 120542563.146 5     -3935.273          34.000    22565840.469 4  93755395.223 4     -3060.768          29.000
R13  19279302.773 6 102950410.817 6     -1021.633          40.000    19279305.336 7  80072521.473 7      -794.606          45.000
R14  20578009.023 8 109692391.041 8      2936.613          49.000    20578012.695 8  85316338.817 8      2284.033          48.000
C05  39793935.000 5 207217461.029 5         8.258          35.000    39793933.727 6 160233668.991 6         6.358          41.000
C24  21812303.023 8 113582412.314 8       400.156          51.000
C25  24684117.664 7 128536658.323 7      2852.809          43.000
C26  22981248.219 6 119669429.390 6     -2284.027          36.000
E01  23973066.672 8 125979331.909 8      -486.289          51.000    23973067.445 8  96529643.217 8      -372.584          51.000
E04  23630820.320 8 124180782.305 8      -786.836          51.000    23630818.633 8  95151493.750 8      -602.891          51.000
E19  27872385.586 5 146470374.773 5     -2598.875          34.000    27872387.414 5 112230565.816 5     -1991.199          35.000
E31  24734546.000 8 129980913.155 8      2283.000          51.000    24734548.438 8  99595776.131 8      1749.306          51.000
> 2020 05 10 03 57  0.0000000  0 16        .000000000000
G05  21160227.859 8 111197747.852 8     -1967.562          51.000    21160226.484 8  86647561.199 8     -1533.169          51.000
G28  21151798.469 8 111153527.499 8      1323.285          48.000    21151798.547 8  86613135.833 8      1031.131          48.000
G30  21038511.453 8 110558145.731 8     -1701.066          50.000    21038512.609 8  86149218.735 8     -1325.509          50.000
R02  22168121.367 8 118293328.746 8     -3722.004          50.000    22168126.047 7  92005903.647 7     -2894.895          46.000
R03  19254113.539 8 103068755.128 8      -726.039          50.000    19254112.438 7  80164611.827 7      -564.700          47.000
R12  22587954.828 5 120660721.518 5     -3940.117          33.000    22587960.531 5  93847296.160 5     -3064.539          30.000
R13  19285102.898 6 102981383.824 6     -1042.941          40.000    19285105.578 7  80096611.571 7      -811.177          46.000
R14  20561527.586 7 109604548.149 7      2920.207          47.000    20561532.406 7  85248016.554 7      2271.272          44.000
C05  39793888.398 6 207217219.763 6         8.566          36.000    39793887.242 6 160233481.629 6         6.724          41.000
C24  21810037.391 8 113570612.650 8       387.102          51.000
C25  24667701.578 7 128451174.787 7      2846.664          43.000
C26  22994428.211 6 119738060.933 6     -2291.348          36.000
E01  23975881.086 8 125994121.665 8      -499.109          51.000    23975881.852 8  96540975.623 8      -382.449          51.000
E04  23635339.516 8 124204531.614 8      -795.828          51.000    23635338.602 8  95169691.259 8      -609.790          51.000
E19  27887232.906 5 146548398.279 5     -2602.176          34.000    27887234.273 5 112290350.770 5     -1993.722          34.000
E31  24721540.469 8 129912570.767 8      2273.727          51.000    24721542.500 8  99543409.876 8      1742.212          51.000
> 2020 05 10 03 57 30.0000000  0 16        .000000000000
G05  21171510.250 8 111257036.322 8     -1984.477          51.000    21171508.820 8  86693760.003 8     -1546.345          51.000
G28  21144296.391 8 111114103.206 8      1305.578          50.000    21144296.469 8  86582415.600 8      1017.334          48.000
G30  21048252.805 8 110609337.397 8     -1711.254          51.000    21048253.953 8  86189108.318 8     -1333.445          51.000
R02  22189077.188 8 118405154.715 8     -3732.398          48.000    22189082.086 7  92092879.391 7     -2902.977          46.000
R03  19258246.211 8 103090879.793 8      -748.328          50.000    19258245.133 7  80181819.892 7      -582.033          46.000
R12  22610100.938 5 120779019.835 5     -3944.840          33.000    22610106.773 5  93939305.915 5     -3068.212          31.000
R13  19291023.984 6 103013001.325 6     -1064.480          41.000    19291026.633 7  80121202.949 7      -827.929          45.000
R14  20545141.648 8 109517206.343 8      2903.148          51.000    20545145.039 7  85180084.121 7      2258.007          44.000
C05  39793841.133 6 207216972.970 6         8.406          36.000    39793839.820 6 160233290.775 6         6.540          41.000
C24  21807848.250 8 113559211.883 8       373.586          51.000
C25  24651322.391 7 128365882.961 7      2840.086          44.000
C26  23007650.062 6 119806909.190 6     -2298.527          36.000
E01  23978770.297 8 126009304.576 8      -512.422          51.000    23978771.047 8  96552609.269 8      -392.650          51.000
E04  23639911.516 8 124228559.045 8      -805.320          51.000    23639911.359 8  95188101.882 8      -617.064          51.000
E19  27902101.281 5 146626531.311 5     -2606.520          33.000    27902103.180 5 112350221.970 5     -1996.778          32.000
E31  24708589.500 8 129844515.597 8      2263.914          50.000    24708590.938 8  99491263.687 8      1734.717          50.000
> 2020 05 10 03 58  0.0000000  0 16        .000000000000
G05  21182895.352 8 111316865.489 8     -2007.586          51.000    21182894.148 8  86740380.120 8     -1564.353          51.000
G28  21136902.602 8 111075247.300 8      1281.340          51.000    21136902.305 8  86552138.254 8       998.447          48.000
G30  21058058.734 8 110660867.795 8     -1727.441          50.000    21058060.070 8  86229261.854 8     -1346.058          50.000
R02  22210097.711 7 118517329.592 7     -3749.211          45.000    22210103.312 7  92180126.519 7     -2916.053          45.000
R03  19262510.188 8 103113707.222 8      -776.938          50.000    19262508.766 7  80199574.560 7      -604.285          46.000
R12  22632264.508 5 120897493.685 5     -3957.094          32.000
R13  19297073.148 6 103045303.516 6     -1092.469          41.000    19297075.594 7  80146326.869 7      -849.698          45.000
R14  20528859.922 8 109430409.943 8      2879.789          51.000    20528862.914 7  85112575.848 7      2239.839          47.000
C05  39793800.859 6 207216763.136 6         2.410          36.000    39793799.562 6 160233128.519 6         1.525          41.000
C24  21805743.422 8 113548251.048 8       353.844          51.000
C25  24634988.562 7 128280825.330 7      2827.039          46.000
C26  23020921.578 6 119876013.967 6     -2311.477          38.000
E01  23981742.133 8 126024921.641 8      -532.062          51.000    23981742.875 8  96564575.583 8      -407.699          51.000
E04  23644544.438 8 124252906.797 8      -821.184          51.000    23644545.148 8  95206757.934 8      -629.252          51.000
E19                                                                  27917001.555 5 112410210.958 5     -2004.533          34.000
E31  24695701.328 8 129776790.573 8      2247.715          49.000    24695702.445 8  99439370.481 8      1722.224          49.000
> 2020 05 10 03 58 30.0000000  0 15        .000000000000
G05  21194371.789 8 111377175.678 8     -2017.309          51.000    21194371.094 8  86787375.075 8     -1571.929          51.000
G28  21129606.234 8 111036902.576 8      1270.688          51.000    21129605.648 8  86522259.234 8       990.146          49.000
G30  21067917.781 8 110712677.085 8     -1730.508          50.000    21067918.961 8  86269632.721 8     -1348.448          50.000
R02  22231172.969 8 118629791.568 8     -3752.332          48.000    22231178.188 7  92267596.935 7     -2918.480          45.000
R03  19266894.555 8 103137178.405 8      -791.984          50.000    19266893.602 7  80217829.887 7      -615.988          46.000
R13  19303239.227 6 103078229.401 6     -1106.836          41.000    19303241.648 7  80171935.889 7      -860.869          45.000
R14  20512670.094 8 109344101.574 8      2869.871          51.000    20512673.180 8  85045447.133 8      2232.122          49.000
C05  39793756.523 6 207216532.496 6         8.875          36.000    39793755.242 6 160232950.122 6         7.053          41.000
C24  21803711.727 8 113537671.798 8       347.309          51.000
C25  24618688.594 7 128195944.931 7      2827.465          44.000
C26  23034230.656 6 119945315.741 6     -2312.312          37.000
E01  23984785.297 8 126040913.612 8      -538.203          51.000    23984786.164 8  96576829.169 8      -412.434          51.000
E04  23649227.492 8 124277516.721 8      -823.668          51.000    23649228.484 8  95225614.884 8      -631.119          51.000
E19                                                                  27931918.727 5 112470258.504 5     -2002.327          35.000
E31  24682865.055 8 129709338.241 8      2245.039          49.000    24682866.531 8  99387686.242 8      1720.111          50.000
> 2020 05 10 03 59  0.0000000  0 16        .000000000000
G05  21205935.234 8 111437944.849 8     -2034.145          50.000    21205935.297 8  86834727.664 8     -1585.048          50.000
G07  23417137.234 5 123057869.165 5     -2735.645          34.000
G28  21122403.445 8 110999050.761 8      1252.516          51.000    21122402.703 8  86492764.319 8       975.986          48.000
G30  21077825.906 7 110764744.363 7     -1740.645          47.000    21077826.695 7  86310204.649 7     -1356.343          47.000
R02  22252298.719 8 118742519.187 8     -3763.012          48.000    22252302.977 7  92355273.907 7     -2926.790          45.000
R03  19271395.570 8 103161273.849 8      -814.555          50.000    19271394.938 7  80236570.759 7      -633.543          46.000
R13  19309517.508 6 103111755.521 6     -1128.492          41.000    19309519.992 7  80198011.768 7      -877.716          45.000
R14  20496567.484 8 109258263.564 8      2852.344          49.000    20496570.859 8  84978684.234 8      2218.490          50.000
C05  39793704.438 6 207216261.607 6         9.156          36.000    39793703.234 6 160232740.677 6         6.697          41.000
C24  21801749.547 8 113527454.381 8       333.574          51.000
C25  24602417.734 6 128111223.519 6      2820.434          41.000
C26  23047573.172 6 120014793.513 6     -2319.652          36.000
E01  23987895.914 8 126057260.187 8      -551.738          51.000    23987897.000 8  96589354.458 8      -422.796          51.000
E04  23653956.922 8 124302369.664 8      -833.418          51.000    23653958.008 8  95244658.039 8      -638.626          51.000
E19                                                                  27946850.258 6 112530377.493 6     -2005.491          36.000
E31  24670077.125 8 129642140.275 8      2234.711          49.000    24670079.836 8  99336196.884 8      1712.395          51.000
> 2020 05 10 03 59 30.0000000  0 17        .000000000000
G05  21217602.102 8 111499256.690 8     -2051.242          50.000    21217602.445 8  86882503.122 8     -1598.371          50.000
G07  23432767.375 6 123140006.039 6     -2739.102          37.000    23432762.938 5  95953272.101 5     -2134.371          31.000
G28  21115310.703 8 110961778.231 8      1234.215          50.000    21115309.812 7  86463720.776 7       961.726          47.000
G30  21087798.922 8 110817153.368 8     -1751.168          48.000    21087799.617 8  86351042.841 8     -1364.546          48.000
R02  22273489.562 7 118855596.399 7     -3773.605          47.000    22273493.148 7  92443222.788 7     -2935.030          45.000
R03  19276029.602 8 103186080.770 8      -837.234          49.000    19276029.055 7  80255865.023 7      -651.185          47.000
R12  22698942.867 5 121253655.532 5     -3962.832          32.000    22698948.828 4  94308440.689 4     -3082.203          29.000
R13  19315924.289 6 103145967.190 6     -1150.191          41.000    19315926.781 7  80224620.834 7      -894.593          46.000
R14  20480567.609 7 109172984.009 7      2834.812          47.000    20480572.797 8  84912355.624 8      2204.851          50.000
C05  39793660.953 6 207216035.065 6         8.246          36.000    39793659.820 6 160232565.451 6         6.407          41.000
C24  21799872.914 8 113517682.661 8       319.746          51.000
C25  24586192.492 6 128026746.327 6      2813.215          41.000
C26  23060965.219 6 120084530.026 6     -2327.227          39.000
E01  23991090.125 8 126074045.615 8      -565.367          51.000    23991091.211 8  96602216.005 8      -433.182          51.000
E04  23658748.820 8 124327551.053 8      -843.340          51.000    23658749.664 8  95263952.853 8      -646.192          51.000
E19  27961808.078 5 146940294.432 5     -2621.324          33.000    27961811.781 6 112590618.411 6     -2008.831          37.000
E31  24657354.367 8 129575282.797 8      2224.406          50.000    24657358.211 8  99284968.422 8      1704.370          51.000
