     3.02           OBSERVATION DATA    M (MIXED)           RINEX VERSION / TYPE
SAVERINEX           SC600               20200510 185930 LCL PGM / RUN BY / DATE
       G = GPS       R = GLONASS       C = COMPASS          COMMENT
       S = SBAS      J = QZSS          E = GALILEO          COMMENT
BEAN                                                        MARKER NAME
1                                                           MARKER NUMBER
GEODETIC                                                    MARKER TYPE
Unige DICCA         GTER                                    OBSERVER / AGENCY
SC60291900056       SC600               2.12(191226)        REC # / TYPE / VERS
                    HEMA45          NONE                    ANT # / TYPE
  4509407.8091   693652.4678  4442337.6214                  APPROX POSITION XYZ
        0.0000        0.0000        0.0000                  ANTENNA: DELTA H/E/N
G    8 C1C L1C D1C S1C C2Y L2Y D2Y S2Y                      SYS / # / OBS TYPES
R    8 C1C L1C D1C S1C C2P L2P D2P S2P                      SYS / # / OBS TYPES
C    8 C1I L1I D1I S1I C7I L7I D7I S7I                      SYS / # / OBS TYPES
E    8 C1C L1C D1C S1C C7Q L7Q D7Q S7Q                      SYS / # / OBS TYPES
DBHZ                                                        COMMENT
     30.000                                                 INTERVAL
  2020    05    10    16    00    0.0000000     GPS         TIME OF FIRST OBS
  2020    05    10    16    59   30.0000000     GPS         TIME OF LAST OBS
     0                                                      RCV CLOCK OFFS APPL
G L1C  0.00000                                              SYS / PHASE SHIFT
G L2Y  0.00000                                              SYS / PHASE SHIFT
R L1C  0.00000                                              SYS / PHASE SHIFT
R L2P  0.25000                                              SYS / PHASE SHIFT
C L1I  0.00000                                              SYS / PHASE SHIFT
C L7I  0.00000                                              SYS / PHASE SHIFT
E L1C  0.50000                                              SYS / PHASE SHIFT
E L7Q -0.25000                                              SYS / PHASE SHIFT
 13 R04  6 R05  1 R06 -4 R07  5 R09 -2 R10 -5 R11  0 R12 -1 GLONASS SLOT / FRQ #
    R16 -1 R19  3 R20  2 R21  4 R22 -3                      GLONASS SLOT / FRQ #
 C1C   71.950 C2C   71.950 C2P   71.950                     GLONASS COD/PHS/BIS
    18                                                      LEAP SECONDS
*** Above antenna height is from mark to ANTENNA BOTTOM.    COMMENT
    17     4        0.0000        ANT MEASURE TYPE/HEIGT    COMMENT
    0.0000    0.0000    0.0458    0.0405    0.0000          COMMENT
                    BASE STATION                            COMMENT
                                                            END OF HEADER
> 2020 05 10 16 00  0.0000000  0 16        .000000000000
G10  21180789.570 8 111305817.770 8      1307.234          51.000    21180791.938 8  86731824.769 8      1018.624          51.000
G16  21083297.336 8 110793468.128 8     -1995.973          51.000    21083295.844 8  86332578.230 8     -1555.303          48.000
G20  21154944.008 6 111169980.899 6     -1114.383          41.000    21154941.906 6  86625938.936 6      -868.350          39.000
G21  23695156.820 6 124518883.723 6     -2574.691          38.000
G26  22837223.039 7 120010389.316 7     -3403.680          45.000    22837225.680 7  93514591.037 7     -2652.221          45.000
G27  20457099.953 6 107502783.423 6       898.484          39.000    20457102.133 6  83768393.476 6       700.121          39.000
R06  21023841.562 5 112187224.651 5      2469.453          35.000
R11  21811199.977 7 116552413.488 7     -3665.266          44.000    21811200.523 6  90651861.815 6     -2850.765          39.000
R21  19934892.859 6 106675603.870 6      -890.402          39.000    19934897.672 5  82969971.935 5      -692.535          31.000
C05  39617901.844 5 206300809.999 5        -7.859          34.000
C27  23004894.234 7 119792516.477 7     -1850.477          42.000
C30  21709511.617 5 113047121.878 5       689.656          35.000
E02  25991319.102 6 136585285.269 6     -2995.312          40.000    25991325.086 7 104656235.328 7     -2295.068          43.000
E05  27388047.430 7 143925166.000 7      2776.332          47.000    27388052.852 8 110280340.704 8      2127.370          48.000
E30  23312416.094 6 122507550.830 6      -877.395          40.000    23312422.898 5  93869454.065 5      -672.185          34.000
E36                                                                  24463115.844 6  98502839.646 6     -1237.420          41.000
> 2020 05 10 16 00 30.0000000  0 16        .000000000000
G10  21173386.727 8 111266916.192 8      1287.984          51.000    21173388.977 8  86701511.843 8      1003.624          51.000
G16  21094747.820 8 110853643.837 8     -2014.039          49.000    21094747.133 8  86379468.390 8     -1569.381          48.000
G20  21161365.719 6 111203728.126 6     -1133.648          39.000    21161363.930 6  86652235.504 6      -883.362          39.000
G26  22856682.445 7 120112647.839 7     -3412.066          46.000    22856684.875 7  93594272.935 7     -2658.756          45.000
G27  20452011.805 6 107476045.187 6       885.395          38.000    20452014.562 6  83747558.525 6       689.918          39.000
R05  22049961.797 4 117869680.996 4     -1754.781          28.000
R06  21010029.039 5 112113519.070 5      2446.316          34.000
R11  21831822.508 7 116662605.567 7     -3679.359          43.000    21831822.773 6  90737566.717 6     -2861.724          41.000
R21  19939919.617 6 106702502.921 6      -901.195          39.000    19939925.859 5  82990893.384 5      -700.933          34.000
C05  39617955.117 5 206301087.123 5        -9.422          34.000
C27  23015578.836 6 119848152.936 6     -1857.285          39.000
C30  21705567.469 6 113026585.068 6       681.070          39.000
E02  26008440.367 6 136675267.731 6     -3001.871          37.000    26008449.312 7 104725182.955 7     -2299.925          42.000
E05  27372211.500 8 143841947.846 8      2773.078          49.000    27372216.531 8 110216576.221 8      2124.814          49.000
E30  23317474.477 6 122534131.120 6      -892.914          40.000    23317471.570 5  93889805.823 5      -683.786          32.000
E36                                                                  24472351.906 6  98540031.108 6     -1240.619          40.000
> 2020 05 10 16 01  0.0000000  0 16        .000000000000
G10  21166085.320 8 111228548.087 8      1269.164          51.000    21166087.930 8  86671614.639 8       988.959          51.000
G16  21106291.227 7 110914312.377 7     -2031.352          46.000    21106291.773 7  86426742.596 7     -1582.871          46.000
G20  21167888.109 6 111238005.388 6     -1152.262          37.000    21167886.531 6  86678945.137 6      -897.860          36.000
G26  22876180.836 7 120215110.961 7     -3419.637          44.000    22876183.234 7  93674114.267 7     -2664.655          44.000
G27  20446990.430 6 107449659.505 6       872.770          39.000    20446993.430 6  83726998.233 6       680.080          38.000
R06  20996333.391 5 112040445.059 5      2424.422          34.000
R11  21852514.312 6 116773172.713 6     -3692.777          40.000    21852514.797 6  90823563.372 6     -2872.160          41.000
R21  19944998.547 6 106729681.756 6      -911.691          40.000    19945002.422 6  83012032.519 6      -709.093          37.000
R22  20925124.117 5 111699727.989 5      2052.398          30.000
C05  39618006.898 5 206301357.166 5        -9.789          35.000
C27  23026294.758 6 119903950.154 6     -1863.312          39.000
C30  21701665.664 6 113006266.152 6       672.562          40.000
E02  26025587.023 5 136765383.404 5     -3007.414          31.000    26025600.102 7 104794238.838 7     -2304.382          42.000
E05  27356385.602 7 143758782.648 7      2770.438          47.000    27356390.820 8 110152852.330 8      2122.731          49.000
E30  23322612.422 6 122561133.188 6      -907.980          38.000    23322607.281 5  93910495.821 5      -695.800          32.000
E36                                                                  24481604.883 6  98577289.984 6     -1243.927          40.000
> 2020 05 10 16 01 30.0000000  0 16        .000000000000
G10  21158896.219 8 111190769.329 8      1251.234          51.000    21158898.938 8  86642176.658 8       974.988          51.000
G16  21117939.008 8 110975526.248 8     -2047.695          48.000    21117940.164 8  86474441.744 8     -1595.607          48.000
G20  21174521.609 6 111272865.862 6     -1169.824          39.000    21174520.836 5  86706109.215 5      -911.551          35.000
G21  23739279.383 5 124750771.120 5     -2579.457          34.000
G26  22895727.758 7 120317830.806 7     -3426.645          42.000    22895730.547 7  93754155.664 7     -2670.113          42.000
G27  20442047.164 6 107423682.053 6       860.711          41.000    20442048.812 6  83706756.109 6       670.684          41.000
R06  20982768.031 5 111968061.868 5      2402.191          31.000
R11  21873284.539 6 116884166.162 6     -3705.203          36.000    21873286.625 6  90909891.547 6     -2881.828          40.000
R21  19950139.961 6 106757195.735 6      -920.879          40.000    19950142.984 6  83033432.278 6      -716.239          39.000
C05  39618067.586 5 206301673.314 5        -9.410          35.000
C27  23037051.867 5 119959962.276 5     -1869.137          33.000
C30  21697816.461 6 112986219.728 6       665.371          40.000
E02                                                                  26042787.086 6 104863443.375 6     -2307.839          40.000
E05  27340580.328 7 143675727.110 7      2768.363          47.000    27340585.664 8 110089212.451 8      2121.198          48.000
E30  23327840.422 6 122588611.161 6      -922.234          38.000    23327835.844 5  93931528.385 5      -706.210          32.000
E36                                                                  24490885.070 6  98614657.778 6     -1246.019          40.000
> 2020 05 10 16 02  0.0000000  0 16        .000000000000
G10  21151800.859 8 111153484.260 8      1232.625          51.000    21151803.844 8  86613123.373 8       960.487          51.000
G16  21129672.805 8 111037187.205 8     -2064.906          50.000    21129673.617 7  86522489.229 7     -1609.018          47.000
G20  21181247.773 6 111308211.749 6     -1188.516          41.000    21181246.664 5  86733651.466 5      -926.119          35.000
G21  23754007.812 6 124828148.092 6     -2580.957          37.000
G26  22915304.414 6 120420708.081 6     -3434.277          41.000    22915307.695 6  93834319.709 6     -2676.060          41.000
G27  20437163.320 6 107398017.230 6       848.453          40.000    20437164.234 6  83686757.569 6       661.132          40.000
R06  20969314.648 6 111896274.445 6      2380.742          37.000
R11  21894115.133 5 116995482.967 5     -3717.559          35.000    21894118.758 6  90996471.322 6     -2891.431          36.000
R21  19955325.953 6 106784946.076 6      -931.223          41.000    19955328.391 6  83055015.844 6      -724.284          40.000
C05  39618118.555 5 206301938.709 5       -10.359          35.000
C27  23047830.578 5 120016093.254 5     -1875.227          35.000
C30  21694001.492 6 112966350.449 6       657.430          41.000
E02  26059990.711 6 136946187.228 6     -3017.590          38.000    26059991.852 6 104932721.054 6     -2312.092          39.000
E05  27324777.953 8 143592686.488 8      2765.629          48.000    27324783.023 8 110025583.983 8      2119.079          48.000
E30  23333140.875 6 122616467.603 6      -936.902          40.000    23333137.180 5  93952872.896 5      -717.847          32.000
E36  24500171.359 5 128749269.811 5     -1629.941          35.000    24500174.242 6  98652060.090 6     -1248.820          40.000
> 2020 05 10 16 02 30.0000000  0 16        .000000000000
G10  21144816.781 8 111116784.424 8      1214.227          51.000    21144820.195 8  86584526.116 8       946.151          51.000
G16  21141509.016 8 111099383.516 8     -2081.449          51.000    21141508.945 8  86570953.857 8     -1621.908          48.000
G20  21188083.234 6 111344131.876 6     -1206.293          37.000    21188081.516 5  86761641.192 5      -939.969          33.000
G21  23768745.789 5 124905595.060 5     -2582.020          35.000
G26  22934927.688 6 120523830.539 6     -3440.828          39.000    22934931.469 6  93914674.891 6     -2681.165          39.000
G27  20432356.188 7 107372756.574 7       835.977          42.000    20432357.078 7  83667073.958 7       651.413          42.000
R06  20955992.297 6 111825178.459 6      2358.938          38.000
R11  21915020.781 5 117107210.402 5     -3729.961          30.000    21915028.961 5  91083370.495 5     -2901.078          32.000
R21  19960573.242 6 106813024.616 6      -940.996          41.000    19960575.508 6  83076854.709 6      -731.886          40.000
C05  39618177.016 5 206302243.921 5       -10.609          34.000
C27  23058650.977 6 120072432.271 6     -1880.766          36.000
C30  21690238.125 7 112946748.358 7       649.496          43.000
E02  26077228.266 6 137036784.512 6     -3022.438          41.000    26077231.844 5 105002139.644 5     -2315.633          35.000
E05  27308996.078 8 143509753.250 8      2763.289          48.000    27309001.312 8 109962037.825 8      2117.394          49.000
E30  23338531.320 7 122644792.232 7      -951.402          42.000    23338527.695 5  93974579.093 5      -728.464          30.000
E36  24509488.117 6 128798218.136 6     -1633.090          36.000    24509489.852 6  98689565.909 6     -1251.436          40.000
> 2020 05 10 16 03  0.0000000  0 16        .000000000000
G10  21137941.734 8 111080656.899 8      1207.340          51.000    21137945.461 8  86556374.818 8       940.787          51.000
G16  21153444.219 8 111162099.447 8     -2086.520          51.000    21153443.508 8  86619823.379 8     -1625.862          49.000
G18  23852288.547 5 125344618.346 5     -3143.578          31.000
G20  21195025.039 7 111380610.719 7     -1212.699          42.000    21195022.711 4  86790066.322 4      -944.963          29.000
G26  22954594.734 7 120627181.856 7     -3435.953          42.000    22954598.688 6  93995208.356 6     -2677.366          41.000
G27  20427623.516 7 107347887.229 7       835.383          42.000    20427624.422 7  83647695.229 7       650.948          42.000
R06  20942796.297 6 111754763.338 6      2348.469          37.000
R11  21936022.102 5 117219438.636 5     -3730.746          32.000    21936019.844 5  91170673.236 5     -2901.691          30.000
R21  19965879.047 6 106841416.843 6      -938.613          41.000    19965881.641 6  83098937.531 6      -730.036          40.000
C05  39618240.688 5 206302575.027 5         1.055          34.000
C27  23069504.789 6 120128965.513 6     -1874.988          38.000
C30  21686523.266 7 112927400.119 7       653.395          42.000
E02  26094499.984 7 137127549.885 7     -3015.574          43.000
E05  27293232.617 8 143426915.480 8      2772.445          49.000    27293237.477 7 109898564.774 7      2124.260          47.000
E30  23344008.125 7 122673570.369 7      -954.117          43.000
E36  24518825.328 6 128847287.050 6     -1624.895          36.000    24518827.922 6  98727164.188 6     -1245.001          40.000
> 2020 05 10 16 03 30.0000000  0 16        .000000000000
G10  21131127.070 8 111044844.774 8      1162.617          51.000    21131130.797 8  86528469.276 8       905.935          51.000
G16  21165428.789 8 111225075.368 8     -2129.387          51.000    21165427.703 8  86668895.480 8     -1659.265          49.000
G20  21202024.141 6 111417389.083 6     -1256.715          38.000    21202021.781 6  86818724.733 6      -979.264          36.000
G26  22974256.289 6 120730501.462 6     -3469.332          41.000    22974259.609 6  94075717.060 6     -2703.376          41.000
G27  20422916.547 7 107323152.196 7       796.258          42.000    20422917.312 7  83628421.179 7       620.461          42.000
R06  20929679.297 6 111684770.600 6      2299.934          37.000
R11  21957019.055 6 117331683.538 6     -3769.840          41.000    21957009.414 5  91257974.003 5     -2932.104          34.000
R12  20968037.203 5 112007481.671 5      -635.059          35.000    20968049.617 4  87116986.670 4      -493.934          26.000
R21  19971194.469 7 106869859.390 7      -975.312          42.000    19971196.641 6  83121059.541 6      -758.576          39.000
C05  39618260.039 5 206302675.511 5       -25.492          34.000
C27  23080349.672 6 120185436.904 6     -1906.840          40.000
C30  21682807.227 7 112908050.491 7       619.434          42.000
E02  26111755.328 6 137218223.523 6     -3046.734          41.000
E05  27277438.570 8 143343917.158 8      2743.297          48.000    27277443.406 8 109834968.686 8      2101.995          48.000
E30  23349521.664 7 122702543.365 7      -995.047          42.000    23349517.867 5  94018831.904 5      -762.208          31.000
E36  24528135.930 6 128896218.269 6     -1654.688          36.000    24528139.484 6  98764656.916 6     -1268.003          39.000
> 2020 05 10 16 04  0.0000000  0 18        .000000000000
G10  21124479.484 8 111009909.968 8      1168.746          51.000    21124483.180 8  86501247.361 8       910.711          51.000
G16  21177569.148 8 111288870.098 8     -2121.254          51.000    21177567.578 8  86718605.635 8     -1652.925          49.000
G18  23888306.336 5 125533890.216 5     -3148.734          34.000
G20  21209186.672 6 111455026.224 6     -1249.906          40.000    21209184.477 5  86848052.418 5      -973.962          30.000
G26  22994018.312 6 120834347.601 6     -3451.367          40.000    22994020.414 6  94156636.076 6     -2689.380          40.000
G27  20418342.203 7 107299113.534 7       808.418          43.000    20418343.477 7  83609689.738 7       629.936          44.000
R06  20916748.727 6 111615773.330 6      2302.824          37.000
R11  21978149.539 6 117444619.246 6     -3756.789          40.000    21978148.141 6  91345812.775 6     -2921.950          37.000
R12  20971612.922 5 112026585.088 5      -637.141          31.000    20971620.703 4  87131848.403 4      -495.554          28.000
R21  19976626.141 6 106898923.665 6      -960.016          40.000    19976628.266 6  83143665.125 6      -746.679          39.000
R22  20856658.039 5 111334256.130 5      2018.141          30.000
C05  39618342.062 5 206303103.102 5         -.957          34.000
C27  23091289.102 6 120242402.252 6     -1888.090          37.000
C30  21679197.750 7 112889255.780 7       635.785          42.000
E02  26129099.273 6 137309364.446 6     -3026.953          39.000
E05  27261721.070 8 143261321.207 8      2765.375          49.000    27261726.820 8 109771680.938 8      2118.864          48.000
E30  23355178.984 7 122732271.316 7      -984.668          42.000    23355175.312 5  94041610.401 5      -754.477          33.000
E36  24537526.086 5 128945572.235 5     -1633.012          33.000    24537531.219 6  98802473.601 6     -1251.490          39.000
> 2020 05 10 16 04 30.0000000  0 16        .000000000000
G10  21117898.828 8 110975326.841 8      1139.969          51.000    21117902.328 8  86474299.492 8       888.287          51.000
G16  21189764.422 8 111352955.220 8     -2147.797          51.000    21189762.734 8  86768542.081 8     -1673.611          49.000
G18  23906323.969 5 125628583.820 5     -3160.965          34.000    23906320.297 4  97892384.022 4     -2463.089          27.000
G20  21216412.242 5 111492994.089 5     -1277.406          33.000    21216409.289 5  86877637.743 5      -995.391          31.000
G26  23013779.688 6 120938191.164 6     -3468.406          39.000    23013781.250 6  94237553.074 6     -2702.654          39.000
G27  20413800.367 7 107275245.612 7       786.008          44.000    20413802.219 7  83591091.363 7       612.471          44.000
R06  20903904.977 5 111547239.917 5      2269.441          34.000
R11  21999309.250 7 117557706.085 7     -3779.137          43.000    21999313.039 6  91433769.143 6     -2939.329          37.000
R21  19982073.500 6 106928072.859 6      -979.867          39.000    19982075.133 6  83166336.649 6      -762.122          37.000
C05  39618386.477 5 206303333.950 5       -11.055          34.000
C27  23102222.336 6 120299339.494 6     -1903.875          39.000
C30  21675594.477 7 112870494.603 7       617.824          42.000
E02  26146431.656 5 137400444.048 5     -3041.766          34.000
E05  27245980.234 7 143178603.038 7      2752.340          46.000    27245986.727 7 109708299.496 7      2108.996          47.000
E30  23360879.383 7 122762226.884 7     -1009.305          42.000    23360875.258 5  94064563.307 5      -773.456          35.000
E36  24546898.398 6 128994818.810 6     -1646.645          36.000    24546904.789 6  98840210.357 6     -1261.751          39.000
> 2020 05 10 16 05  0.0000000  0 17        .000000000000
G10  21111444.539 8 110941407.191 8      1108.957          51.000    21111447.531 8  86447868.620 8       864.122          51.000
G16  21202073.047 8 111417639.810 8     -2176.750          50.000    21202071.914 8  86818945.654 8     -1696.169          49.000
G18  23924371.766 5 125723425.194 5     -3174.277          35.000
G20  21223757.852 6 111531603.748 6     -1308.617          36.000    21223756.102 5  86907730.758 5     -1019.705          31.000
G26  23033599.266 6 121042340.337 6     -3487.406          38.000    23033600.172 6  94318708.212 6     -2717.462          37.000
G27  20409350.250 7 107251860.329 7       760.973          43.000    20409351.539 7  83572869.075 7       592.966          44.000
R06  20891208.070 5 111479489.604 5      2234.500          33.000
R11  22020556.195 7 117671255.227 7     -3803.508          42.000    22020563.469 5  91522085.130 5     -2958.284          35.000
R12  20979164.375 5 112066978.725 5      -713.652          33.000
R21  19987595.867 6 106957623.096 6     -1002.457          40.000    19987596.922 5  83189320.170 5      -779.689          35.000
C05  39618452.367 5 206303677.034 5       -23.840          34.000
C27  23113210.312 6 120356556.344 6     -1922.648          39.000
C30  21672057.023 7 112852075.413 7       597.660          44.000
E02                                                                  26163823.422 5 105350865.204 5     -2343.463          33.000
E05  27230274.938 7 143096075.418 7      2736.926          45.000    27230282.625 8 109645064.081 8      2097.155          48.000
E30  23366682.047 6 122792720.154 6     -1036.113          40.000    23366678.852 6  94087928.260 6      -793.863          38.000
E36  24556310.109 6 129044274.557 6     -1662.625          38.000    24556317.750 6  98878104.992 6     -1273.843          38.000
> 2020 05 10 16 05 30.0000000  0 16        .000000000000
G10  21105086.547 8 110907993.980 8      1113.035          51.000    21105089.047 8  86421832.365 8       867.300          51.000
G16  21214464.938 8 111482764.123 8     -2170.426          49.000    21214464.492 8  86869691.882 8     -1691.241          48.000
G18  23942419.828 5 125818264.125 5     -3153.496          35.000    23942417.523 5  98040195.792 5     -2457.270          32.000
G20  21231195.969 6 111570692.064 6     -1303.430          36.000
G26  23053446.188 5 121146634.547 5     -3471.309          34.000    23053446.219 5  94399976.327 5     -2704.922          35.000
G27  20404962.039 7 107228800.715 7       770.969          43.000    20404963.086 7  83554900.571 7       600.755          44.000
R05  22155300.336 5 118432749.411 5     -1987.793          31.000    22155306.820 4  92114396.828 4     -1546.061          27.000
R06  20878629.453 5 111412365.363 5      2234.754          33.000
R11  22041859.797 7 117785101.482 7     -3791.879          42.000    22041868.883 4  91610632.169 4     -2949.239          29.000
R21  19993162.383 6 106987413.391 6      -989.281          38.000    19993163.453 5  83212490.384 5      -769.444          35.000
C27  23124221.711 6 120413896.028 6     -1905.871          37.000
C30  21668555.508 7 112833842.023 7       612.273          43.000
E02                                                                  26181215.766 6 105420910.464 6     -2330.105          37.000
E05  27214576.117 7 143013582.369 7      2756.711          44.000    27214584.938 7 109581855.194 7      2112.315          47.000
E30  23372556.734 6 122823592.350 6     -1027.863          40.000    23372556.352 6  94111583.544 6      -787.512          40.000
E36  24565730.609 6 129093777.858 6     -1643.547          40.000    24565738.664 6  98916036.103 6     -1259.224          36.000
> 2020 05 10 16 06  0.0000000  0 17        .000000000000
G10  21098828.258 8 110875105.540 8      1084.852          51.000    21098830.516 8  86396205.024 8       845.339          51.000
G16  21226943.352 8 111548343.142 8     -2196.129          48.000    21226943.570 8  86920792.431 8     -1711.266          48.000
G18  23960470.555 6 125913116.810 6     -3164.754          37.000
G27  20400639.414 7 107206085.234 7       748.875          45.000    20400640.445 7  83537200.198 7       583.539          45.000
R05  22166566.117 6 118493005.899 6     -2021.234          38.000
R06  20866170.641 4 111345884.915 4      2202.211          29.000
R11  22063223.031 7 117899258.113 7     -3812.906          42.000    22063216.305 4  91699334.791 4     -2965.594          28.000
R12  20987314.719 5 112110453.019 5      -753.980          30.000
R21  19998776.336 6 107017461.036 6     -1008.672          37.000    19998778.734 6  83235860.764 6      -784.523          36.000
R22  20811808.875 5 111094885.357 5      1978.652          32.000    20811800.070 4  86407068.141 4      1538.955          27.000
C05  39618562.273 5 206304249.264 5       -11.480          35.000
C27  23135260.586 5 120471375.573 5     -1921.488          32.000
C30  21665093.086 7 112815812.185 7       595.012          44.000
E02  26198622.562 5 137674687.350 5     -3055.098          35.000    26198627.219 6 105491034.784 6     -2340.955          39.000
E05  27198888.266 7 142931143.346 7      2744.430          43.000    27198896.664 7 109518687.629 7      2102.896          44.000
E30  23378506.773 6 122854859.935 6     -1051.371          39.000    23378509.734 7  94135541.841 7      -805.773          43.000
E36  24575163.391 6 129143345.821 6     -1656.199          39.000    24575168.891 5  98954016.738 5     -1268.832          34.000
> 2020 05 10 16 06 30.0000000  0 16        .000000000000
G10  21092683.625 8 110842815.115 8      1068.457          51.000    21092685.891 8  86371043.678 8       832.567          51.000
G16  21239522.102 8 111614447.373 8     -2210.195          48.000    21239522.602 8  86972302.193 8     -1722.230          48.000
G18  23978536.859 6 126008054.452 6     -3163.883          36.000
G21  23886815.234 5 125526056.490 5     -2587.656          32.000
G26  23093254.391 5 121355896.526 5     -3491.184          34.000    23093244.766 5  94562976.519 5     -2720.403          35.000
G27  20396396.320 7 107183787.275 7       738.402          46.000    20396397.148 7  83519825.157 7       575.378          46.000
R05  22177973.523 6 118553971.278 6     -2042.766          40.000
R06  20853848.789 5 111280131.674 5      2181.441          32.000
R11  22084658.406 7 118013794.078 7     -3821.855          42.000    22084656.625 5  91788417.800 5     -2972.554          31.000
R21  20004451.656 5 107047839.559 5     -1016.109          35.000    20004454.898 6  83259488.470 6      -790.310          36.000
C05  39618623.211 5 206304566.342 5        -9.418          34.000
C30  21661683.547 7 112798058.057 7       589.258          44.000
E02  26216070.117 6 137766379.180 6     -3057.270          37.000    26216073.078 6 105561292.122 6     -2342.628          40.000
E05  27183225.234 7 142848832.645 7      2743.625          45.000    27183232.469 7 109455618.455 7      2102.177          44.000
E30  23384544.234 6 122886594.537 6     -1063.480          38.000    23384551.219 6  94159857.988 6      -814.890          41.000
E36  24584622.047 6 129193050.430 6     -1657.055          37.000    24584625.156 5  98992102.047 5     -1269.485          32.000
> 2020 05 10 16 07  0.0000000  0 16        .000000000000
G10  21086642.219 8 110811067.037 8      1047.953          51.000    21086644.031 8  86346304.937 8       816.587          51.000
G16  21252190.133 8 111681018.534 8     -2228.137          49.000    21252190.391 8  87024175.795 8     -1736.210          48.000
G18  23996607.844 5 126103019.073 5     -3166.594          32.000
G26  23113204.594 6 121460750.590 6     -3499.219          37.000    23113198.016 6  94644680.886 6     -2726.667          36.000
G27  20392222.203 7 107161851.284 7       723.871          46.000    20392223.070 7  83502732.167 7       564.055          46.000
R05  22189508.000 6 118615639.945 6     -2068.316          38.000    22189517.836 5  92256655.335 5     -1608.691          30.000
R06  20841652.164 5 111215048.057 5      2156.934          34.000
R11  22106153.742 6 118128647.215 6     -3835.215          39.000    22106155.305 5  91877748.004 5     -2982.942          34.000
R12  20996076.492 5 112157252.025 5      -806.910          30.000
R21  20010179.203 6 107078490.998 6     -1027.512          37.000    20010183.180 6  83283328.433 6      -799.176          37.000
C05  39618682.094 5 206304872.795 5       -11.152          35.000
C30  21658316.469 7 112780524.029 7       579.504          45.000
E02  26233539.328 6 137858186.197 6     -3063.484          38.000    26233541.859 6 105631637.694 6     -2347.276          41.000
E05  27167576.688 7 142766595.769 7      2738.531          45.000    27167582.828 7 109392605.868 7      2098.466          45.000
E30  23390659.711 6 122918738.734 6     -1079.539          37.000    23390667.945 6  94184488.060 6      -827.209          37.000
E36  24594095.547 6 129242834.625 6     -1662.250          38.000    24594096.281 5  99030248.333 5     -1273.753          32.000
> 2020 05 10 16 07 30.0000000  0 16        .000000000000
G10  21080709.531 8 110779889.930 8      1029.781          51.000    21080710.672 8  86322011.086 8       802.427          51.000
G16  21264952.258 8 111748082.217 8     -2243.613          50.000    21264951.766 7  87076433.170 7     -1748.273          46.000
G18  24014689.516 5 126198037.553 5     -3167.977          32.000
G26  23133192.891 6 121565800.324 6     -3504.594          39.000    23133190.070 6  94726537.680 6     -2730.858          39.000
G27  20388122.375 7 107140306.126 7       711.730          44.000    20388123.438 7  83485943.708 7       554.595          44.000
R05  22201178.297 6 118678025.975 6     -2091.176          37.000    22201190.484 5  92305177.809 5     -1626.470          30.000
R06  20829586.883 5 111150665.170 5      2134.266          32.000
R11  22127712.961 5 118243841.193 5     -3845.258          34.000    22127714.531 5  91967343.310 5     -2990.756          33.000
R21  20015962.648 6 107109442.986 6     -1036.637          40.000    20015967.641 6  83307402.242 6      -806.270          37.000
C05  39618743.711 5 206305194.135 5       -10.469          34.000
C27  23168612.078 5 120645044.645 5     -1937.039          35.000
C30  21654997.250 7 112763238.079 7       572.086          44.000
E02  26251035.281 6 137950134.158 6     -3067.254          36.000    26251038.719 6 105702091.289 6     -2350.192          41.000
E05  27151947.383 7 142684462.385 7      2736.164          45.000    27151952.719 7 109329672.624 7      2096.559          44.000
E30  23396859.508 6 122951319.575 6     -1093.293          40.000    23396866.102 6  94209452.582 6      -837.290          36.000
E36  24603589.328 5 129292725.844 5     -1664.703          35.000
> 2020 05 10 16 08  0.0000000  0 15        .000000000000
G10  21074882.656 8 110749269.185 8      1010.938          51.000    21074883.758 8  86298150.785 8       787.744          51.000
G16  21277805.023 8 111815621.051 8     -2259.660          51.000    21277803.508 7  87129060.795 7     -1760.774          45.000
G18  24032778.539 5 126293093.029 5     -3169.672          33.000
G26  23153215.469 6 121671027.629 6     -3511.023          41.000    23153214.969 6  94808532.885 6     -2735.865          41.000
G27  20384094.016 7 107119137.267 7       699.004          45.000    20384095.227 7  83469448.496 7       544.678          45.000
R05  22212981.000 6 118741111.401 6     -2115.191          37.000    22212993.156 4  92354244.201 4     -1645.152          24.000
R06  20817650.562 5 111086971.009 5      2110.570          30.000
R11  22149332.789 5 118359356.028 5     -3856.273          34.000    22149331.969 4  92057188.092 4     -2999.327          28.000
R21  20021799.789 6 107140680.011 6     -1046.453          40.000    20021805.117 6  83331697.724 6      -813.908          38.000
C05  39618805.555 5 206305516.182 5       -11.312          34.000
C30  21651722.703 7 112746185.340 7       563.996          43.000
E02  26268554.867 6 138042205.789 6     -3071.305          36.000    26268559.320 6 105772639.641 6     -2353.523          41.000
E05  27136335.445 7 142602419.172 7      2732.738          46.000    27136339.992 7 109266808.407 7      2093.937          46.000
E30  23403140.117 6 122984320.635 6     -1107.465          41.000    23403141.203 6  94234739.035 6      -848.382          37.000
E36  24613100.039 5 129342708.121 5     -1667.688          34.000    24613101.195 5  99106757.641 5     -1278.350          33.000
> 2020 05 10 16 08 30.0000000  0 18        .000000000000
G10  21069165.234 8 110719224.346 8       993.180          51.000    21069166.289 8  86274739.252 8       773.909          51.000
G16  21290751.375 8 111883651.855 8     -2274.594          51.000    21290748.828 7  87182071.773 7     -1772.411          44.000
G18  24050876.906 4 126388211.182 4     -3170.496          29.000
G20  21277923.602 5 111816243.375 5     -1415.945          35.000
G26  23173275.383 6 121776448.637 6     -3515.969          41.000    23173276.586 6  94890679.056 6     -2739.719          41.000
G27  20380141.141 7 107098364.582 7       687.016          47.000    20380142.242 7  83453261.991 7       535.337          46.000
R05  22224918.180 6 118804912.212 6     -2137.230          39.000    22224924.938 4  92403856.902 4     -1662.290          25.000
R06  20805847.648 4 111023987.663 4      2088.887          29.000
R11  22171015.336 6 118475205.953 6     -3865.660          39.000    22171007.875 4  92147293.611 4     -3006.628          25.000
R12  21010332.773 4 112233451.023 4      -886.000          28.000    21010340.289 4  87292691.339 4      -689.114          28.000
R21  20027694.117 7 107172220.810 7     -1055.191          42.000    20027700.562 6  83356229.449 6      -820.707          39.000
C05  39618871.031 5 206305857.265 5       -10.645          34.000
C27  23190981.039 6 120761506.988 6     -1948.227          36.000
C30  21648496.078 7 112729384.931 7       557.051          43.000
E02  26286101.523 6 138134417.872 6     -3074.930          37.000    26286107.383 6 105843295.625 6     -2356.226          40.000
E05  27120744.734 8 142520486.832 8      2730.383          48.000    27120749.438 7 109204029.199 7      2092.076          47.000
E30  23409503.805 7 123017759.819 7     -1120.684          42.000    23409502.031 6  94260361.253 6      -858.688          39.000
E36  24622631.984 6 129392803.992 6     -1670.176          40.000
> 2020 05 10 16 09  0.0000000  0 17        .000000000000
G10  21063570.109 8 110689822.073 8       977.602          51.000    21063570.672 8  86251828.398 8       761.767          51.000
G16  21303803.203 8 111952238.507 8     -2287.152          49.000    21303800.438 7  87235515.862 7     -1782.200          45.000
G20  21286076.289 5 111859090.694 5     -1430.148          34.000
G26  23193384.469 6 121882126.638 6     -3518.988          41.000    23193387.133 6  94973025.421 6     -2742.078          40.000
G27  20376276.328 7 107078054.850 7       677.590          47.000    20376277.477 7  83437436.240 7       527.995          47.000
R05  22237000.766 6 118869492.386 6     -2157.293          37.000    22237008.031 5  92454099.008 5     -1677.891          30.000
R06  20794192.391 5 110961770.858 5      2068.938          32.000
R11  22192770.359 6 118591453.135 6     -3873.168          39.000
R12  21015411.039 5 112260523.696 5      -909.328          35.000    21015411.711 5  87313757.967 5      -707.252          30.000
R21  20033658.055 7 107204131.914 7     -1061.398          42.000    20033664.734 6  83381049.193 6      -825.529          39.000
C05  39618953.008 5 206306283.676 5        -7.391          35.000
C27  23202244.086 6 120820138.012 6     -1950.551          37.000
C30  21645330.422 7 112712902.415 7       552.254          45.000
E02  26303687.836 6 138226834.258 6     -3075.504          38.000    26303695.055 6 105914108.149 6     -2356.690          40.000
E05  27105188.086 8 142438733.254 8      2730.430          48.000    27105192.414 7 109141386.897 7      2092.001          46.000
E30  23415962.820 7 123051702.111 7     -1131.598          43.000    23415962.172 6  94286368.960 6      -867.170          41.000
E36  24632197.773 6 129443070.559 6     -1670.172          37.000    24632199.805 5  99183658.651 5     -1279.634          34.000
> 2020 05 10 16 09 30.0000000  0 17        .000000000000
G10  21058055.008 8 110660840.134 8       954.633          51.000    21058055.578 8  86229245.085 8       743.870          51.000
G16  21316917.352 8 112021155.637 8     -2307.156          48.000    21316915.336 7  87289217.487 7     -1797.784          45.000
G20  21294300.695 6 111902312.458 6     -1451.191          38.000
G26  23213499.727 5 121987835.882 5     -3527.871          35.000    23213503.531 5  95055396.270 5     -2748.990          35.000
G27  20372457.336 7 107057986.152 7       660.344          47.000    20372458.547 7  83421798.296 7       514.554          47.000
R05  22249185.672 5 118934622.494 5     -2185.105          35.000    22249190.820 5  92504755.864 5     -1699.520          30.000
R06  20782641.594 6 110900126.790 6      2041.188          36.000
R11  22214554.664 5 118707866.634 5     -3888.113          34.000
R21  20039648.711 6 107236186.161 6     -1075.238          41.000    20039654.734 6  83405980.261 6      -836.299          40.000
R22  20734971.406 5 110684685.102 5      1926.953          32.000
C05  39619008.609 5 206306573.506 5       -11.902          35.000
C27  23213505.695 5 120878798.202 5     -1960.074          35.000
C30  21642183.914 7 112696517.332 7       540.164          45.000
E02  26321271.039 6 138319230.131 6     -3083.809          40.000    26321278.734 6 105984904.937 6     -2362.915          40.000
E05  27089622.914 8 142356937.339 8      2722.887          48.000    27089626.594 8 109078712.211 8      2086.338          48.000
E30  23422474.742 7 123085923.590 7     -1149.844          43.000    23422476.086 7  94312590.624 7      -881.106          42.000
E36  24641754.031 6 129493288.707 6     -1677.625          37.000    24641758.734 6  99222137.506 6     -1285.567          36.000
> 2020 05 10 16 10  0.0000000  0 17        .000000000000
G10  21052643.000 8 110632400.575 8       940.574          51.000    21052643.883 8  86207084.428 8       732.915          51.000
G16  21330116.688 7 112090522.654 7     -2317.969          46.000    21330116.180 7  87343269.696 7     -1806.209          45.000
G18  24105203.195 5 126673689.119 5     -3170.355          32.000
G20  21302619.688 5 111946028.464 5     -1464.246          35.000    21302626.688 5  87230693.750 5     -1140.971          33.000
G27  20368707.414 7 107038280.780 7       652.488          47.000    20368708.664 7  83406443.456 7       508.432          47.000
R05  22261495.180 5 119000423.153 5     -2202.168          32.000    22261502.016 4  92555925.155 4     -1712.797          26.000
R06  20771216.859 5 110839166.374 5      2021.969          35.000
R11  22236391.242 6 118824565.113 6     -3893.070          37.000
R21  20045689.273 7 107268506.935 7     -1080.039          43.000    20045694.555 6  83431118.630 6      -840.027          40.000
R22  20724141.648 5 110626851.930 5      1923.227          30.000    20724148.586 4  86043152.625 4      1495.843          25.000
C05  39619060.938 5 206306845.842 5        -7.555          35.000
C27  23224796.484 6 120937607.607 6     -1961.176          38.000
C30  21639079.383 7 112680350.414 7       536.855          44.000
E02  26338873.453 6 138411724.819 6     -3083.125          38.000    26338881.453 6 106055777.463 6     -2362.406          38.000
E05  27074073.164 7 142275222.541 7      2724.035          47.000    27074076.391 7 109016099.673 7      2087.206          47.000
E30  23429062.688 7 123120544.675 7     -1159.031          42.000    23429065.727 7  94339118.484 7      -888.185          43.000
E36                                                                  24651330.781 5  99260671.855 5     -1284.130          34.000
> 2020 05 10 16 10 30.0000000  0 18        .000000000000
G10  21047342.078 8 110604545.305 8       919.508          51.000    21047343.117 8  86185379.025 8       716.497          51.000
G16  21343409.156 7 112160378.600 7     -2335.953          47.000    21343409.953 7  87397702.937 7     -1820.223          46.000
G18  24123318.523 5 126768884.281 5     -3173.480          34.000    24123316.336 5  98780945.655 5     -2472.842          31.000
G20  21311039.805 6 111990278.021 6     -1483.434          40.000    21311033.719 4  87265118.912 4     -1155.922          27.000
G26  23253833.531 5 122199720.662 5     -3537.578          31.000
G27  20365034.695 7 107018980.900 7       637.215          47.000    20365036.195 7  83391404.587 7       496.534          47.000
R05  22273936.383 5 119066933.050 5     -2228.164          34.000
R06  20759928.641 6 110778934.801 6      1996.359          39.000
R11  22258288.828 6 118941585.694 6     -3905.203          37.000    22258302.125 4  92510145.285 4     -3037.386          28.000
R12  21031413.422 5 112346087.946 5      -989.656          33.000
R21  20051787.062 7 107301135.661 7     -1091.988          43.000    20051791.469 6  83456496.517 6      -849.324          41.000
C05  39619117.969 5 206307143.408 5        -9.406          35.000
C27  23236127.078 6 120996606.631 6     -1969.129          38.000
C30  21636024.000 7 112664442.891 7       526.734          44.000
E02  26356501.930 6 138504357.667 6     -3089.695          36.000    26356510.320 6 106126755.800 6     -2367.279          36.000
E05  27058546.602 7 142193631.939 7      2718.234          47.000    27058549.125 7 108953582.282 7      2082.833          46.000
E30  23435734.367 6 123155605.604 6     -1175.469          41.000    23435738.562 7  94365983.354 7      -900.621          44.000
E36  24660913.352 5 129593977.193 5     -1681.352          33.000    24660920.719 5  99299293.007 5     -1288.093          34.000
> 2020 05 10 16 11  0.0000000  0 18        .000000000000
G10  21042159.562 8 110577312.677 8       898.543          51.000    21042161.242 8  86164158.799 8       700.166          51.000
G16  21356802.062 8 112230759.049 8     -2353.594          48.000    21356803.109 7  87452544.851 7     -1833.969          47.000
G18  24141451.602 5 126864171.381 5     -3176.711          34.000
G20  21319568.516 6 112035097.017 6     -1502.383          40.000    21319569.258 5  87300054.868 5     -1170.685          31.000
G26  23274049.102 5 122305998.846 5     -3545.168          33.000    23274059.750 5  95303369.064 5     -2762.469          33.000
G27  20361446.617 8 107000125.178 8       622.242          48.000    20361448.383 8  83376711.809 8       484.864          48.000
R05  22286517.195 5 119134187.655 5     -2253.055          35.000    22286519.352 4  92659940.113 4     -1752.370          27.000
R06  20748785.570 6 110719473.373 6      1970.180          36.000
R11  22280252.617 5 119058962.225 5     -3917.590          33.000    22280271.562 5  92601438.071 5     -3047.017          30.000
R12  21037064.664 5 112376234.524 5     -1018.559          33.000
R21  20057949.336 7 107334110.523 7     -1103.766          43.000    20057953.398 7  83482143.585 7      -858.487          42.000
C05  39619187.117 5 206307502.648 5       -12.141          35.000
C27  23247500.906 5 121055832.498 5     -1977.359          31.000
C30  21633025.039 7 112648832.536 7       516.539          44.000
E02  26374163.750 5 138597163.220 5     -3095.758          32.000    26374171.930 5 106197867.288 5     -2371.571          34.000
E05  27043051.500 8 142112205.200 8      2712.602          48.000    27043053.281 7 108891190.434 7      2078.355          47.000
E30  23442496.492 6 123191143.105 6     -1191.500          40.000    23442501.742 7  94393213.355 7      -912.893          45.000
E36                                                                  24670539.609 5  99338029.470 5     -1292.645          35.000
> 2020 05 10 16 11 30.0000000  0 19        .000000000000
G10  21037081.008 8 110550625.765 8       880.516          51.000    21037083.297 8  86143363.820 8       686.116          51.000
G16  21370280.211 8 112301584.487 8     -2368.238          50.000    21370280.828 8  87507733.494 8     -1845.380          48.000
G18  24159586.836 5 126959485.495 5     -3177.484          31.000
G20  21328191.023 5 112080406.210 5     -1518.203          35.000    21328195.930 5  87335360.860 5     -1183.003          34.000
G21  24034839.453 5 126303932.838 5     -2595.746          30.000
G26  23294297.391 5 122412414.107 5     -3549.605          31.000    23294316.594 4  95386290.098 4     -2765.929          29.000
G27  20357928.562 8 106981637.001 8       610.195          48.000    20357930.336 7  83362305.433 7       475.477          47.000
R05  22299222.117 6 119202105.134 6     -2274.836          36.000    22299225.367 4  92712771.833 4     -1769.317          27.000
R06  20737771.516 5 110660705.869 5      1947.516          34.000
R12  21042856.039 5 112407168.633 5     -1044.340          34.000
R21  20064161.203 7 107367352.216 7     -1112.414          43.000    20064165.445 7  83507998.261 7      -865.211          43.000
R22  20691964.656 5 110455150.278 5      1897.992          33.000    20691955.328 4  85909511.258 4      1476.207          28.000
C05  39619253.117 5 206307846.432 5       -11.387          35.000
C27  23258900.422 5 121115208.206 5     -1981.445          35.000
C30  21630068.680 7 112633442.863 7       509.621          44.000
E02  26391854.320 5 138690125.141 5     -3097.809          33.000    26391850.281 5 106269051.040 5     -2374.262          35.000
E05  27027573.336 8 142030866.681 8      2709.867          48.000    27027575.281 7 108828866.206 7      2076.398          47.000
E30  23449334.305 6 123227078.561 6     -1204.418          39.000    23449339.922 7  94420748.325 7      -922.806          45.000
E36  24680169.469 5 129695165.274 5     -1688.891          32.000    24680174.039 6  99376821.395 6     -1293.902          36.000
> 2020 05 10 16 12  0.0000000  0 17        .000000000000
G10  21032124.312 8 110524578.589 8       860.457          51.000    21032126.547 8  86123067.312 8       670.486          51.000
G16  21383860.664 8 112372946.132 8     -2384.770          51.000    21383860.570 8  87563339.951 8     -1858.262          48.000
G20  21336923.836 7 112126297.275 7     -1536.566          42.000    21336926.422 4  87371120.166 4     -1197.321          27.000
G26  23314590.570 5 122519063.622 5     -3555.492          32.000    23314617.156 5  95469393.659 5     -2770.510          32.000
G27  20354498.352 8 106963610.690 8       596.172          48.000    20354500.094 8  83348258.947 8       464.550          48.000
R05  22312068.273 5 119270777.264 5     -2298.898          33.000
R06  20726907.133 6 110602730.922 6      1922.246          36.000
R12  21048807.758 5 112438962.911 5     -1070.859          30.000    21048822.016 4  87452579.027 4      -832.894          26.000
R21  20070440.859 7 107400955.499 7     -1123.285          45.000    20070445.055 7  83534134.130 7      -873.666          43.000
R22  20681327.609 5 110398419.570 5      1888.477          33.000    20681332.094 4  85865387.376 4      1468.812          26.000
C05  39619333.836 5 206308266.346 5       -12.375          35.000
C27  23270350.219 5 121174825.761 5     -1988.668          31.000
C30  21627173.320 7 112618366.893 7       500.117          44.000
E02  26409566.773 5 138783210.676 5     -3103.332          34.000    26409563.109 6 106340376.979 6     -2377.764          36.000
E05  27012130.336 7 141949711.798 7      2705.035          47.000    27012132.289 7 108766682.652 7      2072.668          47.000
E30  23456265.180 5 123263504.445 5     -1219.488          35.000    23456270.938 7  94448659.069 7      -934.362          45.000
E36                                                                  24689840.938 5  99415740.146 5     -1297.024          35.000
> 2020 05 10 16 12 30.0000000  0 16        .000000000000
G10  21027266.047 8 110499048.408 8       842.543          51.000    21027268.086 8  86103173.664 8       656.527          51.000
G16  21397519.109 8 112444718.221 8     -2398.961          51.000    21397518.570 8  87619266.220 8     -1869.323          48.000
G20  21345743.758 6 112172645.095 6     -1552.141          39.000    21345743.234 4  87407235.206 4     -1209.469          28.000
G26  23334903.820 5 122625821.484 5     -3559.887          32.000    23334932.547 5  95552646.625 5     -2773.929          32.000
G27  20351132.688 8 106945923.919 8       584.004          49.000    20351134.367 8  83334477.045 8       455.068          49.000
R06  20716167.812 5 110545425.513 5      1899.348          35.000
R11  22346492.797 6 119412884.843 6     -3945.137          39.000    22346480.602 4  92876670.495 4     -3068.440          29.000
R21  20076764.773 7 107434794.664 7     -1131.789          45.000    20076768.398 7  83560453.472 7      -880.283          44.000
R22  20670729.062 5 110341866.666 5      1882.430          32.000
C05  39619405.844 5 206308642.119 5       -11.246          34.000
C27  23281822.445 5 121234563.056 5     -1993.125          31.000
C30  21624315.516 7 112603482.836 7       493.191          45.000
E02  26427289.938 6 138876349.539 6     -3105.480          36.000    26427287.641 6 106411749.164 6     -2379.742          38.000
E05  26996698.711 7 141868619.175 7      2702.223          45.000    26996701.703 8 108704546.828 8      2070.540          48.000
E30  23463263.648 5 123300282.373 5     -1232.559          32.000    23463271.961 7  94476850.292 7      -944.171          45.000
E36                                                                  24699511.805 5  99454690.998 5     -1298.706          34.000
> 2020 05 10 16 13  0.0000000  0 17        .000000000000
G10  21022498.320 8 110473993.646 8       824.039          51.000    21022500.320 8  86083650.491 8       642.108          51.000
G16  21411246.992 8 112516856.641 8     -2413.918          51.000    21411246.234 7  87675477.943 7     -1880.978          47.000
G20  21354642.227 6 112219405.219 6     -1568.824          37.000
G26  23355230.164 5 122732642.892 5     -3566.184          31.000    23355235.531 5  95635769.268 5     -2778.853          32.000
G27  20347823.797 8 106928535.450 8       571.309          49.000    20347825.242 8  83320927.575 8       445.176          49.000
R05  22338098.672 6 119409924.633 6     -2342.180          36.000
R06  20705546.938 6 110488749.950 6      1874.902          36.000
R11  22368652.086 6 119531314.607 6     -3953.992          38.000    22368643.203 4  92968782.470 4     -3075.327          28.000
R12  21061124.461 5 112504743.273 5     -1122.035          35.000
R21  20083125.055 7 107468826.396 7     -1140.789          46.000    20083127.445 7  83586922.595 7      -887.280          44.000
C05  39619461.117 5 206308929.939 5       -11.414          35.000
C27  23293310.922 5 121294377.606 5     -1998.000          34.000
C30  21621486.547 7 112588749.436 7       485.457          45.000
E02  26445015.625 6 138969512.617 6     -3109.016          38.000    26445014.742 6 106483133.754 6     -2382.035          39.000
E05  26981270.844 7 141787548.658 7      2698.773          42.000    26981275.195 7 108642427.854 7      2067.912          47.000
E30  23470327.047 6 123337393.131 6     -1245.848          37.000    23470334.453 7  94505288.930 7      -954.491          45.000
E36  24709180.383 5 129847622.118 5     -1697.836          34.000    24709183.555 5  99493641.214 5     -1300.805          35.000
> 2020 05 10 16 13 30.0000000  0 17        .000000000000
G10  21017848.914 8 110449561.136 8       804.668          51.000    21017850.766 8  86064612.167 8       627.014          51.000
G16  21425071.758 8 112589506.018 8     -2429.520          51.000    21425071.125 7  87732087.814 7     -1893.135          47.000
G20  21363646.477 6 112266722.962 6     -1585.672          41.000
G26  23375596.383 4 122839587.801 4     -3569.840          29.000    23375605.555 4  95719196.383 4     -2781.709          29.000
G27  20344599.773 8 106911592.428 8       557.973          49.000    20344600.992 8  83307725.232 8       434.784          49.000
R05  22351308.133 6 119480529.383 6     -2365.145          36.000
R06  20695072.500 5 110432855.018 5      1850.770          35.000
R11  22390876.078 5 119650073.684 5     -3964.070          32.000    22390870.242 4  93061150.637 4     -3083.166          27.000
R12  21067495.703 6 112538793.761 6     -1147.914          37.000
R21  20089549.156 7 107503199.387 7     -1150.832          47.000    20089550.680 7  83613657.124 7      -895.092          44.000
R22  20649653.945 4 110229253.446 4      1866.789          29.000
C05  39619527.453 5 206309275.505 5       -11.621          35.000
C30  21618714.367 7 112574311.940 7       476.992          47.000
E02  26462771.805 6 139062836.048 6     -3112.469          39.000    26462771.906 6 106554641.300 6     -2385.085          39.000
E05  26965872.664 6 141706648.433 6      2694.629          36.000    26965881.008 8 108580439.371 8      2064.572          49.000
E30  23477480.023 6 123374976.031 6     -1259.859          41.000    23477485.984 7  94534086.204 7      -965.317          45.000
E36  24718881.797 5 129898600.412 5     -1701.449          32.000    24718884.711 5  99532702.528 5     -1303.214          34.000
> 2020 05 10 16 14  0.0000000  0 15        .000000000000
G10  21013304.820 8 110425681.703 8       786.191          51.000    21013306.039 8  86046004.811 8       612.617          51.000
G16  21438979.688 8 112662593.369 8     -2444.078          51.000    21438979.242 7  87789038.959 7     -1904.476          46.000
G20  21372743.555 6 112314526.195 6     -1602.082          38.000
G27  20341447.383 8 106895026.165 8       545.301          50.000    20341448.664 8  83294816.460 8       424.910          50.000
R05  22364639.703 6 119551786.034 6     -2386.918          36.000    22364645.422 4  92984759.514 4     -1856.492          25.000
R06  20684731.883 6 110377673.562 6      1826.938          37.000
R07  22890306.602 6 122533612.905 6      4302.980          38.000
R12  21074010.008 6 112573606.267 6     -1173.227          36.000
R21  20096023.414 7 107537842.327 7     -1159.910          46.000    20096024.188 7  83640601.636 7      -902.152          44.000
C05  39619591.688 5 206309609.901 5       -11.680          35.000
C30  21615986.031 7 112560101.788 7       469.359          47.000
E02  26480544.969 6 139156248.440 6     -3115.605          37.000    26480546.875 6 106626216.958 6     -2387.369          40.000
E05  26950494.992 6 141625850.967 6      2690.746          38.000    26950506.641 8 108518529.528 8      2061.971          50.000
E30  23484708.641 7 123412956.289 7     -1273.230          42.000    23484712.773 7  94563187.938 7      -975.478          44.000
E36  24728598.094 6 129949655.783 6     -1703.645          38.000    24728600.750 5  99571821.295 5     -1305.348          33.000
> 2020 05 10 16 14 30.0000000  0 16        .000000000000
G10  21008868.672 8 110402370.047 8       767.660          51.000    21008869.648 8  86027839.917 8       598.180          51.000
G16  21452973.383 8 112736130.878 8     -2458.734          51.000    21452972.898 7  87846340.890 7     -1915.897          46.000
G20  21381935.320 6 112362827.261 6     -1618.000          36.000
G26  23416418.188 4 123054106.726 4     -3580.215          29.000    23416417.922 5  95886316.910 5     -2789.784          32.000
G27  20338369.422 8 106878851.777 8       532.727          50.000    20338370.766 8  83282213.024 8       415.112          50.000
R05  22378094.516 5 119623705.748 5     -2408.320          33.000
R06  20674528.000 6 110323222.638 6      1802.543          36.000
R07  22866206.414 7 122404584.969 7      4298.590          42.000
R12  21080675.805 5 112609188.316 5     -1198.797          31.000
R21  20102550.188 7 107572769.489 7     -1168.988          47.000    20102551.156 7  83667767.201 7      -909.213          45.000
C05  39619656.297 5 206309945.950 5       -11.355          35.000
C30  21613304.078 7 112546133.470 7       461.551          47.000
E02  26498337.078 6 139249761.857 6     -3118.652          36.000    26498341.789 6 106697870.006 6     -2389.458          40.000
E05  26935142.430 6 141545172.029 6      2687.379          41.000    26935154.281 8 108456710.700 8      2059.151          51.000
E30  23492015.023 7 123451347.033 7     -1286.516          43.000    23492017.383 7  94592604.213 7      -985.787          44.000
E36  24738329.977 6 130000797.793 6     -1706.098          38.000    24738332.875 5  99611015.061 5     -1307.270          32.000
> 2020 05 10 16 15  0.0000000  0 17        .000000000000
G10  21004539.430 8 110379620.870 8       747.820          51.000    21004540.164 8  86010113.323 8       582.717          51.000
G16  21467051.391 8 112810110.959 8     -2474.543          51.000    21467050.789 7  87903987.676 7     -1928.218          46.000
G20  21391220.156 5 112411618.597 5     -1635.500          32.000
G26  23436865.727 5 123161554.587 5     -3585.148          32.000    23436863.734 5  95970041.527 5     -2793.625          31.000
G27  20335365.117 8 106863064.390 8       518.645          50.000    20335366.414 8  83269911.163 8       404.139          50.000
R05  22391670.961 5 119696279.451 5     -2430.809          31.000    22391676.812 4  93097156.268 4     -1890.629          24.000
R06  20664460.109 5 110269498.737 5      1778.117          34.000
R07  22842130.023 6 122275701.211 6      4292.254          41.000    22842141.492 4  95103365.822 4      3338.420          24.000
R11  22457831.836 5 120007843.844 5     -3989.648          30.000    22457831.602 4  93339431.926 4     -3103.060          24.000
R12  21087479.219 5 112645539.614 5     -1226.195          33.000    21087499.695 4  87613263.345 4      -953.704          27.000
R21  20109129.164 8 107607974.598 8     -1179.211          49.000    20109130.195 7  83695148.927 7      -917.167          46.000
C05  39619720.383 5 206310279.981 5       -12.090          35.000
C30  21610667.352 8 112532401.675 8       452.695          48.000
E02  26516147.594 5 139343368.529 5     -3122.621          32.000    26516154.453 6 106769594.561 6     -2392.912          39.000
E05  26919812.930 7 141464608.076 7      2682.527          46.000    26919823.727 8 108394979.953 8      2055.317          51.000
E30  23499397.672 7 123490141.313 7     -1300.863          43.000    23499399.492 7  94622329.738 7      -996.780          44.000
E36  24748077.820 6 130052022.517 6     -1709.965          39.000    24748079.797 5  99650261.192 5     -1310.095          31.000
> 2020 05 10 16 15 30.0000000  0 16        .000000000000
G10  21000323.430 8 110357466.498 8       730.281          51.000    21000323.906 8  85992850.212 8       569.050          51.000
G16  21481219.383 8 112884563.152 8     -2487.949          51.000    21481218.344 7  87962002.356 7     -1938.662          47.000
G26  23457345.758 5 123269169.112 5     -3588.332          33.000    23457342.281 5  96053896.936 5     -2796.109          33.000
G27  20332440.664 8 106847696.727 8       507.023          50.000    20332441.953 8  83257936.368 8       395.083          50.000
R06  20654534.805 5 110216537.444 5      1754.160          34.000
R07  22818086.312 6 122146998.276 6      4288.656          40.000    22818098.211 4  95003263.480 4      3335.622          26.000
R11  22480262.094 5 120127654.870 5     -3997.230          32.000    22480257.148 5  93432636.599 5     -3108.963          31.000
R12  21094438.445 5 112682689.442 5     -1249.363          33.000    21094445.422 4  87642157.439 4      -971.739          26.000
R21  20115765.852 8 107643489.914 8     -1187.324          50.000    20115766.938 7  83722771.943 7      -923.474          46.000
C05  39619790.023 5 206310642.445 5       -11.023          35.000
C27  23351268.594 5 121596173.154 5     -2025.680          30.000
C30  21608082.219 8 112518938.399 8       445.961          49.000
E02                                                                  26533990.977 6 106841413.483 6     -2394.286          37.000
E05  26904512.273 8 141384192.804 8      2679.754          48.000    26904520.867 8 108333363.101 8      2053.321          50.000
E30  23506863.367 7 123529370.043 7     -1313.066          44.000    23506865.648 7  94652388.105 7     -1006.077          45.000
E36  24757846.766 5 130103361.262 5     -1711.301          31.000    24757850.445 5  99689598.674 5     -1311.610          31.000
> 2020 05 10 16 16  0.0000000  0 18        .000000000000
G10  20996189.625 8 110335743.977 8       709.633          51.000    20996190.820 8  85975923.623 8       552.961          51.000
G16  21495445.672 8 112959321.698 8     -2504.289          51.000    21495444.219 7  88020255.752 7     -1951.394          47.000
G21  24168327.617 5 127005434.199 5     -2601.758          33.000
G26  23477825.344 6 123376784.697 6     -3594.004          36.000    23477821.461 6  96137753.140 6     -2800.523          36.000
G27  20329565.195 8 106832586.388 8       491.984          50.000    20329566.516 8  83246162.076 8       383.361          50.000
R05  22419176.922 5 119843377.274 5     -2475.273          32.000
R06  20644721.953 5 110164175.214 5      1728.430          35.000
R07  22794046.211 6 122018314.169 6      4281.875          39.000    22794052.242 4  94903162.879 4      3330.350          27.000
R11  22502704.328 5 120247576.102 5     -4006.434          35.000    22502698.953 5  93525908.544 5     -3116.115          34.000
R12  21101510.547 4 112720466.982 4     -1277.434          28.000    21101511.148 4  87671491.281 4      -993.547          26.000
R21  20122429.305 8 107679148.827 8     -1198.402          50.000    20122430.672 7  83750506.627 7      -932.094          47.000
C05  39619833.875 5 206310871.335 5       -12.734          35.000
C27  23362936.539 5 121656912.347 5     -2032.129          35.000
C30  21605517.289 8 112505582.193 8       436.164          48.000
E02                                                                  26551820.000 5 106913200.065 5     -2397.806          35.000
E05  26889209.148 8 141303764.858 8      2673.777          49.000    26889215.328 8 108271736.539 8      2048.792          50.000
E30  23514380.938 7 123568868.680 7     -1328.469          45.000    23514382.938 7  94682653.259 7     -1017.825          44.000
E36  24767606.531 5 130154648.410 5     -1716.098          35.000    24767613.617 5  99728898.091 5     -1315.007          32.000
> 2020 05 10 16 16 30.0000000  0 17        .000000000000
G10  20992193.430 8 110314743.865 8       688.910          51.000    20992195.312 8  85959559.945 8       536.816          51.000
G16  21509784.820 8 113034674.408 8     -2520.715          51.000    21509783.570 7  88078972.122 7     -1964.193          47.000
G26  23498359.914 6 123484688.860 6     -3600.734          36.000    23498354.531 6  96221834.260 6     -2805.767          36.000
G27  20326794.070 8 106818024.407 8       477.051          51.000    20326795.227 8  83234815.094 8       371.728          51.000
R05  22433129.953 5 119917953.853 5     -2498.184          33.000
R06  20635077.586 5 110112709.340 5      1702.188          34.000
R07  22770066.133 6 121889948.909 6      4274.242          38.000    22770070.492 4  94803323.310 4      3324.417          28.000
R11  22525219.461 6 120367898.219 6     -4016.301          38.000    22525216.852 5  93619492.280 5     -3123.793          35.000
R12  21108749.812 5 112759149.546 5     -1304.758          30.000    21108756.773 4  87701581.077 4     -1014.812          28.000
R21  20129175.078 8 107715246.612 8     -1209.613          51.000    20129176.500 8  83778582.675 8      -940.810          48.000
C05  39619907.562 5 206311255.152 5       -14.461          35.000
C27  23374664.742 5 121717968.699 5     -2040.082          30.000
C30  21603027.711 8 112492621.055 8       426.375          48.000
E02                                                                  26569696.914 5 106985175.167 5     -2401.484          32.000
E05  26873958.547 8 141223616.327 8      2667.906          50.000    26873962.883 8 108210324.099 8      2044.171          49.000
E30  23522004.570 7 123608926.302 7     -1343.645          45.000    23522005.375 7  94713346.728 7     -1029.465          43.000
E36  24777413.570 5 130206186.528 5     -1721.145          33.000    24777424.719 5  99768381.380 5     -1318.548          34.000
> 2020 05 10 16 17  0.0000000  0 18        .000000000000
G10  20988316.164 8 110294367.686 8       672.027          51.000    20988318.094 8  85943682.408 8       523.658          51.000
G16  21524217.289 8 113110520.007 8     -2533.145          50.000    21524216.719 7  88138072.552 7     -1973.879          46.000
G20  21429305.203 5 112611776.286 5     -1701.113          30.000
G26  23518929.453 5 123592780.067 5     -3603.453          35.000    23518923.156 5  96306061.118 5     -2807.886          34.000
G27  20324108.672 8 106803912.790 8       466.172          51.000    20324109.680 8  83223819.026 8       363.251          51.000
R05  22447209.578 5 119993232.061 5     -2518.012          32.000
R06  20625582.641 5 110062042.052 5      1678.746          35.000
R07  22746128.398 6 121761805.716 6      4270.953          39.000    22746132.656 4  94703656.493 4      3321.855          25.000
R11  22547789.180 6 120488515.684 6     -4022.227          39.000    22547789.445 5  93713305.759 5     -3128.401          33.000
R12  21116146.359 5 112798667.022 5     -1327.438          33.000
R21  20135983.969 8 107751682.154 8     -1216.828          51.000    20135985.383 8  83806921.417 8      -946.425          49.000
C05  39619991.766 5 206311692.753 5       -12.812          35.000
C27  23386425.953 5 121779251.221 5     -2042.848          31.000
C30  21600595.398 8 112479957.390 8       420.363          48.000
E02                                                                  26587601.305 4 107057252.452 4     -2402.831          29.000
E05  26858742.141 8 141143650.334 8      2665.633          49.000    26858745.016 8 108149051.508 8      2042.465          49.000
E30  23529714.695 7 123649442.833 7     -1355.086          44.000    23529714.188 7  94744391.821 7     -1038.262          43.000
E36  24787247.953 5 130257856.444 5     -1721.691          35.000    24787262.977 5  99807972.470 5     -1318.880          33.000
> 2020 05 10 16 17 30.0000000  0 16        .000000000000
G10  20984541.188 8 110274529.039 8       653.805          51.000    20984543.430 8  85928223.745 8       509.461          51.000
G16  21538726.461 8 113186769.668 8     -2546.832          50.000    21538726.500 7  88197487.857 7     -1984.544          45.000
G20  21439066.734 6 112663081.623 6     -1716.328          39.000
G26  23539517.109 5 123700969.010 5     -3606.406          33.000    23539510.266 5  96390364.107 5     -2810.187          33.000
G27  20321492.664 8 106790165.678 8       453.719          51.000    20321493.750 8  83213106.992 8       353.547          51.000
R06  20616221.602 6 110012087.792 6      1654.648          37.000
R07  22722215.914 5 121633800.268 5      4266.359          32.000
R11  22570396.383 6 120609335.914 6     -4029.109          39.000    22570398.227 4  93807277.084 4     -3133.749          28.000
R12  21123680.992 5 112838910.759 5     -1351.898          35.000
R21  20142839.328 8 107788366.828 8     -1225.410          51.000    20142840.750 8  83835453.920 8      -953.097          49.000
C05  39620070.133 5 206312101.104 5       -11.414          35.000
C30  21598203.953 8 112467505.678 8       413.027          48.000
E02  26605506.648 5 139812870.802 5     -3137.449          34.000    26605518.445 5 107129396.904 5     -2403.672          30.000
E05  26843543.734 8 141063782.027 8      2662.180          49.000    26843546.031 8 108087853.797 8      2039.813          49.000
E30  23537494.625 7 123690330.299 7     -1367.336          43.000    23537493.500 7  94775721.166 7     -1047.783          44.000
E36  24797092.773 6 130309580.008 6     -1723.359          38.000
> 2020 05 10 16 18  0.0000000  0 16        .000000000000
G10  20980847.273 8 110255116.366 8       641.723          51.000    20980849.617 8  85913096.992 8       500.044          51.000
G16  21553291.047 8 113263309.113 8     -2554.281          50.000    21553291.148 7  88257128.981 7     -1990.349          46.000
G20  21448894.570 6 112714727.108 6     -1725.398          37.000    21448892.602 5  87829626.650 5     -1344.466          35.000
G21  24227736.086 5 127317597.444 5     -2594.102          32.000
G27  20318924.953 8 106776672.010 8       447.371          51.000    20318926.062 8  83202592.449 8       348.601          51.000
R05  22475693.656 5 120145414.133 5     -2552.184          31.000    22475705.531 4  93446520.763 4     -1985.035          25.000
R06  20606973.539 5 109962735.174 5      1636.523          34.000
R07  22698305.195 5 121505829.175 5      4267.559          31.000    22698305.633 4  94504519.967 4      3319.212          26.000
R11  22593018.203 6 120730240.499 6     -4029.754          37.000    22593021.445 5  93901314.042 5     -3134.256          32.000
R21  20149719.961 8 107825186.466 8     -1227.793          51.000    20149721.453 8  83864091.402 8      -954.950          49.000
C05  39620121.391 5 206312368.281 5        -4.816          35.000
C27  23410016.641 5 121902099.112 5     -2045.434          31.000
C30  21595832.078 8 112455155.445 8       411.824          48.000
E02  26623410.438 5 139906948.405 5     -3133.578          33.000
E05  26828342.812 8 140983901.418 8      2664.711          48.000    26828344.602 8 108026646.665 8      2041.699          49.000
E30  23545323.375 7 123731475.743 7     -1374.074          44.000    23545323.266 7  94807248.170 7     -1052.895          45.000
> 2020 05 10 16 18 30.0000000  0 15        .000000000000
G10  20977299.297 8 110236471.379 8       616.211          51.000    20977301.836 8  85898568.427 8       480.164          51.000
G16  21567975.703 8 113340477.357 8     -2575.262          49.000    21567975.875 7  88317260.058 7     -2006.700          47.000
G20  21458851.664 5 112767051.389 5     -1747.879          35.000
G27  20316470.617 8 106763774.113 8       427.625          51.000    20316471.656 8  83192542.135 8       333.214          51.000
R05  22490141.906 5 120222632.466 5     -2580.129          34.000
R06  20597903.500 5 109914334.111 5      1604.719          30.000
R07  22674469.859 6 121378231.988 6      4255.066          36.000    22674467.836 4  94405277.834 4      3309.499          28.000
R12  21139168.062 5 112921648.834 5     -1401.855          32.000    21139165.062 4  87827933.690 4     -1090.332          26.000
R21  20156690.688 8 107862488.517 8     -1243.828          51.000    20156692.195 8  83893104.096 8      -967.422          49.000
C05  39620210.594 5 206312832.526 5       -11.578          35.000
C30  21593544.789 8 112443245.457 8       397.168          48.000
E02  26641366.055 5 140001322.884 5     -3142.793          34.000
E05  26813204.953 8 140904351.910 8      2653.711          49.000    26813206.375 8 107965693.209 8      2033.279          49.000
E30  23553266.609 7 123773219.307 7     -1393.941          46.000    23553267.367 7  94839233.492 7     -1068.067          46.000
E36  24816806.172 5 130413198.400 5     -1728.402          33.000
> 2020 05 10 16 19  0.0000000  0 16        .000000000000
G10  20973825.367 8 110218215.910 8       602.645          51.000    20973828.133 8  85884343.384 8       469.593          51.000
G16  21582707.789 8 113417893.715 8     -2583.938          49.000    21582707.984 7  88377584.461 7     -2013.458          47.000
G20  21468865.430 6 112819674.400 6     -1758.180          37.000
G21  24257447.859 5 127473747.667 5     -2596.152          32.000
G27  20314057.812 8 106751094.338 8       419.613          51.000    20314058.844 8  83182661.796 8       326.974          51.000
R05  22504672.117 6 120300299.550 6     -2595.734          37.000
R07  22650635.055 6 121250633.599 6      4254.211          37.000    22650630.938 4  94306034.783 4      3308.837          29.000
R11  22638438.711 5 120972946.769 5     -4045.688          32.000    22638438.281 5  94090077.488 5     -3146.646          33.000
R12  21147083.109 5 112963924.850 5     -1421.305          30.000    21147093.844 4  87860873.540 4     -1105.453          28.000
R21  20163679.680 8 107899887.446 8     -1247.570          51.000    20163681.148 8  83922192.134 8      -970.336          49.000
C05  39620265.508 5 206313118.635 5        -5.852          35.000
C27  23433752.523 5 122025715.080 5     -2057.645          32.000
C30  21591270.055 8 112431401.099 8       394.297          48.000
E02  26659303.414 5 140095584.747 5     -3139.957          33.000
E05  26798058.445 8 140824756.962 8      2654.559          50.000    26798059.570 8 107904704.927 8      2033.959          48.000
E30  23561251.641 7 123815181.369 7     -1401.578          47.000    23561253.289 7  94871386.228 7     -1073.945          47.000
> 2020 05 10 16 19 30.0000000  0 15        .000000000000
G10  20970493.211 8 110200705.123 8       576.844          51.000    20970495.969 8  85870698.617 8       449.489          51.000
G16  21597554.227 8 113495910.667 8     -2604.859          50.000    21597554.328 8  88438376.859 8     -2029.761          48.000
G20  21479003.211 6 112872949.039 6     -1781.262          39.000    21479008.258 5  87952916.496 5     -1387.993          31.000
G27  20311754.203 8 106738988.469 8       399.555          51.000    20311755.289 8  83173228.650 8       311.341          51.000
R05  22519351.336 6 120378772.702 6     -2623.547          36.000
R06  20580152.469 5 109819617.937 5      1553.125          32.000
R07  22626868.680 6 121123399.875 6      4240.629          38.000    22626861.570 4  94207075.390 4      3298.276          27.000
R11  22661223.336 6 121094709.497 6     -4059.445          36.000    22661225.930 5  94184781.233 5     -3157.352          30.000
R21  20170754.320 8 107937744.114 8     -1263.836          51.000    20170755.719 8  83951636.215 8      -982.984          49.000
C05  39620353.859 5 206313578.275 5       -12.578          35.000
C27  23445670.039 5 122087756.927 5     -2070.188          30.000
C30  21589075.750 8 112419974.466 8       379.414          49.000
E05  26782971.297 8 140745473.469 8      2643.168          50.000    26782971.766 7 107843955.291 7      2025.294          47.000
E30  23569345.828 7 123857715.675 7     -1421.777          46.000    23569348.016 8  94903977.442 8     -1089.390          48.000
E36  24836618.328 5 130517274.488 5     -1735.297          34.000
> 2020 05 10 16 20  0.0000000  0 14        .000000000000
G10  20967248.078 8 110183651.653 8       558.629          51.000    20967250.906 8  85857410.211 8       435.295          51.000
G16  21612459.711 8 113574238.310 8     -2618.648          49.000    21612459.641 8  88499411.348 8     -2040.505          48.000
G20  21489209.945 6 112926585.780 6     -1796.426          38.000    21489213.734 5  87994738.387 5     -1399.812          31.000
G27  20309505.219 8 106727169.773 8       387.004          51.000    20309506.344 8  83164019.277 8       301.561          51.000
R05  22534126.141 6 120457756.183 6     -2644.035          37.000
R06  20571479.977 5 109773360.037 5      1528.598          34.000
R07  22603117.570 6 120996242.247 6      4235.148          38.000
R11  22684025.242 6 121216569.012 6     -4065.590          39.000
R21  20177859.273 8 107975765.483 8     -1272.473          51.000    20177860.977 8  83981208.385 8      -989.704          49.000
C05  39620420.711 5 206313927.388 5       -12.238          35.000
C27  23457607.188 4 122149915.675 4     -2075.508          28.000
C30  21586907.133 8 112408681.025 8       372.051          49.000
E05  26767889.219 8 140666215.726 8      2639.273          51.000    26767888.570 7 107783225.409 7      2022.247          46.000
E30  23577493.758 7 123900533.334 7     -1434.156          45.000    23577496.141 8  94936785.775 8     -1098.950          48.000
> 2020 05 10 16 20 30.0000000  0 16        .000000000000
G10  20964094.898 8 110167081.649 8       538.551          51.000    20964097.750 8  85844498.539 8       419.653          51.000
G16  21627428.672 8 113652899.969 8     -2633.324          50.000    21627428.453 8  88560706.119 8     -2051.941          48.000
G20  21499490.430 6 112980608.604 6     -1812.949          38.000
G21  24302020.039 5 127707976.824 5     -2603.719          33.000
G27  20307315.961 8 106715665.002 8       372.574          51.000    20307317.148 8  83155054.525 8       290.318          51.000
R05  22549001.047 5 120537272.512 5     -2664.883          35.000
R06  20562937.562 5 109727773.121 5      1502.531          33.000
R07  22579386.859 5 120869191.212 5      4227.328          30.000
R11  22706849.469 6 121338547.160 6     -4073.762          40.000
R12  21171771.203 5 113095830.872 5     -1503.578          31.000    21171779.367 4  87963417.189 4     -1169.456          27.000
R21  20185000.055 8 108013977.839 8     -1282.680          51.000    20185002.055 8  84010929.080 8      -997.640          49.000
C05  39620471.180 5 206314189.551 5       -13.230          35.000
C27  23469580.453 4 122212246.339 4     -2081.633          29.000
C30  21584768.914 8 112397546.899 8       362.875          49.000
E05  26752817.242 8 140587011.582 8      2633.375          50.000    26752814.898 7 107722536.598 7      2017.706          44.000
E30  23585700.008 7 123943659.062 7     -1448.352          44.000    23585702.352 8  94969830.166 8     -1109.749          48.000
> 2020 05 10 16 21  0.0000000  0 15        .000000000000
G10  20961072.664 8 110151199.553 8       521.062          51.000    20961075.547 8  85832122.869 8       406.020          51.000
G16  21642499.484 8 113732097.769 8     -2645.664          50.000    21642499.188 7  88622418.695 7     -2061.556          47.000
G20  21509882.594 6 113035219.477 6     -1826.844          39.000
G21  24316881.031 6 127786073.043 6     -2601.500          36.000    24316877.648 5  99573551.048 5     -2027.143          31.000
G27  20305225.438 8 106704679.235 8       360.660          51.000    20305226.672 8  83146494.183 8       281.034          51.000
R05  22564013.820 5 120617526.356 5     -2683.910          31.000
R06  20554560.258 5 109683066.870 5      1478.832          34.000
R07  22555698.000 5 120742451.715 5      4222.562          33.000    22555702.430 4  93910802.835 4      3284.221          26.000
R11  22729734.383 6 121460846.854 6     -4078.910          38.000
R12  21180285.875 5 113141290.904 5     -1526.270          35.000
R21  20192215.352 8 108052588.815 8     -1290.461          51.000    20192217.406 8  84040959.819 8     -1003.692          49.000
R22  20497054.344 5 109414666.263 5      1753.383          32.000    20497056.633 5  85100306.082 5      1363.742          31.000
C30  21582700.164 8 112386774.891 8       356.164          49.000
E05  26737794.375 8 140508067.165 8      2630.289          49.000    26737791.312 7 107662046.815 7      2015.446          43.000
E30  23594002.984 7 123987295.825 7     -1459.801          44.000    23594005.562 7  95003266.130 7     -1118.623          47.000
> 2020 05 10 16 21 30.0000000  0 16        .000000000000
G10  20958160.367 8 110135896.213 8       501.387          51.000    20958163.375 8  85820198.184 8       390.691          51.000
G16  21657650.609 8 113811719.403 8     -2660.242          49.000    21657650.492 7  88684461.549 7     -2072.916          45.000
G20  21520365.547 6 113090306.831 6     -1842.941          37.000
G27  20303213.039 8 106694103.979 8       346.660          51.000    20303214.180 8  83138253.713 8       270.125          51.000
R05  22579144.336 6 120698402.791 6     -2705.215          36.000
R06  20546326.891 5 109639136.373 5      1452.602          30.000
R07  22532064.961 6 120615931.286 6      4214.820          39.000    22532067.961 5  93812398.185 5      3278.197          30.000
R11  22752658.688 5 121583352.350 5     -4086.152          34.000
R12  21188940.914 4 113187492.782 4     -1551.297          29.000
R21  20199484.344 8 108091521.878 8     -1300.355          51.000    20199486.125 8  84071187.843 8     -1011.388          48.000
C05  39620617.953 5 206314954.317 5       -11.758          35.000
C27  23493624.227 5 122337462.739 5     -2090.582          31.000
C30  21580680.398 8 112376257.118 8       347.254          48.000
E02  26749294.453 5 140568493.222 5     -3158.305          32.000    26749288.680 5 107708300.906 5     -2419.718          34.000
E05  26722800.477 8 140429275.162 8      2624.805          48.000    26722798.125 7 107601673.800 7      2011.184          44.000
E30  23602382.586 7 124031333.094 7     -1473.637          47.000    23602385.188 8  95037008.957 8     -1129.153          48.000
> 2020 05 10 16 22  0.0000000  0 16        .000000000000
G10  20955382.219 8 110121297.652 8       486.547          51.000    20955385.164 8  85808822.686 8       379.127          51.000
G16  21672905.984 8 113891888.744 8     -2669.703          49.000    21672905.805 7  88746931.153 7     -2080.288          44.000
G20  21530962.945 6 113145994.904 6     -1854.516          36.000
G27  20301302.898 8 106684065.948 8       337.285          51.000    20301303.805 8  83130431.877 8       262.823          51.000
R05  22594414.453 5 120780026.289 5     -2720.836          35.000    22594417.406 5  93940083.989 5     -2116.206          30.000
R06  20538263.438 5 109596104.133 5      1431.340          32.000
R07  22508493.672 7 120489755.189 7      4211.820          42.000    22508496.305 5  93714261.351 5      3275.863          32.000
R11  22775645.945 4 121706187.003 4     -4088.094          29.000
R21  20206831.039 8 108130835.147 8     -1305.504          51.000    20206832.883 8  84101764.807 8     -1015.392          48.000
R22  20477481.055 5 109310199.060 5      1740.539          31.000
C05  39620717.695 5 206315473.266 5        -8.004          35.000
C27  23505709.672 5 122400439.422 5     -2092.230          31.000
C30  21578733.375 8 112366118.721 8       343.168          49.000
E02                                                                  26767356.883 6 107781049.035 6     -2418.793          36.000
E05  26707859.828 7 140350763.385 7      2623.973          47.000    26707859.656 7 107541515.492 7      2010.630          46.000
E30  23610862.648 8 124075895.441 8     -1482.484          49.000    23610865.172 8  95071154.114 8     -1135.983          48.000
> 2020 05 10 16 22 30.0000000  0 14        .000000000000
G10  20952668.539 8 110107037.092 8       463.332          51.000    20952671.406 8  85797710.551 8       361.038          51.000
G16  21688195.500 8 113972236.386 8     -2687.605          49.000    21688194.867 7  88809539.669 7     -2094.241          43.000
G20  21541604.312 5 113201914.318 5     -1874.441          35.000
G27  20299425.336 8 106674199.006 8       319.648          51.000    20299426.078 8  83122743.342 8       249.077          51.000
R05  22609752.094 5 120862020.160 5     -2746.188          32.000    22609754.883 4  94003857.066 4     -2135.918          28.000
R06  20530297.703 5 109553601.349 5      1401.621          30.000
R07  22484918.430 7 120363553.726 7      4200.664          42.000    22484919.781 5  93616104.714 5      3267.186          34.000
R12  21206660.500 6 113282154.599 6     -1600.660          36.000
R21  20214185.828 8 108170189.383 8     -1319.031          51.000    20214187.125 8  84132373.646 8     -1025.913          49.000
C05  39620772.945 5 206315761.026 5       -11.914          35.000
C30  21576789.391 8 112355996.547 8       330.723          49.000
E02                                                                  26785393.961 6 107853670.286 6     -2423.400          37.000
E05  26692902.891 7 140272166.858 7      2614.809          46.000    26692905.070 8 107481292.224 8      2003.531          48.000
E30  23619372.727 8 124120614.674 8     -1499.645          50.000    23619375.258 8  95105419.473 8     -1149.018          48.000
> 2020 05 10 16 23  0.0000000  0 17        .000000000000
G10  20950080.531 8 110093436.907 8       446.234          51.000    20950083.305 8  85787113.012 8       347.715          51.000
G16  21703580.203 8 114053082.269 8     -2699.398          50.000    21703579.000 7  88872536.417 7     -2103.427          43.000
G20  21552350.750 6 113258385.574 6     -1887.902          38.000
G26  23767362.961 5 124898326.725 5     -3645.578          31.000
G27  20297641.820 8 106664826.293 8       307.914          51.000    20297642.484 8  83115439.932 8       239.933          51.000
R05  22625221.734 5 120944708.855 5     -2764.070          34.000    22625224.055 4  94068170.482 4     -2149.839          29.000
R06  20522493.211 5 109511961.313 5      1377.855          30.000
R07  22461399.836 7 120237659.592 7      4195.227          43.000    22461401.734 6  93518187.141 6      3262.957          36.000
R12  21215721.578 5 113330568.293 5     -1622.609          30.000
R21  20221609.133 8 108209912.801 8     -1326.410          51.000    20221610.609 8  84163269.621 8     -1031.652          48.000
R22  20458044.133 4 109206427.778 4      1723.449          29.000
C05  39620845.211 5 206316136.968 5       -10.121          35.000
C27  23529919.656 5 122526469.607 5     -2105.773          30.000
C30  21574910.023 8 112346210.423 8       324.379          49.000
E02                                                                  26803458.641 6 107926410.225 6     -2423.717          37.000
E05  26677990.906 7 140193809.783 7      2611.777          45.000    26677995.531 8 107421252.402 8      2001.172          49.000
E30  23627973.672 8 124165811.820 8     -1510.703          50.000    23627976.523 8  95140051.045 8     -1157.540          49.000
> 2020 05 10 16 23 30.0000000  0 16        .000000000000
G10  20947591.719 8 110080357.116 8       426.996          51.000    20947594.234 8  85776920.967 8       332.724          51.000
G16  21719032.930 8 114134284.029 8     -2712.918          51.000    21719031.438 7  88935810.468 7     -2113.965          45.000
G20  21563175.461 5 113315266.319 5     -1902.930          33.000
G21  24391204.109 5 128176626.933 5     -2601.742          33.000
G26  23788189.852 5 125007768.271 5     -3648.672          35.000    23788188.469 5  97408649.931 5     -2843.124          34.000
G27  20295925.797 8 106655808.501 8       294.281          51.000    20295926.398 8  83108413.073 8       229.310          51.000
R05  22640795.047 5 121027946.081 5     -2784.715          32.000    22640795.742 4  94132910.373 4     -2165.892          29.000
R06  20514823.352 5 109471042.168 5      1352.164          31.000
R07  22437913.047 7 120111934.539 7      4187.617          45.000    22437915.031 6  93420401.065 6      3257.039          39.000
R11  22844706.867 5 122075236.774 5     -4108.598          30.000    22844726.523 4  94947432.542 4     -3195.570          29.000
R21  20229074.875 8 108249862.513 8     -1335.742          51.000    20229075.852 8  84194341.623 8     -1038.908          48.000
C05  39620907.750 5 206316463.241 5       -10.082          35.000
C30  21573068.750 8 112336621.979 8       316.086          49.000
E02  26821529.477 5 140948090.329 5     -3165.195          34.000    26821525.367 6 107999159.906 6     -2425.417          36.000
E05  26663098.008 7 140115553.994 7      2606.691          45.000    26663104.758 8 107361290.180 8      1997.245          50.000
E30  23636638.594 8 124211345.504 8     -1523.652          49.000    23636641.992 8  95174940.464 8     -1167.426          49.000
> 2020 05 10 16 24  0.0000000  0 14        .000000000000
G10  20945211.875 8 110067850.488 8       407.047          51.000    20945214.055 8  85767175.551 8       317.179          51.000
G16  21734562.805 8 114215891.410 8     -2727.363          51.000    21734561.242 7  88999400.588 7     -2125.221          46.000
G27  20294287.531 8 106647199.164 8       279.875          51.000    20294288.102 8  83101704.497 8       218.084          51.000
R05  22656481.969 5 121111782.083 5     -2804.918          30.000    22656478.727 4  94198114.990 4     -2181.606          26.000
R06  20507299.781 5 109430899.010 5      1324.852          31.000
R07  22414469.203 7 119986436.229 7      4179.137          46.000    22414470.875 6  93322791.319 6      3250.440          40.000
R11  22867793.000 5 122198602.597 5     -4115.406          35.000    22867813.305 4  95043383.635 4     -3200.875          29.000
R12  21234220.148 5 113429395.042 5     -1672.082          34.000
R21  20236592.383 8 108290091.820 8     -1345.867          51.000    20236593.570 8  84225631.094 8     -1046.786          48.000
C27  23554240.375 5 122653104.488 5     -2116.586          31.000
C30  21571275.391 8 112327283.858 8       306.836          49.000
E02  26839604.258 5 141043086.447 5     -3167.805          34.000    26839604.031 6 108071967.245 6     -2427.919          36.000
E05  26648235.094 7 140037454.168 7      2600.328          45.000    26648243.133 8 107301447.463 8      1992.561          50.000
E30  23645377.305 8 124257267.091 8     -1537.426          49.000    23645380.617 8  95210127.110 8     -1178.001          49.000
> 2020 05 10 16 24 30.0000000  0 14        .000000000000
G10  20942999.953 8 110056226.337 8       381.195          51.000    20943001.547 8  85758117.795 8       297.038          51.000
G16  21750228.070 8 114298211.371 8     -2747.355          51.000    21750226.734 7  89063545.991 7     -2140.796          47.000
G20  21585144.680 5 113430700.201 5     -1941.668          32.000
G27  20292786.039 8 106639308.359 8       259.402          51.000    20292786.609 8  83095555.822 8       202.132          51.000
R06  20499982.906 4 109391849.057 4      1292.180          29.000
R07  22391126.977 7 119861484.174 7      4164.508          45.000    22391129.133 7  93225606.401 7      3239.062          42.000
R11  22890970.531 5 122322455.003 5     -4128.203          35.000    22890987.711 4  95139713.256 4     -3210.828          28.000
R21  20244220.883 8 108330915.521 8     -1362.227          51.000    20244222.789 7  84257382.860 7     -1059.510          47.000
C05  39621092.367 5 206317424.474 5       -18.238          35.000
C27  23566506.789 5 122717000.608 5     -2129.258          31.000
C30  21569588.969 8 112318503.007 8       291.727          50.000
E02  26857753.609 5 141138451.269 5     -3176.934          33.000    26857752.594 6 108145041.589 6     -2434.289          36.000
E05  26633461.750 7 139959821.467 7      2588.289          46.000    26633469.961 8 107241962.698 8      1983.267          50.000
E30  23654248.297 8 124303884.564 8     -1557.066          49.000    23654251.289 8  95245846.957 8     -1193.068          48.000
> 2020 05 10 16 25  0.0000000  0 13        .000000000000
G10  20940833.961 8 110044843.001 8       370.629          51.000    20940835.086 8  85749247.685 8       288.802          51.000
G16  21765906.242 8 114380599.991 8     -2752.219          51.000    21765905.164 7  89127744.884 7     -2144.586          47.000
G27  20291299.266 8 106631495.204 8       254.406          51.000    20291299.945 8  83089467.647 8       198.239          51.000
R06  20492757.289 5 109353283.801 5      1274.051          30.000
R07  22367765.383 7 119736429.103 7      4165.332          45.000    22367768.281 7  93128341.372 7      3239.703          43.000
R11  22914116.852 6 122446137.237 6     -4124.832          37.000    22914132.891 4  95235910.474 4     -3208.206          29.000
R12  21253322.000 5 113531405.897 5     -1718.570          32.000    21253321.406 5  88302219.098 5     -1336.666          32.000
R21  20251838.492 8 108371680.037 8     -1362.711          51.000    20251840.500 7  84289088.566 7     -1059.886          47.000
C05  39621151.195 5 206317730.853 5        -9.637          35.000
C27  23578745.922 5 122780728.733 5     -2126.758          31.000
C30  21567887.500 8 112309644.002 8       291.879          50.000
E05  26618655.906 7 139882016.133 7      2591.586          46.000    26618663.531 8 107182345.689 8      1985.743          49.000
E30  23663129.102 8 124350554.865 8     -1561.246          48.000    23663131.766 8  95281607.292 8     -1196.303          48.000
> 2020 05 10 16 25 30.0000000  0 12        .000000000000
G10  20938806.648 8 110034188.573 8       345.242          51.000    20938807.680 8  85740945.567 8       269.020          51.000
G16  21781689.727 8 114463542.721 8     -2771.762          51.000    21781688.844 7  89192375.574 7     -2159.814          46.000
G27  20289920.250 8 106624248.592 8       234.516          51.000    20289921.047 8  83083820.931 8       182.739          51.000
R06  20485696.789 5 109315617.002 5      1242.656          33.000
R07  22344478.219 7 119611772.335 7      4151.047          45.000    22344481.734 7  93031386.141 7      3228.592          44.000
R11  22937323.156 6 122570140.897 6     -4136.410          39.000    22937336.586 4  95332357.698 4     -3217.211          28.000
R21  20259538.352 8 108412882.118 8     -1378.352          51.000    20259540.227 7  84321134.613 7     -1072.051          46.000
C05  39621239.758 5 206318191.691 5       -15.363          35.000
C27  23591042.742 5 122844772.330 5     -2138.055          32.000
C30  21566264.133 8 112301190.975 8       277.254          50.000
E05  26603910.750 7 139804528.226 7      2579.875          46.000    26603917.258 8 107122971.865 8      1976.844          48.000
E30  23672112.219 7 124397764.800 7     -1580.316          47.000    23672114.938 8  95317781.123 8     -1210.892          48.000
> 2020 05 10 16 26  0.0000000  0 12        .000000000000
G10  20936874.453 8 110024034.205 8       329.570          51.000    20936875.133 8  85733033.087 8       256.808          51.000
G16  21797534.383 8 114546808.116 8     -2781.520          50.000    21797533.758 7  89257257.688 7     -2167.418          45.000
G27  20288605.633 8 106617340.453 8       224.012          51.000    20288606.602 8  83078437.955 8       174.555          51.000
R06  20478766.438 5 109278660.478 5      1219.238          35.000
R07  22321222.570 7 119487285.040 7      4146.066          45.000    22321226.555 7  92934562.700 7      3224.721          43.000
R11  22960544.789 6 122694228.717 6     -4138.480          37.000    22960557.555 4  95428865.944 4     -3218.815          25.000
R21  20267276.422 8 108454288.502 8     -1384.191          51.000    20267278.008 7  84353339.560 7     -1076.593          46.000
C05  39621314.805 5 206318582.132 5       -12.094          35.000
C27  23603359.125 5 122908904.277 5     -2139.805          33.000
C30  21564675.484 8 112292917.563 8       272.215          51.000
E05  26589182.688 7 139727130.788 7      2577.719          46.000    26589188.734 8 107063667.394 8      1975.261          49.000
E30  23681154.008 8 124445284.113 8     -1589.637          48.000    23681157.602 8  95354192.019 8     -1218.072          48.000
> 2020 05 10 16 26 30.0000000  0 13        .000000000000
G10  20935045.141 8 110014421.298 8       309.477          51.000    20935045.828 8  85725542.530 8       241.151          51.000
G16  21813447.516 8 114630435.201 8     -2795.254          49.000    21813447.180 6  89322421.636 6     -2178.120          41.000
G27  20287363.602 8 106610813.001 8       209.207          51.000    20287364.484 8  83073351.629 8       163.018          51.000
R05  22736644.672 5 121540394.503 5     -2904.250          30.000
R06  20471980.766 6 109242457.779 6      1192.398          39.000
R07  22298006.523 7 119363014.054 7      4136.762          45.000    22298011.352 6  92837907.495 6      3217.481          40.000
R11  22983788.508 5 122818438.746 5     -4143.895          35.000
R21  20275060.281 8 108495941.218 8     -1394.461          51.000    20275061.945 7  84385736.109 7     -1084.581          45.000
C05  39621383.836 5 206318942.287 5       -13.785          35.000
C27  23615702.367 5 122973165.511 5     -2145.445          30.000
C30  21563129.305 8 112284865.333 8       262.820          51.000
E05  26574480.266 7 139649867.241 7      2571.391          47.000    26574486.266 8 107004465.530 8      1970.268          49.000
E30  23690262.938 8 124493152.944 8     -1603.336          48.000    23690266.484 7  95390870.726 7     -1228.383          47.000
> 2020 05 10 16 27  0.0000000  0 13        .000000000000
G10  20933301.617 8 110005259.331 8       288.484          51.000    20933302.781 8  85718403.369 8       224.793          51.000
G16  21829411.852 8 114714330.982 8     -2810.320          49.000    21829410.766 6  89387794.943 6     -2189.863          40.000
G27  20286177.031 8 106604576.537 8       193.668          51.000    20286177.555 8  83068492.050 8       150.910          51.000
R05  22752969.391 5 121627649.011 5     -2925.590          34.000
R06  20465320.195 6 109206918.881 6      1163.902          39.000
R07  22274814.633 7 119238871.252 7      4126.375          47.000    22274818.930 5  92741352.008 5      3209.403          34.000
R11  23007037.141 5 122942674.210 5     -4151.289          34.000
R21  20282872.797 8 108537747.975 8     -1405.641          51.000    20282874.406 7  84418252.467 7     -1093.276          44.000
C05  39621429.789 5 206319181.231 5       -15.438          35.000
C27  23628051.352 5 123037459.133 5     -2153.605          30.000
C30  21561608.461 8 112276945.071 8       252.438          51.000
E05  26559786.844 8 139572649.036 8      2563.773          48.000    26559792.727 8 106945298.384 8      1964.480          48.000
E30  23699421.625 8 124541279.475 8     -1617.863          50.000    23699424.461 8  95427746.907 8     -1239.706          48.000
> 2020 05 10 16 27 30.0000000  0 15        .000000000000
G10  20931699.539 8 109996841.254 8       271.996          51.000    20931700.992 8  85711843.842 8       211.945          51.000
G16  21845483.078 8 114798786.110 8     -2820.781          49.000    21845480.492 6  89453604.065 6     -2198.014          40.000
G26  23955505.148 5 125887029.466 5     -3673.820          31.000    23955512.625 4  98093792.672 4     -2862.726          29.000
G27  20285101.680 8 106598924.854 8       182.410          51.000    20285102.031 8  83064088.143 8       142.138          51.000
R05  22769430.531 5 121715650.308 5     -2942.137          35.000
R06  20458840.070 6 109172343.009 6      1140.137          39.000
R07  22251704.227 8 119115159.208 8      4120.246          48.000    22251702.617 4  92645131.727 4      3204.648          27.000
R11  23030345.070 5 123067228.474 5     -4152.965          33.000    23030341.336 4  95718904.779 4     -3230.093          28.000
R12  21303325.594 5 113798472.929 5     -1840.152          35.000    21303328.117 5  88509957.698 5     -1431.230          32.000
R21  20290769.805 8 108580007.016 8     -1412.332          51.000    20290771.977 7  84451120.612 7     -1098.480          44.000
C05  39621508.555 5 206319591.334 5       -12.707          35.000
C27  23640465.734 5 123102088.897 5     -2156.285          32.000
C30  21560168.750 8 112269447.592 8       246.562          51.000
E05  26545158.227 8 139495771.183 8      2560.684          48.000    26545163.539 8 106886392.022 8      1962.043          49.000
E30  23708685.086 8 124589955.350 8     -1627.898          49.000    23708687.266 8  95465043.978 8     -1247.333          49.000
> 2020 05 10 16 28  0.0000000  0 15        .000000000000
G10  20930201.914 8 109988972.701 8       253.238          51.000    20930203.781 8  85705712.508 8       197.332          51.000
G16  21861623.422 8 114883603.886 8     -2833.320          48.000    21861620.711 6  89519695.762 6     -2207.785          41.000
G26  23976488.633 5 125997302.542 5     -3676.137          33.000    23976492.117 5  98179713.147 5     -2864.519          33.000
G27  20284100.719 8 106593664.491 8       168.887          51.000    20284101.102 8  83059989.164 8       131.600          51.000
R05  22785993.742 6 121804197.113 6     -2960.414          39.000    22785995.055 4  94736600.268 4     -2302.541          28.000
R06  20452504.594 5 109138535.017 5      1114.238          35.000
R07  22228638.578 8 118991684.618 8      4111.828          49.000    22228634.250 5  92549035.130 5      3198.092          33.000
R11  23053674.250 5 123191870.763 5     -4157.094          31.000    23053674.727 4  95815881.307 4     -3233.295          29.000
R12  21313736.922 6 113854030.437 6     -1863.234          37.000    21313731.531 5  88553169.146 5     -1449.176          31.000
R21  20298714.219 8 108622520.330 8     -1421.230          50.000    20298717.008 7  84484186.490 7     -1105.405          43.000
C05  39621583.117 5 206319980.111 5       -12.422          35.000
C27  23652906.180 5 123166855.462 5     -2162.309          30.000
C30  21558773.234 8 112262180.885 8       238.430          51.000
E05  26530557.578 8 139419041.317 8      2555.066          48.000    26530562.414 8 106827599.082 8      1957.862          50.000
E30  23718015.594 8 124638984.902 8     -1640.172          49.000    23718017.750 8  95502612.057 8     -1256.779          50.000
> 2020 05 10 16 28 30.0000000  0 15        .000000000000
G10  20928819.656 8 109981710.521 8       232.719          51.000    20928822.086 8  85700053.669 8       181.339          51.000
G16  21877843.055 8 114968838.567 8     -2847.223          48.000    21877841.109 7  89586112.357 7     -2218.615          43.000
G26  23997490.367 5 126107674.645 5     -3679.758          33.000    23997493.273 5  98265717.329 5     -2867.344          32.000
G27  20283185.188 8 106588853.168 8       153.668          51.000    20283185.531 8  83056240.082 8       119.741          51.000
R05  22802670.977 6 121893343.592 6     -2980.426          40.000    22802673.070 5  94805936.463 5     -2318.109          32.000
R06  20446324.453 5 109105554.565 5      1087.039          32.000
R07  22205628.750 8 118868509.813 8      4101.555          49.000    22205626.320 6  92453232.568 6      3190.101          39.000
R11  23077041.672 5 123316712.381 5     -4163.449          34.000    23077040.391 5  95912980.276 5     -3238.241          31.000
R12  21324258.859 6 113910375.177 6     -1887.621          39.000    21324267.508 5  88596979.693 5     -1468.147          32.000
R21  20306716.750 8 108665345.701 8     -1431.895          48.000    20306719.836 7  84517495.115 7     -1113.696          43.000
C05  39621664.148 5 206320401.889 5       -14.230          35.000
C27  23665375.984 5 123231808.099 5     -2167.254          30.000
C30  21557432.836 8 112255201.860 8       228.559          51.000
E05  26515995.930 8 139342518.324 8      2548.094          48.000    26516000.461 8 106768964.672 8      1952.438          50.000
E30  23727423.695 8 124688423.699 8     -1654.027          50.000    23727426.273 8  95540493.709 8     -1267.318          50.000
> 2020 05 10 16 29  0.0000000  0 15        .000000000000
G10  20927545.539 8 109975016.091 8       213.938          51.000    20927548.164 8  85694837.212 8       166.705          51.000
G16  21894134.039 8 115054448.609 8     -2859.602          49.000    21894133.109 7  89652821.477 7     -2228.261          45.000
G26  24018505.539 5 126218111.581 5     -3681.875          34.000    24018509.266 5  98351771.959 5     -2869.000          34.000
G27  20282347.922 8 106584452.940 8       140.051          51.000    20282348.203 8  83052811.335 8       109.130          51.000
R05  22819451.906 5 121983046.500 5     -2999.180          34.000    22819455.438 5  94875705.432 5     -2332.692          32.000
R06  20440292.781 5 109073325.091 5      1059.324          33.000
R07  22182668.062 7 118745599.790 7      4092.832          47.000    22182667.727 7  92357635.954 7      3183.317          42.000
R11  23100429.453 6 123441680.458 6     -4167.332          37.000    23100428.164 5  96010177.619 5     -3241.261          30.000
R12  21334922.250 5 113967358.491 5     -1910.355          33.000    21334933.438 4  88641300.047 4     -1485.826          28.000
R21  20314770.367 8 108708443.488 8     -1440.844          48.000    20314773.742 7  84551015.617 7     -1120.653          43.000
C05  39621744.219 5 206320818.264 5       -13.180          35.000
C27  23677882.781 5 123296921.812 5     -2172.160          32.000
C30  21556140.391 8 112248472.711 8       220.332          51.000
E05  26501466.266 8 139266165.502 8      2542.406          48.000    26501470.844 8 106710460.622 8      1948.158          50.000
E30  23736902.000 8 124738231.690 8     -1666.125          51.000    23736904.742 8  95578658.259 8     -1276.704          51.000
> 2020 05 10 16 29 30.0000000  0 13        .000000000000
G10  20926386.930 8 109968928.594 8       191.156          51.000    20926389.805 8  85690093.702 8       148.953          51.000
G16  21910503.820 8 115140471.631 8     -2875.859          50.000    21910503.594 7  89719852.401 7     -2240.929          45.000
G26  24039540.414 5 126328650.487 5     -3687.781          35.000    24039544.344 5  98437905.999 5     -2873.602          34.000
G27  20281596.602 8 106580504.322 8       122.328          51.000    20281596.852 8  83049734.494 8        95.321          51.000
R06  20434418.414 6 109041966.104 6      1029.656          37.000
R07  22159764.312 7 118622999.268 7      4079.773          46.000    22159766.250 7  92262280.029 7      3173.157          44.000
R11  23123845.828 6 123566811.116 6     -4175.074          38.000    23123846.672 4  96107501.356 4     -3247.283          29.000
R21  20322882.570 7 108751854.171 7     -1453.926          45.000    20322885.758 7  84584779.455 7     -1130.831          42.000
C05  39621831.062 6 206321270.635 6       -17.121          36.000
C27  23690421.234 6 123362241.264 6     -2181.699          37.000
C30  21554903.617 8 112242033.207 8       208.352          51.000
E05  26486976.609 7 139190024.490 7      2532.988          47.000    26486981.555 8 106652118.855 8      1940.810          49.000
E30  23746458.016 8 124788447.220 8     -1682.238          51.000    23746460.570 8  95617135.045 8     -1288.922          50.000
> 2020 05 10 16 30  0.0000000  0 14        .000000000000
G10  20925319.906 8 109963321.887 8       178.793          51.000    20925322.930 8  85685724.825 8       139.319          51.000
G16  21926927.836 8 115226778.712 8     -2881.891          50.000    21926927.859 7  89787104.656 7     -2245.629          45.000
G26  24060570.375 5 126439162.510 5     -3683.074          35.000    24060574.141 5  98524019.160 5     -2869.931          35.000
G27  20280907.234 8 106576881.830 8       115.352          51.000    20280907.453 8  83046911.765 8        89.884          51.000
R05  22853318.617 5 122164066.333 5     -3032.668          32.000
R06  20428672.461 6 109011312.408 6      1010.176          39.000
R07  22136894.766 7 118500584.268 7      4077.238          45.000    22136899.164 7  92167068.356 7      3171.185          45.000
R11  23147267.938 6 123691971.796 6     -4172.512          36.000    23147270.922 4  96204848.406 4     -3245.290          28.000
R21  20331029.719 7 108795448.882 7     -1456.109          46.000    20331032.891 7  84618686.453 7     -1132.530          42.000
C05  39621900.648 5 206321632.822 5       -10.664          35.000
C27  23702979.250 6 123427616.486 6     -2180.312          38.000
C30  21553698.773 8 112235758.809 8       206.367          51.000
E05  26472503.750 8 139113971.089 8      2533.648          48.000    26472509.250 8 106593844.187 8      1941.382          50.000
E30  23756067.039 8 124838942.630 8     -1687.816          51.000    23756069.594 8  95655826.304 8     -1293.322          50.000
> 2020 05 10 16 30 30.0000000  0 14        .000000000000
G10  20924365.781 8 109958307.765 8       157.660          51.000    20924368.727 8  85681817.713 8       122.852          51.000
G16  21943426.797 8 115313479.512 8     -2896.152          50.000    21943426.742 7  89854663.689 7     -2256.745          45.000
G26  24081616.391 5 126549757.205 5     -3687.562          35.000    24081618.484 5  98610196.745 5     -2873.422          35.000
G27  20280301.391 8 106573698.274 8        99.297          51.000    20280301.641 8  83044431.070 8        77.374          51.000
R05  22870406.391 5 122255394.842 5     -3053.496          35.000    22870404.930 4  95087539.565 4     -2374.944          29.000
R06  20423082.094 6 108981479.225 6       981.176          40.000
R07  22114083.070 7 118378472.915 7      4065.695          46.000    22114088.641 7  92072092.869 7      3162.211          45.000
R11  23170715.695 5 123817271.615 5     -4178.387          35.000    23170720.398 4  96302303.668 4     -3249.862          26.000
R12  21367704.141 5 114142419.791 5     -1978.633          34.000
R21  20339232.180 7 108839341.607 7     -1467.484          44.000    20339234.938 6  84652825.270 6     -1141.377          40.000
C05  39621974.109 5 206322015.828 5       -12.578          35.000
C30  21552547.156 8 112229761.001 8       195.676          51.000
E05  26458069.164 7 139038119.186 7      2525.367          47.000    26458075.258 8 106535723.913 8      1935.084          49.000
E30  23765749.914 8 124889828.537 8     -1702.367          50.000    23765753.320 8  95694816.773 8     -1304.408          50.000
> 2020 05 10 16 31  0.0000000  0 16        .000000000000
G10  20923527.312 8 109953900.879 8       135.645          51.000    20923529.695 8  85678383.778 8       105.697          51.000
G16  21960002.602 8 115400586.175 8     -2911.496          48.000    21960002.414 7  89922538.978 7     -2268.698          45.000
G26  24102680.891 5 126660446.704 5     -3692.746          35.000    24102681.453 6  98696448.258 6     -2877.464          36.000
G27  20279782.008 8 106570969.261 8        82.199          51.000    20279782.477 8  83042304.564 8        64.051          51.000
R05  22887602.914 4 122347353.324 4     -3073.863          29.000    22887601.125 4  95159025.832 4     -2390.783          29.000
R06  20417648.242 6 108952483.736 6       951.070          38.000
R07  22091332.852 7 118256684.934 7      4053.133          46.000    22091337.891 7  91977368.915 7      3152.440          44.000
R11  23194192.203 5 123942721.507 5     -4184.895          31.000    23194196.477 4  96399918.645 4     -3254.924          25.000
R12  21378882.180 5 114202157.150 5     -2005.066          30.000    21378872.469 4  88823843.103 4     -1559.499          29.000
R21  20347492.938 7 108883547.338 7     -1480.016          43.000    20347495.547 6  84687207.475 6     -1151.126          40.000
C05  39622054.531 5 206322434.303 5       -15.766          35.000
C27  23728194.852 5 123558945.599 5     -2195.785          35.000
C30  21551451.617 8 112224054.991 8       184.184          51.000
E05  26443676.117 7 138962485.606 7      2516.234          46.000    26443682.547 8 106477770.934 8      1927.991          48.000
E30  23775509.336 8 124941118.358 8     -1717.582          49.000    23775513.922 8  95734116.754 8     -1316.030          50.000
E36  25068572.320 5 131736247.744 5     -1799.988          33.000    25068576.922 5 100940774.411 5     -1379.517          32.000
> 2020 05 10 16 31 30.0000000  0 13        .000000000000
G10  20922802.539 8 109950090.880 8       107.984          51.000    20922804.297 8  85675414.958 8        84.144          51.000
G16  21976652.625 7 115488086.128 7     -2932.121          45.000    21976652.945 7  89990720.744 7     -2284.770          45.000
G27  20279347.289 8 106568685.383 8        59.738          51.000    20279347.891 8  83040524.909 8        46.549          51.000
R06  20412369.906 6 108924316.708 6       916.117          36.000
R07  22068641.352 7 118135213.994 7      4034.422          46.000    22068645.648 7  91882891.611 7      3137.887          43.000
R11  23217693.727 5 124068306.585 5     -4197.543          34.000    23217699.234 4  96497595.879 4     -3264.756          27.000
R12  21390197.797 6 114262584.802 6     -2035.684          36.000    21390188.367 5  88870878.036 5     -1583.316          30.000
R21  20355810.609 7 108928055.582 7     -1497.812          43.000    20355812.984 6  84721825.016 6     -1164.965          39.000
C27  23740848.562 4 123624876.457 4     -2210.633          29.000
C30  21550410.148 8 112218631.279 8       167.039          51.000
E05  26429323.508 7 138887062.191 7      2501.586          46.000    26429329.281 7 106419978.974 7      1916.767          47.000
E30  23785343.703 8 124992800.590 8     -1738.270          50.000    23785349.117 8  95773717.419 8     -1331.954          51.000
E36  25078848.664 5 131790256.253 5     -1811.395          33.000
> 2020 05 10 16 32  0.0000000  0 15        .000000000000
G10  20922210.039 8 109946976.240 8       106.105          51.000    20922211.328 8  85672987.986 8        82.680          51.000
G16  21993395.664 7 115576075.251 7     -2927.250          46.000    21993396.625 7  90059283.687 7     -2280.974          45.000
G26  24144873.648 5 126882149.512 5     -3687.480          34.000
G27  20279016.234 8 106566946.072 8        62.684          51.000    20279016.805 8  83039169.606 8        48.844          51.000
R06  20407265.883 5 108897079.580 5       906.027          32.000
R07  22046028.828 7 118014165.316 7      4041.984          47.000    22046032.047 7  91788742.738 7      3143.772          43.000
R11  23241238.109 6 124194122.742 6     -4183.562          36.000    23241244.805 4  96595460.805 4     -3253.885          26.000
R12  21401664.492 5 114323831.787 5     -2041.051          33.000
R21  20364203.953 7 108972966.856 7     -1489.746          42.000    20364206.023 6  84756756.033 6     -1158.691          38.000
C05  39622248.844 5 206323446.271 5        -6.871          35.000
C27  23753562.891 5 123691087.824 5     -2198.113          34.000
C30  21549441.609 8 112213588.126 8       175.383          51.000
E05  26415030.109 7 138811949.572 7      2512.309          47.000    26415035.219 7 106362425.189 7      1925.061          47.000
E30  23795271.797 8 125044972.500 8     -1733.418          50.000    23795276.984 8  95813693.271 8     -1328.200          50.000
E36  25089161.703 5 131844434.049 5     -1796.270          30.000    25089164.570 5 101023668.967 5     -1377.060          31.000
> 2020 05 10 16 32 30.0000000  0 16        .000000000000
G10  20921661.672 8 109944093.489 8        79.422          51.000    20921662.688 8  85670741.710 8        61.887          51.000
G16  22010144.016 8 115664087.894 8     -2946.809          48.000    22010144.656 7  90127864.937 7     -2296.214          44.000
G21  24658825.977 5 129583003.906 5     -2604.598          35.000
G26  24165932.023 5 126992812.032 5     -3696.621          35.000    24165931.008 5  98955446.797 5     -2880.484          35.000
G27  20278700.781 8 106565288.862 8        41.141          51.000    20278701.273 8  83037878.278 8        32.058          51.000
R06  20402248.070 5 108870303.678 5       871.758          31.000
R07  22023407.859 7 117893071.439 7      4024.164          46.000    22023410.820 7  91694558.740 7      3129.911          44.000
R11  23264736.523 5 124319694.889 5     -4194.715          34.000
R12  21413192.617 6 114385407.812 6     -2070.598          39.000    21413172.000 4  88966361.622 4     -1610.471          25.000
R21  20372584.203 7 109017809.276 7     -1506.680          42.000    20372586.805 6  84791633.463 6     -1171.862          38.000
C05  39622293.180 5 206323677.504 5       -14.992          34.000
C27  23766245.406 5 123757120.511 5     -2210.465          31.000
C30  21548458.156 8 112208467.056 8       159.391          51.000
E05  26400708.312 8 138736686.487 8      2498.543          48.000    26400712.391 7 106304756.137 7      1914.435          46.000
E30  23805204.664 8 125097169.410 8     -1753.098          50.000    23805208.711 8  95853688.288 8     -1343.262          50.000
E36  25099427.422 5 131898380.737 5     -1806.652          32.000
> 2020 05 10 16 33  0.0000000  0 14        .000000000000
G10  20921267.695 8 109942022.171 8        60.629          51.000    20921268.258 8  85669127.708 8        47.243          51.000
G16  22027007.406 8 115752701.599 8     -2958.602          50.000    22027006.969 7  90196914.526 7     -2305.407          44.000
G21  24673698.914 6 129661166.314 6     -2604.234          36.000
G26  24187043.703 5 127103764.575 5     -3698.590          33.000    24187043.531 5  99041903.224 5     -2882.027          33.000
G27  20278511.344 8 106564294.362 8        27.109          51.000    20278511.820 8  83037103.339 8        21.124          51.000
R06  20397426.914 5 108844579.466 5       845.457          34.000
R07  22000889.562 8 117772527.197 8      4014.020          48.000    22000892.500 7  91600802.178 7      3122.015          45.000
R11  23288298.016 5 124445608.169 5     -4197.488          34.000    23288303.258 4  96791038.402 4     -3264.722          27.000
R21  20381061.656 6 109063173.291 6     -1515.543          40.000    20381064.742 6  84826916.561 6     -1178.759          37.000
C05  39622383.461 5 206324147.442 5       -14.824          35.000
C30  21547570.281 8 112203843.149 8       150.773          51.000
E05  26386468.883 8 138661854.780 8      2492.188          49.000    26386471.781 7 106247417.595 7      1909.544          45.000
E30  23815252.211 8 125149969.687 8     -1765.012          50.000    23815254.875 8  95894145.631 8     -1352.439          49.000
E36                                                                  25109758.008 5 101106585.279 5     -1385.889          32.000
> 2020 05 10 16 33 30.0000000  0 15        .000000000000
G10  20920961.852 8 109940414.656 8        53.426          51.000    20920962.289 8  85667875.117 8        41.634          51.000
G16  22043918.570 8 115841566.253 8     -2958.688          50.000    22043917.367 7  90266159.639 7     -2305.474          44.000
G20  21797784.953 6 114548101.799 6     -2187.691          39.000
G26  24208144.523 5 127214657.001 5     -3687.793          34.000    24208145.641 5  99128312.774 5     -2873.608          33.000
G27  20278381.992 8 106563615.909 8        25.004          51.000    20278382.719 8  83036574.653 8        19.484          51.000
R06  20392736.648 6 108819555.130 6       830.277          39.000
R07  21978409.102 8 117652183.256 8      4015.816          49.000    21978411.172 7  91507201.372 7      3123.413          46.000
R12  21436693.172 5 114510961.356 5     -2103.215          33.000    21436686.938 4  89064059.346 4     -1635.834          26.000
R21  20389569.750 6 109108704.916 6     -1512.785          39.000    20389573.352 5  84862330.055 5     -1176.611          33.000
R22  20264932.859 5 108175499.100 5      1561.398          35.000
C05  39622453.398 5 206324511.897 5        -2.980          35.000
C30  21546711.883 8 112199372.712 8       153.996          51.000
E05  26372245.625 8 138587108.992 8      2497.691          49.000    26372248.195 7 106190144.908 7      1913.801          47.000
E30  23825348.234 8 125203024.589 8     -1765.125          50.000    23825349.859 8  95934798.065 8     -1352.519          49.000
E36                                                                  25120079.133 5 101148148.114 5     -1378.814          32.000
> 2020 05 10 16 34  0.0000000  0 15        .000000000000
G10  20920763.875 8 109939374.301 8        21.402          51.000    20920764.414 8  85667064.468 8        16.677          51.000
G16  22060896.438 8 115930782.822 8     -2983.559          50.000    22060895.117 7  90335678.993 7     -2324.854          45.000
G20  21810366.734 6 114614212.660 6     -2214.184          37.000
G26  24229254.930 5 127325590.456 5     -3702.102          35.000    24229255.172 6  99214754.383 6     -2884.758          36.000
G27  20278332.750 8 106563357.904 8        -2.270          51.000    20278333.672 8  83036373.601 8        -1.768          51.000
R06  20388198.086 6 108795337.429 6       789.457          38.000
R07  21955986.141 8 117532149.417 8      3991.938          48.000    21955988.000 7  91413841.801 7      3104.843          46.000
R12  21448621.773 5 114574671.888 5     -2138.348          34.000    21448609.023 5  89113585.106 5     -1663.162          30.000
R21  20398128.680 6 109154509.645 6     -1535.496          38.000    20398131.086 5  84897955.992 5     -1194.275          31.000
C05  39622522.812 5 206324873.483 5       -15.500          35.000
C27  23804572.211 5 123956650.129 5     -2226.930          32.000
C30  21545902.742 8 112195159.019 8       132.379          51.000
E05  26358058.766 8 138512554.814 8      2478.176          50.000    26358061.508 8 106133019.036 8      1898.832          48.000
E30  23835512.578 8 125256436.305 8     -1790.203          51.000    23835513.750 8  95975723.894 8     -1371.672          50.000
E36                                                                  25130412.680 5 101189760.211 5     -1390.975          33.000
> 2020 05 10 16 34 30.0000000  0 16        .000000000000
G10  20920713.328 8 109939109.162 8         5.902          51.000    20920713.828 8  85666857.881 8         4.599          51.000
G16  22077980.195 8 116020557.249 8     -2991.836          49.000    22077979.289 7  90405633.060 7     -2331.301          46.000
G21  24718290.570 6 129895519.062 6     -2601.336          36.000
G26  24250412.297 5 127436770.956 5     -3700.633          34.000    24250411.930 5  99301388.521 5     -2883.610          34.000
G27  20278403.359 8 106563729.477 8       -12.914          51.000    20278404.406 8  83036663.128 8       -10.063          51.000
R06  20383850.758 6 108772139.482 6       766.102          39.000
R07  21933661.750 8 117412642.733 8      3984.836          49.000    21933663.344 7  91320892.213 7      3099.317          46.000
R12  21460703.172 5 114639264.780 5     -2157.004          31.000    21460701.461 5  89163844.325 5     -1677.670          30.000
R21  20406779.453 6 109200799.789 6     -1541.023          39.000    20406781.531 5  84933959.458 5     -1198.574          31.000
C05  39622631.422 5 206325438.805 5       -12.449          35.000
C20  25481947.391 6 132691184.032 6      3436.043          37.000
C27  23817434.594 5 124023644.408 5     -2229.488          32.000
C30  21545182.500 8 112191409.071 8       127.082          51.000
E05  26343948.109 8 138438402.586 8      2474.980          49.000    26343951.320 8 106076201.146 8      1896.375          49.000
E30  23845784.344 8 125310411.791 8     -1798.734          51.000    23845785.852 8  96017081.718 8     -1378.191          51.000
E36                                                                  25140800.039 5 101231589.110 5     -1390.310          34.000
> 2020 05 10 16 35  0.0000000  0 17        .000000000000
G10  20920738.570 8 109939242.293 8       -13.195          51.000    20920739.242 8  85666961.641 8       -10.279          51.000
G16  22095097.547 8 116110510.395 8     -3003.695          49.000    22095097.359 7  90475726.421 7     -2340.542          46.000
G21  24733144.672 5 129973577.028 5     -2601.086          35.000
G26  24271544.461 5 127547819.291 5     -3702.172          33.000    24271542.734 5  99387919.581 5     -2884.821          31.000
G27  20278522.320 8 106564354.731 8       -27.211          51.000    20278523.422 8  83037150.321 8       -21.203          51.000
R05  23028747.266 4 123101850.890 4     -3212.312          29.000
R06  20379623.242 6 108749579.604 6       738.980          37.000
R07  21911364.594 8 117293283.408 8      3973.945          48.000    21911366.008 7  91228057.217 7      3090.849          46.000
R21  20415449.117 6 109247191.484 6     -1550.199          40.000    20415451.258 4  84970041.891 4     -1205.707          28.000
R22  20239018.117 5 108037214.473 5      1527.031          31.000
C05  39622707.453 5 206325834.681 5       -12.812          35.000
C20  25462165.453 6 132588177.163 6      3432.852          36.000
C27  23830296.656 6 124090625.340 6     -2234.516          38.000
C30  21544479.617 8 112187750.211 8       118.301          51.000
E05  26329842.375 8 138364277.660 8      2468.105          49.000    26329845.906 8 106019404.167 8      1891.143          50.000
E30  23856091.172 8 125364572.929 8     -1810.562          51.000    23856093.812 8  96058581.799 8     -1387.338          51.000
E36                                                                  25151168.734 5 101273345.074 5     -1392.097          33.000
> 2020 05 10 16 35 30.0000000  0 18        .000000000000
G10  20920878.328 8 109939977.290 8       -32.199          51.000    20920879.250 8  85667534.380 8       -25.090          51.000
G16  22112287.008 8 116200843.465 8     -3015.199          49.000    22112287.500 7  90546115.831 7     -2349.506          46.000
G20  21848609.391 6 114815216.786 6     -2252.363          36.000
G21  24748003.734 6 130051659.555 6     -2600.879          36.000
G26  24292690.406 5 127658936.921 5     -3702.316          34.000
G27  20278728.555 8 106565438.397 8       -41.656          51.000    20278729.570 8  83037994.719 8       -32.459          51.000
R05  23046838.219 5 123198546.143 5     -3228.625          35.000    23046848.500 4  95821142.828 4     -2511.150          26.000
R06  20375554.289 5 108727866.544 5       711.891          35.000
R07  21889134.047 8 117174284.224 8      3962.906          48.000    21889136.055 7  91135502.341 7      3082.260          44.000
R12  21485190.477 5 114770009.984 5     -2200.625          33.000    21485187.805 5  89265575.177 5     -1711.606          30.000
R21  20424175.633 6 109293892.474 6     -1559.742          37.000    20424177.797 4  85006366.835 4     -1213.136          29.000
C05  39622789.797 5 206326263.108 5       -12.508          35.000
C20  25442405.102 6 132485280.126 6      3430.066          36.000
C27  23843195.719 6 124157795.003 6     -2240.094          37.000
C30  21543833.250 8 112184385.097 8       109.422          51.000
E05  26315781.000 8 138290385.927 8      2461.426          48.000    26315785.133 8 105962785.882 8      1886.046          50.000
E30  23866471.414 8 125419122.224 8     -1822.516          51.000    23866474.969 8  96100379.309 8     -1396.497          51.000
E36                                                                  25161560.547 5 101315184.314 5     -1394.303          35.000
> 2020 05 10 16 36  0.0000000  0 15        .000000000000
G10  20921124.000 8 109941268.828 8       -52.621          51.000    20921125.016 8  85668540.795 8       -41.000          51.000
G16  22129539.945 8 116291509.084 8     -3027.867          50.000    22129540.500 7  90616764.370 7     -2359.377          46.000
G21  24762858.219 5 130129721.244 5     -2601.605          34.000
G26  24313840.531 5 127770076.425 5     -3705.133          33.000    24313856.555 5  99561164.109 5     -2887.113          31.000
G27  20279013.547 8 106566936.142 8       -56.707          51.000    20279014.547 8  83039161.782 8       -44.187          51.000
R05  23065014.242 5 123295708.279 5     -3247.348          31.000
R07  21866962.812 7 117055603.567 7      3950.531          47.000    21866964.695 7  91043195.169 7      3072.635          42.000
R21  20432952.586 7 109340856.922 7     -1570.105          42.000    20432957.164 5  85042894.649 5     -1221.196          31.000
C05  39622869.773 5 206326679.681 5       -13.578          35.000
C20  25422658.539 6 132382450.691 6      3426.418          37.000
C27  23856122.094 6 124225108.669 6     -2246.297          37.000
C30  21543234.906 8 112181269.712 8        99.582          51.000
E05  26301755.664 8 138216684.442 8      2453.477          48.000    26301760.531 8 105906313.361 8      1879.913          50.000
E30  23876916.797 8 125474013.248 8     -1835.438          51.000    23876920.195 8  96142438.657 8     -1406.362          51.000
E36                                                                  25171966.234 6 101357072.157 6     -1396.925          37.000
> 2020 05 10 16 36 30.0000000  0 15        .000000000000
G10  20921482.008 8 109943150.331 8       -71.496          51.000    20921483.102 8  85670006.909 8       -55.711          51.000
G16  22146862.195 8 116382538.366 8     -3039.375          50.000    22146862.648 7  90687696.252 7     -2368.347          47.000
G20  21874533.562 4 114951446.986 4     -2280.836          27.000
G21  24777714.641 5 130207795.601 5     -2601.668          30.000
G27  20279383.898 8 106568882.565 8       -71.406          51.000    20279385.031 8  83040678.466 8       -55.638          51.000
R05  23083289.852 5 123393396.678 5     -3264.137          33.000
R07  21844858.219 7 116937280.036 7      3939.262          47.000    21844859.258 6  90951165.801 6      3063.873          38.000
R21  20441784.492 6 109388119.010 6     -1579.352          40.000    20441787.773 4  85079654.140 4     -1228.385          29.000
C05  39622953.961 5 206327117.864 5       -13.758          35.000
C20  25402931.891 5 132279724.655 5      3423.348          35.000
C27  23869084.602 5 124292599.489 5     -2251.316          33.000
C30  21542691.195 8 112178438.129 8        90.652          51.000
E05  26287773.344 8 138143209.018 8      2446.344          48.000    26287778.820 8 105850014.034 8      1874.429          49.000
E30  23887433.602 8 125529278.398 8     -1847.418          51.000    23887435.625 8  96184784.636 8     -1415.530          50.000
E36                                                                  25182388.820 6 101399034.507 6     -1399.248          36.000
> 2020 05 10 16 37  0.0000000  0 14        .000000000000
G10  20921951.922 8 109945620.277 8       -92.207          51.000    20921953.297 8  85671931.557 8       -71.850          51.000
G16  22164253.164 8 116473927.690 8     -3052.266          51.000    22164253.438 7  90758908.666 7     -2378.392          46.000
G20  21887597.758 5 115020063.193 5     -2295.711          32.000
G21  24792573.320 5 130285881.261 5     -2602.973          32.000
G27  20279839.625 8 106571277.240 8       -87.309          51.000    20279840.758 8  83042544.424 8       -68.033          51.000
R06  20364268.984 5 108667644.545 5       626.977          33.000
R07  21822820.859 7 116819316.997 7      3926.047          45.000    21822820.867 6  90859416.894 6      3053.598          37.000
R12  21522846.070 5 114971221.373 5     -2268.695          34.000    21522861.523 5  89422088.102 5     -1764.541          32.000
R21  20450671.664 6 109435677.784 6     -1590.262          39.000    20450677.633 5  85116644.241 5     -1236.870          33.000
C20  25383223.227 4 132177102.979 4      3418.855          29.000
C30  21542201.953 8 112175889.779 8        80.242          51.000
E05  26273834.164 8 138069960.485 8      2437.812          48.000    26273840.273 8 105793888.540 8      1867.937          50.000
E30  23898021.305 8 125584915.022 8     -1860.695          51.000    23898021.656 8  96227415.240 8     -1425.743          50.000
E36                                                                  25192826.117 5 101441070.396 5     -1402.552          33.000
> 2020 05 10 16 37 30.0000000  0 13        .000000000000
G10  20922530.664 8 109948662.255 8      -110.730          51.000    20922532.094 8  85674301.931 8       -86.280          51.000
G16  22181709.266 8 116565658.393 8     -3063.297          51.000    22181709.141 7  90830387.096 7     -2386.988          45.000
G20  21900741.930 5 115089127.946 5     -2308.617          35.000
G21  24807431.555 5 130363962.079 5     -2603.102          34.000
G27  20280377.859 8 106574104.918 8      -101.438          51.000    20280378.828 8  83044747.806 8       -79.042          51.000
R06  20360820.094 6 108649231.442 6       600.328          38.000
R07  21800847.633 7 116701702.543 7      3914.938          42.000    21800850.414 6  90767939.110 6      3044.954          41.000
R12  21535638.844 5 115039525.580 5     -2289.117          33.000    21535669.594 4  89475281.462 4     -1780.431          25.000
R21  20459610.430 5 109483516.952 5     -1599.062          35.000    20459617.633 5  85153852.424 5     -1243.715          30.000
C30  21541764.117 8 112173609.407 8        71.707          51.000
E05  26259935.312 8 137996924.827 8      2431.105          48.000    26259942.508 8 105737926.185 8      1862.732          49.000
E30  23908675.969 8 125640905.693 8     -1872.184          51.000    23908675.797 8  96270317.145 8     -1434.500          50.000
E36  25203279.164 5 132444131.423 5     -1832.980          33.000    25203280.297 5 101483167.480 5     -1404.426          35.000
> 2020 05 10 16 38  0.0000000  0 14        .000000000000
G10  20923213.469 8 109952251.670 8      -128.711          51.000    20923215.391 8  85677098.868 8      -100.294          51.000
G16  22199225.211 8 116657703.957 8     -3073.312          51.000    22199224.586 7  90902110.863 7     -2394.792          45.000
G21  24822284.391 5 130442013.237 5     -2600.996          34.000
G27  20280994.008 8 106577342.064 8      -114.805          51.000    20280994.852 8  83047270.259 8       -89.458          51.000
R05  23138682.578 5 123689501.688 5     -3314.176          31.000    23138683.469 4  96202947.505 4     -2577.695          27.000
R06  20357518.328 6 108631617.221 6       573.641          38.000
R07  21778935.594 7 116584416.561 7      3903.918          44.000    21778942.430 7  90676716.754 7      3036.384          44.000
R12  21548548.984 6 115108504.475 6     -2309.535          36.000
R21  20468598.289 6 109531611.789 6     -1607.793          37.000    20468603.242 4  85191267.474 4     -1250.503          27.000
C05  39623216.320 5 206328484.374 5       -14.699          35.000
C30  21541373.250 8 112171573.599 8        63.758          51.000
E05  26246073.211 7 137924079.861 7      2424.906          47.000    26246081.109 8 105682109.938 8      1858.069          50.000
E30  23919392.734 8 125697224.629 8     -1882.742          51.000    23919393.469 8  96313470.620 8     -1442.600          51.000
E36  25213744.781 5 132499121.055 5     -1834.098          34.000    25213747.789 6 101525307.000 6     -1405.401          36.000
> 2020 05 10 16 38 30.0000000  0 14        .000000000000
G10  20924001.367 8 109956392.895 8      -150.652          49.000    20924003.859 8  85680325.782 8      -117.391          49.000
G16  22216801.203 8 116750066.358 8     -3087.242          49.000    22216800.109 7  90974081.511 7     -2405.643          45.000
G21  24837132.430 5 130520039.596 5     -2603.453          31.000
G27  20281689.086 8 106580994.226 8      -131.945          51.000    20281690.023 8  83050116.098 8      -102.815          51.000
R06  20354368.555 5 108614807.946 5       543.789          35.000
R07  21757088.602 7 116467468.453 7      3889.172          44.000    21757097.047 7  90585757.153 7      3024.911          46.000
R12  21561577.578 6 115178100.730 6     -2333.559          36.000
R21  20477635.531 5 109579967.108 5     -1619.113          34.000    20477639.547 4  85228877.235 4     -1259.310          28.000
C05  39623298.781 5 206328913.256 5       -17.574          34.000
C27  23921236.305 5 124564147.776 5     -2275.109          32.000
C30  21541030.422 8 112169787.714 8        52.125          51.000
E05  26232248.977 7 137851432.329 7      2414.980          47.000    26232256.828 8 105626444.993 8      1850.413          49.000
E30  23930172.625 8 125753875.292 8     -1897.137          51.000    23930174.664 8  96356878.267 8     -1453.683          51.000
E36  25224224.016 5 132554190.907 5     -1839.562          31.000    25224224.773 5 101567492.662 5     -1409.496          33.000
> 2020 05 10 16 39  0.0000000  0 14        .000000000000
G10  20924938.672 8 109961319.054 8      -157.910          50.000    20924941.125 8  85684164.334 8      -123.047          50.000
G16  22234481.016 7 116842976.699 7     -3086.801          47.000    22234479.805 7  91046479.129 7     -2405.302          45.000
G27  20282507.727 8 106585295.788 8      -134.891          51.000    20282508.867 8  83053467.958 8      -105.110          51.000
R05  23176103.672 5 123889508.305 5     -3337.492          32.000
R06  20351413.492 6 108599041.702 6       527.715          37.000
R07  21735350.461 7 116351100.401 7      3888.977          43.000    21735359.305 7  90495248.695 7      3024.760          47.000
R12  21574764.930 5 115248547.944 5     -2342.348          30.000
R21  20486764.836 5 109628820.831 5     -1617.520          35.000    20486771.836 4  85266874.500 4     -1258.077          28.000
C05  39623423.125 5 206329561.332 5        -5.828          34.000
C27  23934383.844 5 124632622.865 5     -2269.926          35.000
C30  21540780.180 8 112168483.846 8        54.543          51.000
E05  26218507.703 8 137779217.937 8      2419.207          49.000    26218514.359 8 105571111.909 8      1853.615          49.000
E30  23941060.297 8 125811089.844 8     -1897.305          51.000    23941063.023 8  96400717.963 8     -1453.806          51.000
E36                                                                  25234754.891 5 101609901.458 5     -1403.103          30.000
> 2020 05 10 16 39 30.0000000  0 15        .000000000000
G10  20925899.109 8 109966366.295 8      -185.473          51.000    20925901.641 8  85688097.251 8      -144.524          51.000
G16  22252138.141 7 116935769.328 7     -3106.281          46.000    22252137.133 7  91118785.045 7     -2420.479          44.000
G26  24462067.422 5 128549031.875 5     -3711.938          32.000
G27  20283323.812 8 106589583.992 8      -158.055          51.000    20283325.031 8  83056809.422 8      -123.159          51.000
R05  23194883.266 5 123989902.185 5     -3362.383          34.000
R06  20348527.609 5 108583645.484 5       491.570          32.000
R07  21713594.805 6 116234641.179 6      3868.008          41.000    21713603.852 7  90404669.258 7      3008.447          45.000
R12  21587982.797 6 115319168.199 6     -2372.305          40.000
R21  20495860.742 5 109677497.395 5     -1635.445          33.000
R22  20163810.367 5 107635789.272 5      1448.258          34.000    20163834.008 4  83716765.800 4      1126.420          26.000
C05  39623462.898 5 206329768.386 5       -15.145          34.000
C27  23947480.930 6 124700812.073 6     -2283.344          37.000
C30  21540496.172 8 112167005.225 8        37.082          51.000
E05  26204723.133 8 137706775.207 8      2403.297          48.000    26204728.250 8 105515603.889 8      1841.487          48.000
E30  23951928.977 8 125868203.297 8     -1917.324          51.000    23951931.734 8  96444480.190 8     -1469.181          51.000
> 2020 05 10 16 40  0.0000000  0 12        .000000000000
G10  20927022.133 8 109972266.956 8      -205.844          51.000    20927024.789 8  85692695.164 8      -160.398          51.000
G16  22269911.766 7 117029173.901 7     -3118.562          45.000    22269911.438 7  91191567.778 7     -2430.052          44.000
G27  20284276.930 8 106594592.421 8      -173.891          51.000    20284277.953 8  83060712.095 8      -135.496          51.000
R05  23213807.852 5 124091066.626 5     -3379.301          30.000    23213805.008 4  96515298.146 4     -2628.342          24.000
R07  21691965.539 7 116118842.059 7      3854.164          42.000    21691970.664 7  90314603.220 7      2997.686          43.000
R12  21601375.359 7 115390703.066 7     -2394.379          42.000
R21  20505063.406 6 109726742.939 6     -1646.070          36.000
C05  39623557.531 5 206330261.462 5       -16.020          34.000
C27  23960663.672 5 124769441.509 5     -2289.727          35.000
C30  21540318.102 8 112166078.610 8        26.863          51.000
E05  26191034.766 8 137634839.042 8      2394.512          49.000    26191038.352 7 105460484.052 7      1834.669          47.000
E30  23962917.305 8 125925947.015 8     -1930.141          51.000    23962919.609 8  96488725.354 8     -1478.918          51.000
> 2020 05 10 16 40 30.0000000  0 12        .000000000000
G10  20928275.508 8 109978852.970 8      -223.168          51.000    20928278.117 8  85697827.124 8      -173.897          51.000
G16  22287769.883 7 117123020.800 7     -3127.930          46.000    22287770.227 7  91264695.204 7     -2437.348          44.000
G21  24896529.250 5 130832143.281 5     -2599.496          30.000
G27  20285335.359 8 106600154.178 8      -186.816          51.000    20285336.086 8  83065045.948 8      -145.571          51.000
R07  21670427.250 7 116003536.287 7      3843.145          44.000    21670429.188 6  90224921.004 6      2989.112          40.000
R12  21614907.117 6 115462978.474 6     -2413.801          41.000    21614917.992 4  89804556.089 4     -1877.401          27.000
R21  20514341.242 6 109776387.179 6     -1653.375          40.000
C05  39623675.430 5 206330874.800 5       -15.691          34.000
C20  25245775.312 5 131461363.714 5      3397.520          31.000
C30  21540214.289 8 112165538.580 8        19.223          51.000
E05  26177411.258 8 137563243.882 8      2388.523          50.000    26177412.594 7 105405625.467 7      1830.119          45.000
E30  23973992.938 8 125984151.975 8     -1940.102          51.000    23973995.094 8  96533323.947 8     -1486.491          51.000
> 2020 05 10 16 41  0.0000000  0 13        .000000000000
G10  20929570.086 8 109985654.862 8      -239.043          51.000    20929572.375 8  85703127.299 8      -186.264          51.000
G16  22305622.602 7 117216838.320 7     -3135.469          47.000    22305623.562 7  91337799.759 7     -2443.222          44.000
G21  24911353.977 5 130910069.362 5     -2596.418          30.000
G26  24525643.148 5 128883112.128 5     -3709.484          33.000
G27  20286409.922 8 106605800.998 8      -198.254          51.000    20286410.477 8  83069446.084 8      -154.484          51.000
R07  21648891.383 7 115888250.804 7      3833.543          46.000    21648890.180 6  90135254.572 6      2981.648          36.000
R12  21628487.406 7 115535513.881 7     -2430.809          42.000    21628494.578 3  89860983.384 3     -1890.638          23.000
R21  20523603.000 5 109825952.223 5     -1659.473          34.000    20523634.141 4  85420269.449 4     -1290.716          28.000
C20  25226173.281 5 131359303.334 5      3397.340          34.000
C30  21540095.672 8 112164921.006 8        13.297          51.000
E05  26163763.422 8 137491522.732 8      2384.074          49.000    26163762.930 7 105350670.351 7      1826.674          44.000
E30  23985066.852 8 126042347.690 8     -1948.379          51.000    23985069.477 8  96577915.461 8     -1492.926          51.000
E36  25276837.578 6 132830693.936 6     -1846.254          38.000
> 2020 05 10 16 41 30.0000000  0 14        .000000000000
G10  20931008.414 8 109993212.845 8      -262.004          51.000    20931010.547 8  85709016.650 8      -204.159          51.000
G16  22323572.500 8 117311164.693 8     -3150.246          48.000    22323573.742 7  91411300.812 7     -2454.737          44.000
G21  24926196.961 5 130988056.142 5     -2599.508          33.000
G27  20287603.680 8 106612074.412 8      -217.043          51.000    20287604.438 8  83074334.457 8      -169.124          51.000
R06  20338725.438 5 108531300.328 5       380.590          31.000
R07  21627462.297 8 115773540.978 8      3816.543          48.000    21627460.047 6  90046035.884 6      2968.425          39.000
R12  21642218.625 7 115608855.545 7     -2455.383          43.000    21642211.648 4  89917958.029 4     -1909.742          24.000
R21  20532961.086 5 109876017.201 5     -1673.020          35.000
C05  39623815.461 5 206331603.959 5       -16.176          34.000
C20  25206629.469 5 131257538.267 5      3389.461          34.000
C30  21540065.359 8 112164762.398 8          .098          51.000
E05  26150194.156 7 137420218.421 7      2372.406          47.000    26150193.828 7 105296034.629 7      1817.875          44.000
E30  23996242.094 8 126101073.494 8     -1963.797          51.000    23996245.156 8  96622913.121 8     -1504.727          51.000
E36  25287409.266 5 132886228.596 5     -1853.703          33.000
> 2020 05 10 16 42  0.0000000  0 14        .000000000000
G10  20932552.781 8 110001327.679 8      -279.418          51.000    20932554.391 8  85715339.892 8      -217.728          51.000
G16  22341581.125 8 117405798.377 8     -3159.262          49.000    22341582.312 7  91485041.314 7     -2461.765          44.000
G21  24941034.156 5 131066024.869 5     -2598.703          34.000    24941030.383 4 102129349.362 4     -2024.963          25.000
G27  20288878.930 8 106618776.304 8      -230.250          51.000    20288879.875 8  83079556.712 8      -179.416          51.000
R06  20336659.148 5 108520275.931 5       354.191          31.000
R07  21606104.055 8 115659208.502 8      3805.172          51.000    21606102.203 6  89957110.700 6      2959.578          41.000
R12  21656062.086 7 115682797.658 7     -2474.383          42.000    21656060.219 5  89975468.548 5     -1924.520          30.000
R21  20542361.672 5 109926323.172 5     -1681.016          32.000    20542362.969 5  85498289.987 5     -1307.463          30.000
C05  39623902.727 5 206332058.939 5       -14.566          34.000
C20  25187105.859 5 131155873.926 5      3387.500          35.000
C27  24013639.828 4 125045327.944 4     -2308.840          28.000
C30  21540085.602 8 112164866.414 8        -7.500          51.000
E05  26136666.133 7 137349134.159 7      2366.180          46.000    26136667.719 7 105241567.530 7      1812.972          45.000
E30  24007480.516 8 126160129.082 8     -1973.609          51.000    24007483.727 8  96668163.483 8     -1512.279          51.000
> 2020 05 10 16 42 30.0000000  0 16        .000000000000
G10  20934204.555 8 110010007.325 8      -298.914          51.000    20934205.797 8  85722103.254 8      -232.920          51.000
G16  22359649.656 8 117500745.730 8     -3170.461          48.000    22359650.367 7  91559026.229 7     -2470.489          44.000
G21  24955869.367 4 131143983.800 4     -2597.730          29.000
G26  24589231.750 5 129217287.367 5     -3713.328          31.000    24589242.289 5 100688844.051 5     -2893.502          30.000
G27  20290237.484 8 106625915.922 8      -245.512          51.000    20290238.344 8  83085120.048 8      -191.308          51.000
R06  20334745.398 5 108510080.478 5       325.895          33.000
R07  21584819.336 8 115545266.798 8      3791.312          51.000    21584817.586 6  89868489.431 6      2948.799          41.000
R12  21670017.438 6 115757345.033 6     -2495.172          40.000    21670018.312 5  90033449.778 5     -1940.692          31.000
R21  20551810.656 5 109976867.326 5     -1690.211          31.000    20551815.914 5  85537593.195 5     -1314.605          30.000
C05  39623990.688 5 206332516.189 5       -15.691          34.000
C20  25167604.070 5 131054321.241 5      3382.699          33.000
C27  24026960.891 4 125114689.458 4     -2315.465          29.000
C30  21540157.859 8 112165242.198 8       -17.297          51.000
E05  26123182.180 7 137278280.570 7      2357.730          46.000    26123185.914 7 105187277.141 7      1806.540          46.000
E30  24018783.039 8 126219521.567 8     -1985.594          51.000    24018786.398 8  96713671.970 8     -1521.432          51.000
E36  25308607.016 5 132997621.071 5     -1856.887          34.000
> 2020 05 10 16 43  0.0000000  0 11        .000000000000
G10  20935996.102 8 110019421.949 8      -319.672          51.000    20935997.414 8  85729439.339 8      -249.095          51.000
G16  22377809.797 8 117596174.392 8     -3182.652          48.000    22377810.195 7  91633386.180 7     -2479.989          45.000
G27  20291711.969 8 106633664.674 8      -261.957          51.000    20291712.516 8  83091158.059 8      -204.122          51.000
R06  20333021.578 5 108500887.634 5       295.941          34.000
R07  21563640.805 8 115431894.167 8      3776.074          51.000    21563638.906 6  89780310.788 6      2936.950          40.000
R12  21684113.320 5 115832667.613 5     -2516.805          34.000    21684121.844 5  90092034.070 5     -1957.515          32.000
R21  20561359.211 5 110028032.530 5     -1702.418          34.000    20561348.555 5  85577318.965 5     -1324.103          30.000
C05  39624111.773 5 206333146.977 5       -17.734          35.000
C30  21540314.695 8 112166059.528 8       -28.285          50.000
E05  26109775.422 7 137207830.371 7      2347.938          47.000    26109780.977 8 105133295.856 8      1799.063          48.000
E30  24030181.570 8 126279420.122 8     -1998.707          51.000    24030185.141 8  96759568.229 8     -1531.453          51.000
> 2020 05 10 16 43 30.0000000  0 14        .000000000000
G10  20937838.516 8 110029104.285 8      -336.906          51.000    20937839.828 8  85736984.018 8      -262.524          51.000
G16  22395972.016 8 117691615.430 8     -3191.262          48.000    22395972.711 7  91707755.782 7     -2486.697          44.000
G20  22064195.883 5 115948131.131 5     -2463.180          35.000
G27  20293213.578 8 106641556.644 8      -275.105          51.000    20293214.055 8  83097307.640 8      -214.368          51.000
G32  24667759.117 6 129629948.183 6      3008.465          40.000    24667759.984 6 101010355.180 6      2344.261          40.000
R06  20331398.133 5 108492224.444 5       270.531          33.000
R07  21542480.133 8 115318619.698 8      3764.191          49.000    21542477.859 6  89692208.520 6      2927.707          40.000
R12  21698268.234 6 115908287.394 6     -2535.355          39.000    21698282.508 5  90150849.551 5     -1971.940          31.000
R21  20570880.164 5 110078957.296 5     -1709.551          34.000    20570882.398 5  85616955.712 5     -1329.648          31.000
C05  39624177.328 5 206333488.914 5       -16.180          34.000
C27  24053715.383 5 125254000.130 5     -2325.902          33.000
C30  21540467.648 8 112166856.615 8       -35.852          49.000
E05  26096357.508 7 137137318.901 7      2341.738          47.000    26096363.828 8 105079267.623 8      1794.328          48.000
E30  24041586.867 8 126339356.560 8     -2008.203          51.000    24041590.812 8  96805493.518 8     -1538.702          51.000
> 2020 05 10 16 44  0.0000000  0 11        .000000000000
G10  20939841.398 8 110039630.052 8      -355.668          51.000    20939843.062 8  85745185.927 8      -277.141          51.000
G16  22414245.656 8 117787642.831 8     -3201.391          48.000    22414246.594 7  91782582.276 7     -2494.590          43.000
G27  20294852.250 8 106650168.775 8      -289.883          51.000    20294853.016 8  83104018.386 8      -225.883          51.000
G32  24650614.766 6 129539855.128 6      3007.035          39.000    24650614.227 6 100940152.900 6      2343.147          38.000
R06  20329984.094 6 108484677.011 6       242.566          39.000
R07  21521447.430 7 115206034.926 7      3750.684          46.000    21521446.023 6  89604642.670 6      2917.201          41.000
R12  21712590.086 6 115984786.695 6     -2555.102          38.000    21712608.453 5  90210349.029 5     -1987.301          32.000
C05  39624296.930 5 206334111.317 5       -16.871          34.000
C30  21540726.594 8 112168205.197 8       -45.035          49.000
E05  26083038.203 8 137067324.507 8      2333.836          48.000    26083044.539 8 105025635.599 8      1788.165          48.000
E30  24053108.570 8 126399905.712 8     -2019.316          51.000    24053112.953 8  96851888.314 8     -1547.241          51.000
> 2020 05 10 16 44 30.0000000  0 14        .000000000000
G10  20941905.016 8 110050474.554 8      -371.496          51.000    20941906.805 8  85753636.206 8      -289.477          51.000
G16  22432530.531 8 117883729.777 8     -3208.551          48.000    22432531.516 7  91857455.175 7     -2500.169          44.000
G20  22092462.531 6 116096690.194 6     -2485.504          37.000
G27  20296528.531 8 106658977.675 8      -301.605          51.000    20296529.672 8  83110882.447 8      -235.017          51.000
G32  24633432.414 6 129449561.528 6      3008.543          40.000    24633432.836 6 100869794.398 6      2344.325          40.000
R06  20328678.938 6 108477712.421 6       217.660          36.000
R07  21500443.734 7 115093610.485 7      3740.031          44.000    21500445.172 7  89517201.485 7      2908.916          42.000
R12  21726976.102 6 116061628.614 6     -2571.777          39.000    21726995.414 5  90270114.978 5     -2000.271          33.000
R21  20590160.141 5 110182149.755 5     -1725.516          34.000    20590162.172 5  85697205.424 5     -1342.068          31.000
R22  20084894.938 5 107214531.368 5      1362.586          34.000    20084897.641 4  83389090.924 4      1059.789          29.000
C20  25089835.703 5 130649356.327 5      3369.930          32.000
C30  21540991.852 8 112169586.622 8       -51.332          49.000
E05  26069718.188 7 136997325.189 7      2328.570          47.000    26069723.438 7 104971999.781 7      1784.301          46.000
E30  24064647.125 8 126460542.004 8     -2027.461          51.000    24064651.531 8  96898349.882 8     -1553.485          51.000
> 2020 05 10 16 45  0.0000000  0 14        .000000000000
G10  20944100.750 8 110062013.511 8      -394.656          51.000    20944102.523 8  85762627.599 8      -307.524          51.000
G16  22450897.773 8 117980249.867 8     -3222.930          48.000    22450898.648 7  91932665.607 7     -2511.374          44.000
G27  20298314.023 8 106668360.345 8      -320.820          51.000    20298315.141 8  83118193.595 8      -249.990          51.000
G32  24616284.516 7 129359446.771 7      3002.457          43.000    24616287.141 7 100799575.223 7      2339.580          42.000
R06  20327555.656 5 108471714.683 5       185.629          34.000
R07  21479543.539 7 114981734.118 7      3721.609          47.000    21479546.742 7  89430186.584 7      2894.588          44.000
R12  21741496.922 7 116139191.978 7     -2595.758          42.000    21741516.172 5  90330442.104 5     -2018.920          33.000
R21  20599883.203 6 110234169.960 6     -1739.277          38.000    20599884.242 4  85737665.512 4     -1352.771          29.000
C05  39624470.570 5 206335015.756 5       -17.543          35.000
C20  25070459.656 5 130548440.113 5      3360.738          30.000
C27  24094064.469 5 125464035.357 5     -2342.309          30.000
C30  21541334.938 8 112171374.444 8       -64.770          49.000
E05  26056469.141 7 136927699.208 7      2316.121          46.000    26056472.688 7 104918650.035 7      1774.687          45.000
E30  24076273.836 8 126521640.271 8     -2042.828          51.000    24076277.703 8  96945165.406 8     -1565.230          51.000
> 2020 05 10 16 45 30.0000000  0 12        .000000000000
G10  20946388.383 8 110074035.013 8      -409.262          51.000    20946390.109 8  85771995.015 8      -318.905          51.000
G16  22469306.781 8 118076989.554 8     -3228.871          49.000    22469307.352 7  92008047.161 7     -2516.003          44.000
G27  20300168.633 8 106678106.250 8      -331.539          51.000    20300169.469 8  83125787.783 8      -258.345          51.000
G32  24599131.148 7 129269302.724 7      3004.762          44.000    24599135.758 7 100729333.174 7      2341.376          44.000
R06  20326572.469 5 108466484.274 5       162.797          31.000
R07  21458707.234 8 114870195.003 8      3711.766          48.000    21458710.445 7  89343433.969 7      2886.929          43.000
R12  21756112.297 7 116217258.384 7     -2611.176          43.000    21756131.289 5  90391160.373 5     -2030.918          33.000
R21  20609640.953 5 110286388.724 5     -1744.516          34.000    20609639.281 4  85778268.069 4     -1356.845          26.000
C05  39624556.305 5 206335461.791 5       -14.488          34.000
C30  21541716.117 8 112173360.010 8       -70.051          49.000
E05  26043251.398 7 136858237.428 7      2312.047          46.000    26043253.992 7 104865426.129 7      1771.661          46.000
E30  24087948.180 8 126582987.761 8     -2049.586          51.000    24087951.023 8  96992171.899 8     -1570.498          51.000
> 2020 05 10 16 46  0.0000000  0 12        .000000000000
G10  20948783.953 8 110086623.368 8      -429.723          51.000    20948785.617 8  85781804.131 8      -334.849          51.000
G16  22487773.234 8 118174030.943 8     -3240.441          49.000    22487773.352 7  92083663.798 7     -2525.022          43.000
G27  20302108.656 8 106688300.945 8      -347.961          51.000    20302108.984 8  83133731.682 8      -271.138          51.000
G32  24581988.688 7 129179217.342 7      3001.195          43.000    24581994.562 7 100659136.817 7      2338.594          43.000
R06  20325747.242 5 108462077.812 5       131.695          31.000
R07  21437951.477 8 114759084.398 8      3695.965          50.000    21437954.344 7  89257014.626 7      2874.639          45.000
R12  21770837.055 7 116295910.287 7     -2632.145          43.000    21770855.305 4  90452333.891 4     -2047.230          29.000
R21  20619453.914 6 110338892.466 6     -1755.465          40.000    20619452.102 4  85819096.275 4     -1365.362          29.000
C05  39624644.008 5 206335918.212 5       -15.824          34.000
C30  21542151.711 8 112175628.147 8       -81.031          49.000
E05  26030081.461 7 136789026.781 7      2302.223          47.000    26030083.477 7 104812394.651 7      1763.963          45.000
E30  24099685.797 8 126644667.901 8     -2062.211          51.000    24099687.578 8  97039433.257 8     -1580.085          51.000
> 2020 05 10 16 46 30.0000000  0 13        .000000000000
G10  20951290.422 8 110099794.676 8      -447.727          51.000    20951292.102 8  85792067.506 8      -348.878          51.000
G16  22506299.773 8 118271388.424 8     -3249.445          49.000    22506299.508 7  92159526.732 7     -2532.035          42.000
G27  20304137.375 8 106698961.931 8      -362.094          51.000    20304137.289 8  83142038.935 8      -282.151          51.000
G32  24564860.945 7 129089210.624 7      2999.793          43.000    24564867.508 7 100589001.720 7      2337.501          43.000
R06  20325081.977 5 108458527.877 5       105.008          32.000
R07  21417280.086 8 114648423.773 8      3682.156          50.000    21417282.555 7  89170945.299 7      2863.899          46.000
R12  21785672.953 7 116375160.960 7     -2650.449          42.000    21785667.633 4  90513999.053 4     -2061.467          26.000
R21  20629321.930 6 110391698.352 6     -1764.305          37.000    20629322.461 4  85860167.410 4     -1372.240          29.000
C05  39624736.883 5 206336401.818 5       -15.562          34.000
C27  24134622.773 4 125675289.287 4     -2355.766          28.000
C30  21542644.992 8 112178196.187 8       -89.602          50.000
E05  26016962.781 8 136720086.132 8      2294.484          48.000    26016964.828 7 104759570.024 7      1758.096          46.000
E30  24111489.469 8 126706695.935 8     -2072.324          51.000    24111490.312 8  97086961.212 8     -1587.903          51.000
> 2020 05 10 16 47  0.0000000  0 14        .000000000000
G10  20953906.602 8 110113542.423 8      -462.539          51.000    20953908.023 8  85802780.036 8      -360.420          51.000
G16  22524884.727 8 118369053.733 8     -3255.238          48.000    22524883.945 7  92235629.518 7     -2536.552          42.000
G27  20306253.766 8 106710083.962 8      -373.043          51.000    20306253.836 8  83150705.438 8      -290.686          51.000
G32  24547747.516 7 128999279.786 7      3001.824          42.000    24547754.469 6 100518925.750 6      2339.084          41.000
R06  20324577.008 5 108455834.291 5        80.898          30.000
R07  21396691.859 8 114538211.395 8      3671.734          49.000    21396694.234 7  89085224.606 7      2855.796          45.000
R12  21800618.922 6 116455000.565 6     -2665.633          41.000    21800617.445 4  90576081.423 4     -2073.273          29.000
R21  20639245.602 6 110444800.592 6     -1769.469          40.000
C05  39624833.930 5 206336907.032 5       -12.191          34.000
C20  24993141.367 5 130145851.702 5      3350.047          31.000
C30  21543195.023 8 112181058.999 8       -95.062          51.000
E05  26003894.648 8 136651411.623 8      2289.992          48.000    26003897.445 7 104706949.313 7      1754.642          47.000
E30  24123357.820 8 126769064.482 8     -2079.254          51.000    24123358.461 8  97134750.077 8     -1593.198          51.000
E36  25404620.078 5 133502173.728 5     -1875.094          32.000
> 2020 05 10 16 47 30.0000000  0 13        .000000000000
G10  20956622.172 8 110127812.783 8      -484.688          51.000    20956623.688 8  85813899.805 8      -377.679          51.000
G16  22543517.297 7 118466970.909 7     -3268.375          47.000    22543516.227 7  92311928.576 7     -2546.786          43.000
G27  20308447.914 8 106721614.636 8      -391.422          51.000    20308448.352 8  83159690.353 8      -305.007          51.000
G32  24530639.062 7 128909374.771 7      2996.039          43.000    24530645.836 7 100448869.922 7      2334.576          44.000
R07  21376176.852 7 114428397.565 7      3653.336          47.000    21376180.227 7  88999813.919 7      2841.487          45.000
R12  21815664.078 6 116535371.367 6     -2687.992          39.000    21815665.117 5  90638592.016 5     -2090.661          32.000
R21  20649214.945 6 110498145.251 6     -1782.500          36.000    20649214.273 5  85942974.246 5     -1386.398          30.000
R22  20039927.281 4 106974491.710 4      1307.211          29.000    20039929.258 4  83202389.756 4      1016.720          28.000
C05  39624924.953 5 206337381.374 5       -15.816          34.000
C20  24973871.039 5 130045520.174 5      3342.430          32.000
C30  21543791.734 8 112184164.635 8      -107.840          50.000
E05  25990867.273 7 136582952.146 7      2277.914          47.000    25990870.938 8 104654493.362 8      1745.478          48.000
E30  24135280.492 8 126831718.935 8     -2093.684          51.000    24135281.594 8  97182758.019 8     -1604.224          51.000
> 2020 05 10 16 48  0.0000000  0 12        .000000000000
G10  20959442.242 8 110142632.273 8      -503.211          51.000    20959443.711 8  85825447.465 8      -392.112          51.000
G16  22562202.695 8 118565164.839 8     -3277.859          48.000    22562201.523 7  92388443.295 7     -2554.179          43.000
G27  20310725.219 8 106733581.827 8      -406.383          51.000    20310725.750 8  83169015.417 8      -316.662          51.000
G32  24513541.547 7 128819526.001 7      2993.941          44.000    24513547.422 7 100378857.948 7      2332.941          44.000
R07  21355740.891 7 114319014.635 7      3638.676          45.000    21355746.070 7  88914738.365 7      2830.084          44.000
R12  21830812.102 6 116616297.136 6     -2707.188          37.000    21830814.305 5  90701534.323 5     -2105.587          33.000
R21  20659234.961 6 110551760.175 6     -1791.926          37.000    20659233.742 4  85984674.665 4     -1393.720          29.000
C05  39625015.383 5 206337851.972 5       -15.352          34.000
C20  24954625.484 5 129945317.682 5      3337.855          35.000
C30  21544440.203 8 112187540.815 8      -117.191          50.000
E05  25977886.039 7 136514736.977 7      2269.602          46.000    25977890.773 8 104602224.634 8      1739.063          48.000
E30  24147262.617 8 126894685.012 8     -2104.152          51.000    24147264.070 8  97231004.725 8     -1612.276          51.000
> 2020 05 10 16 48 30.0000000  0 13        .000000000000
G10  20962365.289 8 110157993.049 8      -521.738          51.000    20962366.609 8  85837416.904 8      -406.549          51.000
G16  22580939.344 8 118663625.459 8     -3287.145          50.000    22580938.039 7  92465165.803 7     -2561.411          43.000
G27  20313084.477 8 106745978.998 8      -421.113          51.000    20313084.945 8  83178675.550 8      -328.140          51.000
G32  24496453.945 7 128729729.492 7      2991.609          46.000    24496458.336 7 100308886.716 7      2331.127          46.000
R07  21335385.547 7 114210060.003 7      3623.832          45.000    21335392.258 7  88829995.890 7      2818.536          45.000
R12  21846063.414 6 116697766.745 6     -2725.254          40.000    21846066.086 5  90764899.488 5     -2119.648          35.000
R21  20669304.734 6 110605638.036 6     -1801.137          37.000    20669299.297 5  86026579.682 5     -1400.878          30.000
C05  39625103.617 5 206338311.981 5       -15.828          34.000
C20  24935406.219 6 129845239.484 6      3333.438          38.000
C30  21545139.086 8 112191181.134 8      -126.574          50.000
E05  25964950.266 7 136446761.025 7      2261.137          46.000    25964955.836 8 104550139.221 8      1732.559          48.000
E30  24159302.266 8 126957954.081 8     -2114.688          51.000    24159304.047 8  97279483.597 8     -1620.399          51.000
E36  25436860.352 5 133671602.564 5     -1886.637          32.000
> 2020 05 10 16 49  0.0000000  0 13        .000000000000
G10  20965398.977 8 110173935.272 8      -539.613          51.000    20965400.547 8  85849839.419 8      -420.478          51.000
G16  22599734.508 8 118762391.719 8     -3295.797          51.000    22599732.750 7  92542126.480 7     -2568.156          44.000
G20  22223056.148 5 116782947.908 5     -2594.309          30.000
G27  20315533.398 8 106758847.730 8      -435.355          51.000    20315533.719 8  83188703.144 8      -339.238          51.000
G32  24479384.875 7 128640029.262 7      2989.980          47.000    24479386.977 7 100238990.537 7      2329.858          47.000
R07  21315119.672 7 114101579.615 7      3609.562          44.000    21315127.219 7  88745622.289 7      2807.441          46.000
R12  21861424.492 6 116779818.044 6     -2743.012          41.000    21861426.609 5  90828717.098 5     -2133.454          35.000
R21  20679428.438 4 110659821.088 4     -1809.613          29.000    20679429.258 5  86068721.883 5     -1407.495          34.000
C05  39625197.750 5 206338802.135 5       -15.391          34.000
C20  24916219.664 6 129745328.518 6      3328.934          38.000
C30  21545896.523 8 112195126.807 8      -135.176          50.000
E05  25952068.547 7 136379067.298 7      2253.156          47.000    25952074.055 7 104498270.043 7      1726.435          47.000
E30  24171406.688 8 127021565.467 8     -2124.637          51.000    24171409.422 8  97328224.757 8     -1627.932          51.000
> 2020 05 10 16 49 30.0000000  0 12        .000000000000
G10  20968534.375 8 110190412.218 8      -558.742          51.000    20968536.031 8  85862678.605 8      -435.380          51.000
G16  22618578.578 8 118861415.162 8     -3305.641          51.000    22618576.141 7  92619287.553 7     -2575.824          44.000
G27  20318063.391 8 106772142.744 8      -450.859          51.000    20318063.742 8  83199062.887 8      -351.316          51.000
G32  24462326.289 8 128550382.547 8      2986.754          48.000    24462326.367 7 100169136.048 7      2327.344          45.000
R06  20324346.867 5 108454636.926 5       -61.250          32.000
R07  21294935.508 7 113993530.927 7      3593.852          45.000    21294942.953 7  88661584.431 7      2795.218          46.000
R12  21876883.398 5 116862400.268 5     -2761.965          35.000    21876887.898 5  90892947.643 5     -2148.198          35.000
R21  20689607.352 5 110714255.153 5     -1820.082          32.000    20689601.781 5  86111069.401 5     -1415.619          32.000
C20  24897056.836 6 129645541.588 6      3323.102          37.000
C30  21546703.930 8 112199333.006 8      -145.203          51.000
E05  25939232.039 7 136311611.817 7      2243.930          47.000    25939236.898 7 104446583.388 7      1719.384          45.000
E30  24183567.219 8 127085471.673 8     -2135.703          51.000    24183571.078 8  97377191.857 8     -1636.406          51.000
> 2020 05 10 16 50  0.0000000  0 13        .000000000000
G10  20971769.586 8 110207413.653 8      -575.457          51.000    20971771.289 8  85875926.481 8      -448.408          51.000
G16  22637469.039 8 118960683.331 8     -3312.969          51.000    22637466.062 7  92696639.311 7     -2581.537          44.000
G27  20320672.922 8 106785855.171 8      -464.055          51.000    20320673.383 8  83209747.891 8      -361.601          51.000
G32  24445276.891 8 128460782.971 8      2985.895          49.000    24445275.414 7 100099318.298 7      2326.674          45.000
R06  20324763.297 6 108456854.679 6       -87.293          38.000
R07  21274832.305 7 113885909.214 7      3580.203          47.000    21274838.273 7  88577878.682 7      2784.602          46.000
R12  21892436.789 5 116945499.986 5     -2779.289          34.000    21892444.609 5  90957580.737 5     -2161.672          34.000
C05  39625375.461 5 206339727.512 5       -14.980          34.000
C20  24877916.641 6 129545871.811 6      3320.195          36.000
C30  21547559.898 8 112203791.056 8      -152.871          51.000
E05  25926439.125 7 136244387.205 7      2237.070          44.000    25926443.711 7 104395073.600 7      1714.059          45.000
E30  24195782.078 8 127149661.783 8     -2144.484          51.000    24195786.578 8  97426376.472 8     -1643.125          51.000
E36  25469237.180 5 133841759.047 5     -1893.074          35.000    25469253.383 5 102554108.461 5     -1450.705          35.000
> 2020 05 10 16 50 30.0000000  0 13        .000000000000
G10  20975125.891 8 110225050.869 8      -599.344          51.000    20975127.695 8  85889669.768 8      -467.021          51.000
G16  22656426.367 8 119060305.578 8     -3327.496          50.000    22656423.578 7  92774266.980 7     -2592.857          45.000
G27  20323383.359 8 106800097.683 8      -484.531          51.000    20323383.898 8  83220845.948 8      -377.557          51.000
G32  24428258.375 8 128371345.819 8      2977.598          50.000    24428256.055 7 100029627.125 7      2320.209          45.000
R06  20325350.430 6 108459990.473 6      -120.672          37.000
R07  21254830.805 8 113778832.433 8      3559.102          49.000    21254835.453 7  88494596.778 7      2768.190          46.000
R12  21908108.414 6 117029227.060 6     -2802.430          37.000    21908117.289 5  91022701.790 5     -2179.664          30.000
C05  39625478.656 5 206340264.771 5       -20.258          34.000
C20  24858820.781 5 129446432.576 5      3310.402          35.000
C30  21548485.805 8 112208612.712 8      -167.727          51.000
E05  25913711.469 7 136177507.526 7      2222.645          43.000    25913716.688 7 104343828.128 7      1703.011          47.000
E30  24208072.336 8 127214246.313 8     -2160.254          51.000    24208076.492 8  97475863.280 8     -1655.265          51.000
E36                                                                  25480090.688 5 102597720.876 5     -1456.338          33.000
> 2020 05 10 16 51  0.0000000  0 13        .000000000000
G10  20978579.109 8 110243197.530 8      -612.754          51.000    20978580.883 8  85903810.025 8      -477.471          51.000
G16  22675426.211 7 119160154.406 7     -3331.398          47.000    22675424.625 7  92852071.225 7     -2595.898          45.000
G27  20326170.836 8 106814745.360 8      -494.414          51.000    20326171.328 8  83232259.729 8      -385.258          51.000
G32  24411247.312 8 128281948.705 8      2979.738          50.000    24411244.719 7  99959967.166 7      2321.880          45.000
R06  20326085.812 6 108463916.500 6      -143.398          40.000
R07  21234907.945 8 113672177.463 8      3548.703          50.000    21234911.750 7  88411642.948 7      2760.102          47.000
R12  21923875.258 6 117113449.874 6     -2815.004          40.000    21923882.312 4  91088208.363 4     -2189.451          26.000
C05  39625574.633 5 206340764.658 5       -15.516          34.000
C20  24839745.102 5 129347101.978 5      3309.867          33.000
C30  21549457.852 8 112213674.262 8      -172.121          51.000
E05  25901026.250 7 136110849.253 7      2218.750          43.000    25901032.281 7 104292752.326 7      1700.141          47.000
E30  24220413.445 8 127279098.148 8     -2165.629          51.000    24220416.531 8  97525554.894 8     -1659.303          51.000
E36                                                                  25490931.266 5 102641359.300 5     -1454.437          34.000
> 2020 05 10 16 51 30.0000000  0 13        .000000000000
G10  20982132.469 8 110261870.023 8      -631.777          51.000    20982134.070 8  85918360.010 8      -492.294          51.000
G16  22694471.695 7 119260243.905 7     -3340.898          47.000    22694471.625 7  92930063.035 7     -2603.297          44.000
G27  20329038.703 8 106829816.053 8      -510.004          51.000    20329039.055 8  83244003.111 8      -397.406          51.000
G32  24394247.695 8 128192612.063 8      2976.188          50.000    24394244.617 7  99890354.284 7      2319.110          46.000
R06  20326973.070 6 108468649.965 6      -171.680          37.000
R07  21215067.867 8 113565966.297 8      3532.203          51.000    21215071.055 7  88329034.312 7      2747.269          46.000
R12  21939739.125 7 117198182.358 7     -2833.328          42.000    21939745.617 4  91154111.337 4     -2203.703          28.000
C05  39625666.750 5 206341244.516 5       -16.738          34.000
C20  24820696.133 5 129247899.380 5      3304.309          31.000
C30  21550479.477 8 112218993.486 8      -182.180          51.000
E05  25888387.516 7 136044431.614 7      2209.441          45.000    25888393.719 7 104241860.916 7      1692.865          47.000
E30  24232808.172 8 127344232.925 8     -2176.539          51.000    24232810.469 8  97575463.337 8     -1667.678          51.000
E36  25501769.281 5 134012707.054 5     -1901.449          35.000    25501774.305 5 102685037.206 5     -1457.218          31.000
> 2020 05 10 16 52  0.0000000  0 12        .000000000000
G10  20985785.484 8 110281066.965 8      -649.566          51.000    20985787.227 8  85933318.676 8      -506.156          51.000
G16  22713562.953 7 119360571.536 7     -3349.031          47.000    22713564.055 7  93008240.408 7     -2609.635          45.000
G27  20331986.977 8 106845309.783 8      -524.504          51.000    20331987.461 8  83256076.136 8      -408.704          51.000
G32  24377259.977 7 128103338.502 7      2973.633          47.000    24377257.070 7  99820790.542 7      2317.120          47.000
R06  20328011.031 6 108474190.569 6      -199.191          37.000
R07  21195311.156 8 113460202.685 8      3517.035          51.000    21195313.625 7  88246773.786 7      2735.472          45.000
R12  21955698.250 6 117283419.717 6     -2850.711          41.000    21955707.055 4  91220406.983 4     -2217.220          29.000
R21  20741247.594 5 110990584.060 5     -1865.211          30.000    20741263.969 4  86326032.197 4     -1450.732          26.000
C05  39625754.930 5 206341703.897 5       -15.793          34.000    39625758.000 5 159556505.520 5       -12.363          35.000
C30  21551550.570 8 112224570.571 8      -191.152          51.000
E05  25875795.062 7 135978256.115 7      2200.773          47.000    25875800.984 7 104191155.044 7      1686.346          47.000
E30  24245256.133 8 127409648.528 8     -2186.086          51.000    24245258.398 8  97625586.967 8     -1675.122          51.000
> 2020 05 10 16 52 30.0000000  0 14        .000000000000
G10  20989544.453 8 110300820.662 8      -667.742          51.000    20989546.016 8  85948711.161 8      -520.319          51.000
G16  22732705.617 8 119461167.248 8     -3357.680          48.000    22732707.383 7  93086626.649 7     -2616.374          44.000
G27  20335022.172 8 106861260.309 8      -539.398          51.000    20335022.844 8  83268505.093 8      -420.314          51.000
G32  24360291.242 7 128014164.337 7      2970.730          44.000    24360288.961 7  99751304.276 7      2314.858          44.000
R06  20329206.820 5 108480572.370 5      -226.582          35.000
R07  21175644.188 8 113354924.852 8      3501.070          50.000    21175646.031 6  88164891.100 6      2723.058          41.000
R12  21971757.336 7 117369191.759 7     -2867.855          42.000    21971766.109 5  91287118.502 5     -2230.557          34.000
R21  20751734.148 6 111046664.160 6     -1873.965          36.000    20751759.312 4  86369710.117 4     -1457.534          27.000
R22  19969053.836 5 106596164.300 5      1214.980          30.000
C05  39625845.805 5 206342175.950 5       -15.754          34.000    39625848.062 5 159556868.509 5       -12.052          35.000
C27  24299571.609 4 126534226.455 4     -2415.617          29.000
C30  21552677.609 8 112230439.059 8      -200.555          51.000
E05  25863255.727 8 135912357.929 8      2191.926          48.000    25863261.266 7 104140661.652 7      1679.495          47.000
E30  24257764.008 8 127475376.648 8     -2196.188          51.000    24257766.250 8  97675950.037 8     -1682.763          51.000
> 2020 05 10 16 53  0.0000000  0 13        .000000000000
G10  20993421.266 8 110321194.042 8      -686.133          51.000    20993422.672 8  85964586.502 8      -534.649          51.000
G16  22751911.141 8 119562092.737 8     -3366.398          49.000    22751912.930 6  93165269.849 6     -2623.168          41.000
G27  20338156.656 8 106877731.977 8      -554.500          51.000    20338157.305 8  83281340.153 8      -432.078          51.000
G32  24343353.688 6 127925156.635 6      2967.297          41.000    24343352.172 6  99681947.693 6      2312.182          41.000
R06  20330571.703 5 108487858.976 5      -255.074          32.000
R07  21156080.672 8 113250202.143 8      3484.840          49.000    21156081.625 6  88083440.215 6      2710.434          41.000
R12  21987926.359 6 117455559.207 6     -2885.477          39.000    21987936.164 5  91354293.154 5     -2244.260          34.000
R21  20762284.727 5 111103175.898 5     -1883.660          35.000
C05                                                                  39625953.219 5 159557292.285 5       -12.457          35.000
C20  24763732.500 5 128951249.275 5      3288.539          31.000
C30  21553872.492 8 112236662.871 8      -210.211          51.000
E05  25850781.633 8 135846802.837 8      2182.723          48.000    25850786.734 7 104090431.157 7      1672.530          46.000
E30  24270343.359 8 127541479.462 8     -2206.414          51.000    24270345.727 8  97726600.202 8     -1690.623          51.000
> 2020 05 10 16 53 30.0000000  0 13        .000000000000
G10  20997390.859 8 110342055.632 8      -705.129          51.000    20997392.719 8  85980842.297 8      -549.451          51.000
G16  22771154.109 8 119663214.823 8     -3375.578          48.000    22771155.336 6  93244066.245 6     -2630.321          40.000
G27  20341365.602 8 106894594.793 8      -570.266          51.000    20341366.320 8  83294479.994 8      -444.363          51.000
G32  24326421.234 5 127836188.087 5      2963.543          34.000    24326422.547 5  99612621.517 5      2309.251          34.000
R06  20332081.789 4 108495881.338 4      -283.156          29.000
R07  21136597.375 8 113145905.928 8      3467.809          50.000    21136598.078 7  88002321.000 7      2697.188          43.000
R12  22004179.008 6 117542385.432 6     -2903.699          36.000    22004189.961 5  91421824.662 5     -2258.436          33.000
R21  20772864.328 6 111159825.872 6     -1893.656          38.000    20772872.898 4  86457650.265 4     -1472.844          24.000
C05                                                                  39626048.523 5 159557674.994 5       -13.164          35.000
C20  24744797.102 5 128852676.464 5      3281.703          30.000
C30  21555110.883 8 112243113.327 8      -220.406          51.000
E05  25838348.039 7 135781462.298 7      2172.777          45.000    25838352.367 7 104040365.081 7      1664.909          45.000
E30  24282968.500 8 127607824.857 8     -2217.062          50.000    24282971.172 8  97777436.239 8     -1698.812          51.000
> 2020 05 10 16 54  0.0000000  0 11        .000000000000
G10  21001470.398 8 110363494.311 8      -723.156          51.000    21001472.398 8  85997547.739 8      -563.498          51.000
G16  22790451.328 8 119764621.142 8     -3383.949          49.000    22790451.531 6  93323084.095 6     -2636.847          39.000
G27  20344666.062 8 106911939.058 8      -585.141          51.000    20344666.844 8  83307995.001 8      -455.954          51.000
G32  24309512.117 5 127747351.651 5      2959.559          34.000    24309517.703 5  99543398.216 5      2306.147          34.000
R07  21117211.789 8 113042131.991 8      3451.496          50.000    21117212.492 7  87921607.956 7      2684.497          45.000
R12  22020533.523 6 117629757.755 6     -2920.824          36.000    22020543.844 5  91489780.851 5     -2271.752          32.000
C05                                                                  39626150.578 5 159558087.568 5       -13.511          35.000
C20  24725896.508 4 128754232.687 4      3278.051          27.000
C30  21556410.281 8 112249880.070 8      -229.848          51.000
E05  25825972.406 7 135716428.058 7      2163.789          46.000    25825975.758 7 103990533.695 7      1657.983          46.000
E30  24295656.273 8 127674500.973 8     -2227.000          50.000    24295658.641 8  97828525.706 8     -1706.418          51.000
> 2020 05 10 16 54 30.0000000  0 14        .000000000000
G10  21005642.672 8 110385420.387 8      -740.016          51.000    21005644.766 8  86014633.005 8      -576.636          51.000
G16  22809785.383 8 119866219.976 8     -3390.941          48.000    22809784.570 6  93402251.941 6     -2642.295          39.000
G27  20348041.305 8 106929676.640 8      -598.918          51.000    20348042.055 8  83321816.488 8      -466.689          51.000
G32  24292615.117 6 127658561.450 6      2957.910          41.000    24292621.859 6  99474211.109 6      2304.868          41.000
R06  20335575.328 6 108514512.047 6      -337.277          37.000
R07  21097906.680 8 112938794.364 8      3436.094          48.000    21097908.742 7  87841234.295 7      2672.517          46.000
R12  22036972.461 5 117717581.565 5     -2935.547          35.000    22036982.359 5  91558088.258 5     -2283.200          33.000
R21  20794189.242 6 111273925.061 6     -1911.035          37.000    20794202.133 4  86546417.679 4     -1486.364          27.000
R22  19942196.070 5 106452807.411 5      1177.250          33.000    19942200.156 4  82796635.343 4       915.639          27.000
C05                                                                  39626242.664 5 159558458.141 5       -12.783          35.000
C27  24355490.852 5 126825408.985 5     -2435.340          35.000
C30  21557753.555 8 112256875.921 8      -238.102          51.000
E05  25813638.664 7 135651613.443 7      2155.746          47.000    25813641.641 7 103940870.594 7      1651.725          47.000
E30  24308389.883 8 127741417.530 8     -2235.660          50.000    24308391.734 8  97879799.410 8     -1713.074          51.000
> 2020 05 10 16 55  0.0000000  0 14        .000000000000
G10  21009922.742 8 110407912.203 8      -763.152          51.000    21009925.102 8  86032159.095 8      -594.664          51.000
G16  22829170.555 8 119968087.502 8     -3404.090          48.000    22829169.125 6  93481629.166 6     -2652.541          40.000
G27  20351506.578 8 106947887.278 8      -618.918          51.000    20351507.383 8  83336006.591 8      -482.271          51.000
G32  24275743.680 7 127569900.249 7      2949.184          43.000    24275750.781 7  99405124.505 7      2298.068          44.000
R06  20337551.836 6 108525060.921 6      -369.871          36.000
R07  21078698.688 7 112835978.252 7      3414.359          47.000    21078701.883 7  87761266.243 7      2655.613          45.000
R12  22053512.078 6 117805933.920 6     -2958.086          38.000    22053520.805 5  91626806.752 5     -2300.737          35.000
R21  20804927.125 6 111331407.409 6     -1925.344          39.000    20804943.570 4  86591126.037 4     -1497.496          28.000
C05                                                                  39626339.906 5 159558849.626 5       -16.507          35.000
C20  24688206.883 5 128557974.143 5      3262.418          31.000
C27  24369543.805 6 126898566.244 6     -2445.426          38.000
C30  21559156.211 8 112264180.067 8      -252.629          51.000
E05  25801362.344 7 135587099.672 7      2141.332          47.000    25801365.172 7 103891437.987 7      1640.797          46.000
E30  24321184.430 8 127808652.204 8     -2250.562          51.000    24321186.047 8  97931316.836 8     -1724.436          51.000
> 2020 05 10 16 55 30.0000000  0 17        .000000000000
G01  24160890.453 5 126966353.221 5      3139.020          35.000
G10  21014306.953 8 110430950.856 8      -775.566          51.000    21014308.977 8  86050111.278 8      -604.337          51.000
G16  22848602.883 7 120070203.741 7     -3406.543          46.000    22848601.070 6  93561200.215 6     -2654.449          41.000
G27  20355058.531 8 106966553.589 8      -628.320          51.000    20355059.250 8  83350551.771 8      -489.600          51.000
G32  24258894.273 7 127481353.253 7      2951.004          45.000    24258901.242 7  99336126.886 7      2299.487          45.000
R06  20339685.375 6 108536444.618 6      -391.961          36.000
R07  21059585.195 7 112733669.435 7      3403.156          47.000    21059589.891 7  87681692.763 7      2646.902          46.000
R12  22070147.648 6 117894792.316 6     -2968.953          38.000    22070153.648 5  91695918.737 5     -2309.192          32.000
R21  20815722.930 6 111389172.453 6     -1928.520          39.000    20815724.797 4  86635996.539 4     -1499.954          28.000
R22  19929072.984 5 106382721.793 5      1158.199          33.000    19929092.391 5  82742144.930 5       900.822          31.000
C05                                                                  39626438.891 5 159559248.443 5       -12.390          35.000
C20  24669405.539 5 128460072.038 5      3261.719          34.000
C27  24383625.914 5 126971879.468 5     -2445.336          33.000
C30  21560614.992 8 112271775.447 8      -256.582          51.000
E05  25789139.750 7 135522870.755 7      2137.703          45.000    25789143.078 7 103842223.692 7      1637.852          45.000
E30  24334035.852 8 127876185.442 8     -2254.555          50.000    24334037.406 8  97983063.038 8     -1727.540          51.000
E36  25589051.961 5 134471389.125 5     -1920.277          34.000    25589055.250 5 103036516.697 5     -1471.214          33.000
> 2020 05 10 16 56  0.0000000  0 15        .000000000000
G01  24142968.414 5 126872168.791 5      3139.453          35.000
G10  21018770.562 8 110454406.999 8      -788.934          51.000    21018772.391 8  86068388.803 8      -614.750          51.000
G16  22868057.234 7 120172437.561 7     -3409.969          46.000    22868055.891 6  93640862.901 6     -2657.119          41.000
G27  20358672.898 8 106985547.746 8      -638.773          51.000    20358673.680 8  83365352.405 8      -497.746          51.000
G32  24242042.812 7 127392795.354 7      2951.906          45.000    24242049.242 7  99267120.795 7      2300.190          45.000
R06  20341949.758 6 108548532.574 6      -414.715          40.000
R07  21040543.492 7 112631741.840 7      3391.062          44.000    21040549.273 8  87602415.745 8      2637.490          48.000
R12  22086852.805 6 117984022.093 6     -2980.648          37.000    22086853.000 4  91765335.602 4     -2318.285          29.000
R21  20826545.758 5 111447090.086 5     -1933.266          35.000    20826553.203 5  86681043.464 5     -1503.660          32.000
C05                                                                  39626515.398 5 159559556.398 5        -8.657          35.000
C20  24650612.938 6 128362220.374 6      3260.609          37.000
C30  21562105.359 8 112279535.605 8      -261.574          51.000
E05  25776947.047 7 135458800.360 7      2132.918          43.000    25776950.688 7 103793130.856 7      1634.233          44.000
E30  24346918.789 8 127943887.337 8     -2259.719          49.000    24346921.055 8  98034938.475 8     -1731.461          51.000
E36                                                                  25600013.805 5 103080623.204 5     -1469.571          35.000
> 2020 05 10 16 56 30.0000000  0 17        .000000000000
G01  24125091.297 5 126778219.654 5      3123.801          33.000
G10  21023361.969 8 110478534.468 8      -817.137          51.000    21023363.805 8  86087189.426 8      -636.730          51.000
G16  22887581.836 7 120275041.836 7     -3428.000          45.000    22887581.172 7  93720814.278 7     -2671.169          42.000
G27  20362398.352 8 107005124.998 8      -664.113          51.000    20362399.375 8  83380607.398 8      -517.491          51.000
G32  24225238.242 7 127304484.542 7      2937.770          46.000    24225244.047 7  99198307.225 7      2289.171          46.000
R06  20344395.000 5 108561582.908 5      -453.352          30.000
R07  21021621.797 7 112530458.870 7      3363.637          44.000    21021629.188 8  87523640.073 8      2616.162          48.000
R12  22103674.773 7 118073878.337 7     -3007.520          42.000    22103671.258 4  91835214.695 4     -2339.185          29.000
R21  20837446.609 6 111505419.747 6     -1953.035          38.000    20837446.602 5  86726411.001 5     -1519.027          30.000
R22  19916172.125 6 106313834.345 6      1133.887          37.000    19916158.594 4  82688515.601 4       881.906          28.000
C05                                                                  39626617.867 6 159559968.921 6       -16.664          36.000
C20  24631878.219 6 128264673.986 6      3244.895          38.000
C27  24411854.289 4 127118915.014 4     -2460.441          28.000
C30  21563676.008 8 112287713.685 8      -281.328          51.000
E05  25764832.898 6 135395145.222 6      2113.113          41.000    25764837.508 7 103744356.172 7      1619.261          42.000
E30  24359881.094 7 128012010.956 7     -2279.562          46.000    24359885.164 8  98087137.090 8     -1746.663          51.000
E36                                                                  25611001.172 5 103124893.726 5     -1479.852          31.000
> 2020 05 10 16 57  0.0000000  0 16        .000000000000
G10  21028070.961 8 110503280.705 8      -830.621          51.000    21028072.477 8  86106472.208 8      -647.237          51.000
G16  22907166.406 7 120377961.714 7     -3431.191          44.000    22907166.539 6  93801011.561 6     -2673.656          41.000
G27  20366225.078 8 107025234.348 8      -674.574          51.000    20366226.203 8  83396277.006 8      -525.642          51.000
G32  24208471.422 7 127216372.562 7      2938.234          45.000    24208476.352 7  99129648.579 7      2289.533          45.000
R06  20347010.727 6 108575542.469 6      -475.867          36.000
R07  21002813.609 8 112429772.629 8      3350.891          48.000    21002820.109 7  87445328.530 7      2606.248          47.000
R12  22120603.805 7 118164304.406 7     -3019.066          44.000    22120600.414 6  91905546.015 6     -2348.166          36.000
R21  20848414.867 5 111564109.191 5     -1957.324          35.000    20848417.586 5  86772057.272 5     -1522.369          35.000
R22  19909824.086 6 106279928.217 6      1128.840          37.000
C05                                                                  39626736.531 5 159560446.726 5       -13.713          35.000
C20  24613192.945 6 128167384.355 6      3243.273          41.000
C27  24426049.102 4 127192832.282 4     -2460.723          28.000
C30  21565316.953 8 112296259.382 8      -286.473          51.000
E05  25752787.898 7 135331855.869 7      2108.180          42.000    25752794.305 7 103695861.724 7      1615.418          44.000
E30  24372913.812 7 128080503.187 7     -2284.605          47.000    24372919.039 8  98139618.199 8     -1750.557          51.000
E36                                                                  25622023.836 5 103169270.745 5     -1477.667          33.000
> 2020 05 10 16 57 30.0000000  0 15        .000000000000
G10  21032852.531 8 110528408.103 8      -846.105          51.000    21032854.125 8  86126051.993 8      -659.303          51.000
G16  22926765.312 6 120480958.438 6     -3436.594          41.000    22926766.102 6  93881268.729 6     -2677.865          41.000
G27  20370108.094 8 107045639.674 8      -687.309          51.000    20370109.188 8  83412177.252 8      -535.565          51.000
G32  24191697.656 7 127128225.975 7      2936.207          45.000    24191701.609 7  99060962.973 7      2287.957          45.000
R07  20984073.070 8 112329446.120 8      3335.852          50.000    20984078.125 7  87367296.812 7      2594.551          47.000
R12  22137594.148 7 118255055.805 7     -3032.766          42.000    22137593.086 6  91976130.387 6     -2358.818          39.000
R21  20859406.859 6 111622917.521 6     -1964.422          40.000    20859409.547 5  86817796.956 5     -1527.884          35.000
R22  19903477.562 5 106246092.542 5      1121.309          34.000    19903470.312 4  82635825.823 4       872.129          27.000
C05                                                                  39626826.383 5 159560808.592 5       -11.865          35.000
C20  24594511.992 7 128070119.370 7      3239.414          42.000
C27  24440236.336 5 127266701.078 5     -2463.430          33.000
C30  21566983.797 8 112304938.894 8      -293.793          51.000
E05  25740769.062 7 135268697.630 7      2100.699          44.000    25740776.664 7 103647467.761 7      1609.654          45.000
E30  24385972.578 8 128149125.911 8     -2291.824          49.000    24385977.742 8  98192199.250 8     -1756.103          51.000
E36                                                                  25633036.305 5 103213594.079 5     -1477.828          33.000
> 2020 05 10 16 58  0.0000000  0 13        .000000000000
G10  21037746.156 8 110554124.669 8      -866.812          51.000    21037748.109 8  86146090.881 8      -675.435          51.000
G16  22946418.219 6 120584238.406 6     -3446.996          41.000    22946419.227 6  93961746.662 6     -2685.974          37.000
G27  20374087.281 8 107066550.492 8      -705.180          51.000    20374088.375 8  83428471.389 8      -549.491          51.000
G32  24174957.586 7 127040257.097 7      2929.516          46.000    24174960.883 7  98992415.857 7      2282.742          46.000
R07  20965440.008 8 112229696.872 8      3315.633          51.000    20965443.922 7  87289714.101 7      2578.829          47.000
R12  22154683.266 6 118346340.819 6     -3051.699          41.000    22154684.242 6  92047129.798 6     -2373.544          39.000
R21  20870459.086 5 111682057.733 5     -1976.363          35.000    20870458.398 5  86863794.903 5     -1537.171          34.000
C05                                                                  39626927.258 6 159561214.911 6       -13.843          36.000
C20  24575875.273 6 127973088.580 6      3230.852          41.000
C27  24454425.055 5 127340613.477 5     -2471.996          35.000
C30  21568716.438 8 112313960.100 8      -306.164          51.000
E05  25728816.359 7 135205881.484 7      2088.531          45.000    25728823.016 7 103599335.901 7      1600.222          46.000
E30  24399096.164 8 128218086.561 8     -2304.012          50.000    24399101.125 8  98245039.187 8     -1765.412          51.000
> 2020 05 10 16 58 30.0000000  0 13        .000000000000
G10  21042738.562 8 110580360.310 8      -884.023          51.000    21042740.172 8  86166534.252 8      -688.849          51.000
G16  22966112.289 7 120687729.966 7     -3454.270          43.000    22966111.797 5  94042389.348 5     -2691.645          35.000
G20  22515918.805 5 118321960.019 5     -2801.516          33.000
G27  20378149.617 8 107087898.273 8      -719.750          51.000    20378151.000 8  83445106.004 8      -560.844          51.000
G32  24158239.047 7 126952400.189 7      2925.613          47.000    24158241.891 7  98923955.985 7      2279.702          47.000
R07  20946902.523 8 112130458.798 8      3298.414          51.000    20946905.312 7  87212529.014 7      2565.436          47.000
R12  22171857.070 6 118438085.326 6     -3066.332          38.000    22171859.891 6  92118486.595 6     -2384.928          40.000
R21  20881561.844 6 111741459.867 6     -1985.570          40.000    20881561.539 6  86909996.475 6     -1544.332          37.000
C20  24557271.898 6 127876226.034 6      3225.098          41.000
C27  24468668.273 5 127414799.010 5     -2476.371          32.000
C30  21570501.664 8 112323255.305 8      -315.340          51.000
E05  25716916.055 7 135143340.350 7      2079.164          43.000    25716921.656 7 103551414.815 7      1593.159          47.000
E30  24412270.641 8 128287314.474 8     -2312.973          49.000    24412275.227 8  98298083.912 8     -1772.254          51.000
> 2020 05 10 16 59  0.0000000  0 14        .000000000000
G10  21047832.203 8 110607127.167 8      -900.723          51.000    21047833.734 8  86187391.533 8      -701.862          51.000
G16  22985849.297 7 120791444.001 7     -3460.391          46.000    22985846.781 5  94123205.387 5     -2696.411          34.000
G27  20382297.742 8 107109696.583 8      -733.668          51.000    20382299.445 8  83462091.691 8      -571.689          51.000
G32  24141544.758 7 126864671.572 7      2922.500          47.000    24141547.766 7  98855596.098 7      2277.276          47.000
R07  20928463.469 8 112031749.485 8      3281.891          51.000    20928465.422 7  87135755.169 7      2552.582          47.000
R12  22189117.859 5 118530298.385 5     -3080.832          35.000    22189122.844 6  92190207.843 6     -2396.209          41.000
R21  20892714.422 5 111801137.326 5     -1993.512          33.000    20892714.477 6  86956412.227 6     -1550.512          36.000
R22  19884851.992 5 106146663.190 5      1091.027          34.000
C05                                                                  39627125.547 6 159562013.125 6       -13.164          36.000
C20  24538704.000 6 127779547.168 6      3220.023          38.000
C27  24482943.656 5 127489131.697 5     -2479.934          32.000
C30  21572342.234 8 112332838.232 8      -323.844          51.000
E05  25705070.438 7 135081089.338 7      2070.535          43.000    25705075.727 7 103503716.039 7      1586.550          47.000
E30  24425497.797 8 128356821.157 8     -2321.059          48.000    24425501.969 8  98351342.237 8     -1778.488          51.000
> 2020 05 10 16 59 30.0000000  0 13        .000000000000
G10  21053025.914 8 110634420.313 8      -919.738          51.000    21053027.641 8  86208658.941 8      -716.679          51.000
G16  23005627.695 7 120895373.681 7     -3469.184          45.000    23005624.523 5  94204189.441 5     -2703.263          35.000
G27  20386530.930 8 107131942.142 8      -750.266          51.000    20386532.945 8  83479425.876 8      -584.623          51.000
G32  24124874.719 7 126777070.716 7      2916.559          47.000    24124878.234 7  98787335.752 7      2272.643          47.000
R07  20910123.125 8 111933569.398 8      3262.480          51.000    20910124.750 7  87059392.943 7      2537.485          47.000
R12  22206464.867 6 118622971.950 6     -3098.203          40.000    22206471.820 6  92262287.377 6     -2409.707          40.000
R21  20903917.648 4 111861086.743 4     -2004.363          29.000    20903917.648 5  87003039.464 5     -1558.955          33.000
C05                                                                  39627224.703 6 159562412.437 6       -13.955          36.000
C20  24520169.633 6 127683050.636 6      3212.332          37.000
C27  24497250.211 4 127563607.579 4     -2486.188          29.000
C30  21574237.258 8 112342705.857 8      -334.895          51.000
E05  25693279.336 7 135019126.650 7      2059.148          43.000    25693285.070 8 103456238.173 8      1577.873          48.000
E30  24438776.375 7 128426601.208 7     -2331.852          47.000    24438780.414 8  98404810.029 8     -1786.737          51.000
