     3.02           OBSERVATION DATA    M (MIXED)           RINEX VERSION / TYPE
SAVERINEX           SC600               20200516 115931 LCL PGM / RUN BY / DATE
       G = GPS       R = GLONASS       C = COMPASS          COMMENT
       S = SBAS      J = QZSS          E = GALILEO          COMMENT
BEAN                                                        MARKER NAME
1                                                           MARKER NUMBER
GEODETIC                                                    MARKER TYPE
Unige DICCA         GTER                                    OBSERVER / AGENCY
SC60291900056       SC600               2.12(191202)        REC # / TYPE / VERS
                    HEMA45          NONE                    ANT # / TYPE
  4509407.8091   693652.4678  4442337.6214                  APPROX POSITION XYZ
        0.0000        0.0000        0.0000                  ANTENNA: DELTA H/E/N
G    8 C1C L1C D1C S1C C2Y L2Y D2Y S2Y                      SYS / # / OBS TYPES
R    8 C1C L1C D1C S1C C2P L2P D2P S2P                      SYS / # / OBS TYPES
C    4 C1I L1I D1I S1I                                      SYS / # / OBS TYPES
E    8 C1C L1C D1C S1C C7Q L7Q D7Q S7Q                      SYS / # / OBS TYPES
DBHZ                                                        COMMENT
     30.000                                                 INTERVAL
  2020    05    16    09    00    0.0000000     GPS         TIME OF FIRST OBS
  2020    05    16    09    59   30.0000000     GPS         TIME OF LAST OBS
     0                                                      RCV CLOCK OFFS APPL
G L1C  0.00000                                              SYS / PHASE SHIFT
G L2Y  0.00000                                              SYS / PHASE SHIFT
R L1C  0.00000                                              SYS / PHASE SHIFT
R L2P  0.25000                                              SYS / PHASE SHIFT
C L1I  0.00000                                              SYS / PHASE SHIFT
E L1C  0.50000                                              SYS / PHASE SHIFT
E L7Q -0.25000                                              SYS / PHASE SHIFT
 15 R01  1 R02 -4 R03  5 R04  6 R05  1 R10 -5 R11  0 R12 -1 GLONASS SLOT / FRQ #
    R13 -2 R14 -7 R15  0 R17  4 R21  4 R22 -3 R23  3        GLONASS SLOT / FRQ #
 C1C   71.950 C2C   71.950 C2P   71.950                     GLONASS COD/PHS/BIS
    18                                                      LEAP SECONDS
*** Above antenna height is from mark to ANTENNA BOTTOM.    COMMENT
    17     4        0.0000        ANT MEASURE TYPE/HEIGT    COMMENT
    0.0000    0.0000    0.0458    0.0405    0.0000          COMMENT
                    BASE STATION                            COMMENT
                                                            END OF HEADER
> 2020 05 16 09 00  0.0000000  0 13        .000000000000
G12  20204693.891 8 106176391.333 8      -786.695          51.000    20204692.734 8  82734825.776 8      -613.009          51.000
G24  21549707.086 7 113244450.810 7     -2535.613          45.000    21549708.297 7  88242426.752 7     -1975.803          45.000
G25  20474653.984 6 107595016.180 6      1143.082          39.000    20474654.789 6  83840283.981 6       890.716          39.000
G29  22785821.547 7 119740276.887 7      3444.895          45.000    22785814.789 7  93304114.887 7      2684.336          45.000
R04  23113072.859 7 123769428.284 7     -3671.996          43.000    23113079.406 6  96265096.705 6     -2856.003          40.000
R14  19547159.758 6 104197338.508 6       552.223          39.000    19547162.297 5  81042398.002 5       429.510          33.000
R23  20288567.797 6 108530138.032 6     -1278.188          36.000    20288574.062 5  84412392.725 5      -994.149          30.000
R24  20097589.117 8 107470909.667 8      2079.305          51.000    20097591.562 7  83588488.729 7      1617.240          47.000
C27  23761473.477 8 123732183.658 8      3091.305          51.000
E02  23383856.523 7 122882973.476 7       260.355          46.000    23383856.641 8  94157120.288 8       199.481          48.000
E08  24102105.586 8 126657380.419 8     -2147.246          50.000    24102106.492 8  97049190.402 8     -1645.343          49.000
E25                                                                  25362436.234 6 102124009.992 6     -1330.281          37.000
E36  25024791.438 7 131506209.177 7      2204.348          47.000    25024796.555 8 100764541.118 8      1689.028          48.000
> 2020 05 16 09 00 30.0000000  0 14        .000000000000
G12  20209218.039 8 106200165.331 8      -796.000          51.000    20209216.680 8  82753350.958 8      -620.260          51.000
G24  21564214.539 7 113320692.125 7     -2545.086          46.000    21564216.883 7  88301835.596 7     -1983.184          46.000
G25  20468162.648 5 107560903.212 5      1133.824          34.000    20468166.547 5  83813702.475 5       883.499          33.000
G29  22766179.898 7 119637056.362 7      3438.578          46.000    22766174.688 7  93223683.359 7      2679.412          46.000
R04  23133667.891 7 123879711.874 7     -3678.082          43.000    23133674.008 6  96350872.763 6     -2860.734          40.000
R14  19544088.555 6 104180963.280 6       541.672          39.000    19544088.977 5  81029661.721 5       421.303          32.000
R23  20295811.703 7 108568895.485 7     -1303.277          42.000    20295818.641 5  84442537.498 5     -1013.666          30.000
R24  20085993.602 8 107408901.331 8      2056.848          51.000    20085995.414 7  83540260.039 7      1599.770          45.000
C23  24884713.422 5 129581227.521 5     -2565.477          30.000
C27  23743687.875 8 123639566.033 8      3085.344          51.000
E02  23382385.602 7 122875246.727 7       256.965          45.000    23382386.555 7  94151199.797 7       196.976          47.000
E08  24114390.602 8 126721939.081 8     -2154.254          50.000    24114390.719 8  97098657.411 8     -1650.698          48.000
E25                                                                  25372357.891 6 102163961.446 6     -1331.337          37.000
E36  25012237.625 8 131440239.237 8      2195.871          49.000    25012241.906 8 100713992.782 8      1682.545          48.000
> 2020 05 16 09 01  0.0000000  0 13        .000000000000
G12  20213812.062 8 106224306.248 8      -809.168          51.000    20213810.156 8  82772162.050 8      -630.520          51.000
G24  21578793.375 8 113397303.286 8     -2558.203          48.000    21578795.914 8  88361532.612 8     -1993.405          48.000
G25  20461739.742 4 107527165.756 4      1119.855          29.000
G29  22746592.719 7 119534125.980 7      3427.723          45.000    22746588.750 7  93143477.918 7      2670.953          45.000
R04  23154314.055 7 123990266.481 7     -3687.965          44.000    23154318.539 6  96436859.621 6     -2868.420          40.000
R14  19541090.320 6 104164980.259 6       527.969          39.000    19541089.688 5  81017230.450 5       410.642          33.000
R23  20303214.297 6 108608488.268 6     -1331.980          38.000    20303219.844 5  84473331.793 5     -1035.985          31.000
R24  20074540.922 8 107347658.972 8      2030.316          51.000    20074542.539 7  83492627.130 7      1579.138          44.000
C27  23725952.102 8 123547210.911 8      3075.715          51.000
E02  23380950.414 7 122867707.673 7       249.922          45.000    23380952.109 7  94145423.119 7       191.451          47.000
E08  24126731.914 8 126786793.432 8     -2164.926          49.000    24126731.602 8  97148350.975 8     -1658.923          48.000
E25                                                                  25382304.602 5 102204013.903 5     -1335.405          34.000
E36  24999749.617 8 131374611.429 8      2183.520          51.000    24999753.008 8 100663706.598 8      1673.146          48.000
> 2020 05 16 09 01 30.0000000  0 13        .000000000000
G12  20218468.023 8 106248772.931 8      -820.918          51.000    20218465.727 8  82791227.000 8      -639.676          51.000
G24  21593434.859 8 113474242.337 8     -2570.043          48.000    21593437.125 8  88421485.072 8     -2002.631          48.000
G25  20455381.734 5 107493743.787 5      1108.531          35.000    20455379.914 5  83761355.856 5       863.797          33.000
G29  22727052.891 7 119431447.754 7      3418.523          43.000    22727050.273 7  93063468.930 7      2663.784          42.000
R04  23175001.664 7 124101046.578 7     -3696.160          43.000    23175005.336 6  96523021.858 6     -2874.791          41.000
R14  19538158.000 6 104149349.995 6       515.402          39.000    19538157.367 5  81005073.574 5       400.868          31.000
R23  20310763.242 6 108648872.974 6     -1359.094          40.000    20310768.922 5  84504742.205 5     -1057.073          31.000
R24  20063224.383 8 107287144.409 8      2005.059          51.000    20063225.547 7  83445560.296 7      1559.493          44.000
C27  23708259.219 8 123455080.554 8      3067.355          50.000
E02  23379543.609 7 122860316.327 7       243.820          46.000    23379545.664 7  94139759.628 7       186.898          47.000
E08  24139121.539 8 126851901.412 8     -2174.352          49.000    24139121.422 8  97198238.870 8     -1666.151          49.000
E25  25392267.922 5 133437268.054 5     -1746.812          35.000    25392268.828 5 102244141.517 5     -1338.093          32.000
E36  24987319.688 8 131309287.307 8      2172.395          51.000    24987322.570 8 100613653.082 8      1664.562          49.000
> 2020 05 16 09 02  0.0000000  0 15        .000000000000
G02  23174979.117 6 121785353.451 6      1198.105          37.000
G12  20223187.086 8 106273571.490 8      -831.098          51.000    20223184.844 8  82810550.564 8      -647.609          51.000
G24  21608139.695 8 113551515.083 8     -2580.379          50.000    21608141.781 8  88481697.535 8     -2010.688          50.000
G25  20449085.992 5 107460654.317 5      1098.312          35.000    20449087.000 6  83735571.891 6       855.834          36.000
G29  22707561.312 6 119329030.862 6      3411.074          40.000    22707561.211 6  92983663.557 6      2657.977          39.000
R04  23195731.195 7 124212054.784 7     -3702.980          44.000    23195735.531 7  96609361.533 7     -2880.099          42.000
R14  19535293.086 6 104134080.645 6       504.148          38.000    19535292.430 5  80993197.472 5       392.115          33.000
R23  20318462.422 7 108690054.959 7     -1384.922          42.000    20318466.969 5  84536772.533 5     -1077.164          32.000
R24  20052045.820 8 107227367.353 8      1981.320          51.000    20052046.719 7  83399067.090 7      1541.027          45.000
C23  24929244.312 4 129813117.031 4     -2582.344          29.000
C27  23690610.961 8 123363183.811 8      3060.387          49.000
E02  23378166.672 7 122853079.683 7       239.738          47.000    23378168.609 7  94134214.690 7       183.734          47.000
E08  24151560.445 8 126917268.057 8     -2182.152          50.000    24151560.656 8  97248324.981 8     -1672.018          49.000
E25  25402250.781 5 133489729.999 5     -1749.008          34.000
E36  24974949.031 8 131244275.449 8      2162.867          51.000    24974952.031 8 100563838.815 8      1657.256          51.000
> 2020 05 16 09 02 30.0000000  0 16        .000000000000
G02  23168183.203 5 121749621.111 5      1182.469          31.000
G12  20227954.320 8 106298623.276 8      -841.102          51.000    20227952.383 8  82830071.438 8      -655.404          51.000
G24  21622893.008 8 113629042.613 8     -2590.336          50.000    21622894.461 8  88542108.570 8     -2018.444          50.000
G25  20442838.070 5 107427819.744 5      1089.418          30.000    20442841.539 4  83709986.484 4       848.900          29.000
G29  22688105.078 6 119226799.620 6      3402.746          41.000    22688107.359 6  92904002.797 6      2651.490          41.000
G32  22147230.734 4 116384481.749 4       252.094          28.000    22147236.211 4  90689228.677 4       196.437          27.000
R04  23216487.641 7 124323206.902 7     -3709.219          43.000    23216492.781 7  96695813.143 7     -2884.951          42.000
R14  19532481.336 5 104119094.585 5       492.906          35.000    19532482.852 5  80981541.658 5       383.375          34.000
R23  20326294.164 7 108731952.197 7     -1410.395          43.000    20326300.094 5  84569359.377 5     -1096.977          31.000
R24  20040990.422 8 107168251.117 8      1957.633          51.000    20040991.789 7  83353087.817 7      1522.603          47.000
C23  24944127.008 4 129890630.133 4     -2586.992          29.000
C27  23672992.992 8 123271445.626 8      3053.438          48.000
E02  23376804.461 7 122845920.142 7       235.535          47.000    23376806.203 7  94128728.813 7       180.400          47.000
E08  24164033.234 8 126982813.645 8     -2189.695          50.000    24164034.336 8  97298548.214 8     -1677.753          50.000
E25  25412235.172 5 133542203.635 5     -1751.660          35.000
E36  24962622.914 8 131179499.709 8      2153.375          51.000    24962626.617 8 100514205.475 8      1649.911          51.000
> 2020 05 16 09 03  0.0000000  0 12        .000000000000
G12  20232799.797 8 106324086.419 8      -841.785          51.000    20232798.195 8  82849912.848 8      -655.936          51.000
G24  21637724.430 8 113706982.100 8     -2591.023          49.000    21637725.742 8  88602840.621 8     -2018.976          49.000
G29  22668716.781 7 119124914.836 7      3403.977          44.000    22668719.375 7  92824612.016 7      2652.449          44.000
G32  22145860.820 5 116377295.265 5       242.707          31.000
R04  23237300.188 7 124434660.278 7     -3705.973          44.000    23237305.766 6  96782499.088 6     -2882.423          41.000
R14  19529753.312 6 104104553.986 6       491.617          37.000    19529755.539 5  80970232.305 5       382.372          33.000
R23  20334290.508 7 108774724.690 7     -1426.223          44.000    20334293.805 5  84602626.790 5     -1109.287          30.000
R24  20030089.094 8 107109959.895 8      1943.367          51.000    20030091.133 8  83307750.184 8      1511.508          48.000
C27  23655436.133 8 123180025.442 8      3055.652          48.000
E02  23375487.117 7 122838996.722 7       240.770          47.000    23375488.617 7  94123423.861 7       184.450          47.000
E08  24176569.734 8 127048695.242 8     -2187.812          49.000    24176571.828 8  97349028.898 8     -1676.346          49.000
E36  24950372.008 8 131115120.649 8      2153.152          51.000    24950376.438 8 100464876.079 8      1649.896          51.000
> 2020 05 16 09 03 30.0000000  0 13        .000000000000
G02  23154879.086 6 121679721.706 6      1159.188          36.000
G06  23473688.844 5 123355057.201 5       -83.188          32.000    23473677.578 4  96120802.495 4       -64.824          25.000
G12  20237730.180 8 106349995.781 8      -858.703          51.000    20237728.758 8  82870101.936 8      -669.119          51.000
G24  21652640.500 8 113785367.933 8     -2607.941          48.000    21652642.648 8  88663920.478 8     -2032.162          48.000
G29  22649402.438 7 119023414.431 7      3389.246          45.000    22649404.812 7  92745520.804 7      2640.971          45.000
R04  23258174.641 7 124546446.974 7     -3719.336          43.000    23258180.086 6  96869444.241 6     -2892.817          40.000
R14  19527115.500 6 104090496.342 6       473.031          37.000    19527116.891 5  80959298.625 5       367.910          32.000
R23  20342456.805 7 108818406.210 7     -1458.598          45.000    20342460.930 5  84636601.301 5     -1134.462          33.000
R24  20019349.992 8 107052532.717 8      1912.344          51.000    20019352.172 8  83263084.589 8      1487.378          50.000
C27  23637947.906 8 123088960.809 8      3041.727          48.000
E02  23374221.359 7 122832345.423 7       229.469          47.000    23374222.664 7  94118327.393 7       175.851          47.000
E08  24189177.008 8 127114946.790 8     -2202.168          50.000    24189179.328 8  97399793.078 8     -1687.399          49.000
E36  24938203.656 8 131051175.815 8      2136.621          51.000    24938208.195 8 100415879.388 8      1637.184          51.000
> 2020 05 16 09 04  0.0000000  0 14        .000000000000
G02  23148336.875 5 121645361.518 5      1134.234          34.000
G12  20242698.219 8 106376103.347 8      -878.875          51.000    20242696.766 8  82890445.477 8      -684.841          51.000
G24  21667594.570 8 113863952.011 8     -2628.148          49.000    21667597.242 8  88725154.834 8     -2047.908          50.000
G25  20424537.180 5 107331686.150 5      1049.848          33.000
G29  22630114.805 8 118922053.308 8      3370.883          48.000    22630116.867 8  92666538.119 8      2626.662          48.000
G32  22143469.586 5 116364774.514 5       187.289          34.000
R04  23279063.586 7 124658310.328 7     -3735.438          42.000    23279067.523 6  96956449.003 6     -2905.343          38.000
R14  19524521.570 6 104076672.090 6       451.539          40.000    19524523.070 5  80948546.493 5       351.197          33.000
R23  20350745.633 7 108862742.887 7     -1494.426          43.000    20350750.688 5  84671085.412 5     -1162.331          31.000
R24  20008726.195 8 106995720.477 8      1877.996          51.000    20008728.531 8  83218897.301 8      1460.664          50.000
C27  23620481.344 7 122998008.709 7      3024.441          47.000
E02  23372960.289 7 122825719.136 7       215.211          47.000    23372961.469 8  94113250.099 8       164.836          48.000
E08  24201807.406 8 127181319.143 8     -2219.793          50.000    24201809.641 8  97450649.792 8     -1700.889          50.000
E36  24926071.180 8 130987419.582 8      2116.715          50.000    24926075.750 8 100367027.198 8      1621.827          51.000
> 2020 05 16 09 04 30.0000000  0 16        .000000000000
G02  23141897.992 6 121611536.145 6      1122.371          38.000    23141896.531 5  94762206.857 5       874.575          32.000
G12  20247745.477 8 106402627.361 8      -887.641          51.000    20247743.930 8  82911113.530 8      -691.668          51.000
G24  21682628.250 8 113942952.265 8     -2636.746          50.000    21682631.141 8  88786713.477 8     -2054.607          50.000
G25  20418576.836 5 107300340.053 5      1041.000          34.000    20418572.586 5  83610614.578 5       811.166          30.000
G29  22610895.812 8 118821052.961 8      3364.227          49.000    22610897.414 8  92587836.553 8      2621.475          49.000
G32  22142452.797 5 116359436.214 5       169.930          35.000
R04  23300007.922 7 124770469.180 7     -3739.816          42.000    23300010.602 6  97043683.570 6     -2908.749          37.000
R14  19522012.984 6 104063304.663 6       441.520          38.000    19522015.406 5  80938149.561 5       343.404          34.000
R23  20359197.258 7 108907955.165 7     -1518.223          46.000    20359200.453 5  84706250.436 5     -1180.846          31.000
R24  19998259.383 8 106939748.617 8      1855.219          51.000    19998261.719 8  83175363.655 8      1442.951          49.000
C27  23603078.172 7 122907388.343 7      3018.680          46.000
C28  22302734.328 8 116136188.703 8       245.863          51.000
E02  23371745.688 7 122819337.214 7       212.105          47.000    23371746.852 8  94108360.042 8       162.486          48.000
E08  24214502.414 8 127248029.586 8     -2225.902          51.000    24214504.109 8  97501765.547 8     -1705.496          50.000
E25  25452467.484 5 133753619.167 5     -1767.203          33.000    25452475.461 5 102486566.417 5     -1354.318          35.000
E36  24914016.086 8 130924072.690 8      2108.137          49.000    24914021.336 8 100318488.712 8      1615.290          51.000
> 2020 05 16 09 05  0.0000000  0 15        .000000000000
G02  23135540.594 6 121578129.071 6      1105.344          36.000    23135542.609 4  94736184.257 4       861.298          26.000
G12  20252849.383 8 106429448.841 8      -900.016          51.000    20252847.898 8  82932013.379 8      -701.311          51.000
G24  21697718.484 8 114022248.846 8     -2649.258          51.000    21697721.523 8  88848503.009 8     -2064.357          51.000
G25  20412668.789 5 107269298.012 5      1028.762          34.000    20412669.359 6  83586425.883 6       801.626          36.000
G29  22591723.258 8 118720297.471 8      3353.277          51.000    22591724.430 8  92509325.816 8      2612.943          51.000
R04  23320984.578 6 124882798.470 6     -3748.238          41.000    23320987.359 6  97131050.708 6     -2915.299          38.000
R14  19519568.211 6 104050275.375 6       427.270          37.000    19519570.516 5  80928015.701 5       332.324          35.000
R23  20367790.023 7 108953920.513 7     -1545.836          46.000    20367794.531 5  84742001.301 5     -1202.314          33.000
R24  19987927.922 8 106884499.574 8      1828.402          51.000    19987929.898 8  83132392.181 8      1422.091          49.000
C27  23585716.531 7 122816984.730 7      3008.738          46.000
C28  22301372.289 8 116129096.414 8       227.305          51.000
E02  23370555.211 7 122813081.738 7       205.332          47.000    23370556.375 8  94103566.862 8       157.320          48.000
E08  24227238.984 8 127314958.154 8     -2235.684          51.000    24227240.031 8  97553048.438 8     -1713.056          50.000
E25  25462574.898 5 133806732.806 5     -1772.469          33.000    25462575.953 5 102527254.725 5     -1357.850          34.000
E36  24902016.953 8 130861018.723 8      2095.848          49.000    24902022.094 8 100270174.684 8      1605.861          51.000
> 2020 05 16 09 05 30.0000000  0 12        .000000000000
G12  20258021.453 8 106456628.092 8      -910.688          51.000    20258020.109 8  82953192.026 8      -709.624          51.000
G24  21712876.375 8 114101901.307 8     -2659.766          51.000    21712879.586 8  88910569.834 8     -2072.545          51.000
G29  22572609.266 8 118619849.946 8      3344.305          51.000    22572609.312 8  92431055.067 8      2605.955          51.000
R04  23342003.906 6 124995356.031 6     -3754.258          40.000    23342008.078 6  97218595.437 6     -2919.978          38.000
R14  19517198.547 6 104037647.629 6       415.668          37.000    19517202.609 6  80918194.041 6       323.297          36.000
R23  20376534.781 7 109000698.629 7     -1571.457          46.000    20376538.805 5  84778384.242 5     -1222.244          32.000
R24  19977743.305 8 106830037.554 8      1803.551          51.000    19977745.461 8  83090032.848 8      1402.762          48.000
C27  23568409.438 8 122726860.422 8      3000.762          48.000
E02  23369400.688 8 122807013.994 8       200.375          48.000    23369401.711 8  94098917.554 8       153.630          48.000
E08  24240027.984 8 127382164.056 8     -2243.551          51.000    24240028.930 8  97604543.830 8     -1719.072          51.000
E25  25472706.875 5 133859977.670 5     -1774.949          32.000    25472704.562 5 102568042.811 5     -1360.050          35.000
E36  24890085.789 8 130798320.548 8      2085.312          50.000    24890090.547 8 100222133.235 8      1597.834          51.000
> 2020 05 16 09 06  0.0000000  0 13        .000000000000
G12  20263247.422 8 106484090.346 8      -920.902          51.000    20263246.086 8  82974591.199 8      -717.583          51.000
G24  21728087.789 8 114181835.282 8     -2669.902          51.000    21728090.836 8  88972856.026 8     -2080.443          51.000
G25  20401049.031 5 107208221.691 5      1007.465          35.000    20401047.055 5  83538882.900 5       785.041          34.000
G29  22553540.078 8 118519638.455 8      3335.488          51.000    22553538.289 8  92352968.233 8      2599.085          51.000
R04  23363050.953 6 125108061.779 6     -3759.988          38.000    23363056.852 6  97306255.439 6     -2924.435          38.000
R14  19514891.234 6 104025347.066 6       403.785          40.000    19514896.188 6  80908626.923 6       314.052          36.000
R23  20385416.836 7 109048211.521 7     -1596.785          46.000    20385419.992 5  84815338.692 5     -1241.944          32.000
R24  19967691.719 8 106776289.800 8      1778.863          51.000    19967694.344 7  83048229.049 7      1383.560          47.000
C27  23551142.781 8 122636944.069 8      2992.867          49.000
E02  23368267.828 7 122801060.118 7       195.652          47.000    23368268.781 8  94094355.507 8       149.906          48.000
E08  24252854.859 8 127449571.314 8     -2251.125          49.000    24252856.320 8  97656193.540 8     -1724.891          51.000
E25  25482852.562 5 133913279.692 5     -1778.016          34.000    25482845.695 5 102608873.893 5     -1362.489          35.000
E36  24878208.086 8 130735905.681 8      2074.926          48.000    24878212.984 8 100174308.859 8      1589.878          51.000
> 2020 05 16 09 06 30.0000000  0 14        .000000000000
G02  23116990.758 5 121480610.000 5      1062.023          33.000
G12  20268540.922 8 106511907.853 8      -931.027          51.000    20268539.664 8  82996267.186 8      -725.476          51.000
G24  21743366.258 8 114262121.673 8     -2679.855          51.000    21743368.656 8  89035416.826 8     -2088.199          51.000
G29  22534529.719 8 118419738.583 8      3326.695          50.000    22534526.852 8  92275124.231 8      2592.233          50.000
R04  23384138.883 6 125220985.678 6     -3765.551          38.000    23384146.281 6  97394085.146 6     -2928.759          39.000
R14  19512659.773 7 104013449.336 7       392.094          42.000    19512664.867 6  80899373.169 6       304.965          36.000
R17  22510397.227 6 120457690.699 6      4480.258          37.000    22510403.133 6  93689328.700 6      3484.645          39.000
R23  20394449.789 7 109096531.481 7     -1621.816          47.000    20394453.461 5  84852920.883 5     -1261.413          34.000
R24  19957788.195 8 106723333.123 8      1754.195          51.000    19957790.648 7  83007040.519 7      1364.374          47.000
C27  23533930.328 8 122547310.134 8      2985.188          49.000
E02  23367170.469 7 122795293.456 7       191.348          47.000    23367171.547 8  94089936.909 8       146.584          49.000
E08  24265732.961 8 127517251.245 8     -2258.309          48.000    24265735.625 8  97708052.168 8     -1730.401          51.000
E25                                                                  25493009.633 5 102649804.035 5     -1364.243          35.000
E36  24866398.508 8 130673848.878 8      2064.777          48.000    24866403.953 8 100126758.848 8      1582.162          51.000
> 2020 05 16 09 07  0.0000000  0 15        .000000000000
G02  23110976.195 6 121448991.847 6      1045.523          37.000
G12  20273889.047 8 106540012.922 8      -942.891          51.000    20273888.008 8  83018167.250 8      -734.720          51.000
G24  21758698.750 8 114342693.188 8     -2691.559          51.000    21758700.047 8  89098199.799 8     -2097.318          51.000
G29  22515565.578 8 118320085.406 8      3316.449          48.000    22515562.914 8  92197472.422 8      2584.246          48.000
R04  23405253.469 6 125334055.330 6     -3772.551          40.000    23405262.680 6  97482028.217 6     -2934.206          37.000
R14  19510491.555 6 104001888.246 6       378.551          41.000    19510496.633 6  80890381.227 6       294.428          36.000
R17  22485301.375 6 120323395.599 6      4472.492          38.000    22485306.594 6  93584877.018 6      3478.605          38.000
R23  20403620.156 7 109145587.597 7     -1648.688          47.000    20403624.984 5  84891075.649 5     -1282.312          34.000
R24  19948020.219 8 106671101.841 8      1727.719          51.000    19948022.586 7  82966416.229 7      1343.784          47.000
C23  25079597.805 4 130596044.558 4     -2634.516          28.000
C27  23516759.398 8 122457894.715 8      2975.680          48.000
E02  23366096.062 8 122789647.659 8       185.066          48.000    23366097.336 8  94085610.915 8       141.762          49.000
E08  24278650.375 8 127585135.349 8     -2267.344          49.000    24278653.680 8  97760067.247 8     -1737.300          51.000
E25                                                                  25503186.508 6 102690782.235 6     -1367.533          38.000
E36  24854645.445 8 130612085.247 8      2052.680          51.000    24854651.109 8 100079433.481 8      1572.859          51.000
> 2020 05 16 09 07 30.0000000  0 14        .000000000000
G12  20279302.719 8 106568462.596 8      -962.672          51.000    20279301.648 8  83040335.825 8      -750.137          51.000
G24  21774095.773 8 114423606.298 8     -2711.375          49.000    21774096.047 8  89161248.954 8     -2112.760          50.000
G25  20384094.625 5 107119146.810 5       964.211          34.000    20384090.422 5  83469442.529 5       751.315          33.000
G29  22496659.281 8 118220738.845 8      3297.797          48.000    22496657.984 8  92120059.506 8      2569.712          48.000
R04  23426405.953 6 125447324.935 6     -3787.746          40.000    23426416.422 5  97570126.782 5     -2946.025          35.000
R14  19508397.711 6 103990723.008 6       356.996          41.000    19508402.578 6  80881697.185 6       277.667          37.000
R17  22460245.773 6 120189317.371 6      4457.062          36.000    22460249.141 6  93480593.968 6      3466.604          37.000
R23  20412939.305 7 109195436.501 7     -1683.488          46.000    20412942.914 5  84929846.957 5     -1309.380          33.000
R24  19938399.781 8 106619656.928 8      1692.922          51.000    19938402.047 7  82926403.547 7      1316.717          47.000
C27  23499641.258 8 122368756.830 8      2958.043          48.000
E02  23365055.766 8 122784180.475 8       170.586          48.000    23365057.195 8  94081421.762 8       130.709          49.000
E08  24291617.797 8 127653279.290 8     -2284.422          50.000    24291620.984 8  97812281.430 8     -1750.431          51.000
E25                                                                  25513388.148 6 102731852.544 6     -1377.248          39.000
E36  24842959.820 8 130550673.936 8      2032.457          51.000    24842965.055 8 100032378.076 8      1557.265          50.000
> 2020 05 16 09 08  0.0000000  0 14        .000000000000
G02  23099218.023 5 121387229.749 5      1011.785          32.000
G12  20284785.188 8 106597273.097 8      -967.488          51.000    20284783.695 8  83062785.558 8      -753.887          51.000
G24  21789559.922 7 114504876.120 7     -2716.047          46.000    21789560.453 7  89224576.059 7     -2116.400          46.000
G29  22477815.852 8 118121718.309 8      3294.055          50.000    22477816.016 8  92042900.667 8      2566.799          50.000
R04  23447599.320 6 125560807.543 6     -3787.301          38.000    23447609.297 5  97658390.968 5     -2945.681          32.000
R14  19506381.117 6 103979972.588 6       350.406          40.000    19506386.391 6  80873335.678 6       272.538          37.000
R17  22435233.461 6 120055477.300 6      4456.234          37.000    22435236.883 6  93376496.227 6      3465.963          36.000
R23  20422408.188 7 109246092.476 7     -1703.094          47.000    20422412.508 5  84969246.076 5     -1324.632          34.000
R24  19928930.164 8 106569018.154 8      1673.441          51.000    19928932.469 8  82887017.881 8      1301.566          48.000
C27  23482580.148 8 122279915.602 8      2955.254          49.000
E02  23364052.727 8 122778909.358 8       171.340          49.000    23364054.445 8  94077382.843 8       131.232          50.000
E08  24304637.961 8 127721698.464 8     -2286.328          51.000    24304640.609 8  97864706.485 8     -1751.886          51.000
E25  25523609.703 5 134127473.912 5     -1795.102          32.000    25523614.688 6 102773028.261 6     -1374.902          38.000
E36  24831344.711 8 130489633.791 8      2027.406          50.000    24831348.453 8  99985607.084 8      1553.377          48.000
> 2020 05 16 09 08 30.0000000  0 14        .000000000000
G12  20290331.602 8 106626419.718 8      -975.980          51.000    20290329.820 8  83085497.197 8      -760.504          51.000
G24  21805086.336 7 114586477.724 7     -2724.602          43.000    21805088.180 7  89288161.731 7     -2123.069          43.000
G29  22459030.719 8 118023001.806 8      3286.605          51.000    22459032.133 8  91965978.724 8      2560.991          51.000
G32  22138358.867 5 116337866.721 5        10.023          33.000
R04  23468828.109 6 125674474.204 6     -3790.777          37.000    23468834.758 4  97746798.257 4     -2948.385          28.000
R14  19504438.328 7 103969613.860 7       339.941          44.000    19504442.062 6  80865278.896 6       264.399          37.000
R17  22410263.023 5 119921855.644 5      4451.688          33.000    22410265.656 6  93272568.254 6      3462.424          36.000
R23  20432024.062 7 109297529.340 7     -1726.473          45.000    20432028.320 5  85009252.479 5     -1342.812          34.000
R24  19919607.445 8 106519163.359 8      1649.902          51.000    19919609.258 8  82848241.925 8      1283.257          48.000
C27  23465571.875 8 122191349.417 8      2948.723          49.000
E02  23363082.539 8 122773810.740 8       168.223          50.000    23363084.508 8  94073476.097 8       128.853          51.000
E08  24317705.656 8 127790367.128 8     -2291.977          51.000    24317707.641 8  97917322.711 8     -1756.172          51.000
E25                                                                  25533862.523 6 102814291.212 6     -1376.273          37.000
E36  24819795.977 8 130428942.648 8      2018.410          51.000    24819798.094 8  99939103.518 8      1546.589          48.000
> 2020 05 16 09 09  0.0000000  0 14        .000000000000
G12  20295920.820 8 106655791.460 8      -988.930          51.000    20295919.070 8  83108384.253 8      -770.598          51.000
G24  21820655.305 7 114668299.366 7     -2737.277          42.000    21820658.039 7  89351918.886 7     -2132.943          42.000
G29  22440282.859 8 117924481.050 8      3274.605          50.000    22440285.164 8  91889209.314 8      2551.641          50.000
G32  22138351.758 4 116337823.067 4       -12.039          29.000
R04  23490070.906 5 125788207.829 5     -3798.445          35.000
R14  19502548.367 7 103959535.994 7       324.973          43.000    19502550.516 6  80857440.559 6       252.757          38.000
R23  20441763.719 7 109349631.164 7     -1754.070          44.000    20441768.438 5  85049776.156 5     -1364.277          35.000
R24  19910410.594 8 106469982.402 8      1621.891          51.000    19910412.508 8  82809990.057 8      1261.470          49.000
C23  25140571.859 4 130913567.458 4     -2657.047          29.000
C27  23448595.883 8 122102950.722 8      2937.746          49.000
E02  23362124.266 8 122768774.299 8       160.641          50.000    23362126.164 8  94069617.000 8       123.100          51.000
E08  24330799.305 8 127859172.881 8     -2301.988          51.000    24330800.664 8  97970043.974 8     -1763.861          51.000
E25  25544110.641 5 134235211.594 5     -1801.594          35.000    25544112.320 6 102855556.637 6     -1380.131          36.000
E36  24808293.031 8 130368491.627 8      2004.781          51.000    24808294.086 8  99892783.967 8      1536.176          48.000
> 2020 05 16 09 09 30.0000000  0 15        .000000000000
G12  20301594.062 8 106685604.847 8      -999.918          51.000    20301592.398 8  83131615.454 8      -779.157          51.000
G24  21836308.617 7 114750557.555 7     -2748.094          44.000    21836311.297 7  89416016.171 7     -2141.372          44.000
G25  20362397.906 5 107005131.888 5       926.066          32.000    20362404.539 5  83380630.960 5       721.610          31.000
G29  22421614.297 8 117826375.878 8      3264.508          51.000    22421616.547 8  91812763.726 8      2543.772          51.000
R04  23511367.625 4 125902225.378 4     -3803.621          29.000    23511370.547 4  97924009.756 4     -2958.369          25.000
R14  19500752.344 7 103949960.994 7       312.066          43.000    19500753.586 6  80849993.325 6       242.718          39.000
R17  22360433.570 5 119655183.117 5      4435.340          31.000    22360426.680 6  93065133.615 6      3449.709          37.000
R23  20451668.695 7 109402617.233 7     -1779.617          45.000    20451673.391 5  85090987.508 5     -1384.150          34.000
R24  19901381.094 8 106421698.720 8      1595.754          51.000    19901383.492 8  82772436.097 8      1241.142          49.000
C23  25155888.430 4 130993320.437 4     -2662.668          29.000
C27  23431693.773 8 122014937.150 8      2928.699          48.000
E02  23361219.273 8 122764017.812 8       155.117          51.000    23361220.742 8  94065972.419 8       118.826          50.000
E08  24343959.906 8 127928331.331 8     -2309.906          51.000    24343960.781 8  98023035.495 8     -1769.931          51.000
E25  25554399.266 5 134289277.318 5     -1804.871          35.000    25554403.797 5 102896991.260 5     -1382.929          35.000
E36  24796877.000 8 130308499.842 8      1993.262          48.000    24796878.234 8  99846816.285 8      1527.304          49.000
> 2020 05 16 09 10  0.0000000  0 14        .000000000000
G12  20307332.508 8 106715760.668 8     -1010.059          51.000    20307331.023 8  83155113.490 8      -787.059          51.000
G24  21852026.625 8 114833152.446 8     -2757.980          48.000    21852028.766 8  89480375.780 8     -2149.076          48.000
G25  20357148.523 5 106977543.324 5       915.297          34.000    20357155.320 5  83359133.339 5       713.215          33.000
G29  22403006.789 8 117728590.022 8      3254.988          51.000    22403007.797 8  91736567.002 8      2536.358          51.000
R14  19499031.500 7 103940790.174 7       299.891          43.000    19499032.289 6  80842860.445 6       233.245          39.000
R17  22335588.203 5 119522245.443 5      4428.129          35.000    22335584.461 6  92961737.725 6      3444.103          38.000
R23  20461719.867 7 109456384.640 7     -1804.586          44.000    20461724.836 5  85132806.629 5     -1403.567          35.000
R24  19892501.367 8 106374214.408 8      1570.312          51.000    19892503.500 7  82735503.820 7      1221.354          47.000
C23  25171236.320 4 131073252.541 4     -2667.047          29.000
C27  23414847.078 8 121927213.373 8      2920.035          48.000
E02  23360348.805 8 122759443.355 8       150.273          51.000    23360349.812 8  94062467.320 8       115.136          50.000
E08  24357168.516 8 127997742.416 8     -2317.051          50.000    24357169.094 8  98076220.570 8     -1775.412          51.000
E25  25564711.695 5 134343466.790 5     -1807.773          35.000    25564710.039 5 102938493.898 5     -1384.962          31.000
E36  24785529.070 7 130248870.677 7      1982.363          46.000    24785531.797 8  99801126.439 8      1518.930          50.000
> 2020 05 16 09 10 30.0000000  0 14        .000000000000
G12  20313125.547 8 106746202.929 8     -1020.770          51.000    20313124.273 8  83178834.738 8      -795.405          51.000
G24  21867798.047 8 114916027.378 8     -2768.383          51.000    21867800.016 8  89544953.605 8     -2157.181          51.000
G25  20351953.914 5 106950258.235 5       903.797          32.000    20351958.648 5  83337872.217 5       704.257          33.000
G29  22384449.969 8 117631070.288 8      3244.996          51.000    22384449.281 8  91660577.688 8      2528.571          51.000
R14  19497376.227 7 103931968.585 7       286.938          45.000    19497376.797 6  80835999.197 6       223.174          40.000
R17  22310780.508 6 119389494.522 6      4420.512          39.000    22310776.086 6  92858487.023 6      3438.176          37.000
R23  20471906.227 7 109510874.167 7     -1829.613          43.000    20471910.781 5  85175187.328 5     -1423.036          34.000
R24  19883760.750 8 106327475.092 8      1544.293          51.000    19883762.961 7  82699151.026 7      1201.117          47.000
C23  25186611.305 4 131153284.406 4     -2673.465          27.000
C27  23398046.148 8 121839726.472 8      2911.055          49.000
E02  23359502.453 8 122754995.735 8       144.926          51.000    23359503.180 8  94059059.403 8       111.005          50.000
E08  24370414.250 8 128067348.796 8     -2324.734          51.000    24370414.555 8  98129555.296 8     -1781.230          50.000
E25  25575038.320 5 134397732.590 5     -1811.062          34.000    25575039.234 5 102980082.198 5     -1387.778          31.000
E36  24774239.234 7 130189550.374 7      1970.984          45.000    24774243.617 8  99755673.196 8      1510.214          50.000
> 2020 05 16 09 11  0.0000000  0 14        .000000000000
G12  20318971.477 8 106776922.884 8     -1034.844          51.000    20318970.195 8  83202772.355 8      -806.372          51.000
G24  21883621.031 8 114999172.772 8     -2782.215          51.000    21883622.477 8  89609742.196 8     -2167.960          51.000
G25  20346817.594 5 106923268.860 5       888.953          32.000    20346822.609 5  83316841.542 5       692.694          30.000
G29  22365942.453 8 117533810.479 8      3231.434          51.000    22365941.047 8  91584790.902 8      2518.003          51.000
R14  19495785.195 7 103923489.383 7       270.625          44.000    19495786.750 6  80829404.276 6       210.486          41.000
R17  22286005.930 6 119256926.342 6      4409.527          39.000    22286002.188 6  92755378.483 6      3429.635          38.000
R23  20482225.586 6 109566074.732 6     -1858.180          40.000    20482230.055 5  85218121.129 5     -1445.248          35.000
R24  19875158.453 8 106281474.583 8      1514.637          51.000    19875160.859 7  82663372.918 7      1178.054          46.000
C23  25202009.266 4 131233462.138 4     -2680.531          29.000
C27  23381289.570 8 121752470.433 8      2898.531          50.000
E02  23358678.773 8 122750667.156 8       136.098          51.000    23358679.406 8  94055742.696 8       104.328          50.000
E08  24383695.148 8 128137140.501 8     -2335.629          51.000    24383695.094 8  98183032.041 8     -1789.698          49.000
E25  25585376.461 5 134452059.722 5     -1818.203          35.000    25585396.242 5 103021747.871 5     -1392.902          33.000
E36  24763007.586 7 130130532.392 7      1955.988          46.000    24763013.016 8  99710451.596 8      1498.813          51.000
> 2020 05 16 09 11 30.0000000  0 15        .000000000000
G12  20324888.383 8 106808015.854 8     -1040.488          51.000    20324886.938 8  83227000.628 8      -810.770          51.000
G24  21899513.289 8 115082683.471 8     -2787.570          51.000    21899514.000 8  89674815.448 8     -2172.136          51.000
G25  20341756.336 5 106896671.586 5       882.348          33.000    20341758.086 5  83296116.467 5       687.544          32.000
G29  22347502.789 8 117436909.191 8      3226.250          51.000    22347501.641 8  91509283.452 8      2513.961          51.000
R04  23596796.969 5 126359787.579 5     -3821.559          30.000    23596816.820 4  98279871.369 4     -2972.323          27.000
R14  19494276.562 7 103915451.113 7       262.773          42.000    19494279.211 6  80823152.286 6       204.379          41.000
R17  22261283.656 6 119124642.739 6      4407.012          39.000    22261281.469 6  92652491.277 6      3427.676          37.000
R23  20492695.508 6 109622081.412 6     -1877.906          37.000    20492699.258 5  85261681.870 5     -1460.591          33.000
R24  19866713.109 8 106236312.850 8      1493.727          51.000    19866714.969 7  82628247.166 7      1161.787          46.000
C23  25217442.664 5 131313839.140 5     -2680.090          31.000
C27  23364596.219 8 121665542.593 8      2894.258          51.000
E02  23357896.047 8 122746554.072 8       135.734          51.000    23357896.781 8  94052591.106 8       103.968          50.000
E08  24397029.164 8 128207211.886 8     -2338.098          50.000    24397028.938 8  98236723.065 8     -1791.595          49.000
E25                                                                  25595758.820 5 103063492.516 5     -1391.711          33.000
E36  24751853.203 8 130071914.486 8      1949.434          48.000    24751859.102 8  99665536.611 8      1493.749          51.000
> 2020 05 16 09 12  0.0000000  0 14        .000000000000
G06  23498529.531 6 123485592.552 6      -420.773          37.000    23498529.352 6  96222533.636 6      -327.875          37.000
G12  20330862.805 8 106839411.311 8     -1051.047          51.000    20330861.297 8  83251464.608 8      -818.998          51.000
G24  21915461.172 8 115166488.657 8     -2797.949          49.000    21915461.453 8  89740118.162 8     -2180.220          49.000
G29  22329118.008 8 117340298.699 8      3215.836          50.000    22329117.391 8  91434002.581 8      2505.846          49.000
R14  19492837.211 7 103907784.717 7       249.781          44.000    19492841.602 6  80817189.506 6       194.277          41.000
R17  22236603.047 6 118992576.952 6      4399.086          39.000    22236601.953 6  92549773.494 6      3421.514          37.000
R23  20503301.672 6 109678820.753 6     -1902.895          39.000    20503306.445 5  85305812.455 5     -1480.032          34.000
R24  19858411.562 8 106191920.918 8      1467.348          51.000    19858413.539 8  82593720.165 8      1141.270          48.000
C23  25232905.039 4 131394344.370 4     -2685.125          29.000
C27  23347953.195 8 121578875.959 8      2884.871          51.000
E02  23357141.055 8 122742587.164 8       130.191          51.000    23357142.055 8  94049551.524 8        99.793          51.000
E08  24410402.672 8 128277491.409 8     -2345.574          50.000    24410402.406 8  98290573.573 8     -1797.294          49.000
E25                                                                  25606143.414 5 103105327.044 5     -1394.662          30.000
E36  24740762.648 8 130013628.691 8      1937.680          51.000    24740768.188 8  99620876.078 8      1484.761          51.000
> 2020 05 16 09 12 30.0000000  0 14        .000000000000
G06  23500961.297 5 123498376.731 5      -440.207          35.000    23500966.484 5  96232495.391 5      -343.018          35.000
G12  20336867.148 8 106870964.351 8     -1062.289          51.000    20336865.805 8  83276051.374 8      -827.758          51.000
G24  21931436.852 7 115250442.262 7     -2808.613          47.000    21931437.555 8  89805536.536 8     -2188.530          48.000
G25  20331791.758 5 106844287.746 5       859.805          34.000    20331795.797 5  83255296.972 5       669.975          33.000
G29  22310761.500 8 117243836.909 8      3205.047          49.000    22310761.008 8  91358837.564 8      2497.442          49.000
R14  19491441.102 7 103900344.884 7       236.145          44.000    19491445.531 6  80811402.947 6       183.665          41.000
R17  22211935.992 6 118860586.242 6      4390.414          39.000    22211936.414 6  92447114.130 6      3414.770          37.000
R23  20514017.906 6 109736142.696 6     -1928.309          38.000    20514023.109 5  85350396.233 5     -1499.799          33.000
R24  19850227.000 8 106148153.972 8      1440.512          51.000    19850228.938 8  82559679.227 8      1120.398          49.000
C27  23331333.391 8 121492329.607 8      2875.055          51.000
E02  23356386.484 8 122738622.484 8       124.363          51.000    23356387.648 8  94046513.644 8        95.315          51.000
E08  24423787.641 8 128347832.953 8     -2353.492          48.000    24423787.727 8  98344471.620 8     -1803.340          49.000
E25  25616508.008 6 134615714.538 6     -1823.566          36.000
E36  24729708.141 8 129955532.301 8      1925.617          51.000    24729712.977 8  99576360.692 8      1475.443          51.000
> 2020 05 16 09 13  0.0000000  0 14        .000000000000
G06  23503543.828 6 123511950.688 6      -461.012          36.000    23503548.086 6  96243072.588 6      -359.224          37.000
G12  20342971.156 8 106903041.631 8     -1073.598          51.000    20342970.109 8  83301046.650 8      -836.570          51.000
G24  21947510.141 7 115334911.951 7     -2819.773          46.000    21947511.148 7  89871357.071 7     -2197.223          47.000
G25  20326930.711 6 106818738.151 6       847.227          37.000    20326933.055 6  83235388.135 6       660.173          37.000
G29  22292504.023 8 117147893.710 8      3193.914          50.000    22292503.117 8  91284076.649 8      2488.764          50.000
R14  19490158.352 7 103893506.014 7       222.340          45.000    19490162.742 7  80806083.821 7       172.928          42.000
R17  22187354.445 6 118729049.328 6      4381.395          40.000    22187356.375 6  92344807.674 6      3407.754          37.000
R23  20524912.438 5 109794419.287 5     -1953.547          33.000    20524916.297 5  85395722.442 5     -1519.425          33.000
R24  19842229.281 8 106105388.239 8      1413.391          51.000    19842231.383 8  82526416.998 8      1099.304          49.000
C27  23314806.688 8 121406270.053 8      2864.930          50.000
E02  23355702.484 8 122735028.134 8       118.137          51.000    23355703.672 8  94043759.532 8        90.490          51.000
E08  24437254.031 8 128418602.467 8     -2361.582          48.000    24437255.031 8  98398697.595 8     -1809.575          50.000
E25  25626938.805 5 134670477.773 5     -1828.215          33.000
E36  24718759.781 8 129897994.769 8      1913.051          51.000    24718764.008 8  99532273.515 8      1465.877          51.000
> 2020 05 16 09 13 30.0000000  0 16        .000000000000
G02  23040918.773 5 121080844.803 5       840.465          30.000
G06  23506232.602 5 123526080.124 5      -480.180          34.000    23506234.992 5  96254082.538 5      -374.163          35.000
G12  20349130.297 8 106935408.695 8     -1083.703          51.000    20349129.445 8  83326267.727 8      -844.444          51.000
G24  21963636.781 7 115419660.747 7     -2829.387          47.000    21963637.531 7  89937395.072 7     -2204.717          47.000
G25  20322128.023 6 106793500.971 6       835.891          36.000    20322129.047 6  83215722.778 6       651.343          37.000
G29  22274301.227 8 117052237.066 8      3183.906          50.000    22274299.766 8  91209539.043 8      2480.969          50.000
R14  19488944.266 8 103887031.587 8       209.902          48.000    19488948.164 7  80801048.165 7       163.257          42.000
R17  22162814.383 6 118597731.657 6      4373.637          40.000    22162817.250 5  92242671.813 5      3401.720          35.000
R23  20535939.281 6 109853408.843 6     -1978.258          38.000    20535943.875 5  85441603.289 5     -1538.645          33.000
R24  19834374.422 8 106063387.105 8      1387.398          51.000    19834376.711 8  82493749.431 8      1079.085          49.000
C23  25279438.781 5 131636649.931 5     -2700.707          32.000
C27  23298328.742 8 121320467.216 8      2855.891          49.000
E02  23355044.523 8 122731570.200 8       113.176          51.000    23355045.750 8  94041109.936 8        86.743          51.000
E08  24450757.492 8 128489563.820 8     -2368.391          49.000    24450759.258 8  98453070.574 8     -1814.711          51.000
E25  25637379.414 5 134725363.701 5     -1831.262          32.000
E36  24707873.516 8 129840783.462 8      1901.840          51.000    24707877.492 8  99488436.312 8      1457.287          51.000
> 2020 05 16 09 14  0.0000000  0 16        .000000000000
G02  23036188.430 5 121055996.724 5       825.652          32.000
G06  23509058.234 5 123540928.216 5      -500.109          35.000    23509061.617 5  96265652.412 5      -389.690          34.000
G12  20355375.422 8 106968227.701 8     -1093.840          51.000    20355374.625 8  83351840.976 8      -852.343          50.000
G24  21979848.242 8 115504851.577 8     -2839.402          50.000    21979848.344 8  90003777.484 8     -2212.524          50.000
G25  20317415.172 5 106768739.577 5       825.098          34.000    20317416.242 5  83196428.244 5       642.939          34.000
G29  22256184.492 8 116957032.312 8      3173.539          51.000    22256182.391 8  91135353.573 8      2472.888          50.000
R14  19487830.055 7 103881088.718 7       197.074          47.000    19487833.328 7  80796425.957 7       153.280          43.000
R17  22138347.406 6 118466803.549 6      4365.621          40.000    22138347.836 5  92140838.932 5      3395.486          31.000
R23  20547130.609 5 109913274.231 5     -2002.156          35.000    20547135.617 5  85488165.241 5     -1557.230          33.000
R24  19826693.812 8 106022318.474 8      1361.145          51.000    19826696.906 8  82461807.191 8      1058.668          49.000
C23  25295042.984 5 131717889.098 5     -2705.328          33.000
C27  23281931.523 7 121235084.762 7      2846.555          47.000
E02  23354443.617 8 122728412.178 8       107.891          51.000    23354444.984 8  94038690.149 8        82.705          51.000
E08  24464328.477 8 128560878.385 8     -2375.441          49.000    24464330.773 8  98507714.182 8     -1820.093          51.000
E25  25647872.062 5 134780476.486 5     -1834.352          32.000
E36  24697080.141 8 129784063.129 8      1890.102          51.000    24697084.102 8  99444975.317 8      1448.266          51.000
> 2020 05 16 09 14 30.0000000  0 17        .000000000000
G02  23031493.148 5 121031309.050 5       810.125          35.000
G06  23511933.859 5 123556039.930 5      -518.727          33.000    23511937.219 4  96277450.731 4      -404.212          26.000
G12  20361619.984 8 107001043.424 8     -1104.602          51.000    20361619.141 8  83377411.663 8      -860.728          51.000
G24  21996057.344 8 115590027.961 8     -2849.602          51.000    21996057.781 8  90070148.630 8     -2220.469          51.000
G25  20312706.766 5 106743999.643 5       813.898          34.000    20312707.625 5  83177150.431 5       634.204          33.000
G29  22238067.469 8 116861826.747 8      3162.707          50.000    22238065.625 8  91061167.456 8      2464.447          50.000
G32  22145812.930 5 116377035.354 5      -227.203          35.000
R14  19486729.039 7 103875217.257 7       183.641          47.000    19486731.977 7  80791859.283 7       142.832          44.000
R17  22113867.273 6 118335806.148 6      4356.867          40.000    22113864.773 5  92038952.149 5      3388.674          32.000
R23  20558397.961 5 109973550.240 5     -2027.027          32.000    20558403.523 5  85535046.636 5     -1576.574          30.000
R24  19819101.617 8 105981721.560 8      1334.457          50.000    19819104.836 8  82430231.806 8      1037.908          48.000
C23  25310613.555 5 131798956.431 5     -2709.785          30.000
C27  23265529.164 7 121149674.236 7      2836.734          46.000
E02  23353813.305 8 122725099.828 8       102.348          51.000    23353814.742 8  94036152.122 8        78.461          51.000
E08  24477879.961 8 128632089.666 8     -2382.562          49.000    24477882.492 8  98562278.662 8     -1825.651          51.000
E25  25658321.453 6 134835393.683 6     -1837.867          37.000
E36  24686293.469 8 129727380.733 8      1878.152          49.000    24686296.969 8  99401543.381 8      1439.104          50.000
> 2020 05 16 09 15  0.0000000  0 14        .000000000000
G02  23026954.008 5 121007455.461 5       795.727          33.000
G12  20367991.969 8 107034528.063 8     -1113.109          51.000    20367991.055 8  83403503.596 8      -867.358          51.000
G24  22012391.375 8 115675861.501 8     -2857.914          51.000    22012392.422 8  90137031.864 8     -2226.946          51.000
G29  22220078.766 8 116767295.367 8      3153.910          50.000    22220077.984 8  90987506.686 8      2457.592          51.000
G32  22147199.594 5 116384339.904 5      -245.234          34.000    22147196.102 5  90689082.135 5      -191.092          33.000
R14  19485769.641 8 103870101.218 8       172.172          48.000    19485772.195 7  80787880.146 7       133.914          44.000
R17  22089503.734 6 118205429.055 6      4349.953          38.000    22089500.641 5  91937547.744 5      3383.294          35.000
R23  20569869.844 6 110034918.765 6     -2049.500          37.000    20569875.531 5  85582777.672 5     -1594.056          31.000
R24  19811726.086 8 105942282.993 8      1309.652          49.000    19811729.625 8  82399557.378 8      1018.618          48.000
C27  23249249.438 7 121064904.558 7      2829.004          45.000
E02  23353281.703 8 122722306.427 8        98.570          51.000    23353283.195 8  94034011.728 8        75.486          51.000
E08  24491539.281 8 128703868.755 8     -2387.914          48.000    24491542.180 8  98617278.212 8     -1829.781          51.000
E25  25668857.133 5 134890768.334 5     -1839.840          35.000    25668878.047 5 103357913.132 5     -1409.583          34.000
E36  24675642.391 8 129671410.882 8      1867.855          49.000    24675645.273 8  99358657.393 8      1431.151          50.000
> 2020 05 16 09 15 30.0000000  0 15        .000000000000
G02  23022467.086 5 120983879.941 5       774.820          31.000
G06  23518117.281 6 123588507.082 6      -559.793          36.000    23518121.523 5  96302768.487 5      -436.196          33.000
G12  20374385.156 8 107068124.067 8     -1127.609          51.000    20374384.188 8  83429682.300 8      -878.657          51.000
G24  22028743.789 8 115761793.601 8     -2871.934          50.000    22028745.578 8  90203991.912 8     -2237.870          50.000
G25  20303582.898 5 106696025.446 5       788.383          34.000    20303584.984 5  83139778.335 5       614.324          35.000
G29  22202112.977 8 116672883.315 8      3139.176          51.000    22202113.102 8  90913938.869 8      2446.111          51.000
R14  19484845.742 7 103865176.366 7       154.984          47.000    19484847.984 7  80784049.708 7       120.543          45.000
R17  22065150.633 6 118075108.568 6      4336.984          37.000    22065148.867 6  91836187.367 6      3373.210          37.000
R23  20581441.180 5 110096809.421 5     -2077.715          35.000    20581445.547 4  85630914.802 4     -1616.007          29.000
R24  19804461.398 8 105903437.178 8      1279.004          49.000    19804465.406 8  82369343.997 8       994.781          48.000
C27  23232986.930 7 120980225.414 7      2815.109          46.000
E02  23352742.820 8 122719474.979 8        89.098          51.000    23352744.492 8  94031842.175 8        68.300          51.000
E08  24505199.844 7 128775656.450 7     -2398.996          46.000    24505203.383 8  98672284.328 8     -1838.108          51.000
E25  25679374.797 5 134946027.298 5     -1846.965          35.000    25679384.703 5 103400243.531 5     -1415.060          30.000
E36  24665020.953 7 129615597.764 7      1851.965          47.000    24665024.016 8  99315891.489 8      1419.017          50.000
> 2020 05 16 09 16  0.0000000  0 15        .000000000000
G02  23018075.164 5 120960797.300 5       760.859          33.000
G12  20380839.430 8 107102041.313 8     -1136.227          51.000    20380838.383 8  83456111.321 8      -885.371          51.000
G24  22045154.625 7 115848035.027 7     -2880.129          47.000    22045157.156 7  90271193.006 7     -2244.256          47.000
G25  20299100.305 6 106672467.143 6       779.070          37.000    20299101.734 6  83121421.197 6       607.068          36.000
G29  22184210.602 8 116578804.267 8      3130.074          50.000    22184211.211 8  90840630.537 8      2439.019          50.000
G32  22150230.125 5 116400247.374 5      -286.609          32.000    22150234.859 5  90701504.870 5      -223.341          32.000
R14  19483998.047 7 103860658.873 7       143.590          47.000    19484000.688 7  80780536.108 7       111.681          45.000
R17  22040849.938 6 117945064.673 6      4329.598          37.000    22040847.805 6  91735042.134 6      3367.468          36.000
R23  20593144.742 4 110159438.274 4     -2099.922          29.000    20593150.836 4  85679562.145 4     -1633.273          27.000
R24  19797348.406 8 105865401.538 8      1253.895          49.000    19797352.531 7  82339760.707 7       975.251          47.000
C27  23216783.289 8 120895848.645 8      2807.027          48.000
E02  23352237.078 8 122716817.653 8        85.348          51.000    23352238.977 8  94029806.036 8        65.363          51.000
E08  24518901.734 7 128847662.631 7     -2404.109          45.000    24518905.992 8  98727457.890 8     -1842.170          51.000
E25  25689913.906 5 135001414.445 5     -1848.621          34.000
E36  24654469.562 7 129560154.676 7      1841.520          47.000    24654473.359 8  99273409.169 8      1411.118          49.000
> 2020 05 16 09 16 30.0000000  0 17        .000000000000
G02  23013771.594 5 120938174.459 5       744.547          35.000
G06  23524695.109 5 123623106.304 5      -597.559          35.000
G12  20387349.070 8 107136249.326 8     -1147.340          51.000    20387347.836 8  83482766.909 8      -894.031          51.000
G24  22061618.039 7 115934553.369 7     -2890.828          46.000    22061621.375 7  90338609.876 7     -2252.593          46.000
G25  20294675.953 4 106649242.675 4       767.641          29.000    20294680.062 4  83103312.599 4       598.165          27.000
G29  22166365.648 8 116485029.689 8      3118.316          49.000    22166366.453 8  90767559.428 8      2429.857          48.000
G32  22151918.625 4 116409117.491 4      -307.434          29.000    22151920.984 5  90708406.605 5      -239.562          30.000
R14  19483220.930 7 103856518.892 7       129.473          46.000    19483223.820 7  80777316.113 7       100.701          46.000
R17  22016596.852 5 117815270.406 5      4319.992          35.000    22016593.008 6  91634091.074 6      3359.991          36.000
R23  20604987.930 6 110222764.202 6     -2125.184          36.000    20604994.922 4  85728815.610 4     -1652.921          29.000
R24  19790381.719 8 105828146.573 8      1226.492          50.000    19790385.570 7  82310784.616 7       953.938          47.000
C27  23200632.734 8 120811745.942 8      2796.594          49.000
C28  22297137.586 8 116107045.948 8      -163.867          51.000
E02  23351758.836 8 122714304.201 8        79.008          51.000    23351760.727 8  94027880.137 8        60.494          51.000
E08  24532639.109 7 128919854.923 7     -2411.887          45.000    24532643.773 8  98782774.021 8     -1848.033          51.000
E25  25700471.133 5 135056886.395 5     -1852.684          33.000    25700480.992 5 103485171.223 5     -1419.451          32.000
E36  24643983.773 8 129505052.630 8      1828.602          49.000    24643987.398 8  99231188.159 8      1401.148          49.000
> 2020 05 16 09 17  0.0000000  0 16        .000000000000
G02  23009578.312 5 120916129.819 5       728.441          32.000
G12  20393935.781 8 107170862.133 8     -1157.641          51.000    20393934.391 8  83509737.922 8      -902.058          51.000
G24  22078155.812 7 116021462.716 7     -2900.707          47.000    22078160.016 7  90406331.435 7     -2260.288          47.000
G25  20290338.109 5 106626433.748 5       755.305          33.000    20290337.539 5  83085553.561 5       588.528          33.000
G29  22148600.516 8 116391676.783 8      3107.578          49.000    22148601.109 8  90694816.907 8      2421.492          49.000
R14  19482536.578 7 103852874.523 7       116.043          47.000    19482540.125 7  80774481.577 7        90.253          46.000
R17  21992414.344 4 117685846.917 4      4310.906          29.000    21992407.570 5  91533428.451 5      3352.930          33.000
R23  20616979.891 5 110286904.707 5     -2148.645          32.000    20616985.180 4  85778702.627 4     -1671.171          26.000
R24  19783583.461 8 105791790.795 8      1199.820          51.000    19783586.891 7  82282507.918 7       933.194          47.000
C23  25389055.578 4 132207490.170 4     -2734.875          29.000
C27  23184557.000 8 120728033.376 8      2786.738          50.000
C28  22298137.461 8 116112251.352 8      -180.609          51.000
E02  23351329.961 8 122712050.112 8        73.750          51.000    23351331.766 8  94026152.979 8        56.477          51.000
E08  24546433.906 7 128992346.539 7     -2418.531          46.000    24546438.141 8  98838319.501 8     -1853.109          50.000
E25                                                                  25711072.141 4 103527831.205 4     -1422.773          28.000
E36  24633585.742 8 129450408.328 8      1816.695          50.000    24633588.828 8  99189317.850 8      1392.022          50.000
> 2020 05 16 09 17 30.0000000  0 13        .000000000000
G02  23005455.094 6 120894449.811 6       717.168          36.000
G12  20400558.555 8 107205664.513 8     -1162.957          51.000    20400557.070 8  83536856.644 8      -906.200          51.000
G24  22094726.672 7 116108546.716 7     -2905.125          46.000    22094731.539 7  90474189.127 7     -2263.734          46.000
G25  20286040.883 5 106603848.842 5       749.402          34.000    20286038.703 5  83067954.771 5       583.947          35.000
G29  22130875.297 8 116298532.973 8      3101.457          49.000    22130875.406 8  90622237.316 8      2416.720          49.000
G32  22155646.555 5 116428718.443 5      -340.176          31.000    22155650.039 4  90723664.820 4      -265.069          29.000
R14  19481904.961 8 103849509.069 8       107.883          48.000    19481909.344 7  80771863.994 7        83.909          47.000
R24  19776912.922 8 105756117.471 8      1178.113          51.000    19776915.844 7  82254762.018 7       916.310          46.000
C23  25404810.500 5 132289497.365 5     -2734.875          31.000
C27  23168515.422 8 120644500.130 8      2781.746          50.000
E02  23350909.648 8 122709841.011 8        73.293          51.000    23350911.242 8  94024460.294 8        56.166          51.000
E08  24560244.594 7 129064920.880 7     -2420.148          47.000    24560247.781 8  98893928.369 8     -1854.405          49.000
E36  24623234.125 8 129396008.517 8      1809.605          50.000    24623237.641 8  99147634.897 8      1386.572          51.000
> 2020 05 16 09 18  0.0000000  0 15        .000000000000
G02  23001449.906 5 120873392.145 5       695.301          32.000
G12  20407266.016 8 107240912.058 8     -1177.879          51.000    20407264.555 8  83564322.255 8      -917.828          51.000
G24  22111379.391 7 116196060.171 7     -2919.863          46.000    22111384.445 7  90542381.504 7     -2275.218          46.000
G25  20281834.141 5 106581739.987 5       733.441          32.000    20281833.359 5  83050727.169 5       571.516          30.000
G29  22113239.352 8 116205856.845 8      3085.922          49.000    22113238.711 8  90550022.142 8      2404.614          49.000
R14  19481375.086 8 103846683.749 8        89.789          48.000    19481379.359 7  80769666.516 7        69.836          46.000
R17  21944169.547 5 117427723.343 5      4292.727          34.000    21944165.469 5  91332654.004 5      3338.793          31.000
R23  20641369.641 6 110417395.714 6     -2195.949          36.000
R24  19770418.812 8 105721388.903 8      1146.398          51.000    19770420.781 7  82227750.959 7       891.643          45.000
C23  25420617.648 5 132371803.126 5     -2744.199          35.000
C27  23152557.336 8 120561402.206 8      2767.164          50.000
E02  23350546.734 8 122707933.605 8        63.074          51.000    23350548.102 8  94022998.773 8        48.369          51.000
E08  24574119.297 7 129137832.360 7     -2431.391          45.000    24574121.227 8  98949795.583 8     -1863.109          49.000
E25  25732289.086 5 135224091.924 5     -1862.668          34.000
E36  24612977.852 8 129342111.015 8      1792.770          50.000    24612981.906 8  99106336.839 8      1373.716          51.000
> 2020 05 16 09 18 30.0000000  0 14        .000000000000
G02  22997521.930 5 120852748.949 5       680.953          32.000
G12  20414018.273 8 107276395.292 8     -1186.777          51.000    20414016.906 8  83591971.516 8      -924.762          51.000
G24  22128074.664 8 116283793.348 8     -2928.293          48.000    22128079.117 8  90610745.026 8     -2281.787          48.000
G25  20277677.977 6 106559899.149 6       723.551          36.000    20277678.242 5  83033708.366 5       563.806          34.000
G29  22095653.484 8 116113441.255 8      3076.035          49.000    22095651.398 8  90478009.996 8      2396.911          49.000
R14  19480907.242 8 103844188.548 8        77.539          48.000    19480911.109 7  80767725.809 7        60.305          46.000
R17  21920130.250 6 117299090.820 6      4284.090          40.000    21920128.344 5  91232606.580 5      3332.070          35.000
R23  20653745.195 6 110483563.195 6     -2217.957          38.000
R24  19764062.023 8 105687394.208 8      1120.891          51.000    19764063.430 7  82201310.670 7       871.807          46.000
C27  23136643.438 8 120478534.966 8      2758.383          50.000
E02  23350201.531 8 122706119.638 8        58.922          51.000    23350202.781 8  94021608.844 8        45.199          51.000
E08  24588017.523 7 129210870.499 7     -2436.543          43.000    24588018.969 8  99005759.877 8     -1867.069          48.000
E25  25742923.992 5 135279978.449 5     -1864.258          31.000
E36  24602777.859 8 129288508.835 8      1781.887          50.000    24602782.031 8  99065265.051 8      1365.348          51.000
> 2020 05 16 09 19  0.0000000  0 13        .000000000000
G02  22993693.805 5 120832626.898 5       660.664          34.000
G12  20420835.250 8 107312218.599 8     -1201.039          51.000    20420833.938 8  83619885.762 8      -935.875          51.000
G24  22144832.094 8 116371850.060 8     -2941.914          49.000    22144835.617 8  90679360.610 8     -2292.401          49.000
G25  20273592.078 5 106538431.482 5       708.492          32.000    20273594.211 5  83016980.215 5       552.069          32.000
G29  22078137.891 8 116021393.431 8      3060.828          50.000    22078134.648 8  90406284.456 8      2385.064          51.000
R14  19480521.422 8 103842130.797 8        59.980          49.000    19480524.688 7  80766125.336 7        46.651          47.000
R17  21896152.336 6 117170782.275 6      4270.168          41.000    21896152.570 6  91132811.114 6      3321.242          37.000
R24  19757862.211 8 105654241.654 8      1089.738          51.000    19757863.797 7  82175525.391 7       847.577          47.000
C23  25452290.203 5 132536776.613 5     -2755.594          30.000
C27  23120794.484 8 120396004.200 8      2744.129          51.000
E02  23349894.078 8 122704504.410 8        49.309          51.000    23349895.352 8  94020371.200 8        37.782          51.000
E08  24601959.773 7 129284138.359 7     -2447.348          44.000    24601961.016 8  99061900.180 8     -1875.216          49.000
E36  24592654.547 8 129235308.344 8      1765.441          51.000    24592658.516 8  99024501.054 8      1352.756          51.000
> 2020 05 16 09 19 30.0000000  0 13        .000000000000
G12  20427715.930 8 107348376.776 8     -1224.445          51.000    20427714.586 8  83648060.953 8      -954.113          51.000
G24  22161649.789 8 116460223.748 8     -2964.586          48.000    22161651.789 8  90748223.158 8     -2310.070          48.000
G25  20269576.852 6 106517332.394 6       683.527          37.000    20269578.297 6  83000539.351 6       532.619          37.000
G29  22060691.648 8 115929710.928 8      3036.445          50.000    22060688.289 8  90334843.589 8      2366.064          50.000
G32  22164449.977 5 116474970.627 5      -439.344          34.000
R14  19480217.000 8 103840507.381 8        33.047          49.000    19480220.062 7  80764862.662 7        25.703          46.000
R17  21872234.633 7 117042797.347 7      4246.926          44.000    21872237.219 6  91033267.308 6      3303.168          40.000
R23  20678885.164 5 110618109.783 5     -2282.078          30.000
R24  19751819.289 8 105621927.983 8      1049.332          51.000    19751821.008 7  82150392.548 7       816.147          47.000
C27  23105010.039 8 120313807.267 8      2720.871          51.000
E02  23349623.586 8 122703083.654 8        30.578          51.000    23349624.953 8  94019282.561 8        23.484          51.000
E08  24615945.141 7 129357629.425 7     -2466.859          47.000    24615946.227 8  99118211.508 8     -1890.194          48.000
E36  24582607.047 8 129182506.415 8      1739.867          51.000    24582610.523 8  98984042.441 8      1333.139          51.000
> 2020 05 16 09 20  0.0000000  0 13        .000000000000
G12  20434661.219 8 107384874.725 8     -1219.137          51.000    20434659.875 8  83676500.913 8      -949.977          51.000
G24  22178528.438 8 116548919.830 8     -2958.867          49.000    22178529.422 8  90817336.894 8     -2305.614          49.000
G25  20265633.000 6 106496608.074 6       687.527          36.000    20265635.086 6  82984390.608 6       535.736          36.000
G29  22043315.930 8 115838401.890 8      3040.559          48.000    22043313.703 8  90263693.717 8      2369.266          48.000
G32  22166938.523 5 116488043.287 5      -443.281          33.000
R14  19479995.273 8 103839325.201 8        35.191          49.000    19479998.008 7  80763943.195 7        27.371          46.000
R17  21848380.062 7 116915146.278 7      4252.484          47.000    21848383.414 6  90933983.119 6      3307.488          41.000
R23  20691679.414 5 110686532.250 5     -2289.555          30.000
R24  19745934.477 8 105590460.706 8      1037.922          51.000    19745936.570 8  82125918.011 8       807.273          48.000
C27  23089291.047 8 120231952.133 8      2725.871          51.000
E02  23349391.281 8 122701863.790 8        40.379          51.000    23349392.750 8  94018347.866 8        30.895          51.000
E08  24629974.078 8 129431347.922 8     -2458.035          48.000    24629975.328 8  99174697.062 8     -1883.298          48.000
E36  24572636.398 8 129130110.552 8      1742.781          51.000    24572639.781 8  98943894.997 8      1335.363          51.000
> 2020 05 16 09 20 30.0000000  0 12        .000000000000
G12  20441653.219 8 107421618.138 8     -1231.281          51.000    20441651.914 8  83705132.142 8      -959.440          51.000
G24  22195450.062 8 116637842.194 8     -2970.336          51.000    22195449.984 8  90886626.964 8     -2314.551          51.000
G25  20261742.773 5 106476165.047 5       673.824          32.000    20261745.570 5  82968461.044 5       525.061          32.000
G29  22025993.195 7 115747374.561 7      3026.992          47.000    22025992.859 7  90192763.337 7      2358.695          47.000
R14  19479838.523 8 103838490.747 8        19.469          50.000    19479841.664 7  80763294.167 7        15.142          47.000
R17  21824571.031 8 116787737.634 8      4240.422          48.000    21824574.656 7  90834887.535 7      3298.109          42.000
R24  19740190.227 8 105559745.693 8      1008.859          51.000    19740192.828 8  82102028.565 8       784.668          48.000
C23  25500011.203 4 132785246.446 4     -2768.133          29.000
C27  23073619.766 8 120150347.883 8      2713.457          50.000
E02  23349179.430 8 122700751.496 8        32.828          51.000    23349181.000 8  94017495.584 8        25.187          51.000
E08  24644028.094 8 129505198.172 8     -2466.262          49.000    24644029.969 8  99231283.590 8     -1889.748          48.000
E36  24562725.430 8 129078028.571 8      1728.387          51.000    24562728.195 8  98903988.030 8      1324.369          51.000
> 2020 05 16 09 21  0.0000000  0 13        .000000000000
G12  20448690.016 8 107458597.048 8     -1233.707          51.000    20448688.703 8  83733946.875 8      -961.330          51.000
G24  22212412.938 8 116726980.980 8     -2972.074          51.000    22212412.312 8  90956085.716 8     -2315.902          51.000
G25  20257904.555 5 106455994.345 5       670.508          35.000    20257907.438 5  82952743.610 5       522.471          35.000
G29  22008722.938 7 115656621.369 7      3023.461          47.000    22008723.953 7  90122046.546 7      2355.944          47.000
G32  22172215.688 5 116515783.249 5      -476.512          31.000    22172214.234 5  90791510.656 5      -371.311          31.000
R14  19479745.703 8 103837995.572 8        13.746          51.000    19479748.703 7  80762909.023 7        10.694          47.000
R17  21800806.422 8 116660566.412 8      4237.984          49.000    21800809.984 7  90735976.581 7      3296.210          42.000
R24  19734585.453 8 105529774.722 8       989.465          51.000    19734588.328 8  82078717.820 8       769.584          49.000
C23  25515956.438 5 132868277.669 5     -2766.340          31.000
C27  23057994.758 8 120068987.413 8      2710.816          48.000
E02  23348986.414 8 122699737.995 8        34.957          51.000    23348988.102 8  94016719.006 8        26.776          51.000
E08  24658104.898 8 129579169.142 8     -2464.883          48.000    24658107.633 8  99287962.602 8     -1888.661          49.000
E36  24552872.828 8 129026252.790 8      1723.551          51.000    24552875.188 8  98864315.675 8      1320.706          51.000
> 2020 05 16 09 21 30.0000000  0 12        .000000000000
G12  20455798.211 8 107495951.138 8     -1258.645          51.000    20455796.734 8  83763053.962 8      -980.762          51.000
G24  22229443.195 8 116816474.293 8     -2996.379          51.000    22229442.961 8  91025820.753 8     -2334.841          51.000
G25  20254143.750 5 106436236.412 5       644.090          34.000    20254148.617 5  82937347.735 5       501.891          33.000
G29  21991532.812 8 115566284.763 8      2997.125          48.000    21991533.852 8  90051654.390 8      2335.419          48.000
R14  19479743.750 8 103837983.484 8       -15.059          51.000    19479746.617 7  80762899.628 7       -11.712          47.000
R17  21777113.156 8 116533779.132 8      4212.375          49.000    21777117.414 6  90637364.268 6      3276.292          41.000
R24  19729146.867 8 105500691.773 8       947.285          51.000    19729149.648 8  82056097.750 8       736.777          48.000
C23  25531941.062 4 132951512.746 4     -2784.547          29.000
C27  23042443.117 7 119988011.548 7      2685.504          47.000
E02  23348838.945 8 122698963.801 8        14.469          51.000    23348840.789 8  94016125.790 8        11.080          51.000
E08  24672230.648 8 129653399.038 8     -2485.984          48.000    24672234.359 8  99344840.029 8     -1904.788          49.000
E36  24543105.383 8 128974924.726 8      1696.113          51.000    24543108.117 8  98824986.401 8      1299.649          51.000
> 2020 05 16 09 22  0.0000000  0 13        .000000000000
G06  23568880.164 5 123855282.519 5      -808.547          34.000
G12  20462934.844 8 107533454.558 8     -1258.840          51.000    20462933.133 8  83792277.420 8      -980.914          51.000
G24  22246497.867 8 116906096.064 8     -2995.773          51.000    22246498.883 8  91095655.892 8     -2334.369          51.000
G29  21974379.852 8 115476141.920 8      2995.078          49.000    21974380.266 8  89981413.237 8      2333.827          49.000
G32  22177918.078 6 116545736.934 6      -520.273          38.000    22177921.062 6  90814860.078 6      -405.411          38.000
R14  19479789.539 8 103838227.324 8       -18.840          51.000    19479792.492 7  80763089.283 7       -14.653          47.000
R17  21753449.812 8 116407151.081 8      4211.727          48.000    21753455.008 6  90538875.808 6      3275.787          38.000
R24  19723831.859 8 105472269.209 8       930.020          51.000    19723834.547 8  82033991.312 8       723.349          49.000
C23  25547921.633 4 133034731.494 4     -2780.223          27.000
C27  23026922.922 8 119907199.237 8      2684.750          48.000
E02  23348694.367 8 122698204.322 8        18.656          51.000    23348696.242 8  94015543.852 8        14.241          51.000
E08  24686362.281 8 129727661.041 8     -2482.348          48.000    24686366.672 8  99401742.067 8     -1902.092          48.000
E36  24533380.688 8 128923820.884 8      1693.270          51.000    24533383.578 8  98785828.931 8      1297.431          51.000
> 2020 05 16 09 22 30.0000000  0 14        .000000000000
G06  23573561.258 5 123879880.424 5      -829.828          35.000
G12  20470159.391 8 107571419.775 8     -1270.617          51.000    20470157.461 8  83821860.712 8      -990.091          51.000
G24  22263636.094 8 116996157.711 8     -3006.688          50.000    22263637.953 8  91165833.775 8     -2342.873          50.000
G25  20246791.742 5 106397594.173 5       630.125          34.000    20246793.859 5  82907234.406 5       491.013          33.000
G29  21957323.406 8 115386507.662 8      2981.988          50.000    21957323.578 8  89911568.397 8      2323.627          50.000
R14  19479942.961 8 103839045.516 8       -34.250          51.000    19479945.984 7  80763725.624 7       -26.639          47.000
R17  21729876.438 7 116281004.970 7      4199.402          46.000    21729881.906 5  90440762.227 5      3266.205          32.000
R23  20757508.539 4 111038672.923 4     -2404.930          29.000
R24  19718699.984 8 105444826.491 8       901.094          51.000    19718702.875 8  82012646.995 8       700.851          48.000
C27  23011494.891 8 119826862.454 8      2672.484          50.000
E02  23348612.352 8 122697772.878 8        11.543          51.000    23348614.117 8  94015213.252 8         8.839          51.000
E08  24700559.141 8 129802266.166 8     -2489.969          48.000    24700563.477 7  99458907.000 7     -1907.892          46.000
E25  25828796.008 5 135731231.716 5     -1894.512          35.000
E36  24523758.430 8 128873255.596 8      1679.070          51.000    24523761.117 8  98747084.117 8      1286.575          51.000
> 2020 05 16 09 23  0.0000000  0 12        .000000000000
G06  23578348.914 5 123905036.615 5      -840.012          35.000    23578361.789 5  96549479.002 5      -654.561          34.000
G12  20477438.047 8 107609669.351 8     -1272.352          51.000    20477436.070 8  83851665.581 8      -991.443          51.000
G24  22280824.297 8 117086481.674 8     -3007.930          51.000    22280826.578 8  91236216.059 8     -2343.841          51.000
G29  21940330.047 8 115297207.377 8      2978.379          50.000    21940330.461 8  89841983.795 8      2320.818          50.000
G32  22184104.977 5 116578261.303 5      -552.656          33.000
R14  19480170.734 8 103840260.569 8       -39.703          51.000    19480173.719 7  80764670.655 7       -30.880          46.000
R17  21706359.656 7 116155165.297 7      4196.844          43.000    21706359.672 5  90342887.149 5      3264.215          32.000
R24  19713718.008 8 105418185.289 8       882.070          51.000    19713720.664 7  81991926.065 7       686.055          47.000
C27  22996125.352 8 119746828.359 8      2669.969          49.000
E02  23348559.305 8 122697493.564 8        14.172          51.000    23348560.938 8  94014999.233 8        10.901          51.000
E08  24714787.258 8 129877036.214 8     -2487.715          49.000    24714790.523 7  99516198.289 7     -1906.183          45.000
E36  24514205.500 8 128823054.008 8      1674.668          51.000    24514207.859 8  98708617.994 8      1283.187          51.000
> 2020 05 16 09 23 30.0000000  0 12        .000000000000
G06  23583255.148 5 123930818.686 5      -868.316          33.000    23583264.539 5  96569568.841 5      -676.616          33.000
G12  20484783.773 8 107648271.323 8     -1291.117          51.000    20484781.867 8  83881745.031 8     -1006.065          51.000
G24  22298075.062 8 117177134.941 8     -3025.852          50.000    22298077.352 8  91306854.953 8     -2357.806          50.000
G29  21923413.078 8 115208311.409 8      2957.863          49.000    21923414.180 8  89772714.223 8      2304.829          49.000
R14  19480486.516 8 103841943.023 8       -62.363          51.000    19480489.125 7  80765979.242 7       -48.505          47.000
R17  21682911.547 7 116029705.663 7      4177.172          42.000    21682913.977 6  90245307.410 6      3248.908          38.000
R24  19708898.984 8 105392416.030 8       845.930          51.000    19708901.758 7  81971883.324 7       657.945          47.000
C27  22980827.336 8 119667166.458 8      2650.688          49.000
E02  23348548.211 8 122697434.988 8         -.309          51.000    23348549.750 8  94014954.351 8         -.221          51.000
E08  24729059.273 8 129952037.443 8     -2502.324          48.000    24729060.328 7  99573666.723 7     -1917.485          44.000
E25  25850473.586 5 135845157.911 5     -1902.102          35.000
E36  24504735.000 8 128773285.715 8      1653.188          51.000    24504737.484 8  98670483.865 8      1266.704          51.000
> 2020 05 16 09 24  0.0000000  0 13        .000000000000
G02  22960573.641 5 120658643.994 5       494.559          30.000
G12  20492215.203 8 107687323.762 8     -1303.535          51.000    20492213.367 8  83912175.489 8     -1015.742          51.000
G24  22315406.844 8 117268214.867 8     -3037.332          50.000    22315408.688 8  91377826.300 8     -2366.752          50.000
G25  20236333.344 5 106342651.649 5       593.266          34.000    20236336.500 5  82864399.425 5       462.285          34.000
G29  21906592.523 8 115119921.127 8      2943.637          50.000    21906593.898 8  89703838.671 8      2293.743          49.000
R14  19480909.047 8 103844194.537 8       -78.672          51.000    19480911.844 7  80767730.402 7       -61.189          47.000
R17  21659555.266 7 115904731.162 7      4163.559          44.000    21659561.289 7  90148105.008 7      3238.323          42.000
R24  19704262.383 8 105367620.847 8       816.184          51.000    19704265.141 7  81952598.198 7       634.812          47.000
C27  22965619.734 8 119587977.000 8      2637.508          48.000
E02  23348598.055 8 122697696.750 8        -8.172          51.000    23348599.547 8  94015154.907 8        -6.283          51.000
E08  24743393.805 8 130027367.237 8     -2510.617          49.000    24743392.102 7  99631386.900 7     -1923.687          43.000
E25  25861373.797 6 135902441.577 6     -1907.875          36.000
E36  24495365.867 8 128724051.385 8      1638.094          50.000    24495368.750 8  98632758.870 8      1255.208          51.000
> 2020 05 16 09 24 30.0000000  0 14        .000000000000
G02  22957782.312 5 120643949.455 5       482.305          35.000
G06  23593411.969 5 123984216.246 5      -903.621          31.000
G12  20499664.945 8 107726472.388 8     -1308.645          51.000    20499663.148 8  83942680.902 8     -1019.723          51.000
G24  22332751.938 8 117359366.613 8     -3041.668          48.000    22332753.594 8  91448853.652 8     -2370.131          48.000
G25  20232961.836 6 106324932.700 6       586.344          36.000    20232961.828 6  82850592.365 6       456.885          36.000
G29  21889801.945 8 115031684.861 8      2936.574          51.000    21889802.891 8  89635083.139 8      2288.243          51.000
R14  19481371.359 8 103846657.874 8       -87.734          51.000    19481373.930 7  80769646.331 7       -68.238          47.000
R17  21636225.484 7 115779885.903 7      4157.191          46.000    21636232.219 7  90051003.140 7      3233.371          44.000
R23  20812488.578 5 111332779.331 5     -2492.711          34.000
R24  19699740.531 8 105343440.900 8       793.617          51.000    19699743.266 7  81933791.597 7       617.261          46.000
C27  22950436.031 8 119508911.567 8      2631.406          48.000
E02  23348641.672 8 122697925.783 8        -9.156          51.000    23348643.180 8  94015330.388 8        -6.986          51.000
E08  24757723.305 8 130102670.164 8     -2511.648          48.000    24757719.805 7  99689086.504 7     -1924.459          42.000
E36  24486031.055 8 128674998.893 8      1630.016          49.000    24486034.781 8  98595173.222 8      1248.946          51.000
> 2020 05 16 09 25  0.0000000  0 13        .000000000000
G06  23598604.438 5 124011489.377 5      -927.582          31.000    23598604.227 5  96632331.810 5      -722.800          31.000
G12  20507137.836 8 107765743.001 8     -1322.281          51.000    20507136.117 8  83973281.358 8     -1030.349          51.000
G24  22350115.297 8 117450615.106 8     -3054.438          48.000    22350117.883 8  91519956.358 8     -2380.081          48.000
G25  20229622.859 6 106307379.494 6       571.039          37.000    20229621.859 6  82836914.533 6       444.966          38.000
G29  21873046.359 8 114943630.852 8      2920.805          51.000    21873046.477 8  89566469.638 8      2275.952          51.000
R14  19481878.328 8 103849360.821 8      -105.555          51.000    19481880.844 7  80771748.621 7       -82.101          47.000
R17  21612926.078 8 115655200.979 8      4141.848          48.000    21612932.375 7  89954026.011 7      3221.440          44.000
R23  20826517.367 5 111407758.585 5     -2518.516          30.000
R24  19695339.242 8 105319903.952 8       762.359          51.000    19695341.742 7  81915485.115 7       592.946          46.000
C27  22935281.633 8 119429998.091 8      2616.789          48.000
E02  23348684.195 8 122698148.824 8       -18.570          51.000    23348685.617 8  94015501.292 8       -14.226          51.000
E08  24772052.430 8 130177970.655 8     -2521.176          48.000    24772048.586 7  99746784.255 7     -1931.870          43.000
E36  24476736.109 8 128626155.969 8      1613.242          48.000    24476740.492 8  98557748.093 8      1236.180          51.000
> 2020 05 16 09 25 30.0000000  0 14        .000000000000
G02  22952441.930 5 120615900.064 5       455.121          33.000
G12  20514697.594 8 107805470.397 8     -1322.602          51.000    20514696.000 8  84004237.754 8     -1030.599          51.000
G24  22367560.727 7 117542293.495 7     -3053.969          47.000    22367564.055 8  91591394.061 8     -2379.716          48.000
G25  20226376.773 6 106290327.350 6       569.172          37.000    20226378.586 6  82823627.165 6       443.511          36.000
G29  21856389.555 8 114856096.023 8      2918.383          51.000    21856388.805 8  89498260.702 8      2274.065          51.000
G32  22201449.531 6 116669391.092 6      -647.891          36.000
R14  19482494.242 8 103852644.593 8      -109.898          51.000    19482496.875 8  80774302.650 8       -85.477          48.000
R17  21589721.391 8 115531021.495 8      4140.141          48.000    21589725.914 7  89857442.025 7      3220.109          44.000
R23  20840694.797 5 111483646.969 5     -2531.664          31.000
R24  19691122.055 8 105297351.951 8       744.656          51.000    19691124.031 7  81897944.698 7       579.177          46.000
C27  22920220.531 8 119351570.561 8      2615.250          48.000
E02  23348789.391 8 122698701.401 8       -14.812          51.000    23348790.773 8  94015924.699 8       -11.416          51.000
E08  24786444.570 8 130253601.926 8     -2517.402          49.000    24786441.633 7  99804735.463 7     -1928.886          44.000
E36  24467544.906 8 128577859.080 8      1609.848          49.000    24467549.797 8  98520741.386 8      1233.493          51.000
> 2020 05 16 09 26  0.0000000  0 13        .000000000000
G12  20522363.453 8 107845755.304 8     -1338.492          51.000    20522361.938 8  84035628.583 8     -1042.981          51.000
G24  22385107.477 7 117634503.033 7     -3068.906          47.000    22385111.523 7  91663245.615 7     -2391.356          47.000
G25  20223246.266 6 106273878.445 6       552.113          39.000    20223250.070 6  82810809.876 6       430.218          39.000
G29  21839851.172 8 114769184.392 8      2900.281          51.000    21839849.602 8  89430537.389 8      2259.959          51.000
G32  22205282.109 5 116689541.962 5      -673.316          33.000    22205289.945 5  90926945.822 5      -524.662          33.000
R14  19483238.789 8 103856613.671 8      -130.016          51.000    19483241.266 8  80777389.708 8      -101.123          48.000
R17  21566630.883 8 115407455.596 8      4122.457          48.000    21566634.195 7  89761335.257 7      3206.359          46.000
R24  19687108.641 8 105275889.284 8       711.078          51.000    19687110.320 7  81881251.547 7       553.061          46.000
C27  22905272.562 8 119273731.883 8      2598.230          48.000
E02  23348976.734 8 122699685.855 8       -26.320          51.000    23348978.188 8  94016679.013 8       -20.138          51.000
E08  24800918.641 8 130329664.004 8     -2528.887          49.000    24800917.391 7  99863016.775 7     -1937.844          44.000
E25  25905030.953 6 136131861.977 6     -1916.816          38.000
E36  24458477.828 8 128530211.491 8      1591.203          51.000    24458482.602 8  98484232.204 8      1219.183          51.000
> 2020 05 16 09 26 30.0000000  0 12        .000000000000
G12  20530042.211 8 107886107.631 8     -1361.094          51.000    20530040.727 8  84067071.938 8     -1060.593          51.000
G24  22402662.000 8 117726752.158 8     -3090.578          48.000    22402665.875 8  91735127.986 8     -2408.243          48.000
G25  20220137.820 6 106257543.596 6       527.566          37.000    20220141.258 6  82798081.362 6       411.085          37.000
G29  21823338.211 8 114682408.438 8      2875.320          51.000    21823335.508 8  89362919.789 8      2240.509          51.000
R14  19484019.055 8 103860772.827 8      -157.027          51.000    19484021.422 8  80780624.605 8      -122.132          48.000
R17  21543562.094 8 115284008.714 8      4097.660          48.000    21543565.133 7  89665321.028 7      3187.069          46.000
R24  19683205.680 8 105255018.780 8       670.582          51.000    19683207.266 7  81865018.964 7       521.567          46.000
C23  25693215.438 5 133791315.287 5     -2831.395          30.000
C27  22890344.672 8 119195998.816 8      2574.484          49.000
E02  23349153.195 8 122700613.146 8       -44.945          51.000    23349154.680 8  94017389.535 8       -34.484          51.000
E08  24815381.234 8 130405665.489 8     -2547.301          48.000    24815381.773 7  99921251.652 7     -1951.831          45.000
E36  24449442.031 8 128482725.141 8      1565.176          51.000    24449446.195 8  98447846.567 8      1199.335          51.000
> 2020 05 16 09 27  0.0000000  0 14        .000000000000
G12  20537775.672 8 107926747.248 8     -1352.000          51.000    20537774.281 8  84098739.160 8     -1053.506          51.000
G24  22420265.984 7 117819260.352 7     -3080.395          47.000    22420268.586 7  91807212.248 7     -2400.307          47.000
G25  20217092.922 5 106241543.098 5       535.168          35.000    20217095.328 5  82785613.436 5       417.014          34.000
G29  21806892.898 8 114595990.316 8      2882.031          49.000    21806889.539 8  89295581.025 8      2245.742          49.000
G32  22213213.133 6 116731195.883 6      -705.059          36.000    22213216.406 5  90959391.864 5      -549.393          35.000
R14  19484877.289 8 103865346.616 8      -151.762          51.000    19484879.328 8  80784182.003 8      -118.037          48.000
R17  21520557.664 8 115160909.556 8      4105.062          48.000    21520561.055 7  89569577.241 7      3192.826          46.000
R23  20883992.914 4 111715208.857 4     -2596.512          28.000
R24  19679455.508 8 105234965.377 8       662.426          51.000    19679457.258 7  81849421.888 7       515.220          46.000
C23  25709486.500 5 133876008.633 5     -2817.520          35.000
C27  22875479.531 8 119118591.545 8      2582.168          50.000
E02  23349360.742 8 122701703.989 8       -31.555          51.000    23349362.180 8  94018225.372 8       -24.145          51.000
E08  24829873.828 7 130481824.850 7     -2533.668          47.000    24829876.070 7  99979607.499 7     -1941.427          46.000
E36  24440478.914 8 128435621.613 8      1571.230          51.000    24440482.375 8  98411754.304 8      1204.005          51.000
> 2020 05 16 09 27 30.0000000  0 15        .000000000000
G06  23626383.070 5 124157442.642 5     -1010.258          32.000    23626388.305 5  96746099.474 5      -787.220          32.000
G12  20545550.922 8 107967606.675 8     -1360.680          51.000    20545549.727 8  84130577.675 8     -1060.270          51.000
G24  22437905.914 7 117911959.129 7     -3088.277          46.000    22437907.023 7  91879445.039 7     -2406.450          45.000
G25  20214098.664 6 106225810.531 6       524.422          37.000    20214101.492 6  82773354.366 6       408.643          38.000
G29  21790503.281 8 114509865.273 8      2870.832          49.000    21790500.359 8  89228470.653 8      2237.015          49.000
G32  22217325.578 5 116752788.831 5      -722.602          35.000    22217320.867 5  90976217.432 5      -563.063          34.000
R14  19485800.828 8 103870268.503 8      -164.840          51.000    19485802.781 8  80788010.156 8      -128.206          49.000
R17  21497605.945 7 115038094.206 7      4094.262          47.000    21497609.586 7  89474054.192 7      3184.426          44.000
R24  19675845.562 8 105215661.964 8       635.902          51.000    19675847.297 7  81834408.127 7       494.591          47.000
C23  25725760.758 5 133960757.747 5     -2821.043          30.000
C27  22860664.852 8 119041445.861 8      2572.043          51.000
E02  23349586.852 8 122702892.186 8       -36.277          51.000    23349588.188 8  94019135.809 8       -27.779          51.000
E08  24844383.281 7 130558073.557 7     -2538.184          45.000    24844386.961 7 100038031.766 7     -1944.827          47.000
E25                                                                  25937967.250 5 104441442.274 5     -1471.172          33.000
E36  24431576.148 8 128388835.673 8      1559.195          51.000    24431578.633 8  98375905.380 8      1194.642          51.000
> 2020 05 16 09 28  0.0000000  0 13        .000000000000
G02  22940926.016 5 120555389.665 5       356.332          33.000
G12  20553425.016 8 108008985.479 8     -1386.301          51.000    20553423.992 8  84162820.889 8     -1080.234          51.000
G24  22455638.406 7 118005147.407 7     -3112.801          44.000    22455639.266 7  91952059.294 7     -2425.559          44.000
G25  20211213.180 6 106210646.615 6       497.699          40.000    20211216.758 6  82761538.326 6       387.818          40.000
G29  21774227.344 8 114424335.576 8      2842.648          50.000    21774225.695 8  89161824.174 8      2215.051          50.000
R14  19486846.930 8 103875844.457 8      -195.078          51.000    19486849.375 8  80792346.994 8      -151.727          49.000
R17  21474765.727 8 114915872.637 8      4065.777          49.000    21474767.922 7  89378993.021 7      3162.271          42.000
R24  19672432.961 8 105197414.942 8       592.246          51.000    19672434.914 7  81820216.016 7       460.633          47.000
C23  25742103.297 5 134045859.635 5     -2840.957          33.000
C27  22845958.023 8 118964861.310 8      2545.129          51.000
E02  23349888.789 8 122704478.612 8       -57.914          51.000    23349890.016 8  94020351.379 8       -44.385          51.000
E08  24858966.148 7 130634710.097 7     -2559.477          43.000    24858971.039 8 100096753.212 8     -1961.038          48.000
E36  24422791.203 8 128342669.065 8      1530.230          51.000    24422793.266 8  98340531.004 8      1172.445          51.000
> 2020 05 16 09 28 30.0000000  0 14        .000000000000
G12  20561339.258 8 108050575.020 8     -1388.539          51.000    20561338.328 8  84195228.326 8     -1081.978          51.000
G24  22473405.180 7 118098515.534 7     -3113.699          43.000    22473406.312 7  92024813.700 7     -2426.262          43.000
G25  20208377.492 6 106195743.245 6       493.766          39.000    20208380.703 6  82749925.268 6       384.752          39.000
G29  21758006.656 8 114339095.049 8      2837.863          51.000    21758006.250 8  89095403.002 8      2211.325          51.000
R14  19487957.055 8 103881763.198 8      -201.770          51.000    19487959.758 8  80796950.449 8      -156.932          49.000
R17  21451979.633 8 114793935.061 8      4061.059          51.000    21451980.188 7  89284152.749 7      3158.604          43.000
R23  20928356.172 4 111952592.504 4     -2667.414          29.000
R24  19669159.602 8 105179911.427 8       572.402          50.000    19669161.406 8  81806602.147 8       445.202          48.000
C23  25758456.039 5 134131008.239 5     -2837.465          34.000
C27  22831300.531 8 118888534.292 8      2541.199          51.000
C28  22347561.094 8 116369611.680 8      -562.086          51.000
E02  23350207.945 8 122706155.425 8       -56.141          51.000    23350209.078 8  94021636.210 8       -43.047          51.000
E08  24873563.531 7 130711424.293 7     -2557.359          42.000    24873568.977 7 100155534.180 7     -1959.394          47.000
E36  24414065.375 8 128296814.852 8      1524.508          51.000    24414067.758 8  98305396.003 8      1168.126          51.000
> 2020 05 16 09 29  0.0000000  0 14        .000000000000
G12  20569297.961 8 108092397.977 8     -1393.602          51.000    20569297.102 8  84227817.648 8     -1085.923          51.000
G24  22491211.047 7 118192085.430 7     -3118.023          46.000    22491212.312 7  92097725.316 7     -2429.629          46.000
G25  20205595.734 6 106181124.049 6       486.875          37.000    20205597.586 6  82738533.627 6       379.383          37.000
G29  21741845.938 8 114254168.749 8      2829.996          51.000    21741846.211 8  89029226.673 8      2205.192          51.000
G32  22230385.602 5 116821485.505 5      -783.645          33.000
R05  22784867.250 5 121798197.605 5     -2312.738          31.000
R14  19489136.273 8 103888049.634 8      -211.270          51.000    19489138.461 8  80801839.895 8      -164.321          49.000
R17  21429251.672 8 114672309.381 8      4053.391          51.000    21429252.500 7  89189555.071 7      3152.640          44.000
R24  19666029.812 8 105163175.540 8       549.477          50.000    19666031.984 8  81793585.366 8       427.371          48.000
C27  22816697.133 8 118812489.840 8      2534.414          51.000
C28  22350849.906 8 116386738.155 8      -573.785          51.000
E02  23350548.789 8 122707946.566 8       -57.262          51.000    23350549.891 8  94023008.631 8       -43.897          51.000
E08  24888180.094 7 130788237.644 7     -2557.789          42.000    24888184.641 7 100214391.130 7     -1959.924          46.000
E36  24405403.555 8 128251297.826 8      1515.926          51.000    24405406.531 8  98270519.344 8      1161.589          51.000
> 2020 05 16 09 29 30.0000000  0 14        .000000000000
G12  20577280.141 8 108134344.204 8     -1430.375          51.000    20577279.312 8  84260503.022 8     -1114.578          51.000
G24  22509034.570 7 118285745.917 7     -3153.637          47.000    22509035.453 7  92170707.483 7     -2457.382          47.000
G25  20202847.000 6 106166679.583 6       448.273          39.000    20202848.633 6  82727278.210 6       349.304          39.000
G29  21725724.586 8 114169449.346 8      2790.371          51.000    21725725.297 8  88963211.545 8      2174.315          51.000
G32  22234910.961 6 116845260.779 6      -829.523          37.000    22234921.305 6  91048275.823 6      -646.388          36.000
R05  22797896.188 5 121867838.059 5     -2358.406          32.000
R14  19490364.086 8 103894593.657 8      -252.895          51.000    19490366.008 8  80806929.691 8      -196.696          49.000
R17  21406561.422 8 114550888.342 8      4013.227          51.000    21406562.562 7  89095116.573 7      3121.401          44.000
R24  19663022.836 8 105147096.799 8       494.344          51.000    19663025.062 7  81781079.664 7       384.490          47.000
C23  25791175.188 5 134301417.559 5     -2868.273          33.000
C27  22802127.633 8 118736621.267 8      2496.215          51.000
E02  23350890.594 8 122709742.949 8       -90.023          51.000    23350891.680 8  94024385.076 8       -68.952          51.000
E08  24902794.969 7 130865038.866 7     -2589.875          43.000    24902796.945 7 100273238.786 7     -1984.453          44.000
E36  24396785.234 8 128206009.735 8      1475.695          51.000    24396788.977 8  98235818.092 8      1130.787          51.000
> 2020 05 16 09 30  0.0000000  0 15        .000000000000
G02  22933435.289 5 120516014.954 5       297.367          33.000
G12  20585404.625 8 108177038.175 8     -1416.793          51.000    20585403.758 8  84293771.061 8     -1103.995          51.000
G24  22526994.203 8 118380121.751 8     -3138.926          48.000    22526994.750 8  92244247.028 8     -2445.919          48.000
G25  20200251.211 6 106153035.376 6       460.453          40.000    20200252.445 6  82716646.366 6       358.795          40.000
G29  21709761.719 8 114085563.695 8      2801.082          51.000    21709762.586 8  88897846.103 8      2182.661          51.000
G32  22239626.742 5 116870026.804 5      -824.609          33.000
R05  22811113.477 5 121938474.193 5     -2353.590          30.000
R14  19491759.258 8 103902030.726 8      -243.707          51.000    19491761.430 8  80812714.068 8      -189.550          50.000
R17  21384028.453 8 114430312.608 8      4024.227          50.000    21384029.789 7  89001335.519 7      3129.957          45.000
R24  19660257.938 8 105132311.686 8       490.516          50.000    19660260.234 8  81769580.138 8       381.512          48.000
C23  25807645.555 5 134387176.012 5     -2849.879          34.000
C27  22787711.203 8 118661549.940 8      2507.750          50.000
E02  23351352.453 8 122712170.252 8       -72.602          51.000    23351353.594 8  94026244.958 8       -55.666          51.000
E08  24917526.859 7 130942451.196 7     -2571.734          45.000    24917525.211 7 100332554.706 7     -1970.574          43.000
E36  24388329.531 8 128161577.076 8      1485.586          51.000    24388333.992 8  98201772.302 8      1138.309          51.000
> 2020 05 16 09 30 30.0000000  0 13        .000000000000
G02  22931789.500 5 120507371.096 5       277.258          30.000
G12  20593529.297 8 108219733.047 8     -1429.676          51.000    20593528.344 8  84327039.785 8     -1114.033          51.000
G24  22544947.305 8 118474463.607 8     -3150.684          49.000    22544947.805 8  92317760.092 8     -2455.081          49.000
G25  20197665.352 6 106139445.172 6       445.680          40.000    20197666.406 6  82706056.574 6       347.280          41.000
G29  21693815.578 8 114001767.130 8      2785.125          50.000    21693816.289 8  88832550.072 8      2170.227          51.000
R14  19493179.859 8 103909604.894 8      -261.391          51.000    19493182.641 8  80818605.063 8      -203.304          49.000
R17  21361511.672 8 114309826.054 8      4008.059          49.000    21361513.641 7  88907623.796 7      3117.382          46.000
R24  19657592.930 8 105118061.091 8       459.398          50.000    19657595.312 7  81758496.352 7       357.313          47.000
C23  25824084.391 5 134472773.948 5     -2857.141          31.000
C27  22773306.000 8 118586538.018 8      2492.918          48.000
E02  23351792.445 8 122714482.480 8       -81.633          51.000    23351793.664 8  94028016.652 8       -62.523          51.000
E08  24932232.977 7 131019726.352 7     -2580.055          46.000    24932228.305 7 100391765.506 7     -1976.805          42.000
E36  24379894.906 8 128117254.690 8      1469.035          51.000    24379899.977 8  98167811.009 8      1125.675          51.000
> 2020 05 16 09 31  0.0000000  0 14        .000000000000
G02  22930248.383 5 120499256.916 5       263.129          35.000
G12  20601705.000 8 108262696.146 8     -1436.145          51.000    20601703.852 8  84360517.512 8     -1119.074          51.000
G24  22562945.062 8 118569039.291 8     -3155.875          50.000    22562945.922 8  92391455.403 8     -2459.123          50.000
G25  20195139.938 6 106126177.339 6       437.434          39.000    20195141.359 6  82695718.037 6       340.857          39.000
G29  21677937.836 8 113918330.014 8      2775.730          51.000    21677937.766 8  88767534.136 8      2162.907          51.000
G32  22249264.031 5 116920671.010 5      -862.434          34.000    22249268.938 5  91107035.638 5      -672.026          35.000
R14  19494677.492 8 103917589.236 8      -272.496          51.000    19494680.258 8  80824815.097 8      -211.941          49.000
R17  21339063.984 8 114189705.948 8      3998.301          50.000    21339066.742 7  88814197.063 7      3109.789          47.000
R24  19655078.867 8 105104618.460 8       435.148          51.000    19655081.469 7  81748040.989 7       338.446          46.000
C23  25840543.906 5 134558476.756 5     -2857.996          31.000
C27  22758962.656 7 118511853.159 7      2484.500          47.000
E02  23352261.664 8 122716948.382 8       -84.297          51.000    23352262.969 8  94029906.113 8       -64.576          51.000
E08  24946963.688 7 131097130.676 7     -2581.801          46.000    24946957.844 7 100451075.270 7     -1978.266          43.000
E36  24371532.828 8 128073312.153 8      1458.922          51.000    24371538.219 8  98134140.755 8      1117.863          51.000
> 2020 05 16 09 31 30.0000000  0 13        .000000000000
G02  22928806.977 5 120491701.083 5       242.586          33.000
G12  20609947.094 8 108306008.305 8     -1449.207          51.000    20609945.711 8  84394267.237 8     -1129.252          51.000
G24  22581002.258 8 118663927.791 8     -3167.828          49.000    22581003.750 8  92465394.469 8     -2468.438          49.000
G25  20192691.672 6 106113313.510 6       422.258          39.000    20192693.336 6  82685694.268 6       329.029          40.000
G29  21662144.273 8 113835335.571 8      2759.438          50.000    21662142.125 8  88702863.182 8      2150.214          50.000
R14  19496268.047 8 103926067.509 8      -290.512          51.000    19496270.562 8  80831409.319 8      -225.954          49.000
R17  21316701.945 8 114070039.199 8      3981.711          51.000    21316704.867 8  88721122.948 8      3096.889          48.000
R24  19652731.672 8 105092066.964 8       403.941          50.000    19652734.219 7  81738278.733 7       314.177          46.000
C23  25857037.734 5 134644364.452 5     -2865.750          34.000
C27  22744698.156 8 118437577.719 8      2469.402          50.000
E02  23352775.664 8 122719649.789 8       -93.641          51.000    23352777.156 8  94031976.020 8       -71.766          51.000
E08  24961733.906 7 131174743.668 7     -2590.320          46.000    24961728.938 7 100510544.900 7     -1984.788          45.000
E36  24363259.016 8 128029832.072 8      1441.961          51.000    24363264.430 8  98100824.860 8      1104.837          51.000
> 2020 05 16 09 32  0.0000000  0 12        .000000000000
G12  20618242.469 8 108349600.818 8     -1456.488          51.000    20618240.930 8  84428235.419 8     -1134.926          51.000
G24  22599105.578 8 118759059.826 8     -3173.738          49.000    22599107.375 8  92539523.318 8     -2473.043          49.000
G25  20190308.203 7 106100785.742 7       413.277          44.000    20190309.266 7  82675932.379 7       322.034          44.000
G29  21646422.469 8 113752717.271 8      2749.078          51.000    21646418.906 8  88638485.353 8      2142.142          50.000
R14  19497938.508 8 103934971.743 8      -302.559          51.000    19497941.016 8  80838334.835 8      -235.323          49.000
R17  21294412.508 8 113950760.703 8      3970.781          51.000    21294415.430 8  88628350.831 8      3088.385          48.000
R24  19650538.398 8 105080337.694 8       378.676          50.000    19650540.875 7  81729155.984 7       294.526          46.000
C23  25873553.781 5 134730369.004 5     -2867.629          34.000
C27  22730500.680 8 118363645.996 8      2459.914          51.000
E02  23353321.617 8 122722519.069 8       -97.152          51.000    23353323.320 8  94034174.555 8       -74.453          51.000
E08  24976530.320 7 131252495.356 7     -2592.785          45.000    24976527.609 8 100570120.802 8     -1986.575          48.000
E36  24355060.633 8 127986747.593 8      1430.801          51.000    24355065.516 8  98067812.098 8      1096.361          51.000
> 2020 05 16 09 32 30.0000000  0 13        .000000000000
G02  22926217.812 5 120478087.136 5       209.992          32.000
G12  20626589.945 8 108393467.190 8     -1466.910          50.000    20626588.289 8  84462417.002 8     -1143.047          50.000
G24  22617253.406 7 118854428.104 7     -3182.969          47.000    22617255.539 7  92613836.272 7     -2480.235          47.000
G25  20187987.344 7 106088588.602 7       400.938          43.000    20187988.391 7  82666428.098 7       312.416          43.000
G29  21630771.773 8 113670471.201 8      2735.059          51.000    21630768.844 8  88574397.565 8      2131.218          51.000
R14  19499688.078 8 103944297.456 8      -318.062          51.000    19499690.672 8  80845588.151 8      -247.382          49.000
R17  21272194.727 8 113831868.588 8      3956.391          49.000    21272197.695 7  88535879.234 7      3077.196          47.000
R24  19648497.789 8 105069425.315 8       349.988          50.000    19648500.383 7  81720668.614 7       272.213          46.000
C23  25890090.523 5 134816484.422 5     -2872.238          31.000
C27  22716368.828 8 118290054.151 8      2447.203          51.000
E02  23353898.484 8 122725551.034 8      -103.961          51.000    23353900.367 8  94036497.746 8       -79.673          51.000
E08  24991351.805 7 131330378.115 7     -2598.332          44.000    24991351.359 8 100629797.136 8     -1990.963          50.000
E36  24346936.781 8 127944054.312 8      1416.371          51.000    24346940.750 8  98035099.082 8      1085.268          51.000
> 2020 05 16 09 33  0.0000000  0 14        .000000000000
G02  22925065.922 5 120472030.228 5       192.969          31.000
G12  20634991.211 8 108437616.093 8     -1476.277          50.000    20634989.469 8  84496818.734 8     -1150.346          50.000
G24  22635447.078 7 118950040.421 7     -3191.164          46.000    22635450.148 7  92688339.355 7     -2486.624          46.000
G25  20185730.625 7 106076731.330 7       389.750          42.000    20185732.570 6  82657188.687 6       303.704          41.000
G29  21615194.094 8 113588608.682 8      2722.363          51.000    21615192.578 8  88510608.627 8      2121.322          51.000
R05  22892305.648 5 122372492.935 5     -2465.941          30.000
R14  19501518.531 8 103954055.014 8      -332.473          51.000    19501521.086 8  80853177.369 8      -258.587          49.000
R17  21250050.875 8 113713376.233 8      3943.102          48.000    21250053.953 7  88443718.544 7      3066.860          46.000
R24  19646611.867 8 105059339.276 8       322.512          50.000    19646614.000 7  81712823.925 7       250.842          46.000
C23  25906650.188 5 134902719.184 5     -2876.215          32.000
C27  22702304.125 8 118216813.027 8      2435.516          51.000
E02  23354508.180 8 122728755.305 8      -109.711          51.000    23354510.148 8  94038952.964 8       -84.112          51.000
E08  25006199.922 6 131408399.259 6     -2603.188          40.000    25006200.555 8 100689579.517 8     -1994.533          51.000
E36  24338889.258 8 127901762.582 8      1402.980          51.000    24338892.422 8  98002693.760 8      1074.972          51.000
> 2020 05 16 09 33 30.0000000  0 14        .000000000000
G06  23704047.242 5 124565579.596 5     -1254.262          32.000    23704052.867 5  97064129.803 5      -977.338          34.000
G12  20643425.906 8 108481940.539 8     -1494.305          49.000    20643424.188 8  84531357.255 8     -1164.393          49.000
G24  22653666.586 7 119045789.195 7     -3207.699          46.000    22653669.930 7  92762948.766 7     -2499.506          46.000
G25  20183518.375 7 106065107.771 7       369.738          43.000    20183520.930 7  82648131.377 7       288.108          43.000
G29  21599669.180 8 113507024.939 8      2701.074          50.000    21599669.172 8  88447036.887 8      2104.733          50.000
R05  22906183.352 5 122446679.634 5     -2491.910          32.000
R14  19503409.961 8 103964137.454 8      -355.555          51.000    19503412.766 8  80861019.256 8      -276.543          49.000
R17  21227962.461 7 113595179.345 7      3920.793          47.000    21227965.516 7  88351787.664 7      3049.509          45.000
R24  19644860.078 8 105049971.542 8       286.141          51.000    19644861.859 7  81705537.926 7       222.554          47.000
C23  25923211.523 5 134988967.362 5     -2888.707          31.000
C27  22688286.602 8 118143818.881 8      2415.277          51.000
E02  23355130.562 8 122732025.910 8      -123.980          51.000    23355132.578 8  94041459.003 8       -94.974          51.000
E08  25021052.305 6 131486450.341 6     -2616.250          37.000    25021054.023 8 100749384.853 8     -2004.485          50.000
E36  24330898.078 8 127859767.169 8      1381.074          51.000    24330900.797 8  97970515.490 8      1058.277          51.000
> 2020 05 16 09 34  0.0000000  0 15        .000000000000
G06  23711230.500 6 124603323.313 6     -1264.258          36.000    23711235.461 6  97093540.368 6      -985.142          36.000
G12  20651955.227 8 108526762.489 8     -1495.938          49.000    20651953.664 8  84566283.436 8     -1165.663          49.000
G24  22671973.414 7 119141995.390 7     -3207.957          46.000    22671975.008 7  92837914.558 7     -2499.713          46.000
G25  20181412.336 7 106054040.872 7       366.137          44.000    20181414.859 7  82639507.823 7       285.301          44.000
G29  21584258.469 8 113426044.501 8      2695.844          49.000    21584260.078 8  88383935.219 8      2100.654          49.000
G32  22280782.320 5 117086291.038 5      -976.812          31.000
R05  22920193.031 5 122521558.180 5     -2501.008          30.000
R14  19505424.031 8 103974873.342 8      -362.133          51.000    19505426.547 8  80869369.386 8      -281.656          48.000
R17  21205991.906 7 113477610.548 7      3915.207          47.000    21205994.852 7  88260345.306 7      3045.161          45.000
R24  19643304.070 8 105041650.624 8       266.602          50.000    19643305.938 8  81699066.107 8       207.357          48.000
C23  25939839.281 4 135075548.135 4     -2884.770          29.000
C27  22674378.281 8 118071393.394 8      2411.227          51.000
E02  23355827.078 8 122735686.176 8      -121.973          51.000    23355829.109 8  94044263.620 8       -93.418          51.000
E08  25035965.477 6 131564852.227 6     -2612.598          36.000    25035972.844 8 100809459.096 8     -2001.947          50.000
E36  24323024.820 8 127818392.132 8      1375.430          51.000    24323027.508 8  97938812.571 8      1053.877          51.000
> 2020 05 16 09 34 30.0000000  0 14        .000000000000
G06  23718510.789 6 124641580.928 6     -1283.879          36.000    23718516.039 6  97123351.434 6     -1000.425          36.000
G12  20660530.750 8 108571827.159 8     -1506.453          49.000    20660529.375 8  84601398.763 8     -1173.860          49.000
G24  22690319.344 7 119238403.821 7     -3217.160          47.000    22690320.281 7  92913037.928 7     -2506.881          47.000
G25  20179364.102 7 106043276.771 7       353.621          44.000    20179366.125 7  82631120.216 7       275.546          43.000
G29  21568914.594 8 113345415.035 8      2681.418          49.000    21568916.641 8  88321107.019 8      2089.414          49.000
G32  22286407.789 6 117115889.581 6      -995.621          37.000    22286422.344 5  91259134.403 5      -775.806          34.000
R14  19507512.578 8 103986006.251 8      -377.938          50.000    19507514.672 8  80878028.325 8      -293.951          48.000
R17  21184091.219 7 113360415.448 7      3899.941          47.000    21184094.266 7  88169193.589 7      3033.288          45.000
R24  19641895.289 8 105034118.256 8       237.734          50.000    19641897.141 8  81693207.608 8       184.905          48.000
C23  25956481.836 4 135162212.512 4     -2890.906          28.000
C27  22660531.039 8 117999286.580 8      2397.918          51.000
E02  23356549.539 8 122739482.511 8      -129.016          51.000    23356551.609 8  94047172.504 8       -98.841          51.000
E08  25050901.500 6 131643349.191 6     -2618.199          40.000    25050908.797 8 100869606.133 8     -2006.174          49.000
E36  24315220.992 8 127777384.612 8      1360.547          51.000    24315223.945 8  97907391.248 8      1042.512          51.000
> 2020 05 16 09 35  0.0000000  0 13        .000000000000
G06  23725883.648 5 124680327.639 5     -1306.219          33.000    23725888.703 5  97153543.725 5     -1017.830          32.000
G12  20669147.875 8 108617110.582 8     -1518.988          49.000    20669146.648 8  84636684.557 8     -1183.627          49.000
G24  22708699.195 7 119334988.882 7     -3228.297          46.000    22708700.953 7  92988299.000 7     -2515.556          46.000
G25  20177368.961 7 106032791.962 7       338.922          42.000    20177370.695 7  82622950.237 7       264.095          43.000
G29  21553634.305 8 113265114.926 8      2665.266          51.000    21553634.633 8  88258535.566 8      2076.833          51.000
R14  19509671.289 8 103997513.096 8      -395.754          50.000    19509673.406 8  80886978.091 8      -307.809          48.000
R17  21162255.953 7 113243573.612 7      3882.809          45.000    21162259.695 7  88078316.637 7      3019.962          46.000
R24  19640629.812 8 105027350.395 8       206.820          50.000    19640631.453 8  81687943.709 8       160.863          48.000
C23  25973136.664 4 135248936.094 4     -2897.465          28.000
C27  22646740.453 8 117927476.672 8      2382.934          50.000
E02  23357293.469 8 122743391.710 8      -137.977          51.000    23357295.711 8  94050167.868 8      -105.701          51.000
E08  25065852.062 7 131721915.622 7     -2625.805          43.000    25065857.836 8 100929806.372 8     -2011.986          48.000
E36  24307482.641 8 127736722.084 8      1343.883          51.000    24307486.164 8  97876234.250 8      1029.725          51.000
> 2020 05 16 09 35 30.0000000  0 13        .000000000000
G12  20677832.375 8 108662747.737 8     -1522.914          49.000    20677831.172 8  84672245.995 8     -1186.686          49.000
G24  22727138.164 7 119431884.569 7     -3230.883          47.000    22727141.180 7  93063802.119 7     -2517.571          47.000
G25  20175452.664 7 106022722.428 7       332.652          42.000    20175454.477 7  82615103.859 7       259.210          42.000
G29  21538443.289 8 113185281.744 8      2657.480          51.000    21538441.633 8  88196327.963 8      2070.767          51.000
R05  22962763.734 5 122749110.397 5     -2551.855          31.000
R14  19511926.203 8 104009532.833 8      -404.996          50.000    19511928.562 8  80896326.777 8      -314.997          48.000
R17  21140512.000 7 113127227.572 7      3874.094          43.000    21140517.773 7  87987825.271 7      3013.184          45.000
R24  19639532.828 8 105021485.176 8       184.676          51.000    19639534.664 8  81683381.873 8       143.637          48.000
C23  25989826.961 4 135335847.330 4     -2896.375          29.000
C27  22633032.758 8 117856099.958 8      2376.051          49.000
E02  23358084.789 8 122747550.073 8      -138.539          51.000    23358087.258 8  94053354.144 8      -106.147          51.000
E08  25080841.828 7 131800685.376 7     -2624.836          44.000    25080846.055 7 100990162.405 7     -2011.235          47.000
E36  24299835.922 8 127696541.523 8      1335.562          50.000    24299840.336 8  97845446.550 8      1023.356          51.000
> 2020 05 16 09 36  0.0000000  0 14        .000000000000
G02  22920230.633 5 120446636.911 5        96.645          34.000
G12  20686553.070 8 108708575.075 8     -1526.918          49.000    20686551.742 8  84707955.607 8     -1189.806          49.000
G24  22745604.883 7 119528926.474 7     -3233.480          47.000    22745608.672 7  93139419.179 7     -2519.595          47.000
G25  20173584.461 7 106012905.473 7       326.867          43.000    20173586.391 7  82607454.273 7       254.702          43.000
G29  21523310.242 8 113105753.618 8      2649.531          51.000    21523308.398 8  88134358.043 8      2064.570          51.000
G32  22303915.602 5 117207860.020 5     -1042.605          35.000
R14  19514246.609 8 104021901.383 8      -414.367          50.000    19514248.812 8  80905946.755 8      -322.286          48.000
R17  21118830.984 7 113011215.383 7      3865.277          44.000    21118837.906 7  87897593.585 7      3006.327          44.000
R24  19638573.930 8 105016357.063 8       162.406          50.000    19638575.789 8  81679393.335 8       126.316          48.000
C23  26006522.656 4 135422784.063 4     -2894.156          29.000
C27  22619377.867 8 117784996.684 8      2369.219          51.000
E02  23358892.656 8 122751795.197 8      -139.250          51.000    23358895.234 8  94056606.896 8      -106.668          51.000
E08  25095839.461 7 131879493.624 7     -2623.734          44.000    25095842.109 7 101050547.940 7     -2010.499          47.000
E36  24292250.156 8 127656681.171 8      1327.051          51.000    24292255.258 8  97814904.213 8      1016.837          51.000
> 2020 05 16 09 36 30.0000000  0 13        .000000000000
G06  23748634.844 6 124799905.361 6     -1348.109          36.000
G12  20695322.312 8 108754657.438 8     -1534.699          50.000    20695320.781 8  84743863.934 8     -1195.870          50.000
G24  22764111.406 7 119626179.172 7     -3239.723          46.000    22764115.734 7  93215200.499 7     -2524.462          46.000
G25  20171776.922 7 106003406.714 7       316.836          44.000    20171778.797 7  82600052.621 7       246.885          44.000
G29  21508247.445 8 113026598.140 8      2637.762          51.000    21508246.695 8  88072678.444 8      2055.396          51.000
G32  22309945.945 5 117239539.188 5     -1059.121          35.000    22309944.742 5  91355503.002 5      -825.304          33.000
R14  19516645.172 8 104034686.066 8      -427.527          51.000    19516647.086 8  80915890.393 8      -332.521          48.000
R17  21097227.320 7 112895607.597 7      3852.371          47.000    21097233.305 7  87807676.471 7      2996.292          44.000
R24  19637764.953 8 105012032.459 8       136.379          51.000    19637767.242 8  81676029.777 8       106.072          48.000
C27  22605788.734 8 117714233.380 8      2358.539          51.000
E02  23359729.531 8 122756192.987 8      -143.711          51.000    23359732.109 8  94059976.631 8      -110.209          51.000
E08  25110856.883 7 131958403.965 7     -2626.660          46.000    25110857.836 7 101111011.688 7     -2012.639          46.000
E36  24284738.609 8 127617207.608 8      1314.680          51.000    24284743.672 8  97784658.244 8      1007.307          51.000
> 2020 05 16 09 37  0.0000000  0 13        .000000000000
G06  23756404.375 6 124840726.017 6     -1376.551          38.000    23756403.078 6  97278481.341 6     -1072.637          38.000
G12  20704129.078 8 108800937.196 8     -1553.902          49.000    20704127.414 8  84779926.063 8     -1210.833          48.000
G24  22782646.742 7 119723583.526 7     -3257.312          46.000    22782651.312 7  93291099.989 7     -2538.166          46.000
G25  20170019.211 7 105994169.139 7       295.746          43.000    20170020.461 7  82592854.499 7       230.452          43.000
G29  21493244.289 8 112947760.045 8      2614.703          50.000    21493245.094 8  88011246.124 8      2037.431          50.000
G32  22316063.672 6 117271679.996 6     -1086.691          39.000    22316061.000 5  91380556.105 5      -846.785          32.000
R14  19519111.008 8 104047829.839 8      -452.137          51.000    19519112.977 8  80926113.309 8      -351.665          48.000
R17  21075689.547 8 112780350.077 8      3828.012          49.000    21075694.578 7  87718031.794 7      2977.345          44.000
R24  19637095.734 8 105008453.152 8        98.789          50.000    19637097.992 8  81673245.877 8        76.839          48.000
C27  22592254.312 8 117643755.109 8      2336.625          51.000
E02  23360584.680 8 122760686.802 8      -159.266          51.000    23360587.164 8  94063419.936 8      -121.984          51.000
E08  25125882.266 7 132037357.301 7     -2640.316          47.000    25125881.789 7 101171508.359 7     -2023.064          46.000
E36  24277290.062 8 127578064.791 8      1291.270          51.000    24277294.914 8  97754665.706 8       989.465          51.000
> 2020 05 16 09 37 30.0000000  0 13        .000000000000
G06  23764323.695 5 124882338.690 5     -1411.289          35.000    23764325.234 5  97310906.805 5     -1099.709          35.000
G12  20713035.477 8 108847740.833 8     -1579.453          49.000    20713033.609 8  84816396.419 8     -1230.743          49.000
G24  22801272.867 7 119821464.992 7     -3281.316          46.000    22801277.305 7  93367371.259 7     -2556.870          46.000
G25  20168373.305 7 105985520.167 7       267.945          43.000    20168374.273 7  82586115.056 7       208.789          44.000
G29  21478364.617 8 112869568.278 8      2585.027          51.000    21478365.859 8  87950317.441 8      2014.304          51.000
R14  19521706.883 8 104061665.950 8      -483.555          51.000    19521708.930 8  80936874.723 8      -376.098          48.000
R17  21054280.594 8 112665780.111 8      3796.824          50.000    21054284.320 7  87628921.834 7      2953.086          44.000
R24  19636627.977 8 105005951.976 8        54.531          50.000    19636630.430 8  81671300.518 8        42.413          48.000
C23  26056743.750 4 135684302.823 4     -2930.059          29.000
C27  22578836.969 8 117573887.858 8      2308.203          51.000
E02  23361520.414 8 122765604.425 8      -181.434          51.000    23361522.859 8  94067187.982 8      -138.985          51.000
E08  25140977.414 8 132116679.057 8     -2660.680          48.000    25140976.031 7 101232287.313 7     -2038.697          47.000
E36  24269967.164 8 127539581.155 8      1261.297          51.000    24269971.859 8  97725178.257 8       966.514          51.000
> 2020 05 16 09 38  0.0000000  0 14        .000000000000
G02  22918992.164 5 120440106.532 5        28.984          32.000
G06  23772364.203 5 124924618.096 5     -1402.551          33.000    23772366.188 5  97343834.647 5     -1092.897          32.000
G12  20722013.641 8 108894921.470 8     -1562.742          48.000    20722011.352 8  84853160.538 8     -1217.721          48.000
G24  22819962.039 7 119919676.575 7     -3263.047          46.000    22819965.984 7  93443899.782 7     -2542.634          46.000
G25  20166811.680 7 105977313.995 7       282.285          44.000    20166812.797 7  82579720.614 7       219.962          44.000
G29  21463581.062 8 112791878.306 8      2597.422          51.000    21463581.617 8  87889779.830 8      2023.965          51.000
R14  19524404.719 8 104076047.105 8      -472.113          51.000    19524406.961 8  80948060.050 8      -367.199          48.000
R17  21032973.117 8 112551752.630 8      3808.289          51.000    21032975.391 7  87540233.814 7      2962.003          44.000
R24  19636334.102 8 105004380.077 8        53.387          51.000    19636336.758 8  81670077.938 8        41.523          48.000
C23  26073572.727 4 135771941.560 4     -2908.672          29.000
C27  22565509.109 8 117504488.513 8      2321.551          51.000
E02  23362509.062 8 122770800.243 8      -161.645          51.000    23362511.383 8  94071169.190 8      -123.846          51.000
E08  25156114.234 8 132196221.160 8     -2638.871          48.000    25156112.688 7 101293235.084 7     -2021.938          47.000
E36  24262741.984 8 127501611.669 8      1273.289          51.000    24262746.648 8  97696084.786 8       975.610          51.000
> 2020 05 16 09 38 30.0000000  0 13        .000000000000
G06  23780420.234 5 124966948.546 5     -1425.512          34.000    23780423.641 5  97376867.566 5     -1110.791          34.000
G12  20730958.086 7 108941925.197 7     -1575.586          47.000    20730955.742 7  84889786.807 7     -1227.729          47.000
G24  22838608.367 7 120017662.205 7     -3274.199          46.000    22838611.625 7  93520252.193 7     -2551.324          47.000
G25  20165229.031 7 105968996.970 7       267.410          43.000    20165230.477 7  82573239.808 7       208.372          43.000
G29  21448788.047 8 112714138.093 8      2580.391          51.000    21448787.273 8  87829203.122 8      2010.697          51.000
G32  22335121.992 5 117371835.550 5     -1134.855          33.000
R14  19527099.570 8 104090412.792 8      -490.586          51.000    19527101.906 8  80959233.350 8      -381.567          49.000
R17  21011662.414 8 112437707.944 8      3789.773          51.000    21011663.336 7  87451532.426 7      2947.605          45.000
R24  19636108.570 8 105003173.817 8        22.105          51.000    19636110.922 8  81669139.742 8        17.193          48.000
C27  22552166.016 8 117435010.076 8      2305.652          51.000
E02  23363445.398 8 122775721.035 8      -171.250          51.000    23363447.406 8  94074939.667 8      -131.200          51.000
E08  25171187.078 8 132275428.062 8     -2646.457          48.000    25171186.023 8 101353926.010 8     -2027.748          48.000
E36  24255509.195 8 127463603.740 8      1255.801          51.000    24255513.438 8  97666961.841 8       962.243          51.000
> 2020 05 16 09 39  0.0000000  0 15        .000000000000
G02  22918889.070 6 120439606.066 6       -15.328          37.000
G06  23788627.586 6 125010078.372 6     -1449.109          36.000    23788630.492 5  97410475.146 5     -1129.176          35.000
G12  20740000.672 7 108989444.807 7     -1591.246          46.000    20739998.836 7  84926815.058 7     -1239.932          46.000
G24  22857343.594 7 120116114.799 7     -3288.180          47.000    22857345.961 7  93596968.458 7     -2562.218          47.000
G25  20163757.391 7 105961263.044 7       249.473          44.000    20163759.125 7  82567213.387 7       194.397          44.000
G29  21434117.484 8 112637043.151 8      2560.391          51.000    21434115.547 8  87769129.216 8      1995.110          51.000
R05  23065396.961 5 123297761.519 5     -2673.039          32.000
R14  19529923.617 8 104105467.704 8      -512.008          51.000    19529926.367 8  80970942.699 8      -398.228          49.000
R17  20990480.742 8 112324356.628 8      3768.148          51.000    20990481.211 7  87363370.344 7      2930.785          46.000
R23  21267824.539 5 113768484.424 5     -3088.871          35.000
R24  19636083.484 8 105003038.958 8       -12.000          51.000    19636085.898 8  81669034.856 8        -9.333          48.000
C27  22538940.180 8 117366141.691 8      2286.703          50.000
E02  23364461.523 8 122781061.072 8      -183.645          51.000    23364463.359 8  94079031.384 8      -140.673          51.000
E08  25186327.602 8 132354991.590 8     -2656.703          49.000    25186327.500 8 101414890.211 8     -2035.653          48.000
E36  24248401.594 8 127426252.233 8      1235.477          51.000    24248405.367 8  97638341.859 8       946.694          51.000
> 2020 05 16 09 39 30.0000000  0 16        .000000000000
G02  22919033.898 5 120440382.906 5       -31.355          31.000
G06  23796964.648 5 125053890.377 5     -1466.348          32.000    23796970.625 5  97444614.298 5     -1142.612          33.000
G12  20749122.523 7 109037380.568 7     -1599.535          47.000    20749120.898 7  84964167.582 7     -1246.391          47.000
G24  22876148.398 7 120214933.209 7     -3294.668          47.000    22876149.266 7  93673969.750 7     -2567.277          47.000
G25  20162377.859 7 105954013.291 7       238.910          46.000    20162379.750 7  82561564.238 7       186.164          46.000
G29  21419550.398 8 112560496.002 8      2547.871          49.000    21419549.164 8  87709482.125 8      1985.354          49.000
R05  23080458.633 5 123378266.633 5     -2688.035          33.000
R14  19532858.570 8 104121112.359 8      -525.895          51.000    19532861.359 8  80983110.758 8      -409.029          49.000
R17  20969409.977 8 112211601.403 8      3753.980          51.000    20969410.156 7  87275671.867 7      2919.763          46.000
R23  21285207.992 5 113861476.606 5     -3105.973          33.000
R24  19636239.633 8 105003874.273 8       -38.617          51.000    19636242.133 8  81669684.569 8       -30.033          48.000
C27  22525812.984 8 117297786.730 8      2275.266          49.000
E02  23365538.664 8 122786721.746 8      -188.656          51.000    23365540.516 8  94083368.769 8      -144.501          51.000
E08  25201516.648 8 132434810.729 8     -2659.473          49.000    25201517.602 8 101476050.263 8     -2037.742          48.000
E25  26208196.914 5 137725003.240 5     -2015.152          35.000    26208200.852 6 105529558.945 6     -1544.189          36.000
E36  24241400.125 8 127389459.030 8      1222.559          51.000    24241403.797 8  97610149.696 8       936.757          51.000
> 2020 05 16 09 40  0.0000000  0 14        .000000000000
G02  22919256.617 5 120441520.678 5       -48.820          35.000
G06  23805383.688 5 125098136.401 5     -1484.113          33.000    23805392.062 5  97479091.732 5     -1156.452          32.000
G12  20758276.578 7 109085485.194 7     -1608.836          47.000    20758274.891 7  85001651.701 7     -1253.638          47.000
G24  22894975.359 7 120313869.392 7     -3302.445          47.000    22894975.148 7  93751062.800 7     -2573.340          47.000
G25  20161043.719 7 105947001.244 7       227.184          46.000    20161045.305 7  82556100.291 7       177.026          46.000
G29  21405040.672 8 112484251.501 8      2533.852          50.000    21405041.023 8  87650070.799 8      1974.430          50.000
R14  19535857.219 8 104137097.644 8      -541.180          51.000    19535860.172 8  80995543.729 8      -420.918          49.000
R17  20948403.484 8 112099195.133 8      3738.457          48.000    20948404.211 7  87188244.796 7      2907.689          46.000
R24  19636530.133 8 105005428.485 8       -66.352          51.000    19636532.656 8  81670893.409 8       -51.607          48.000
C27  22512737.992 8 117229702.387 8      2262.367          50.000
E02  23366630.141 8 122792456.909 8      -194.965          51.000    23366631.789 8  94087763.247 8      -149.335          51.000
E08  25216706.938 8 132514636.932 8     -2663.438          49.000    25216708.656 7 101537215.745 7     -2040.765          47.000
E25  26219712.133 6 137785509.069 6     -2019.078          36.000    26219712.625 5 105575920.501 5     -1547.080          34.000
E36  24234458.133 8 127352978.582 8      1208.234          51.000    24234461.812 8  97582197.188 8       925.874          51.000
> 2020 05 16 09 40 30.0000000  0 15        .000000000000
G02  22919591.445 5 120443295.201 5       -67.352          35.000
G06  23813919.328 5 125142990.523 5     -1503.316          33.000    23813928.023 5  97514053.567 5     -1171.412          33.000
G12  20767496.414 7 109133935.471 7     -1619.023          47.000    20767494.719 7  85039405.160 7     -1261.580          47.000
G24  22913858.141 7 120413099.093 7     -3310.781          47.000    22913857.914 7  93828384.577 7     -2579.833          47.000
G25  20159788.477 7 105940404.102 7       214.715          47.000    20159789.742 7  82550959.672 7       167.313          47.000
G29  21390623.461 8 112408488.572 8      2519.207          51.000    21390624.523 8  87591034.723 8      1963.018          51.000
R14  19538953.648 8 104153604.231 8      -557.164          51.000    19538956.500 8  81008382.170 8      -433.350          50.000
R17  20927496.297 7 111987322.000 7      3722.039          47.000    20927498.094 7  87101232.380 7      2894.919          46.000
R24  19636988.805 8 105007881.384 8       -94.918          51.000    19636991.164 8  81672801.238 8       -73.825          48.000
C27  22499749.062 8 117162065.771 8      2248.848          50.000
C28  22452160.008 7 116914286.831 7      -948.375          47.000
E02  23367769.578 8 122798444.139 8      -201.969          51.000    23367770.906 8  94092350.865 8      -154.749          51.000
E08  25231931.773 8 132594645.384 8     -2668.137          49.000    25231933.797 7 101598520.876 7     -2044.410          46.000
E25  26231261.070 5 137846191.599 5     -2023.973          35.000    26231256.820 4 105622408.541 4     -1550.348          29.000
E36  24227609.562 8 127316988.974 8      1193.379          51.000    24227613.078 8  97554620.780 8       914.323          51.000
> 2020 05 16 09 41  0.0000000  0 15        .000000000000
G02  22919988.664 5 120445353.246 5       -73.629          31.000
G06  23822519.641 5 125188183.312 5     -1511.793          34.000    23822527.773 5  97549269.473 5     -1178.027          32.000
G12  20776730.258 8 109182459.581 8     -1618.219          48.000    20776728.656 8  85077216.149 8     -1260.950          48.000
G24  22932744.781 7 120512349.193 7     -3308.238          47.000    22932744.820 7  93905722.265 7     -2577.848          47.000
G25  20158560.562 7 105933950.949 7       213.145          47.000    20158561.820 7  82545931.252 7       166.087          47.000
G29  21376247.039 8 112332937.686 8      2515.344          51.000    21376248.273 8  87532163.899 8      1960.008          51.000
G32  22368929.352 5 117549518.186 5     -1220.531          32.000    22368930.688 5  91597014.683 5      -951.072          32.000
R14  19542096.484 8 104170358.026 8      -562.066          51.000    19542099.727 8  81021412.869 8      -437.166          50.000
R17  20906638.391 8 111875709.861 8      3716.605          48.000    20906640.945 7  87014422.979 7      2890.693          46.000
R24  19637564.000 8 105010956.533 8      -112.410          51.000    19637566.352 8  81675193.031 8       -87.430          48.000
C27  22486794.492 8 117094609.785 8      2245.969          50.000
C28  22457632.664 7 116942787.188 7      -953.945          46.000
E02  23368905.477 8 122804412.838 8      -198.086          51.000    23368906.641 8  94096924.286 8      -151.747          51.000
E08  25247139.125 8 132674563.093 8     -2661.918          48.000    25247141.023 7 101659756.485 7     -2039.469          44.000
E36  24220802.969 8 127281220.182 8      1189.199          51.000    24220806.242 8  97527213.538 8       911.258          51.000
> 2020 05 16 09 41 30.0000000  0 12        .000000000000
G06  23831263.531 5 125234132.949 5     -1541.684          33.000    23831270.664 5  97585072.796 5     -1201.312          31.000
G12  20786057.516 7 109231474.456 7     -1639.121          47.000    20786055.617 7  85115409.572 7     -1277.237          47.000
G24  22951714.422 7 120612035.622 7     -3327.203          47.000    22951714.992 7  93983399.984 7     -2592.626          47.000
G25  20157439.469 8 105928059.482 8       189.871          48.000    20157440.945 8  82541340.486 8       147.952          48.000
G29  21361990.656 8 112258017.995 8      2489.684          51.000    21361991.953 8  87473784.935 8      1940.016          51.000
R14  19545365.211 8 104187783.417 8      -589.059          51.000    19545368.508 8  81034965.949 8      -458.160          50.000
R17  20885910.492 8 111764787.896 8      3688.777          49.000    20885912.859 7  86928150.364 7      2869.049          47.000
R24  19638334.695 8 105015078.352 8      -151.867          51.000    19638337.188 8  81678398.904 8      -118.119          48.000
C27  22473953.883 8 117027749.792 8      2221.652          49.000
E02  23370117.344 8 122810781.036 8      -216.043          51.000    23370118.461 8  94101803.800 8      -165.524          51.000
E08  25262408.148 7 132754805.650 7     -2677.203          47.000    25262409.625 7 101721241.024 7     -2051.447          43.000
E36  24214118.008 8 127246090.678 8      1163.289          51.000    24214121.227 8  97500296.148 8       891.306          51.000
> 2020 05 16 09 42  0.0000000  0 13        .000000000000
G02  22921130.648 5 120451366.690 5      -136.891          30.000
G06  23840075.734 5 125280440.466 5     -1576.258          35.000    23840081.680 5  97621155.009 5     -1228.247          34.000
G12  20795402.852 7 109280584.615 7     -1665.230          46.000    20795400.820 7  85153677.233 7     -1297.585          46.000
G24  22970691.594 7 120711762.493 7     -3351.492          47.000    22970692.453 7  94061109.216 7     -2611.552          47.000
G25  20156350.281 7 105922335.288 7       161.395          47.000    20156351.797 8  82536880.091 8       125.762          48.000
G29  21347779.188 8 112183336.331 8      2458.770          51.000    21347780.680 8  87415591.464 8      1915.927          51.000
R14  19548685.102 8 104205481.159 8      -621.457          51.000    19548688.445 8  81048730.850 8      -483.355          50.000
R17  20865237.242 8 111654158.181 8      3655.480          49.000    20865239.594 8  86842105.054 8      2843.151          48.000
R24  19639226.266 8 105019844.924 8      -196.770          51.000    19639228.430 8  81682106.242 8      -153.040          48.000
C27  22461152.625 7 116961096.408 7      2191.922          47.000
E02  23371330.211 8 122817154.673 8      -239.227          51.000    23371331.328 8  94106687.486 8      -183.291          51.000
E08  25277663.727 7 132834976.600 7     -2697.711          46.000    25277664.633 6 101782670.700 6     -2067.203          41.000
E36  24207479.734 8 127211206.954 8      1132.062          51.000    24207483.070 8  97473567.069 8       867.395          51.000
> 2020 05 16 09 42 30.0000000  0 14        .000000000000
G02  22921866.789 6 120455232.674 6      -119.234          36.000
G06  23849024.250 5 125327462.161 5     -1558.223          34.000    23849028.352 5  97657795.306 5     -1214.203          35.000
G12  20804834.633 7 109330148.966 7     -1638.793          46.000    20804832.672 7  85192298.804 7     -1276.982          45.000
G24  22989744.867 8 120811887.597 8     -3323.133          48.000    22989745.602 8  94139128.772 8     -2589.454          48.000
G25  20155361.352 8 105917138.084 8       185.469          48.000    20155362.578 8  82532830.338 8       144.524          48.000
G29  21333681.352 8 112109253.833 8      2480.520          50.000    21333682.719 8  87357864.868 8      1932.872          50.000
R05  23172572.367 4 123870679.866 4     -2766.934          28.000
R14  19552124.812 8 104223817.055 8      -600.559          51.000    19552128.320 8  81062992.095 8      -467.101          50.000
R17  20844687.469 8 111544190.567 8      3675.949          50.000    20844689.945 7  86756574.708 7      2859.072          47.000
R24  19640306.305 8 105025621.373 8      -187.871          51.000    19640308.516 8  81686599.058 8      -146.122          48.000
C27  22448460.266 7 116895007.492 7      2214.309          47.000
E02  23372612.664 8 122823893.850 8      -209.648          51.000    23372613.828 8  94111851.259 8      -160.643          51.000
E08  25292974.211 7 132915433.651 7     -2665.613          47.000    25292974.469 7 101844319.572 7     -2042.471          42.000
E36  24200956.781 8 127176929.538 8      1153.516          51.000    24200960.562 8  97447302.549 8       883.851          51.000
> 2020 05 16 09 43  0.0000000  0 12        .000000000000
G06  23858047.789 5 125374886.480 5     -1589.531          31.000    23858050.391 5  97694744.744 5     -1238.599          31.000
G12  20814292.250 7 109379848.725 7     -1661.652          47.000    20814290.297 7  85231025.872 7     -1294.794          46.000
G24  23008813.469 8 120912091.022 8     -3344.215          49.000    23008813.875 8  94217209.332 8     -2605.885          48.000
G25  20154412.086 8 105912149.405 8       159.926          48.000    20154413.023 8  82528943.084 8       124.621          48.000
G29  21319637.383 8 112035453.582 8      2452.355          50.000    21319638.320 8  87300358.195 8      1910.929          50.000
R14  19555623.672 8 104242468.957 8      -629.922          50.000    19555627.180 8  81077499.138 8      -489.939          51.000
R17  20824201.188 8 111434564.523 8      3645.520          50.000    20824203.742 7  86671310.020 7      2835.404          47.000
R24  19641514.781 8 105032083.181 8      -229.746          51.000    19641516.820 8  81691624.904 8      -178.691          48.000
C27  22435816.688 8 116829168.884 8      2187.562          49.000
E02  23373904.102 8 122830680.426 8      -229.867          51.000    23373905.320 8  94117051.347 8      -176.156          51.000
E08  25308278.477 7 132995856.244 7     -2683.094          47.000    25308278.148 7 101905942.018 7     -2055.793          42.000
E36  24194488.789 8 127142940.741 8      1125.262          51.000    24194493.000 8  97421259.191 8       862.243          51.000
> 2020 05 16 09 43 30.0000000  0 16        .000000000000
G02  22923609.070 6 120464382.001 6      -171.312          36.000
G06  23867176.289 5 125422857.808 5     -1610.555          33.000    23867179.750 5  97732124.897 5     -1254.975          33.000
G12  20823805.852 7 109429842.577 7     -1673.641          46.000    20823804.336 7  85269982.106 7     -1304.136          46.000
G24  23027927.094 8 121012530.055 8     -3354.188          50.000    23027927.430 8  94295473.476 8     -2613.653          50.000
G25  20153532.836 8 105907528.702 8       145.508          48.000    20153533.500 8  82525342.536 8       113.383          48.000
G29  21305678.250 8 111962096.477 8      2435.504          51.000    21305678.672 8  87243196.820 8      1897.795          51.000
G32  22405251.992 5 117740397.668 5     -1318.035          33.000    22405251.977 5  91745758.148 5     -1027.040          33.000
R05  23203959.859 5 124038489.725 5     -2814.453          35.000
R14  19559212.539 8 104261599.189 8      -648.074          51.000    19559216.055 8  81092378.225 8      -504.055          51.000
R17  20803809.602 8 111325446.042 8      3626.387          51.000    20803812.195 7  86586440.096 7      2820.523          46.000
R23  21427748.930 5 114623987.722 5     -3250.156          34.000
R24  19642881.289 8 105039391.533 8      -260.059          50.000    19642883.508 8  81697309.174 8      -202.268          48.000
C27  22423252.414 8 116763739.937 8      2171.875          50.000
E02  23375234.953 8 122837674.193 8      -238.836          51.000    23375236.109 8  94122410.194 8      -183.004          51.000
E08  25323606.258 7 133076401.761 7     -2689.164          47.000    25323605.523 7 101967658.638 7     -2060.468          43.000
E36  24188106.500 8 127109400.829 8      1108.258          51.000    24188110.867 8  97395559.784 8       849.194          51.000
> 2020 05 16 09 44  0.0000000  0 17        .000000000000
G02  22924609.219 5 120469671.792 5      -186.121          31.000    22924593.602 4  93872377.427 4      -145.029          26.000
G06  23876402.641 5 125471341.735 5     -1626.668          34.000    23876407.414 5  97769904.567 5     -1267.533          32.000
G12  20833367.430 7 109480089.053 7     -1680.965          45.000    20833366.406 7  85309135.176 7     -1309.843          45.000
G24  23047077.609 8 121113162.496 8     -3359.348          50.000    23047077.859 8  94373888.345 8     -2617.673          50.000
G25  20152715.820 7 105903235.649 7       135.809          47.000    20152716.359 8  82521997.284 8       105.828          48.000
G29  21291796.133 8 111889143.560 8      2423.176          51.000    21291796.344 8  87186350.403 8      1888.192          51.000
G32  22412807.875 6 117780102.540 6     -1333.680          36.000    22412808.164 6  91776696.920 6     -1039.231          37.000
R05  23219784.508 5 124123056.008 5     -2828.160          34.000
R14  19562883.875 8 104281167.729 8      -661.402          51.000    19562887.172 8  81107598.201 8      -514.424          51.000
R17  20783506.273 8 111216797.862 8      3611.883          51.000    20783508.594 7  86501935.960 7      2809.242          45.000
R23  21446002.602 5 114721644.500 5     -3265.129          33.000
R24  19644398.328 8 105047504.488 8      -285.688          51.000    19644400.750 8  81703619.249 8      -222.201          48.000
C27  22410759.609 8 116698682.002 8      2160.621          50.000
E02  23376597.750 8 122844835.208 8      -243.305          51.000    23376598.797 8  94127897.199 8      -186.446          51.000
E08  25338949.398 7 133157027.828 7     -2690.766          45.000    25338948.422 7 102029436.980 7     -2061.660          44.000
E25  26312540.922 5 138273344.103 5     -2047.230          33.000
E36  24181802.016 8 127076270.260 8      1095.746          51.000    24181806.461 8  97370174.027 8       839.565          51.000
> 2020 05 16 09 44 30.0000000  0 15        .000000000000
G02  22925741.547 5 120475581.523 5      -204.496          35.000
G06  23885748.094 5 125520451.076 5     -1645.156          34.000    23885753.844 5  97808171.545 5     -1281.943          34.000
G12  20842998.781 7 109530702.411 7     -1690.730          44.000    20842997.859 7  85348574.157 7     -1317.449          44.000
G24  23066286.047 8 121214101.251 8     -3367.152          49.000    23066285.977 8  94452541.903 8     -2623.755          49.000
G25  20151982.844 7 105899384.996 7       123.523          46.000    20151983.438 7  82518996.785 7        96.255          46.000
G29  21278012.648 8 111816710.976 8      2408.344          51.000    21278013.156 8  87129909.453 8      1876.631          51.000
G32  22420478.430 5 117820409.360 5     -1351.234          33.000    22420479.867 5  91808116.452 5     -1052.922          34.000
R05  23235702.281 4 124208144.395 4     -2843.355          28.000
R14  19566659.453 8 104301291.787 8      -677.418          51.000    19566662.422 8  81123250.248 8      -526.881          51.000
R17  20763312.984 8 111108740.406 8      3594.648          49.000    20763315.406 7  86417891.294 7      2795.838          45.000
R24  19646087.656 8 105056538.174 8      -313.789          51.000    19646089.969 8  81710645.444 8      -244.058          48.000
C27  22398360.000 8 116634110.265 8      2146.926          51.000
E02  23378014.234 8 122852278.552 8      -250.109          51.000    23378015.320 8  94133600.541 8      -191.645          51.000
E08  25354328.961 7 133237847.138 7     -2694.629          42.000    25354328.273 7 102091363.399 7     -2064.542          45.000
E36  24175597.297 8 127043664.582 8      1080.707          51.000    24175601.648 8  97345190.465 8       828.122          51.000
> 2020 05 16 09 45  0.0000000  0 14        .000000000000
G02  22926932.961 5 120481880.202 5      -214.840          31.000
G06  23895169.656 5 125569963.694 5     -1656.246          30.000    23895176.664 5  97846751.177 5     -1290.584          30.000
G12  20852657.375 7 109581459.257 7     -1692.816          44.000    20852656.227 7  85388124.921 7     -1319.078          44.000
G24  23085509.766 8 121315122.700 8     -3367.105          48.000    23085509.836 8  94531259.881 8     -2623.719          48.000
G25  20151291.828 7 105895754.221 7       118.922          46.000    20151292.367 7  82516167.607 7        92.666          47.000
G29  21264285.859 8 111744577.375 8      2400.996          51.000    21264286.797 8  87073701.490 8      1870.909          51.000
G32  22428234.477 5 117861151.899 5     -1362.434          31.000    22428224.484 4  91839828.119 4     -1061.637          29.000
R14  19570496.992 8 104321746.400 8      -685.734          51.000    19570499.750 8  81139159.392 8      -533.349          51.000
R17  20743188.031 8 111001050.886 8      3585.082          48.000    20743190.891 7  86334132.807 7      2788.400          45.000
R24  19647906.797 8 105066265.129 8      -334.195          51.000    19647909.055 8  81718210.846 8      -259.930          48.000
C27  22386011.336 8 116569805.555 8      2140.492          51.000
E02  23379442.117 8 122859782.140 8      -249.602          51.000    23379443.266 8  94139350.033 8      -191.286          51.000
E08  25369701.477 6 133318635.059 6     -2690.848          39.000    25369702.172 7 102153265.838 7     -2061.803          46.000
E36  24169450.477 8 127011362.041 8      1073.195          51.000    24169454.531 8  97320439.167 8       822.345          51.000
> 2020 05 16 09 45 30.0000000  0 12        .000000000000
G12  20862390.938 7 109632610.194 7     -1720.098          44.000    20862389.078 7  85427982.758 7     -1340.339          44.000
G24  23104796.344 7 121416476.267 7     -3392.359          47.000    23104796.586 8  94610236.640 8     -2643.400          48.000
G25  20150690.555 8 105892594.605 8        89.027          48.000    20150691.070 8  82513705.567 8        69.372          48.000
G29  21250664.125 8 111672995.327 8      2368.488          51.000    21250665.250 8  87017923.279 8      1845.575          51.000
G32  22436102.195 4 117902514.121 4     -1397.699          28.000    22436092.234 4  91872052.068 4     -1089.125          27.000
R14  19574444.219 8 104342787.201 8      -719.633          51.000    19574446.945 8  81155524.429 8      -559.714          51.000
R17  20723180.586 8 110893988.447 8      3549.688          49.000    20723183.406 7  86250862.076 7      2760.871          45.000
R24  19649903.109 8 105076939.902 8      -380.199          51.000    19649905.305 8  81726513.459 8      -295.711          49.000
C27  22373761.875 8 116506018.177 8      2109.316          51.000
E02  23380929.336 8 122867597.553 8      -274.172          51.000    23380930.500 8  94145338.463 8      -210.071          51.000
E08  25385115.016 6 133399640.848 6     -2712.188          39.000    25385117.578 7 102215335.219 7     -2078.140          46.000
E36  24163409.258 8 126979614.662 8      1040.559          51.000    24163413.320 8  97296113.256 8       797.350          51.000
> 2020 05 16 09 46  0.0000000  0 14        .000000000000
G06  23914342.648 5 125670720.852 5     -1679.082          33.000    23914350.234 5  97925261.323 5     -1308.373          32.000
G12  20872156.805 7 109683929.959 7     -1698.926          43.000    20872153.945 7  85467972.178 7     -1323.838          43.000
G24  23124102.711 7 121517935.108 7     -3369.062          45.000    23124103.117 7  94689295.386 7     -2625.247          45.000
G25  20150136.133 8 105889681.144 8       107.387          48.000    20150136.484 8  82511435.348 8        83.678          48.000
G29  21237104.906 8 111601741.823 8      2384.094          51.000    21237106.133 8  86962401.083 8      1857.735          50.000
R14  19578458.781 8 104364186.719 8      -704.625          51.000    19578461.414 8  81172168.495 8      -548.045          50.000
R17  20703248.516 8 110787327.852 8      3563.441          50.000    20703250.945 7  86167903.875 7      2771.566          45.000
R23  21520012.148 5 115117566.408 5     -3315.324          31.000
R24  19652033.750 8 105088332.774 8      -377.004          51.000    19652035.750 8  81735374.571 8      -293.225          49.000
C23  26345197.383 5 137186386.033 5     -2958.324          32.000
C27  22361569.391 8 116442526.538 8      2125.816          51.000
E02  23382433.094 8 122875500.202 8      -250.461          51.000    23382434.367 8  94151393.738 8      -191.906          51.000
E08  25400527.922 7 133480637.544 7     -2685.230          43.000    25400531.148 7 102277397.608 7     -2057.574          47.000
E36  24157431.023 8 126948198.218 8      1056.145          51.000    24157435.016 8  97272040.935 8       809.260          51.000
> 2020 05 16 09 46 30.0000000  0 13        .000000000000
G06  23924064.906 5 125721809.671 5     -1717.137          33.000    23924072.078 5  97965070.812 5     -1338.029          32.000
G12  20881969.914 7 109735497.699 7     -1729.359          45.000    20881966.703 7  85508154.811 7     -1347.556          45.000
G24  23143444.289 7 121619577.347 7     -3397.551          45.000    23143444.375 7  94768497.018 7     -2647.445          44.000
G25  20149643.836 7 105887094.446 7        74.391          47.000    20149644.094 7  82509419.727 7        57.967          47.000
G29  21223623.859 8 111530898.431 8      2348.297          51.000    21223624.953 8  86907198.435 8      1829.842          51.000
R14  19582556.039 8 104386027.349 8      -741.887          51.000    19582558.414 8  81189155.643 8      -577.026          50.000
R17  20683407.664 8 110681154.865 8      3524.359          51.000    20683409.656 7  86085324.937 7      2741.168          44.000
R23  21538737.461 4 115217736.013 4     -3353.949          29.000
R24  19654313.680 8 105100524.517 8      -426.242          51.000    19654316.062 8  81744857.059 8      -331.522          49.000
C27  22349449.641 8 116379411.855 8      2091.133          51.000
E02  23383968.859 8 122883571.052 8      -278.113          51.000    23383970.227 8  94157577.881 8      -213.022          51.000
E08  25415954.805 7 133561703.661 7     -2709.582          44.000    25415957.930 7 102339513.161 7     -2076.092          47.000
E36  24151531.383 8 126917193.999 8      1020.359          51.000    24151534.938 8  97248284.459 8       781.903          51.000
> 2020 05 16 09 47  0.0000000  0 13        .000000000000
G02  22932780.250 5 120512552.720 5      -298.359          34.000
G12  20891863.977 7 109787490.635 7     -1742.809          44.000    20891861.383 7  85548668.761 7     -1358.033          44.000
G24  23162853.992 7 121721580.031 7     -3408.754          42.000    23162855.344 7  94847979.599 7     -2656.172          42.000
G25  20149247.594 7 105885012.484 7        58.316          47.000    20149247.914 7  82507797.421 7        45.438          47.000
G29  21210255.195 8 111460644.208 8      2329.266          51.000    21210255.586 8  86852454.871 8      1815.012          51.000
R14  19586770.148 8 104408490.679 8      -761.816          51.000    19586772.359 8  81206627.110 8      -592.524          49.000
R17  20663692.367 8 110575654.117 8      3502.762          51.000    20663693.602 7  86003268.835 7      2724.373          44.000
R23  21557587.867 5 115318562.335 5     -3374.598          33.000
R24  19656776.633 8 105113695.220 8      -458.051          51.000    19656778.820 8  81755100.926 8      -356.262          49.000
C27  22337436.344 8 116316851.802 8      2073.359          51.000
E02  23385570.594 8 122891988.448 8      -289.062          51.000    23385572.000 8  94164027.569 8      -221.486          51.000
E08  25431428.617 7 133643015.196 7     -2717.090          46.000    25431431.438 8 102401816.751 8     -2081.968          48.000
E36  24145744.156 8 126886780.735 8      1001.250          51.000    24145747.250 8  97224980.804 8       767.156          51.000
> 2020 05 16 09 47 30.0000000  0 12        .000000000000
G12  20901808.977 7 109839751.493 7     -1739.828          42.000    20901807.062 7  85589391.479 7     -1355.710          42.000
G24  23182300.320 6 121823783.918 6     -3403.621          41.000    23182305.688 6  94927619.049 6     -2652.169          41.000
G25  20148917.641 7 105883278.456 7        58.605          47.000    20148918.102 7  82506446.226 7        45.667          47.000
G29  21196968.867 8 111390823.526 8      2326.629          50.000    21196968.734 8  86798049.155 8      1812.958          50.000
R14  19591070.984 8 104431417.882 8      -765.391          51.000    19591073.359 8  81224459.354 8      -595.304          49.000
R17  20644073.336 8 110470669.680 8      3497.504          51.000    20644074.383 7  85921614.315 7      2720.284          45.000
R23  21576529.352 5 115419881.272 5     -3379.219          34.000
R24  19659392.648 8 105127684.160 8      -473.230          51.000    19659394.969 8  81765981.222 8      -368.068          49.000
C27  22325499.500 8 116254692.237 8      2071.820          51.000
E02  23387208.492 8 122900595.912 8      -283.594          51.000    23387209.961 8  94170622.886 8      -217.362          51.000
E08  25446918.695 7 133724413.168 7     -2708.234          46.000    25446921.562 8 102464186.568 8     -2075.141          48.000
E36  24140039.461 8 126856802.236 8       998.477          51.000    24140042.336 8  97202010.293 8       765.096          51.000
> 2020 05 16 09 48  0.0000000  0 15        .000000000000
G02  22936291.648 5 120531005.628 5      -322.172          35.000
G06  23953880.312 5 125878479.593 5     -1763.570          33.000    23953884.555 5  98087153.176 5     -1374.208          33.000
G12  20911769.320 7 109892093.179 7     -1750.031          43.000    20911767.539 7  85630177.184 7     -1363.661          44.000
G24  23201751.062 7 121926001.327 7     -3411.680          45.000    23201758.289 7  95007269.006 7     -2658.452          45.000
G25  20148618.508 8 105881706.187 8        45.559          48.000    20148619.086 8  82505221.073 8        35.500          48.000
G29  21183729.398 8 111321251.524 8      2310.852          49.000    21183729.578 8  86743837.231 8      1800.664          49.000
G32  22476837.320 5 118116577.170 5     -1468.242          31.000
R14  19595423.664 8 104454621.165 8      -782.180          51.000    19595426.242 8  81242506.332 8      -608.365          48.000
R17  20624515.844 8 110366015.491 8      3478.805          50.000    20624517.680 7  85840216.653 7      2705.740          45.000
R23  21595526.391 5 115521499.641 5     -3396.492          33.000
R24  19662126.047 8 105142300.907 8      -501.793          51.000    19662128.258 8  81777349.821 8      -390.283          48.000
C27  22313603.844 8 116192750.058 8      2057.055          51.000
E02  23388847.281 8 122909207.740 8      -291.250          51.000    23388848.812 8  94177221.538 8      -223.160          51.000
E08  25462389.219 7 133805709.424 7     -2712.285          46.000    25462392.570 8 102526478.453 8     -2078.221          48.000
E36  24134382.445 8 126827073.122 8       982.707          51.000    24134384.836 8  97179230.870 8       752.959          51.000
> 2020 05 16 09 48 30.0000000  0 14        .000000000000
G06  23964027.562 5 125931795.625 5     -1783.629          33.000    23964030.578 5  98128698.128 5     -1389.838          33.000
G12  20921813.672 7 109944877.287 7     -1760.699          42.000    20921812.234 7  85671307.648 7     -1371.973          42.000
G24  23221274.438 8 122028592.741 8     -3420.043          48.000    23221281.336 8  95087210.356 8     -2664.969          48.000
G25  20148418.953 8 105880657.751 8        32.129          48.000    20148419.789 8  82504404.096 8        25.036          49.000
G29  21170606.469 8 111252291.746 8      2294.273          50.000    21170607.305 8  86690102.363 8      1787.746          50.000
G32  22485296.352 6 118161018.446 6     -1486.887          39.000    22485293.766 6  92073534.705 6     -1158.619          37.000
R14  19599897.281 8 104478468.242 8      -799.691          51.000    19599900.266 8  81261054.028 8      -621.982          49.000
R17  20605089.281 7 110262063.683 7      3459.230          47.000    20605092.148 7  85759365.276 7      2690.516          45.000
R24  19665045.539 8 105157912.485 8      -530.965          51.000    19665047.539 8  81789492.163 8      -412.973          48.000
C27  22301818.828 8 116131385.290 8      2041.699          51.000
E02  23390555.797 8 122918186.353 8      -299.457          51.000    23390557.555 8  94184101.245 8      -229.445          51.000
E08  25477908.562 7 133887263.990 7     -2716.758          46.000    25477912.742 8 102588968.288 8     -2081.702          48.000
E25                                                                  26418583.672 6 106376679.870 6     -1593.284          37.000
E36  24128841.727 8 126797956.128 8       966.375          51.000    24128844.070 8  97156920.471 8       740.430          51.000
> 2020 05 16 09 49  0.0000000  0 14        .000000000000
G06  23974237.547 5 125985452.552 5     -1799.996          32.000    23974241.078 5  98170508.657 5     -1402.597          32.000
G12  20931875.414 7 109997752.289 7     -1770.090          42.000    20931874.078 6  85712508.953 6     -1379.291          41.000
G24  23240802.312 8 122131205.825 8     -3426.582          49.000    23240808.055 8  95167168.569 8     -2670.064          49.000
G25  20148252.312 8 105879782.325 8        20.344          48.000    20148253.328 8  82503721.935 8        15.852          48.000
G29  21157533.992 8 111183595.092 8      2279.602          51.000    21157535.062 8  86636572.513 8      1776.316          51.000
G32  22493816.172 6 118205788.382 6     -1503.465          40.000    22493810.461 6  92108420.293 6     -1171.534          37.000
R14  19604425.023 8 104502604.387 8      -815.348          51.000    19604428.375 8  81279826.565 8      -634.159          49.000
R17  20585727.594 7 110158460.624 7      3441.625          47.000    20585731.383 7  85678785.098 7      2676.819          45.000
R24  19668084.070 8 105174160.498 8      -558.168          51.000    19668086.008 7  81802129.523 7      -434.131          47.000
C27  22290078.297 8 116070251.595 8      2028.121          51.000
E02  23392267.578 8 122927181.313 8      -305.934          51.000    23392269.430 8  94190993.479 8      -234.414          51.000
E08  25493409.953 7 133968724.047 7     -2719.629          47.000    25493414.688 8 102651385.693 8     -2083.791          48.000
E25                                                                  26430448.344 6 106424460.234 6     -1596.436          37.000
E36  24123350.539 8 126769101.098 8       951.641          51.000    24123353.094 8  97134810.780 8       729.200          51.000
> 2020 05 16 09 49 30.0000000  0 14        .000000000000
G06  23984569.898 5 126039749.003 5     -1816.715          34.000    23984572.086 5  98212817.495 5     -1415.622          35.000
G12  20942011.367 7 110051017.721 7     -1778.047          42.000    20942009.594 7  85754014.486 7     -1385.488          42.000
G24  23260390.852 8 122234138.391 8     -3432.566          49.000    23260394.945 8  95247375.738 8     -2674.730          49.000
G25  20148175.820 8 105879380.233 8         9.270          48.000    20148176.773 8  82503408.624 8         7.223          48.000
G29  21144569.109 8 111115462.880 8      2265.496          51.000    21144569.898 8  86583482.485 8      1765.322          51.000
G32  22502454.086 6 118251185.199 6     -1520.203          36.000    22502451.148 5  92143794.438 5     -1184.574          35.000
R14  19609064.344 8 104527334.559 8      -830.352          51.000    19609067.469 8  81299061.144 8      -645.829          49.000
R17  20566489.297 8 110055515.872 8      3424.297          48.000    20566493.727 7  85598716.913 7      2663.339          47.000
R24  19671298.578 8 105191349.647 8      -584.797          51.000    19671300.398 7  81815498.863 7      -454.842          47.000
C27  22278440.031 8 116009647.843 8      2015.031          51.000
E02  23394039.797 8 122936493.305 8      -311.836          51.000    23394041.656 8  94198128.648 8      -238.984          51.000
E08  25508950.180 8 134050387.824 8     -2721.711          48.000    25508955.000 8 102713959.189 8     -2085.374          48.000
E25                                                                  26442359.289 6 106472420.995 6     -1598.681          36.000
E36  24117966.406 8 126740809.023 8       937.492          51.000    24117969.188 8  97113132.434 8       718.284          51.000
> 2020 05 16 09 50  0.0000000  0 14        .000000000000
G02  22944481.078 6 120574075.552 6      -392.953          36.000
G06  23994987.414 6 126094491.793 6     -1832.547          38.000    23994988.953 6  98255474.195 6     -1427.962          36.000
G12  20952185.172 7 110104481.588 7     -1785.367          42.000    20952183.562 7  85795674.572 7     -1391.198          42.000
G24  23280003.328 8 122337197.924 8     -3437.625          48.000    23280006.000 8  95327681.836 8     -2678.672          49.000
G25  20148152.953 8 105879260.088 8        -1.066          49.000    20148153.914 8  82503315.001 8         -.831          49.000
G29  21131675.547 8 111047704.876 8      2252.043          51.000    21131675.750 8  86530684.065 8      1754.839          51.000
R14  19613778.742 8 104552465.469 8      -844.695          51.000    19613782.070 8  81318607.390 8      -656.985          50.000
R17  20547338.969 8 109953037.689 8      3407.832          50.000    20547343.875 8  85519011.696 8      2650.539          48.000
R24  19674652.094 8 105209283.559 8      -610.547          51.000    19674654.039 7  81829447.486 7      -474.870          47.000
C27  22266867.664 8 115949385.613 8      2002.742          51.000
E02  23395835.984 8 122945931.388 8      -317.043          51.000    23395837.836 8  94205360.429 8      -242.947          51.000
E08  25524492.469 8 134132061.971 8     -2722.938          49.000    25524496.789 7 102776540.635 7     -2086.523          47.000
E25                                                                  26454278.523 5 106520415.617 5     -1600.716          35.000
E36  24112652.836 8 126712889.156 8       924.031          51.000    24112656.258 8  97091739.269 8       708.018          51.000
> 2020 05 16 09 50 30.0000000  0 15        .000000000000
G02  22946775.094 4 120586116.935 4      -412.836          27.000
G06  24005503.250 6 126149754.038 6     -1851.906          38.000    24005505.320 6  98298535.657 6     -1443.044          38.000
G12  20962410.852 7 110158217.828 7     -1797.086          43.000    20962409.719 7  85837546.897 7     -1400.330          44.000
G24  23299653.258 7 122440457.211 7     -3446.359          47.000    23299654.945 7  95408143.585 7     -2685.475          47.000
G25  20148198.078 8 105879496.757 8       -14.973          50.000    20148199.172 8  82503499.420 8       -11.667          50.000
G29  21118867.516 8 110980396.909 8      2234.844          51.000    21118867.438 8  86478236.318 8      1741.437          51.000
G32  22519989.227 5 118343344.049 5     -1553.562          31.000    22519991.500 5  92215607.675 5     -1210.568          30.000
R14  19618582.953 8 104578073.677 8      -862.781          51.000    19618586.539 8  81338524.873 8      -671.052          51.000
R17  20528291.188 8 109851106.162 8      3387.332          51.000    20528296.094 8  85439731.658 8      2634.592          48.000
R24  19678159.094 8 105228037.229 8      -640.043          51.000    19678161.156 7  81844033.681 7      -497.811          47.000
C27  22255375.156 8 115889540.364 8      1986.648          51.000
E02  23397670.383 8 122955570.814 8      -325.902          51.000    23397672.164 8  94212746.487 8      -249.753          51.000
E08  25540050.594 8 134213819.299 8     -2727.891          48.000    25540053.922 7 102839185.794 7     -2090.175          46.000
E25                                                                  26466220.844 5 106568501.445 5     -1605.179          31.000
E36  24107424.547 8 126685416.962 8       906.988          51.000    24107428.602 8  97070689.152 8       694.962          51.000
> 2020 05 16 09 51  0.0000000  0 15        .000000000000
G02  22949170.219 5 120598673.091 5      -425.836          32.000
G06  24016114.633 6 126205520.336 6     -1865.625          36.000    24016117.789 6  98341989.895 6     -1453.734          36.000
G12  20972685.750 7 110212212.106 7     -1802.355          42.000    20972684.648 7  85879620.324 7     -1404.436          43.000
G24  23319337.797 7 122543900.431 7     -3449.453          45.000    23319338.836 7  95488748.694 7     -2687.886          46.000
G25  20148308.531 8 105880076.674 8       -23.266          50.000    20148309.820 8  82503951.305 8       -18.129          50.000
G29  21106142.336 8 110913526.657 8      2223.461          50.000    21106142.508 8  86426129.644 8      1732.567          50.000
G32  22528902.422 5 118390170.941 5     -1567.641          34.000    22528903.320 5  92252096.299 5     -1221.535          35.000
R14  19623474.203 8 104604146.063 8      -875.082          51.000    19623477.617 8  81358803.394 8      -680.619          51.000
R17  20509343.867 8 109749710.794 8      3372.648          51.000    20509348.109 7  85360868.603 7      2623.171          47.000
R24  19681816.320 8 105247595.287 8      -663.566          50.000    19681818.477 8  81859245.497 8      -516.107          48.000
C27  22243960.156 8 115830099.827 8      1976.301          51.000
E02  23399540.539 8 122965398.356 8      -329.047          51.000    23399542.180 8  94220276.689 8      -252.163          51.000
E08  25555621.461 7 134295644.189 7     -2726.852          47.000    25555623.586 7 102901882.738 7     -2089.439          45.000
E25                                                                  26478181.305 5 106616667.132 5     -1605.616          35.000
E36  24102279.312 8 126658379.466 8       895.746          51.000    24102283.594 8  97049972.127 8       686.288          51.000
> 2020 05 16 09 51 30.0000000  0 15        .000000000000
G02  22951658.969 5 120611750.318 5      -444.406          32.000
G06  24026817.672 5 126261779.081 5     -1883.137          30.000    24026821.859 4  98385821.695 4     -1467.373          28.000
G12  20983006.008 6 110266445.696 6     -1812.309          41.000    20983004.586 6  85921880.235 6     -1412.189          41.000
G24  23339053.562 7 122647507.936 7     -3456.953          45.000    23339054.258 7  95569481.786 7     -2693.730          45.000
G25  20148480.719 8 105880981.495 8       -36.117          50.000    20148482.180 8  82504656.360 8       -28.143          50.000
G29  21093496.883 8 110847077.265 8      2207.281          48.000    21093497.547 8  86374350.879 8      1719.959          48.000
G32  22537903.930 6 118437467.962 6     -1584.922          39.000    22537904.766 6  92288951.082 6     -1235.004          40.000
R14  19628449.078 8 104630664.618 8      -891.961          51.000    19628452.469 8  81379428.927 8      -693.747          50.000
R17  20490493.875 8 109648836.341 8      3353.148          50.000    20490497.250 7  85282410.688 7      2608.004          47.000
R24  19685620.297 8 105267937.732 8      -691.766          50.000    19685622.961 8  81875067.404 8      -538.040          48.000
C27  22232619.117 8 115771047.089 8      1961.312          50.000
E02  23401443.094 8 122975396.125 8      -336.762          51.000    23401444.406 8  94227937.320 8      -258.050          51.000
E08  25571201.055 7 134377516.305 7     -2730.504          46.000    25571202.031 7 102964615.872 7     -2092.198          44.000
E25                                                                  26490160.867 6 106664900.508 6     -1609.639          36.000
E36  24097213.719 8 126631759.006 8       879.746          51.000    24097217.930 8  97029574.636 8       674.064          51.000
> 2020 05 16 09 52  0.0000000  0 13        .000000000000
G12  20993377.148 6 110320947.122 6     -1821.270          41.000    20993375.883 6  85964348.852 6     -1419.174          41.000
G24  23358805.594 7 122751307.118 7     -3463.285          45.000    23358805.445 7  95650364.198 7     -2698.667          45.000
G25  20148720.242 8 105882240.717 8       -48.094          51.000    20148721.805 8  82505637.563 8       -37.476          51.000
G29  21080937.320 8 110781079.300 8      2192.281          49.000    21080938.453 8  86322923.900 8      1708.271          49.000
G32  22546999.680 7 118485262.320 7     -1601.660          42.000    22546998.609 6  92326193.381 6     -1248.044          36.000
R14  19633513.430 8 104657659.946 8      -907.961          51.000    19633516.812 8  81400425.293 8      -706.192          51.000
R17  20471746.852 8 109548516.189 8      3334.578          49.000    20471749.867 7  85204383.946 7      2593.561          47.000
R24  19689576.352 8 105289093.051 8      -718.828          49.000    19689579.055 8  81891521.527 8      -559.089          48.000
C27  22221358.312 8 115712412.485 8      1947.367          50.000
E02  23403383.719 8 122985593.973 8      -343.371          51.000    23403384.523 8  94235751.257 8      -263.076          51.000
E08  25586794.633 7 134459463.087 7     -2732.844          46.000    25586794.734 7 103027406.205 7     -2093.985          43.000
E25                                                                  26502162.531 5 106713223.165 5     -1611.824          31.000
E36  24092233.258 8 126605585.594 8       864.910          51.000    24092237.562 8  97009519.707 8       662.690          51.000
> 2020 05 16 09 52 30.0000000  0 14        .000000000000
G02  22956936.828 5 120639523.714 5      -479.863          34.000
G12  21003798.148 7 110375710.139 7     -1829.922          42.000    21003796.961 7  86007021.285 7     -1425.913          42.000
G24  23378592.586 7 122855290.624 7     -3469.676          44.000    23378591.516 7  95731390.235 7     -2703.647          44.000
G25  20149026.148 8 105883848.725 8       -59.754          51.000    20149027.742 8  82506890.548 8       -46.561          51.000
G29  21068463.305 8 110715528.360 8      2177.238          51.000    21068464.406 8  86271845.261 8      1696.549          51.000
G32  22556188.320 7 118533546.232 7     -1617.969          44.000    22556186.242 6  92363817.168 6     -1260.755          40.000
R14  19638666.117 8 104685126.962 8      -923.773          51.000    19638669.609 8  81421788.505 8      -718.490          50.000
R17  20453102.633 8 109448748.314 8      3315.953          50.000    20453105.531 7  85126786.761 7      2579.078          46.000
R24  19693683.008 8 105311054.036 8      -745.863          49.000    19693686.039 8  81908602.293 8      -580.116          48.000
C27  22210177.773 8 115654191.780 8      1933.410          51.000
C28  22608218.945 7 117726932.222 7     -1306.746          45.000
E02  23405361.414 8 122995986.753 8      -350.094          51.000    23405361.719 8  94243714.563 8      -268.212          51.000
E08  25602400.953 7 134541476.973 7     -2735.246          45.000    25602400.820 7 103090247.935 7     -2095.763          43.000
E36  24087337.109 8 126579854.289 8       849.902          51.000    24087341.266 8  96989803.521 8       651.266          51.000
> 2020 05 16 09 53  0.0000000  0 13        .000000000000
G12  21014271.930 7 110430750.246 7     -1838.137          42.000    21014270.781 7  86049909.682 7     -1432.317          42.000
G24  23398417.492 7 122959472.885 7     -3474.785          46.000    23398416.234 7  95812571.132 7     -2707.628          46.000
G25  20149401.523 8 105885821.595 8       -70.652          51.000    20149403.297 8  82508427.837 8       -55.057          51.000
G29  21056078.117 8 110650441.707 8      2162.957          51.000    21056078.773 8  86221128.417 8      1685.424          51.000
G32  22565472.828 7 118582333.555 7     -1633.469          44.000    22565469.062 7  92401833.317 7     -1272.833          42.000
R14  19643910.398 8 104713082.723 8      -938.789          50.000    19643913.711 8  81443531.879 8      -730.169          50.000
R17  20434565.695 8 109349552.510 8      3298.105          51.000    20434567.953 7  85049634.510 7      2565.193          46.000
R24  19697943.312 8 105333835.484 8      -771.777          50.000    19697946.305 8  81926321.195 8      -600.271          49.000
C27  22199080.359 8 115596402.070 8      1920.266          51.000
C28  22615789.844 7 117766359.798 7     -1320.398          44.000
E02  23407379.375 8 123006590.903 8      -355.816          51.000    23407379.305 8  94251839.822 8      -272.671          51.000
E08  25618022.797 7 134623571.961 7     -2736.598          44.000    25618023.055 7 103153151.845 7     -2097.035          42.000
E36  24082528.234 8 126554581.684 8       835.973          51.000    24082531.836 8  96970438.817 8       640.500          51.000
> 2020 05 16 09 53 30.0000000  0 13        .000000000000
G12  21024789.750 7 110486021.711 7     -1847.203          43.000    21024788.539 7  86092978.316 7     -1439.379          44.000
G24  23418271.648 7 123063807.196 7     -3481.012          46.000    23418270.906 7  95893870.535 7     -2712.480          46.000
G25  20149837.883 8 105888114.561 8       -82.539          51.000    20149839.781 8  82510214.564 8       -64.316          51.000
G29  21043773.117 8 110585775.547 8      2147.809          51.000    21043773.188 8  86170739.223 8      1673.617          51.000
G32  22574844.000 7 118631577.302 7     -1649.852          44.000    22574841.656 7  92440205.065 7     -1285.599          44.000
R14  19649237.711 8 104741482.137 8      -954.762          51.000    19649241.398 8  81465620.318 8      -742.592          50.000
R17  20416128.172 8 109250886.397 8      3279.219          51.000    20416129.305 7  84972894.193 7      2550.503          46.000
R23  21810418.117 5 116670982.758 5     -3566.168          30.000
R24  19702348.453 8 105357390.184 8      -798.723          50.000    19702351.117 8  81944641.503 8      -621.229          48.000
C27  22188057.188 8 115539000.105 8      1906.176          51.000
E02  23409429.148 8 123017362.025 8      -362.523          51.000    23409428.969 8  94260093.015 8      -277.742          51.000
E08  25633651.367 7 134705701.278 7     -2738.973          42.000    25633652.445 6 103216082.043 6     -2098.412          41.000
E36  24077797.992 8 126529723.555 8       821.035          51.000    24077800.906 8  96951391.703 8       629.096          51.000
> 2020 05 16 09 54  0.0000000  0 13        .000000000000
G12  21035347.492 6 110541503.621 6     -1853.395          40.000    21035346.273 6  86136210.933 6     -1444.207          40.000
G24  23438150.766 7 123168271.715 7     -3484.961          47.000    23438151.023 7  95975271.419 7     -2715.554          47.000
G25  20150331.273 8 105890707.011 8       -91.984          51.000    20150333.125 8  82512234.644 8       -71.676          51.000
G29  21031544.391 8 110521510.638 8      2134.883          51.000    21031543.773 8  86120662.687 8      1663.545          51.000
G32  22584297.172 7 118681254.730 7     -1663.672          43.000    22584296.750 7  92478914.746 7     -1296.368          44.000
R14  19654644.828 8 104770305.203 8      -968.512          51.000    19654648.656 8  81488038.262 8      -753.287          50.000
R17  20397786.266 8 109152732.565 8      3262.520          51.000    20397787.109 7  84896552.320 7      2537.515          47.000
R23  21830465.320 5 116778233.321 5     -3578.621          34.000
R24  19706893.844 8 105381695.657 8      -823.293          50.000    19706896.258 8  81963545.772 8      -640.339          48.000
C27  22177104.555 8 115481966.646 8      1894.336          51.000
E02  23411506.766 8 123028279.959 8      -366.973          51.000    23411506.812 8  94268458.701 8      -281.175          51.000
E08  25649282.453 7 134787842.299 7     -2738.812          43.000    25649284.562 6 103279021.231 6     -2098.520          40.000
E36  24073142.789 8 126505259.854 8       808.355          51.000    24073144.914 8  96932646.809 8       619.428          51.000
> 2020 05 16 09 54 30.0000000  0 14        .000000000000
G06  24093032.109 5 126609736.854 5     -1977.746          31.000    24093031.789 5  98656933.287 5     -1541.104          32.000
G12  21045945.250 7 110597193.280 7     -1857.652          42.000    21045943.898 7  86179605.402 7     -1447.521          42.000
G24  23458053.758 7 123272861.908 7     -3486.176          47.000    23458055.336 7  96056770.227 7     -2716.501          46.000
G25  20150881.258 8 105893596.882 8       -99.164          51.000    20150883.000 8  82514486.480 8       -77.271          51.000
G29  21019391.453 8 110457646.026 8      2124.281          51.000    21019390.539 8  86070898.048 8      1655.284          51.000
G32  22593831.820 7 118731361.473 7     -1675.223          44.000    22593832.680 7  92517958.955 7     -1305.368          44.000
R14  19660131.250 8 104799550.213 8      -979.660          51.000    19660134.820 8  81510784.371 8      -761.958          50.000
R17  20379539.664 8 109055091.960 8      3248.355          51.000    20379540.703 7  84820609.639 7      2526.502          46.000
R23  21850566.547 5 116885765.101 5     -3588.355          35.000    21850573.773 4  90911200.527 4     -2790.943          25.000
R24  19711579.000 8 105406748.032 8      -845.145          50.000    19711580.938 8  81983030.928 8      -657.335          48.000
C27  22166222.344 8 115425300.817 8      1884.805          51.000
E02  23413611.906 8 123039343.069 8      -369.066          51.000    23413612.305 8  94276935.613 8      -282.815          51.000
E08  25664915.102 7 134869991.017 7     -2736.129          43.000    25664918.117 6 103341966.317 6     -2096.718          41.000
E36  24068562.297 8 126481189.056 8       797.898          51.000    24068564.234 8  96914202.986 8       611.389          51.000
> 2020 05 16 09 55  0.0000000  0 14        .000000000000
G06  24104399.602 5 126669475.758 5     -1999.934          34.000    24104398.828 5  98703485.468 5     -1558.387          31.000
G12  21056609.438 7 110653232.236 7     -1872.625          43.000    21056607.750 7  86223272.132 7     -1459.188          43.000
G24  23478007.477 7 123377718.946 7     -3498.707          46.000    23478010.094 7  96138476.989 7     -2726.265          45.000
G25  20151515.008 8 105896927.335 8      -117.531          51.000    20151516.609 8  82517081.635 8       -91.583          51.000
G29  21007341.555 8 110394325.953 8      2102.363          50.000    21007340.992 8  86021557.711 8      1638.205          50.000
G32  22603475.141 7 118782038.408 7     -1697.887          45.000    22603476.359 7  92557447.493 7     -1323.029          44.000
R14  19665724.070 8 104829362.986 8     -1002.352          51.000    19665727.516 8  81533972.071 8      -779.607          50.000
R17  20361416.641 8 108958113.994 8      3222.406          50.000    20361417.664 7  84745182.353 7      2506.316          45.000
R23  21870766.375 6 116993821.882 6     -3609.969          36.000    21870773.797 4  90995249.663 4     -2807.753          25.000
R24  19716430.453 8 105432691.091 8      -878.719          50.000    19716432.703 8  82003208.875 8      -683.448          48.000
C27  22155438.062 8 115369145.579 8      1864.203          51.000
E02  23415772.031 8 123050694.874 8      -382.312          51.000    23415772.688 8  94285633.736 8      -292.893          51.000
E08  25680575.969 7 134952288.544 7     -2744.656          43.000    25680579.773 6 103405025.434 6     -2103.309          40.000
E36  24064083.992 8 126457654.788 8       776.422          51.000    24064086.000 8  96896170.262 8       594.954          51.000
> 2020 05 16 09 55 30.0000000  0 14        .000000000000
G06  24115860.242 5 126729716.067 5     -2016.086          35.000    24115861.656 5  98750425.875 5     -1570.979          35.000
G12  21067324.398 7 110709539.600 7     -1881.246          42.000    21067322.164 7  86267148.008 7     -1465.906          42.000
G24  23497995.289 7 123482760.393 7     -3504.258          42.000    23497999.734 7  96220327.483 7     -2730.587          42.000
G25  20152217.156 8 105900617.292 8      -128.773          51.000    20152218.648 8  82519956.933 8      -100.340          51.000
G29  20995380.109 8 110331470.320 8      2087.508          50.000    20995379.859 8  85972579.318 8      1626.629          50.000
G32  22613211.203 7 118833202.252 7     -1713.176          44.000    22613212.672 7  92597315.437 7     -1334.942          43.000
R14  19671408.242 8 104859661.996 8     -1017.855          51.000    19671411.516 8  81557537.958 8      -791.665          50.000
R17  20343402.344 8 108861719.474 8      3203.586          49.000    20343403.180 7  84670208.874 7      2491.681          44.000
R23  21891048.375 6 117102316.765 6     -3623.531          36.000
R24  19721432.672 8 105459441.039 8      -904.859          50.000    19721435.047 7  82024014.384 7      -703.780          47.000
C27  22144736.625 8 115313421.802 8      1850.492          51.000
E02  23417971.750 8 123062254.782 8      -388.598          51.000    23417972.555 8  94294491.326 8      -297.820          51.000
E08  25696249.344 7 135034651.885 7     -2746.449          44.000    25696253.250 7 103468134.873 7     -2104.365          42.000
E36  24059692.594 8 126434576.540 8       761.805          51.000    24059694.906 8  96878486.945 8       583.703          51.000
> 2020 05 16 09 56  0.0000000  0 14        .000000000000
G06  24127413.773 5 126790444.735 5     -2031.883          34.000    24127416.172 5  98797746.725 5     -1583.297          33.000
G12  21078087.469 6 110766101.161 6     -1889.027          40.000    21078085.703 6  86311221.879 6     -1471.972          41.000
G24  23518014.805 7 123587971.037 7     -3509.160          43.000    23518021.531 7  96302309.811 7     -2734.411          42.000
G25  20152985.242 8 105904653.523 8      -139.754          51.000    20152986.688 8  82523102.043 8      -108.899          51.000
G29  20983505.039 8 110269066.892 8      2073.227          51.000    20983504.797 8  85923953.310 8      1615.504          51.000
G32  22623036.555 6 118884837.524 6     -1728.520          41.000    22623037.945 6  92637550.657 6     -1346.901          41.000
R14  19677181.250 8 104890434.230 8     -1033.020          51.000    19677184.438 8  81581471.886 8      -803.460          50.000
R17  20325494.891 8 108765898.152 8      3185.176          50.000    20325496.281 7  84595681.244 7      2477.362          45.000
R23  21911408.695 5 117211232.505 5     -3636.703          35.000
R24  19726582.734 8 105486982.312 8      -930.598          50.000    19726585.352 7  82045435.394 7      -723.798          47.000
C27  22134115.711 8 115258117.436 8      1837.043          51.000
E02  23420208.617 8 123074009.945 8      -394.539          51.000    23420209.453 8  94303498.513 8      -302.324          51.000
E08  25711932.203 7 135117065.683 7     -2747.535          42.000    25711935.836 6 103531283.012 6     -2104.964          40.000
E36  24055385.344 8 126411941.496 8       747.613          51.000    24055387.961 8  96861143.228 8       572.882          51.000
> 2020 05 16 09 56 30.0000000  0 14        .000000000000
G06  24139059.070 6 126851648.101 6     -2047.926          36.000    24139064.125 5  98845437.651 5     -1595.786          35.000
G12  21088896.945 6 110822905.030 6     -1897.375          41.000    21088895.406 6  86355484.599 6     -1478.474          40.000
G24  23538065.570 7 123693337.978 7     -3514.926          47.000    23538072.750 7  96384413.919 7     -2738.903          47.000
G25  20153817.047 8 105909024.471 8      -151.297          51.000    20153818.562 8  82526507.966 8      -117.894          51.000
G29  20971714.383 8 110207105.592 8      2057.922          51.000    20971713.781 8  85875671.796 8      1603.575          51.000
G32  22632948.531 6 118936930.306 6     -1744.176          39.000    22632950.133 6  92678142.359 6     -1359.101          39.000
R14  19683040.828 8 104921668.439 8     -1048.930          51.000    19683043.961 8  81605765.141 8      -815.834          50.000
R17  20307693.867 8 108670641.581 8      3165.656          51.000    20307695.672 7  84521592.846 7      2462.177          45.000
R23  21931845.016 5 117320553.039 5     -3650.645          33.000
R24  19731878.539 8 105515301.404 8      -957.066          50.000    19731881.078 7  82067461.339 7      -744.385          46.000
C27  22123573.750 8 115203222.127 8      1822.941          51.000
E02  23422480.633 8 123085949.221 8      -401.215          51.000    23422481.391 8  94312646.780 8      -307.418          51.000
E08  25727621.766 5 135199516.484 5     -2749.113          35.000    25727625.125 6 103594459.558 6     -2106.628          37.000
E36  24051160.344 8 126389738.658 8       732.766          51.000    24051163.031 8  96844130.670 8       561.512          51.000
> 2020 05 16 09 57  0.0000000  0 14        .000000000000
G06  24150797.180 6 126913334.311 6     -2064.348          37.000    24150800.555 6  98893504.746 6     -1608.583          36.000
G12  21099754.141 6 110879960.221 6     -1906.148          40.000    21099752.898 6  86399943.176 6     -1485.310          40.000
G24  23558148.234 8 123798869.125 8     -3520.227          48.000    23558154.766 8  96466645.942 8     -2743.037          48.000
G25  20154714.406 8 105913740.085 8      -162.820          51.000    20154716.016 8  82530182.475 8      -126.873          51.000
G29  20960009.844 8 110145597.088 8      2042.770          51.000    20960009.016 8  85827743.085 8      1591.768          51.000
G32  22642948.023 6 118989488.171 6     -1759.449          36.000    22642949.148 6  92719096.536 6     -1371.002          36.000
R14  19688989.125 8 104953375.516 8     -1064.750          51.000    19688992.266 8  81630426.181 8      -828.139          49.000
R17  20290001.336 8 108575963.093 8      3146.441          51.000    20290003.086 7  84447954.057 7      2447.232          45.000
R23  21952358.375 5 117430284.342 5     -3664.785          30.000
R24  19737321.367 8 105544406.678 8      -983.203          51.000    19737324.055 7  82090098.790 7      -764.714          46.000
C27  22113112.594 8 115148746.804 8      1808.910          51.000
E02  23424789.727 8 123098082.985 8      -407.652          51.000    23424790.383 8  94321944.070 8      -312.387          51.000
E08  25743319.867 5 135282059.222 5     -2750.234          32.000    25743323.031 5 103657670.550 5     -2108.071          31.000
E36  24047019.703 8 126367978.434 8       717.984          51.000    24047022.422 8  96827457.257 8       550.117          51.000
> 2020 05 16 09 57 30.0000000  0 14        .000000000000
G02  22989200.227 5 120809061.946 5      -649.391          32.000
G06  24162658.109 6 126975663.615 6     -2079.391          36.000    24162661.289 5  98942073.007 5     -1620.295          32.000
G12  21110690.047 6 110937428.449 6     -1913.562          41.000    21110688.977 6  86444723.562 6     -1491.088          41.000
G24  23578292.695 8 123904724.848 8     -3525.324          49.000    23578297.695 8  96549130.851 8     -2747.009          49.000
G25  20155708.211 8 105918962.774 8      -173.848          51.000    20155709.828 8  82534252.107 8      -135.466          51.000
G29  20948422.508 8 110084705.008 8      2028.090          51.000    20948421.484 8  85780294.699 8      1580.330          51.000
G32  22653067.148 6 119042671.234 6     -1774.242          38.000    22653069.453 6  92760537.868 6     -1382.529          38.000
R14  19695056.898 8 104985720.376 8     -1080.027          51.000    19695060.375 8  81655583.276 8      -840.021          49.000
R17  20272447.961 8 108482031.490 8      3127.305          49.000    20272449.570 7  84374896.186 7      2432.348          46.000
R24  19742941.750 8 105574461.393 8     -1008.746          51.000    19742944.273 7  82113474.678 7      -784.580          45.000
C27  22102763.266 8 115094853.497 8      1795.301          51.000
E02  23427166.812 8 123110574.066 8      -413.660          51.000    23427167.375 8  94331515.154 8      -316.969          51.000
E08                                                                  25759060.766 5 103721061.872 5     -2107.999          32.000
E36  24042994.070 8 126346823.629 8       703.727          51.000    24042996.969 8  96811247.737 8       539.240          51.000
> 2020 05 16 09 58  0.0000000  0 13        .000000000000
G02  22992966.039 5 120828851.303 5      -667.977          34.000
G06  24174571.430 6 127038267.535 6     -2096.219          36.000    24174575.555 4  98990855.332 4     -1633.414          28.000
G12  21121634.547 6 110994942.827 6     -1923.000          40.000    21121633.656 6  86489539.956 6     -1498.442          39.000
G24  23598428.695 8 124010536.347 8     -3531.266          50.000    23598428.883 8  96631581.212 8     -2751.642          48.000
G25  20156728.719 8 105924325.951 8      -186.043          51.000    20156730.297 8  82538431.203 8      -144.969          51.000
G29  20936882.930 8 110024063.980 8      2012.250          51.000    20936881.703 8  85733041.974 8      1567.987          51.000
G32  22663235.781 6 119096110.660 6     -1790.324          40.000    22663237.953 6  92802178.958 6     -1395.058          40.000
R14  19701174.875 8 105018331.801 8     -1096.535          51.000    19701177.977 8  81680947.701 8      -852.864          49.000
R17  20254964.039 7 108388476.632 7      3107.051          46.000    20254966.758 7  84302131.294 7      2416.595          46.000
R24  19748669.773 8 105605090.740 8     -1035.543          51.000    19748672.438 7  82137297.524 7      -805.422          45.000
C27  22092455.914 8 115041180.026 8      1780.512          51.000
E02  23429542.109 8 123123056.335 8      -420.941          51.000    23429542.688 8  94341079.480 8      -322.543          51.000
E36  24039013.844 8 126325908.110 8       688.176          51.000    24039017.023 8  96795221.579 8       527.312          51.000
> 2020 05 16 09 58 30.0000000  0 12        .000000000000
G06  24186583.164 5 127101389.176 5     -2111.828          34.000    24186587.508 5  99040041.024 5     -1645.577          33.000
G12  21132634.352 6 111052747.470 6     -1931.129          38.000    21132633.164 6  86534582.496 6     -1504.779          38.000
G24  23618602.500 8 124116547.430 8     -3536.254          49.000    23618599.242 8  96714187.106 8     -2755.526          49.000
G25  20157822.594 8 105930074.857 8      -197.227          51.000    20157824.211 8  82542910.867 8      -153.683          51.000
G29  20925437.797 8 109963919.968 8      1997.164          50.000    20925436.492 8  85686176.536 8      1556.232          50.000
G32  22673499.836 6 119150049.252 6     -1805.633          40.000    22673503.227 6  92844208.984 6     -1406.990          40.000
R14  19707389.406 8 105051458.989 8     -1112.137          51.000    19707392.453 8  81706713.262 8      -864.995          49.000
R17  20237597.320 7 108295551.444 7      3087.754          45.000    20237601.703 7  84229856.106 7      2401.583          47.000
R24  19754551.625 8 105636542.127 8     -1061.410          51.000    19754554.289 7  82161759.725 7      -825.541          45.000
C27  22082237.320 8 114987970.464 8      1766.555          51.000
E02  23431962.414 8 123135775.407 8      -427.285          51.000    23431963.000 8  94350825.248 8      -327.370          51.000
E36  24035125.938 8 126305477.587 8       673.586          51.000    24035129.320 8  96779567.018 8       516.085          51.000
> 2020 05 16 09 59  0.0000000  0 13        .000000000000
G06  24198670.102 5 127164906.022 5     -2105.770          30.000    24198674.492 4  99089534.619 4     -1640.862          28.000
G12  21143666.156 6 111110721.168 6     -1916.934          37.000    21143664.859 6  86579756.787 6     -1493.718          37.000
G24  23638790.781 8 124222635.681 8     -3519.254          49.000    23638788.609 8  96796853.190 8     -2742.279          48.000
G25  20158966.906 8 105936088.886 8      -186.602          51.000    20158968.625 8  82547597.115 8      -145.404          51.000
G29  20914064.492 8 109904153.421 8      2004.188          50.000    20914063.461 8  85639605.233 8      1561.708          50.000
G32  22683835.914 6 119204364.036 6     -1798.566          38.000    22683840.430 6  92886532.185 6     -1401.480          38.000
R14  19713678.016 8 105084980.415 8     -1105.359          51.000    19713681.320 8  81732785.455 8      -859.724          50.000
R17  20220326.797 8 108203136.394 8      3090.543          48.000    20220332.195 7  84157977.724 7      2403.756          46.000
R23  22035163.820 5 117873232.973 5     -3695.312          31.000    22035174.633 4  91679201.842 4     -2874.129          27.000
R24  19760563.750 8 105668690.904 8     -1064.641          51.000    19760566.180 7  82186764.346 7      -828.054          44.000
C27  22072085.047 8 114935106.336 8      1774.438          51.000
E02  23434404.977 8 123148611.142 8      -411.637          51.000    23434405.562 8  94360660.422 8      -315.440          51.000
E36  24031307.266 8 126285411.858 8       681.000          51.000    24031311.148 8  96764191.990 8       521.742          51.000
> 2020 05 16 09 59 30.0000000  0 13        .000000000000
G12  21154761.047 6 111169025.627 6     -1946.051          39.000    21154759.773 6  86625188.808 6     -1516.403          38.000
G24  23659024.242 8 124328961.457 8     -3545.199          49.000    23659023.891 8  96879704.382 8     -2762.493          49.000
G25  20160192.547 8 105942530.215 8      -218.871          51.000    20160194.383 8  82552616.324 8      -170.549          51.000
G29  20902794.094 8 109844927.534 8      1968.062          51.000    20902793.539 8  85593455.227 8      1533.555          51.000
G32  22694274.242 7 119259214.773 7     -1834.398          42.000    22694278.984 7  92929273.000 7     -1429.401          42.000
R14  19720071.641 8 105119060.806 8     -1142.332          51.000    19720074.484 8  81759292.416 8      -888.480          50.000
R15  20201147.617 4 107948812.038 4      2300.000          27.000
R17  20203184.422 8 108111399.808 8      3049.594          51.000    20203188.977 7  84086627.060 7      2371.909          45.000
R23  22056053.719 5 117984958.141 5     -3728.852          32.000    22056060.586 4  91766099.247 4     -2900.218          26.000
R24  19766736.656 8 105701700.270 8     -1111.602          51.000    19766739.195 7  82212438.316 7      -864.579          44.000
C27  22062030.406 8 114882749.408 8      1739.645          51.000
E02  23436900.711 8 123161726.140 8      -438.914          51.000    23436901.352 8  94370709.562 8      -336.314          51.000
E36  24027588.969 8 126265873.492 8       645.473          51.000    24027593.078 8  96749221.050 8       494.499          51.000
