     3.02           OBSERVATION DATA    M (MIXED)           RINEX VERSION / TYPE
SAVERINEX           SC600               20200510 065931 LCL PGM / RUN BY / DATE
       G = GPS       R = GLONASS       C = COMPASS          COMMENT
       S = SBAS      J = QZSS          E = GALILEO          COMMENT
BEAN                                                        MARKER NAME
1                                                           MARKER NUMBER
GEODETIC                                                    MARKER TYPE
Unige DICCA         GTER                                    OBSERVER / AGENCY
SC60291900056       SC600               2.12(191226)        REC # / TYPE / VERS
                    HEMA45          NONE                    ANT # / TYPE
  4509407.8091   693652.4678  4442337.6214                  APPROX POSITION XYZ
        0.0000        0.0000        0.0000                  ANTENNA: DELTA H/E/N
G    8 C1C L1C D1C S1C C2Y L2Y D2Y S2Y                      SYS / # / OBS TYPES
R    8 C1C L1C D1C S1C C2P L2P D2P S2P                      SYS / # / OBS TYPES
C    8 C1I L1I D1I S1I C7I L7I D7I S7I                      SYS / # / OBS TYPES
E    8 C1C L1C D1C S1C C7Q L7Q D7Q S7Q                      SYS / # / OBS TYPES
DBHZ                                                        COMMENT
     30.000                                                 INTERVAL
  2020    05    10    04    00    0.0000000     GPS         TIME OF FIRST OBS
  2020    05    10    04    59   30.0000000     GPS         TIME OF LAST OBS
     0                                                      RCV CLOCK OFFS APPL
G L1C  0.00000                                              SYS / PHASE SHIFT
G L2Y  0.00000                                              SYS / PHASE SHIFT
R L1C  0.00000                                              SYS / PHASE SHIFT
R L2P  0.25000                                              SYS / PHASE SHIFT
C L1I  0.00000                                              SYS / PHASE SHIFT
C L7I  0.00000                                              SYS / PHASE SHIFT
E L1C  0.50000                                              SYS / PHASE SHIFT
E L7Q -0.25000                                              SYS / PHASE SHIFT
 14 R01  1 R02 -4 R03  5 R04  6 R08  6 R10 -5 R11  0 R12 -1 GLONASS SLOT / FRQ #
    R13 -2 R14 -7 R15  0 R17  4 R22 -3 R23  3               GLONASS SLOT / FRQ #
 C1C   71.950 C2C   71.950 C2P   71.950                     GLONASS COD/PHS/BIS
    18                                                      LEAP SECONDS
*** Above antenna height is from mark to ANTENNA BOTTOM.    COMMENT
    17     4        0.0000        ANT MEASURE TYPE/HEIGT    COMMENT
    0.0000    0.0000    0.0458    0.0405    0.0000          COMMENT
                    BASE STATION                            COMMENT
                                                            END OF HEADER
> 2020 05 10 04 00  0.0000000  0 17        .000000000000
G05  21229342.656 8 111560953.344 8     -2066.668          51.000    21229342.656 8  86930578.441 8     -1610.391          51.000
G07  23448398.125 5 123222134.551 5     -2741.316          35.000    23448386.805 5  96017268.400 5     -2136.085          33.000
G28  21108298.609 8 110924930.728 8      1217.395          49.000    21108297.570 7  86435008.388 7       948.616          46.000
G30  21097807.180 8 110869747.272 8     -1759.883          48.000    21097807.953 7  86392025.109 7     -1371.337          47.000
R02  22294715.195 7 118968863.997 7     -3782.598          47.000    22294719.477 7  92531319.736 7     -2942.023          46.000
R03  19280766.875 8 103211441.268 8      -858.504          48.000    19280767.055 8  80275589.851 8      -667.725          48.000
R12  22721208.641 6 121372537.088 6     -3967.023          36.000    22721215.062 4  94400904.526 4     -3085.466          28.000
R13  19322429.156 6 103180703.228 6     -1170.652          41.000    19322431.914 7  80251637.750 7      -910.507          45.000
R14  20464644.141 8 109088107.051 8      2818.664          50.000    20464649.953 8  84846340.189 8      2192.297          49.000
C05  39793596.352 6 207215697.857 6         9.375          36.000    39793595.234 6 160232305.447 6         7.183          41.000
C24  21798052.000 8 113508202.212 8       307.418          51.000
C25  24569986.336 7 127942360.341 7      2807.328          42.000
C26  23074377.172 6 120154369.756 6     -2333.633          40.000
E01  23994338.016 8 126091113.662 8      -577.461          51.000    23994339.211 8  96615294.111 8      -442.431          51.000
E04  23663573.602 8 124352905.842 8      -851.828          51.000    23663574.180 8  95283380.537 8      -652.729          51.000
E19  27976769.383 5 147018915.562 5     -2624.477          33.000    27976773.320 6 112650862.083 6     -2010.948          36.000
E31  24644667.555 8 129508611.487 8      2215.477          51.000    24644671.383 8  99233882.594 8      1697.588          51.000
> 2020 05 10 04 00 30.0000000  0 17        .000000000000
G05  21241193.680 8 111623229.061 8     -2083.160          51.000    21241193.023 8  86979104.982 8     -1623.242          51.000
G07  23464063.117 5 123304448.077 5     -2744.109          35.000    23464053.219 5  96081408.808 5     -2138.261          34.000
G28  21101404.594 8 110888705.144 8      1199.582          48.000    21101403.781 7  86406780.606 7       934.739          45.000
G30  21107887.688 7 110922720.277 7     -1769.746          47.000    21107888.352 7  86433302.770 7     -1379.023          47.000
R02  22316013.469 7 119082518.247 7     -3792.641          47.000    22316018.984 7  92619717.492 7     -2949.832          47.000
R03  19285644.891 8 103237554.883 8      -880.590          48.000    19285645.797 8  80295900.465 8      -684.903          48.000
R12  22743502.664 5 121491631.213 5     -3971.023          35.000    22743510.266 4  94493533.278 4     -3088.571          26.000
R13  19329069.172 6 103216160.817 6     -1191.352          41.000    19329071.727 7  80279215.857 7      -926.607          45.000
R14  20448835.383 8 109003832.997 8      2801.348          51.000    20448839.828 7  84780793.726 7      2178.826          47.000
C05  39793547.938 5 207215445.788 5         9.594          35.000    39793546.867 6 160232110.516 6         7.153          41.000
C24  21796324.125 8 113499206.353 8       294.020          51.000
C25  24553836.141 7 127858260.243 7      2800.945          44.000
C26  23087845.531 6 120224504.797 6     -2340.426          39.000
E01  23997676.852 8 126108659.055 8      -590.410          51.000    23997678.133 8  96628737.984 8      -452.404          51.000
E04  23668468.672 8 124378629.895 8      -861.273          51.000    23668468.742 8  95303091.169 8      -659.949          51.000
E19  27991768.039 5 147097733.311 5     -2628.590          32.000    27991771.258 5 112711257.905 5     -2013.725          34.000
E31  24632053.969 8 129442322.920 8      2205.594          51.000    24632056.789 8  99183090.063 8      1689.982          50.000
> 2020 05 10 04 01  0.0000000  0 17        .000000000000
G05  21253113.359 8 111685865.406 8     -2098.391          51.000    21253111.742 8  87027912.518 8     -1635.110          51.000
G28  21094588.297 8 110852886.021 8      1182.637          50.000    21094587.297 7  86378869.627 7       921.535          43.000
G30  21117999.055 7 110975854.721 7     -1778.340          45.000    21117999.570 7  86474706.238 7     -1385.719          45.000
R02  22337342.586 7 119196336.838 7     -3801.152          47.000    22337349.297 8  92708243.035 8     -2956.452          48.000
R03  19290622.625 8 103264201.707 8      -901.734          49.000    19290623.867 8  80316625.792 8      -701.349          48.000
R12  22765794.055 6 121610714.474 6     -3973.699          36.000    22765803.531 4  94586204.596 4     -3090.658          27.000
R13  19335802.547 6 103252117.131 6     -1211.398          41.000    19335805.211 7  80307181.868 7      -942.202          45.000
R14  20433099.320 8 108919944.341 8      2785.215          51.000    20433101.852 8  84715547.030 8      2166.281          48.000
C05  39793474.602 6 207215064.714 6        10.590          36.000    39793473.523 6 160231815.055 6         8.035          41.000
C24  21794648.234 8 113490480.344 8       281.879          51.000
C25  24537700.500 7 127774232.801 7      2795.109          46.000
C26  23101329.195 6 120294719.277 6     -2345.891          38.000
E01  24001065.289 8 126126464.732 8      -602.406          51.000    24001066.352 8  96642381.275 8      -461.569          51.000
E04  23673392.883 8 124404507.308 8      -869.676          51.000    23673392.703 8  95322919.298 8      -666.348          51.000
E19                                                                  28006764.984 5 112771636.924 5     -2015.892          32.000
E21                                                                  27250777.844 5 109727590.384 5     -2068.412          34.000
E31  24619472.281 8 129376201.923 8      2196.781          51.000    24619473.766 8  99132425.965 8      1683.170          50.000
> 2020 05 10 04 01 30.0000000  0 17        .000000000000
G05  21265153.188 8 111749133.083 8     -2102.594          51.000    21265150.875 8  87077212.006 8     -1638.385          51.000
G07  23495428.242 5 123469290.985 5     -2737.566          35.000    23495423.281 5  96209831.621 5     -2133.166          33.000
G28  21087902.289 8 110817747.950 8      1176.688          51.000    21087899.688 6  86351489.331 6       916.899          40.000
G30  21128192.656 7 111029422.207 7     -1775.855          45.000    21128193.234 7  86516447.157 7     -1383.783          45.000
R02  22358754.430 7 119310594.726 7     -3798.812          47.000    22358761.391 7  92797110.297 7     -2954.632          47.000
R03  19295752.805 8 103291670.174 8      -911.652          51.000    19295753.812 8  80337971.369 8      -709.063          48.000
R12  22788135.508 6 121730061.499 6     -3965.730          36.000    22788145.656 4  94679030.004 4     -3084.460          27.000
R13  19342681.008 7 103288847.110 7     -1220.012          42.000    19342683.383 7  80335749.618 7      -948.898          45.000
R14  20417487.703 8 108836719.770 8      2780.133          51.000    20417489.148 8  84650816.853 8      2162.326          49.000
C05  39793428.312 6 207214823.197 6        22.312          36.000    39793427.156 6 160231628.258 6        17.187          41.000
C24  21793076.000 8 113482294.202 8       280.500          51.000
C25  24521631.312 7 127690549.490 7      2800.363          47.000
C26  23114880.688 6 120365282.106 6     -2341.020          36.000
E01  24004554.789 8 126144802.766 8      -603.371          51.000    24004555.797 8  96656432.498 8      -462.323          51.000
E04  23678398.320 8 124430811.365 8      -867.098          51.000    23678398.008 8  95343074.337 8      -664.388          51.000
E21                                                                  27266215.883 5 109789752.060 5     -2062.935          34.000
E31  24606974.336 8 129310522.540 8      2198.723          51.000    24606974.961 8  99082100.233 8      1684.754          50.000
> 2020 05 10 04 02  0.0000000  0 17        .000000000000
G05  21277292.125 8 111812922.693 8     -2140.969          51.000    21277289.734 8  87126918.198 8     -1668.287          51.000
G28  21081325.500 8 110783183.546 8      1136.676          51.000    21081321.469 7  86324556.074 7       885.724          42.000
G30  21138447.805 7 111083313.181 7     -1807.727          47.000    21138448.406 7  86558440.123 7     -1408.618          47.000
R02  22380227.773 8 119425180.327 8     -3830.945          48.000    22380234.156 7  92886232.447 7     -2979.624          43.000
R03  19301014.031 8 103319830.293 8      -956.480          51.000    19301014.305 7  80359873.651 7      -743.929          47.000
R12  22810505.500 6 121849559.132 6     -3992.152          36.000    22810514.031 4  94771972.575 4     -3105.010          28.000
R13  19349683.281 6 103326238.620 6     -1263.449          41.000    19349685.469 7  80364831.891 7      -982.686          45.000
R14  20401979.422 8 108754051.495 8      2740.320          49.000    20401981.180 8  84586519.308 8      2131.360          50.000
C05  39793388.312 6 207214615.001 6          .160          36.000    39793387.203 6 160231467.230 6          .381          41.000
C24  21791586.703 8 113474540.215 8       245.375          51.000
C25  24505607.555 7 127607104.007 7      2771.613          47.000
C26  23128478.281 6 120436084.514 6     -2369.898          37.000
E01  24008124.992 8 126163564.092 8      -638.301          51.000    24008126.148 8  96670808.050 8      -489.115          51.000
E04  23683464.391 8 124457434.181 8      -898.684          51.000    23683464.094 8  95363473.617 8      -688.563          51.000
E19  28036883.672 5 147334818.722 5     -2648.188          35.000
E21                                                                  27281687.125 5 109852047.582 5     -2083.446          35.000
E31  24594539.727 8 129245177.554 8      2166.680          51.000    24594540.117 8  99032030.716 8      1660.204          50.000
> 2020 05 10 04 02 30.0000000  0 17        .000000000000
G05  21289516.508 8 111877163.120 8     -2147.258          51.000    21289514.820 8  87176975.648 8     -1673.188          51.000
G28  21074844.844 8 110749125.015 8      1128.453          51.000    21074840.445 7  86298016.999 7       879.314          43.000
G30  21148751.203 7 111137457.454 7     -1807.480          46.000    21148751.758 7  86600630.438 7     -1408.426          47.000
R02  22401749.617 8 119540021.768 8     -3830.781          49.000    22401753.742 6  92975553.544 6     -2979.500          39.000
R03  19306392.711 8 103348622.368 8      -968.676          51.000    19306392.086 7  80382267.443 7      -753.418          46.000
R12  22832890.359 5 121969134.511 5     -3985.898          33.000    22832896.773 4  94864975.622 4     -3100.143          27.000
R13  19356795.844 6 103364219.158 6     -1274.074          41.000    19356797.992 7  80394372.312 7      -990.947          44.000
R14  20386560.711 8 108671871.430 8      2732.871          49.000    20386564.125 8  84522601.403 8      2125.563          49.000
C05  39793341.602 6 207214372.014 6         9.977          36.000    39793340.586 6 160231279.319 6         7.944          41.000
C24  21790166.953 8 113467149.734 8       241.793          51.000
C25  24489615.383 7 127523829.157 7      2774.441          46.000
C26  23142107.656 6 120507056.665 6     -2367.023          37.000
E01  24011762.508 8 126182679.037 8      -641.508          51.000    24011763.727 8  96685454.562 8      -491.548          51.000
E04  23688578.117 8 124484307.257 8      -898.441          51.000    23688577.742 8  95384064.666 8      -688.419          51.000
E19  28051968.766 5 147414090.773 5     -2642.246          34.000
E21                                                                  27297178.195 5 109914423.049 5     -2079.546          35.000
E31  24582155.625 8 129180099.226 8      2166.379          51.000    24582156.328 8  98982165.523 8      1659.899          51.000
> 2020 05 10 04 03  0.0000000  0 17        .000000000000
G05  21301827.141 8 111941857.706 8     -2165.824          51.000    21301826.328 8  87227386.983 8     -1687.655          51.000
G28  21068461.492 8 110715578.857 8      1107.984          51.000    21068457.359 7  86271877.166 7       863.364          45.000
G30  21159103.648 7 111191859.205 7     -1819.234          45.000    21159103.992 7  86643021.399 7     -1417.582          45.000
R02  22423320.109 8 119655121.740 8     -3842.570          50.000    22423319.453 6  93065075.554 6     -2988.672          37.000
R03  19311890.500 8 103378052.409 8      -993.352          51.000    19311889.625 7  80405157.434 7      -772.610          46.000
R12  22855289.914 5 122088790.479 5     -3991.414          32.000    22855295.273 4  94958041.306 4     -3104.436          29.000
R13  19364019.367 6 103402791.755 6     -1297.312          40.000    19364021.367 7  80424373.180 7     -1009.021          44.000
R14  20371236.547 8 108590186.736 8      2712.883          51.000    20371239.406 7  84459068.879 7      2110.020          47.000
C05  39793289.297 6 207214099.932 6         8.055          36.000    39793288.367 6 160231068.898 6         6.071          41.000
C24  21788818.375 8 113460127.750 8       226.309          51.000
C25  24473656.703 7 127440731.426 7      2765.160          45.000
C26  23155769.914 6 120578202.579 6     -2376.547          36.000
E01  24015468.148 8 126202152.292 8      -656.699          51.000    24015469.125 8  96700375.622 8      -503.212          51.000
E04  23693740.539 8 124511436.478 8      -910.305          51.000    23693740.469 8  95404851.975 8      -697.482          51.000
E19  28067068.727 5 147493442.193 5     -2648.395          33.000
E21                                                                  27312689.758 5 109976881.528 5     -2084.479          35.000
E31  24569823.414 8 129115294.113 8      2153.965          51.000    24569824.430 8  98932509.669 8      1650.459          51.000
> 2020 05 10 04 03 30.0000000  0 16        .000000000000
G05  21314225.781 8 112007013.405 8     -2182.672          51.000    21314225.266 8  87278157.639 8     -1700.783          51.000
G28  21062177.320 8 110682555.172 8      1088.891          51.000    21062173.664 7  86246144.412 7       848.483          47.000
G30  21169506.289 7 111246525.505 7     -1829.891          45.000    21169506.547 7  86685618.495 7     -1425.889          45.000
R02  22444940.656 8 119770486.954 8     -3853.078          51.000    22444938.070 6  93154803.964 6     -2996.842          40.000
R03  19317508.648 8 103408128.919 8     -1016.547          50.000    19317508.594 7  80428550.237 7      -790.648          47.000
R12  22877705.516 5 122208532.579 5     -3995.957          32.000    22877710.281 5  95051173.934 5     -3107.970          31.000
R13  19371354.680 6 103441962.551 6     -1318.812          40.000    19371356.906 7  80454839.364 7     -1025.743          44.000
R14  20356008.266 8 108509007.916 8      2694.297          51.000    20356009.836 7  84395929.854 7      2095.564          46.000
C05  39793233.133 5 207213807.003 5         7.766          35.000    39793232.148 6 160230842.401 6         5.422          41.000
C24  21787542.336 8 113453482.117 8       212.109          51.000
C25  24457734.367 7 127357820.052 7      2757.332          46.000
C26  23169467.320 6 120649528.975 6     -2383.734          38.000
E01  24019243.461 8 126221991.424 8      -670.578          51.000    24019244.258 8  96715577.017 8      -513.844          51.000
E04  23698953.305 8 124538830.577 8      -920.711          51.000    23698953.680 8  95425842.255 8      -705.525          51.000
E21                                                                  27328223.281 5 110039428.338 5     -2088.792          34.000
E31  24557545.023 8 129050771.679 8      2142.824          51.000    24557546.289 8  98883070.413 8      1641.934          51.000
> 2020 05 10 04 04  0.0000000  0 17        .000000000000
G05  21326721.859 8 112072680.392 8     -2196.992          51.000    21326721.289 8  87329326.712 8     -1711.942          51.000
G28  21056002.500 8 110650107.004 8      1072.395          51.000    21055999.570 8  86220860.115 8       835.632          48.000
G30  21179968.867 7 111301507.293 7     -1837.574          44.000    21179969.344 7  86728461.428 7     -1431.876          44.000
R02  22466620.188 8 119886168.378 8     -3860.926          50.000    22466617.758 7  93244778.387 7     -3002.942          42.000
R03  19323257.336 8 103438905.510 8     -1037.145          49.000    19323258.406 8  80452487.579 8      -806.668          48.000
R12  22900147.305 5 122328410.942 5     -3997.004          31.000    22900151.562 5  95144412.592 5     -3108.781          32.000
R13  19378811.656 6 103481781.764 6     -1337.848          41.000    19378813.383 7  80485809.825 7     -1040.551          43.000
R14  20340884.641 8 108428389.772 8      2678.352          51.000    20340886.531 8  84333226.885 8      2083.162          48.000
C05  39793182.906 5 207213545.368 5         8.848          35.000    39793181.922 6 160230640.032 6         6.609          41.000
C24  21786348.375 8 113447264.172 8       200.555          51.000
C25  24441858.484 8 127275147.820 8      2752.055          48.000
C26  23183209.891 6 120721086.163 6     -2388.848          39.000
E01  24023098.070 8 126242247.823 8      -681.781          51.000    24023099.008 8  96731098.155 8      -522.383          51.000
E04  23704226.531 8 124566542.193 8      -928.586          51.000    23704227.352 8  95447075.821 8      -711.496          51.000
E19  28097333.688 5 147652484.910 5     -2655.172          33.000
E21                                                                  27343788.359 5 110102102.330 5     -2090.780          33.000
E31  24545330.398 8 128986585.288 8      2134.379          51.000    24545332.156 8  98833888.635 8      1635.409          51.000
> 2020 05 10 04 04 30.0000000  0 18        .000000000000
G05  21339306.750 8 112138814.621 8     -2211.090          51.000    21339306.336 8  87380859.860 8     -1722.927          50.000
G15  22286944.805 6 117118673.085 6      2832.602          38.000
G28  21049929.266 8 110618193.053 8      1055.938          51.000    21049927.117 8  86195992.079 8       822.808          49.000
G30  21190483.070 7 111356761.020 7     -1845.285          42.000    21190484.133 7  86771516.255 7     -1437.885          42.000
R02  22488350.125 8 120002121.362 8     -3868.516          48.000    22488348.359 7  93334964.052 7     -3008.845          43.000
R03  19329128.547 7 103470339.539 7     -1057.734          47.000    19329130.891 8  80476936.288 8      -822.679          49.000
R12  22922605.812 5 122448443.939 5     -3999.426          32.000    22922610.227 5  95237721.771 5     -3110.668          32.000
R13  19386381.594 6 103522204.649 6     -1356.367          40.000    19386383.484 7  80517249.846 7     -1054.949          44.000
R14  20325857.578 8 108348291.266 8      2662.324          50.000    20325861.453 8  84270928.055 8      2070.697          49.000
C05  39793130.672 6 207213273.096 6         9.695          36.000    39793129.680 7 160230429.475 7         7.941          42.000
C24  21785228.703 8 113441431.611 8       188.984          51.000
C25  24426020.859 8 127192673.951 8      2746.867          48.000
C26  23196988.664 6 120792830.739 6     -2393.820          37.000
E01  24027023.828 8 126262878.440 8      -692.961          51.000    24027024.773 8  96746906.017 8      -530.985          51.000
E04  23709552.250 8 124594529.409 8      -936.484          51.000    23709553.195 8  95468520.565 8      -717.611          51.000
E19  28112500.188 5 147732180.469 5     -2656.762          34.000
E21                                                                  27359376.750 5 110164872.014 5     -2093.309          32.000
E31  24533171.797 8 128922693.720 8      2125.812          51.000    24533174.219 8  98784932.738 8      1628.890          51.000
> 2020 05 10 04 05  0.0000000  0 18        .000000000000
G05  21351973.031 8 112205376.381 8     -2225.133          50.000    21351972.828 8  87432726.156 8     -1733.870          50.000
G15  22270796.141 6 117033793.708 6      2827.188          36.000    22270825.797 5  91195268.095 5      2203.009          34.000
G28  21043950.820 8 110586777.101 8      1039.469          51.000    21043949.156 8  86171512.097 8       809.973          49.000
G30  21201041.617 7 111412247.964 7     -1852.652          43.000    21201043.414 7  86814752.857 7     -1443.625          43.000
R02  22510122.680 7 120118305.202 7     -3875.930          47.000    22510122.500 7  93425329.258 7     -3014.612          45.000
R03  19335116.219 8 103502392.998 8     -1078.023          49.000    19335119.164 8  80501866.779 8      -838.460          50.000
R12  22945073.836 5 122568462.504 5     -4001.824          31.000    22945078.406 5  95331069.518 5     -3112.530          32.000
R13  19394056.750 6 103563190.415 6     -1374.867          41.000    19394058.883 7  80549127.667 7     -1069.341          43.000
R14  20310921.906 8 108268676.235 8      2646.508          51.000    20310926.398 8  84209005.211 8      2058.392          50.000
C05  39793069.133 5 207212953.347 5        11.719          35.000    39793068.234 6 160230182.220 6         9.367          41.000
C24  21784175.711 8 113435946.877 8       177.691          51.000
C25  24410213.172 7 127110362.383 7      2741.727          46.000
C26  23210795.125 5 120864724.202 5     -2398.945          35.000
E01  24031013.539 8 126283845.005 8      -703.895          51.000    24031014.414 8  96762971.286 8      -539.294          51.000
E04  23714923.492 8 124622755.190 8      -944.227          51.000    23714924.516 8  95490148.113 8      -723.489          51.000
E19  28127677.953 5 147811938.644 5     -2658.781          35.000
E21                                                                  27374980.977 5 110227704.575 5     -2094.910          30.000
E31  24521062.539 8 128859060.642 8      2117.449          51.000    24521065.570 8  98736174.917 8      1622.479          51.000
> 2020 05 10 04 05 30.0000000  0 16        .000000000000
G05  21364735.391 8 112272442.236 8     -2244.086          51.000    21364735.062 8  87484985.274 8     -1748.638          51.000
G07  23621640.305 5 124132557.278 5     -2776.773          33.000
G15  22254691.773 6 116949160.038 6      2816.887          37.000    22254682.031 6  91129209.562 6      2194.977          36.000
G28  21038082.117 8 110555938.662 8      1018.164          51.000    21038080.945 8  86147482.138 8       793.375          48.000
G30  21211659.414 7 111468045.395 7     -1865.289          42.000    21211661.719 7  86858231.347 7     -1453.472          43.000
R02  22531952.844 7 120234797.587 7     -3888.277          46.000    22531954.102 7  93515934.435 7     -3024.216          45.000
R03  19341235.078 8 103535145.875 8     -1103.527          50.000    19341238.141 8  80527341.251 8      -858.299          49.000
R13  19401851.914 6 103604816.143 6     -1398.527          40.000    19401854.031 7  80581503.213 7     -1087.743          43.000
R14  20296092.844 8 108189625.799 8      2625.391          51.000    20296096.953 8  84147521.534 8      2041.970          50.000
C05  39793013.570 5 207212664.021 5         9.469          35.000    39793012.695 6 160229958.491 6         6.947          41.000
C24  21783204.258 8 113430887.261 8       161.352          51.000
C25  24394450.516 7 127028291.877 7      2731.500          46.000
E01  24035081.836 8 126305225.117 8      -719.629          51.000    24035083.102 8  96779353.442 8      -551.416          51.000
E04  23720355.242 8 124651298.354 8      -956.961          51.000    23720356.289 8  95512018.843 8      -733.229          51.000
E19  28142881.734 5 147891828.649 5     -2665.414          35.000
E31  24509017.977 8 128795765.538 8      2104.020          51.000    24509021.359 8  98687676.076 8      1612.222          51.000
> 2020 05 10 04 06  0.0000000  0 15        .000000000000
G05  21377589.312 8 112339988.897 8     -2260.930          51.000    21377588.711 8  87537619.028 8     -1761.763          51.000
G15  22238629.875 6 116864752.768 6      2808.094          36.000    22238618.133 6  91063437.889 6      2188.137          36.000
G28  21032319.508 8 110525657.670 8       998.820          50.000    21032318.625 8  86123886.534 8       778.302          48.000
G30  21222332.164 6 111524130.828 6     -1875.594          41.000    21222334.562 6  86901934.278 6     -1461.502          41.000
R02  22553835.867 7 120351574.734 7     -3898.785          47.000    22553838.586 7  93606761.031 7     -3032.391          44.000
R03  19347480.852 8 103568577.010 8     -1127.027          51.000    19347483.664 8  80553343.238 8      -876.577          49.000
R13  19409762.578 6 103647058.387 6     -1419.312          40.000    19409765.008 7  80614358.296 7     -1103.910          44.000
R14  20281366.172 8 108111120.433 8      2606.383          51.000    20281369.203 8  84086461.824 8      2027.187          49.000
C05  39792959.914 5 207212384.352 5         8.016          35.000    39792958.984 6 160229742.191 6         6.141          41.000
C24  21782310.500 8 113426231.361 8       147.207          51.000
C25  24378731.664 8 126946442.397 8      2723.301          48.000
E01  24039224.688 8 126326996.824 8      -733.605          51.000    24039226.383 8  96796035.651 8      -562.059          51.000
E04  23725843.352 8 124680138.140 8      -967.602          51.000    23725844.492 8  95534116.836 8      -741.388          51.000
E19  28158107.180 5 147971851.618 5     -2669.941          32.000
E31  24497034.305 8 128732788.390 8      2092.637          51.000    24497037.688 8  98639420.872 8      1603.416          51.000
> 2020 05 10 04 06 30.0000000  0 14        .000000000000
G05  21390539.727 8 112408042.628 8     -2281.648          51.000    21390538.414 8  87590647.861 8     -1777.911          51.000
G28  21026668.352 8 110495962.683 8       975.301          48.000    21026667.781 8  86100747.563 8       759.975          48.000
G30  21233064.766 6 111580530.771 6     -1889.781          38.000    21233066.977 6  86945882.275 6     -1472.557          38.000
R02  22575777.602 7 120468663.303 7     -3912.820          47.000    22575781.297 7  93697829.852 7     -3043.308          43.000
R03  19353858.664 8 103602714.766 8     -1154.516          51.000    19353860.945 8  80579894.809 8      -897.957          48.000
R13  19417793.320 6 103689942.332 6     -1444.941          38.000    19417795.906 7  80647712.453 7     -1123.843          44.000
R14  20266746.703 8 108033190.066 8      2583.270          51.000    20266749.133 8  84025849.352 8      2009.210          48.000
C05  39792913.383 6 207212141.968 6         2.703          36.000    39792912.469 6 160229554.745 6         2.003          41.000
C24  21781499.273 8 113422006.216 8       128.926          51.000
C25  24363061.906 8 126864842.523 8      2711.090          50.000
C26  23252464.039 5 121081685.938 5     -2427.422          32.000
E01  24043447.375 8 126349187.035 8      -751.328          51.000    24043448.953 8  96813038.522 8      -575.690          51.000
E04  23731393.328 8 124709302.673 8      -982.238          51.000    23731394.039 8  95556463.664 8      -752.612          51.000
E31  24485116.703 8 128670158.005 8      2077.227          51.000    24485120.203 8  98591431.360 8      1591.641          51.000
> 2020 05 10 04 07  0.0000000  0 15        .000000000000
G05  21403581.828 8 112476578.010 8     -2288.883          51.000    21403579.375 8  87644052.021 8     -1783.548          51.000
G13  20569875.117 4 108095422.766 4      1329.957          28.000
G28  21021124.508 8 110466831.661 8       965.258          48.000    21021124.422 8  86078048.044 8       752.149          48.000
G30  21243852.672 6 111637220.693 6     -1890.410          36.000    21243854.359 6  86990056.242 6     -1473.047          37.000
R02  22597773.445 7 120586037.173 7     -3913.492          46.000    22597776.930 7  93789120.627 7     -3043.827          42.000
R03  19360363.828 8 103637535.547 8     -1168.480          51.000    19360365.742 7  80606977.614 7      -908.818          46.000
R13  19425939.094 6 103733441.940 6     -1456.547          39.000    19425941.898 7  80681545.481 7     -1132.870          44.000
R14  20252229.883 8 107955812.690 8      2573.648          50.000    20252233.055 8  83965666.951 8      2001.724          48.000
C05  39792869.664 6 207211913.957 6        11.188          36.000    39792868.688 6 160229378.424 6         8.491          41.000
C24  21780766.305 8 113418188.271 8       124.043          51.000
C25  24347436.008 8 126783470.138 8      2712.168          51.000
C26  23266433.602 5 121154428.182 5     -2424.805          33.000
E01  24047745.141 8 126371771.592 8      -755.762          51.000    24047746.602 8  96830343.558 8      -579.099          51.000
E04  23737000.938 8 124738769.040 8      -983.621          51.000    23737000.688 8  95579041.766 8      -753.678          51.000
E31  24473260.734 8 128607852.110 8      2075.098          51.000    24473264.383 8  98543690.478 8      1590.001          51.000
> 2020 05 10 04 07 30.0000000  0 15        .000000000000
G05  21416695.695 8 112545491.701 8     -2307.465          51.000    21416692.516 8  87697750.993 8     -1798.025          51.000
G28  21015669.195 8 110438164.224 8       943.789          48.000    21015669.328 8  86055709.753 8       735.417          48.000
G30  21254676.336 6 111694098.063 6     -1903.293          38.000    21254677.555 6  87034376.251 6     -1483.085          39.000
R02  22619802.312 7 120703591.080 7     -3925.414          42.000    22619806.039 6  93880551.377 6     -3053.103          41.000
R03  19366977.086 8 103672936.309 8     -1193.777          51.000    19366978.531 7  80634511.487 7      -928.493          45.000
R13  19434180.656 6 103777451.380 6     -1479.645          38.000    19434183.367 7  80715775.033 7     -1150.835          43.000
R14  20237798.336 8 107878887.358 8      2552.559          51.000    20237801.922 7  83905836.110 7      1985.323          47.000
C05  39792809.266 5 207211600.110 5         8.371          35.000    39792808.445 6 160229135.717 6         6.023          41.000
C14  22084554.648 8 115000069.365 8     -1707.270          51.000    22084550.547 8  88925333.352 8     -1320.115          51.000
C24  21780092.023 8 113414676.628 8       107.914          51.000
C25  24331834.523 8 126702225.886 8      2702.098          50.000
C26  23280424.031 5 121227277.817 5     -2433.652          33.000
E01  24052098.555 8 126394648.321 8      -771.402          51.000    24052100.148 8  96847872.469 8      -591.110          51.000
E04  23742646.602 8 124768436.253 8      -996.273          51.000    23742646.023 8  95601773.749 8      -763.363          51.000
E31  24461447.078 8 128545770.463 8      2061.691          51.000    24461450.781 8  98496121.408 8      1579.705          51.000
> 2020 05 10 04 08  0.0000000  0 16        .000000000000
G05  21429900.859 8 112614887.469 8     -2320.875          51.000    21429897.922 8  87751825.602 8     -1808.474          51.000
G15  22174796.609 5 116529342.124 5      2781.539          31.000
G28  21010322.805 8 110410067.253 8       927.379          50.000    21010322.781 8  86033816.005 8       722.633          48.000
G30  21265555.273 6 111751267.499 6     -1910.285          38.000    21265556.609 6  87078923.818 6     -1488.537          39.000
R02  22641882.969 6 120821430.790 6     -3932.328          39.000    22641888.609 6  93972204.526 6     -3058.474          40.000
R03  19373718.695 8 103709024.933 8     -1214.062          50.000    19373719.750 7  80662580.384 7      -944.271          46.000
R13  19442537.531 6 103822076.058 6     -1497.227          39.000    19442540.211 7  80750483.116 7     -1164.510          43.000
R14  20223473.281 8 107802522.994 8      2536.371          51.000    20223476.273 8  83846441.625 8      1972.733          48.000
C05  39792752.703 5 207211305.628 5         9.723          35.000    39792751.914 6 160228907.969 6         7.346          41.000
C14  22094418.758 8 115051434.791 8     -1718.988          51.000    22094415.117 8  88965052.334 8     -1329.333          51.000
C24  21779496.375 8 113411575.775 8        96.816          51.000
C25  24316277.438 8 126621215.795 8      2696.785          50.000
C26  23294455.539 5 121300340.305 5     -2438.223          34.000
E01  24056527.641 8 126417922.304 8      -782.164          51.000    24056529.172 8  96865705.768 8      -599.356          51.000
E04  23748350.812 8 124798410.608 8     -1004.031          51.000    23748350.047 8  95624741.083 8      -769.305          51.000
E31  24449695.797 8 128484020.048 8      2053.043          51.000    24449699.680 8  98448806.129 8      1573.108          51.000
> 2020 05 10 04 08 30.0000000  0 16        .000000000000
G05  21443194.008 8 112684746.872 8     -2334.109          51.000    21443191.391 8  87806261.478 8     -1818.787          51.000
G28  21005082.148 8 110382525.055 8       911.043          51.000    21005081.594 8  86012354.556 8       709.904          48.000
G30  21276486.203 5 111808711.182 5     -1917.172          34.000    21276487.859 5  87123685.133 5     -1493.900          34.000
R02  22664014.883 6 120939536.795 6     -3938.992          41.000    22664021.641 6  94064064.796 6     -3063.661          41.000
R03  19380585.570 8 103745784.582 8     -1234.246          51.000    19380586.539 7  80691171.161 7      -959.969          47.000
R12  23102867.375 5 123411369.301 5     -4020.551          32.000
R13  19451006.062 6 103867296.447 6     -1514.887          38.000    19451008.453 7  80785654.528 7     -1178.242          42.000
R14  20209250.664 8 107726704.657 8      2520.375          51.000    20209253.164 8  83787471.801 8      1960.292          49.000
C05  39792696.711 5 207211013.218 5        11.707          35.000    39792695.984 6 160228682.610 6         9.155          41.000
C14  22104361.797 8 115103211.176 8     -1730.508          51.000    22104358.500 8  89005089.080 8     -1338.160          51.000
C24  21778976.500 8 113408868.888 8        85.805          51.000
C25  24300761.938 8 126540424.448 8      2691.516          50.000
C26  23308523.391 5 121373591.016 5     -2442.594          33.000
E01  24061029.031 8 126441576.142 8      -792.504          51.000    24061030.344 8  96883830.126 8      -607.255          51.000
E04  23754110.312 8 124828675.925 8     -1011.441          51.000    23754109.656 8  95647931.361 8      -774.986          51.000
E31  24438004.180 8 128422585.365 8      2044.832          50.000    24438008.609 8  98401732.783 8      1566.780          51.000
> 2020 05 10 04 09  0.0000000  0 17        .000000000000
G05  21456562.695 8 112755002.129 8     -2351.000          50.000    21456560.305 8  87861005.822 8     -1831.948          50.000
G07  23732972.578 6 124717589.215 6     -2794.609          36.000    23732963.906 6  97182549.093 6     -2177.618          36.000
G28  20999934.617 8 110355472.833 8       890.969          51.000    20999933.758 8  85991274.905 8       694.261          48.000
G30  21287456.531 5 111866362.342 5     -1928.309          34.000    21287458.602 5  87168608.133 5     -1502.581          33.000
R02  22686185.977 7 121057840.890 7     -3949.391          44.000    22686192.430 6  94156079.068 6     -3071.748          41.000
R03  19387565.547 8 103783148.621 8     -1258.215          51.000    19387566.266 8  80720232.079 8      -978.612          48.000
R12  23125467.484 5 123532035.202 5     -4025.289          32.000
R13  19459572.875 6 103913043.572 6     -1536.363          38.000    19459575.375 7  80821235.635 7     -1194.949          42.000
R14  20195117.539 8 107651367.140 8      2500.543          51.000    20195120.234 8  83728875.947 8      1944.867          50.000
C05  39792629.047 6 207210661.061 6        10.316          36.000    39792628.242 6 160228409.488 6         8.065          41.000
C14  22114371.023 8 115155332.791 8     -1745.672          51.000    22114368.000 8  89045392.801 8     -1349.888          51.000
C24  21778519.664 8 113406490.352 8        71.266          51.000
C25  24285276.250 8 126459787.724 8      2682.750          49.000
C26  23322614.852 5 121446963.281 5     -2449.418          32.000
E01  24065590.039 8 126465543.309 8      -806.680          51.000    24065591.266 8  96902194.567 8      -618.156          51.000
E04  23759912.414 8 124859166.896 8     -1022.742          51.000    23759912.125 8  95671294.537 8      -783.666          51.000
E31  24426360.547 8 128361401.791 8      2032.625          50.000    24426365.539 8  98354851.837 8      1557.466          51.000
> 2020 05 10 04 09 30.0000000  0 15        .000000000000
G05  21470021.477 8 112825729.515 8     -2371.004          50.000    21470019.648 8  87916118.077 8     -1847.532          50.000
G28  20994895.211 8 110328989.676 8       867.578          51.000    20994894.484 8  85970638.697 8       676.035          48.000
G30  21298481.391 6 111924297.620 6     -1941.715          38.000    21298483.445 6  87213752.501 6     -1513.028          38.000
R02  22708408.648 7 121176419.822 7     -3963.062          43.000    22708415.203 6  94248307.090 6     -3082.382          40.000
R03  19394673.117 8 103821196.221 8     -1285.480          50.000    19394674.086 8  80749824.644 8      -999.821          49.000
R12  23148071.000 4 123652789.452 4     -4032.918          29.000
R13  19468252.852 6 103959393.508 6     -1560.957          37.000    19468255.211 7  80857285.579 7     -1214.078          42.000
R14  20181089.398 8 107576591.487 8      2477.418          51.000    20181092.555 8  83670717.089 8      1926.881          49.000
C05  39792564.328 6 207210324.529 6         5.449          36.000    39792563.430 6 160228148.501 6         4.114          41.000
C14  22124461.297 8 115207876.276 8     -1764.105          51.000    22124458.547 8  89086022.749 8     -1364.170          51.000
C24  21778140.523 8 113404516.959 8        53.391          51.000
C25  24269835.227 8 126379383.928 8      2670.547          48.000
E01  24070225.219 8 126489900.889 8      -824.117          51.000    24070226.602 8  96920858.146 8      -631.428          51.000
E04  23765772.297 8 124889961.850 8     -1037.309          50.000    23765772.344 8  95694890.637 8      -794.782          51.000
E31  24414780.375 8 128300548.308 8      2017.227          51.000    24414785.352 8  98308223.836 8      1545.694          51.000
> 2020 05 10 04 10  0.0000000  0 16        .000000000000
G05  21483583.031 8 112896995.604 8     -2380.254          50.000    21483581.930 8  87971650.082 8     -1854.743          50.000
G28  20989977.359 8 110303145.509 8       854.977          51.000    20989976.445 7  85950500.377 7       666.216          47.000
G30  21309573.273 6 111982585.108 6     -1944.242          38.000    21309575.188 6  87259171.327 6     -1514.994          38.000
R02  22730695.234 7 121295341.626 7     -3965.520          44.000    22730701.344 6  94340801.785 6     -3084.293          37.000
R03  19401921.766 8 103859997.907 8     -1301.648          50.000    19401922.852 8  80780003.723 8     -1012.393          48.000
R12  23170703.992 5 123773745.627 5     -4028.152          32.000
R13  19477058.250 6 104006414.321 6     -1573.906          36.000    19477060.695 6  80893857.311 6     -1224.149          41.000
R14  20167180.227 8 107502449.382 8      2465.109          51.000    20167183.609 8  83613050.988 8      1917.307          48.000
C05  39792515.734 5 207210071.547 5        11.863          35.000    39792514.859 6 160227952.858 6         8.714          41.000
C14  22134645.547 8 115260909.571 8     -1771.754          49.000    22134643.211 8  89127031.445 8     -1370.057          51.000
C24  21777852.227 8 113403016.843 8        46.273          51.000
C25  24254452.352 8 126299282.754 8      2669.148          49.000
E01  24074947.648 8 126514717.286 8      -830.617          51.000    24074949.203 8  96939873.299 8      -636.471          51.000
E04  23771703.414 8 124921130.361 8     -1040.953          50.000    23771703.531 8  95718773.032 8      -797.697          51.000
E19  28280610.719 5 148615610.360 5     -2694.656          35.000
E31  24403276.953 8 128240095.224 8      2012.648          51.000    24403281.258 8  98261902.653 8      1542.096          51.000
> 2020 05 10 04 10 30.0000000  0 17        .000000000000
G05  21497216.336 8 112968637.379 8     -2395.727          51.000    21497215.906 8  88027474.820 8     -1866.800          51.000
G07  23780890.203 5 124969421.433 5     -2802.516          34.000
G28  20985150.375 8 110277779.825 8       836.074          51.000    20985149.367 7  85930734.917 7       651.486          47.000
G30  21320701.141 5 112041062.127 5     -1954.402          35.000    21320703.086 5  87304737.869 5     -1522.911          35.000
R02  22753014.922 7 121414440.326 7     -3974.422          43.000    22753019.961 6  94433434.096 6     -3091.217          36.000
R03  19409280.562 8 103899388.923 8     -1324.414          51.000    19409281.281 8  80810641.192 8     -1030.100          48.000
R12  23193336.727 5 123894645.292 5     -4031.652          31.000
R13  19485958.250 6 104053939.175 6     -1594.074          37.000    19485960.445 7  80930821.066 7     -1239.836          42.000
R14  20153360.125 8 107428778.647 8      2446.316          51.000    20153363.383 8  83555751.538 8      1902.694          49.000
C05  39792452.688 6 207209743.327 6        10.383          36.000    39792451.930 6 160227699.018 6         8.234          41.000
C14  22144892.742 8 115314272.025 8     -1785.656          48.000    22144891.062 8  89168294.654 8     -1380.828          51.000
C24  21777623.953 8 113401829.488 8        32.863          51.000
C25  24239097.148 8 126219325.117 8      2661.457          49.000
E01  24079726.484 8 126539830.153 8      -843.457          51.000    24079727.977 8  96959115.616 8      -646.336          51.000
E04  23777674.398 8 124952511.352 8     -1051.047          48.000    23777675.242 8  95742818.233 8      -805.333          51.000
E19  28296005.727 5 148696508.157 5     -2698.324          35.000    28296007.930 5 113936299.727 5     -2067.619          33.000
E31  24391819.484 8 128179882.094 8      2001.617          51.000    24391822.758 8  98215765.339 8      1533.698          51.000
> 2020 05 10 04 11  0.0000000  0 16        .000000000000
G05  21510940.008 8 113040753.755 8     -2412.371          51.000    21510939.953 8  88083669.391 8     -1879.770          51.000
G28  20980433.852 8 110252994.509 8       815.836          51.000    20980432.547 7  85911421.696 7       635.716          47.000
G30  21331884.008 6 112099828.375 6     -1964.207          36.000    21331886.062 5  87350529.797 5     -1530.554          35.000
R02  22775387.523 7 121533815.917 7     -3984.449          45.000    22775390.797 6  94526281.737 6     -3099.016          37.000
R03  19416768.742 8 103939472.423 8     -1348.316          51.000    19416769.422 8  80841817.236 8     -1048.691          48.000
R12  23215986.086 4 124015634.068 4     -4034.473          29.000
R13  19494971.422 6 104102068.147 6     -1614.742          36.000    19494973.688 6  80968254.707 6     -1255.914          41.000
R14  20139647.883 8 107355683.275 8      2426.273          51.000    20139651.141 8  83498899.618 8      1887.105          49.000
C05  39792394.398 5 207209439.948 5         8.930          35.000    39792393.633 6 160227464.394 6         7.047          41.000
C14  22155222.297 8 115368062.901 8     -1800.750          49.000    22155220.844 8  89209889.151 8     -1392.493          51.000
C24  21777474.672 8 113401054.404 8        18.391          51.000
C25  24223788.969 8 126139612.003 8      2652.418          49.000
E01  24084580.734 8 126565339.489 8      -857.535          51.000    24084582.219 8  96978661.723 8      -657.054          51.000
E04  23783705.055 8 124984206.103 8     -1062.285          49.000    23783707.023 8  95767103.823 8      -813.998          51.000
E19  28311424.969 5 148777532.413 5     -2703.793          35.000    28311426.297 5 113998381.217 5     -2071.836          34.000
E31  24380427.211 8 128120010.856 8      1989.344          51.000    24380429.359 8  98169889.995 8      1524.314          51.000
> 2020 05 10 04 11 30.0000000  0 17        .000000000000
G05  21524746.031 8 113113303.690 8     -2425.879          51.000    21524745.945 8  88140201.811 8     -1890.295          51.000
G28  20975820.664 8 110228751.691 8       798.629          51.000    20975818.906 7  85892531.178 7       622.308          47.000
G30  21343114.352 6 112158843.986 6     -1971.949          37.000    21343116.281 6  87396515.969 6     -1536.584          37.000
R02  22797804.695 8 121653427.582 8     -3991.320          48.000    22797806.211 6  94619312.973 6     -3104.363          37.000
R03  19424378.500 8 103980208.858 8     -1369.180          51.000    19424379.484 7  80873501.086 7     -1064.921          47.000
R12  23238643.617 5 124136670.456 5     -4035.520          32.000
R13  19504089.562 6 104150759.409 6     -1633.020          37.000    19504091.648 6  81006125.682 6     -1270.126          40.000
R14  20126036.570 8 107283125.409 8      2409.082          51.000    20126039.539 8  83442465.749 8      1873.730          49.000
C05  39792333.453 5 207209122.257 5        10.730          35.000    39792332.812 6 160227219.506 6         8.014          41.000
C14  22165627.000 8 115422243.137 8     -1812.977          50.000    22165625.039 8  89251784.733 8     -1401.827          51.000
C24  21777397.219 8 113400652.644 8         6.719          51.000
C25  24208521.008 8 126060106.054 8      2646.285          49.000
C26  23393665.852 5 121816980.227 5     -2479.117          33.000
E01  24089502.867 8 126591205.700 8      -868.504          51.000    24089504.508 8  96998481.277 8      -665.474          51.000
E04  23789788.500 8 125016176.238 8     -1070.699          51.000    23789791.117 8  95791600.386 8      -820.376          51.000
E19  28326860.672 5 148858657.133 5     -2706.031          33.000    28326861.039 5 114060531.621 5     -2072.947          33.000
E31  24369092.578 8 128060443.764 8      1980.129          51.000    24369093.852 8  98124247.692 8      1517.260          51.000
> 2020 05 10 04 12  0.0000000  0 18        .000000000000
G05  21538636.648 8 113186299.327 8     -2440.477          51.000    21538636.398 8  88197081.525 8     -1901.670          51.000
G07  23828961.852 5 125222044.087 5     -2809.844          34.000
G28  20971313.344 8 110205066.307 8       780.324          50.000    20971311.969 8  85874075.041 8       608.045          48.000
G30  21354394.766 6 112218122.136 6     -1980.371          40.000    21354396.234 6  87442706.711 6     -1543.146          40.000
R02  22820267.172 7 121773286.945 7     -3999.301          46.000    22820268.016 6  94712536.870 6     -3110.570          37.000
R03  19432112.852 8 104021612.571 8     -1391.223          50.000    19432113.797 7  80905703.952 7     -1082.062          47.000
R12  23261313.023 5 124257766.316 5     -4036.906          30.000    23261318.188 4  96644940.567 4     -3139.816          26.000
R13  19513315.828 6 104200025.210 6     -1651.906          36.000    19513317.820 6  81044443.507 6     -1284.816          40.000
R14  20112528.594 8 107211121.397 8      2390.906          51.000    20112531.516 8  83386462.609 8      1859.594          49.000
C05  39792272.961 6 207208806.871 6        10.316          36.000    39792272.211 6 160226975.581 6         8.168          41.000
C14  22176109.164 8 115476826.320 8     -1826.121          50.000    22176106.758 8  89293991.889 8     -1412.009          51.000
C24  21777394.430 8 113400638.037 8        -5.887          51.000
C25  24193295.734 8 125980822.554 8      2639.207          48.000
C26  23407964.086 5 121891412.742 5     -2486.105          30.000
E01  24094495.430 8 126617442.352 8      -880.633          51.000    24094496.883 8  97018584.674 8      -674.771          51.000
E04  23795927.742 8 125048436.549 8     -1080.090          51.000    23795930.055 8  95816319.302 8      -827.607          51.000
E19  28342315.555 5 148939869.981 5     -2708.711          34.000    28342314.664 5 114122759.604 5     -2075.548          33.000
E31  24357818.359 8 128001196.321 8      1969.699          51.000    24357819.164 8  98078850.310 8      1509.283          51.000
> 2020 05 10 04 12 30.0000000  0 17        .000000000000
G05  21552611.078 8 113259735.571 8     -2455.152          51.000    21552610.500 8  88254304.578 8     -1913.106          51.000
G28  20966911.477 8 110181935.458 8       761.883          50.000    20966910.344 8  85856050.992 8       593.672          48.000
G30  21365724.250 6 112277658.028 6     -1989.148          40.000    21365724.930 6  87489098.264 6     -1549.986          40.000
R02  22842773.883 7 121893388.704 7     -4007.465          44.000    22842774.625 5  94805949.279 5     -3116.917          35.000
R03  19439970.898 8 104063679.685 8     -1413.363          48.000    19439972.602 7  80938422.784 7     -1099.283          47.000
R12  23283992.750 5 124378915.341 5     -4039.312          31.000    23283997.008 4  96739172.490 4     -3141.691          26.000
R13  19522647.938 6 104249858.693 6     -1670.582          36.000    19522649.742 6  81083202.887 6     -1299.342          39.000
R14  20099123.898 8 107139669.024 8      2372.562          51.000    20099127.078 8  83330888.534 8      1845.326          48.000
C05  39792212.000 6 207208489.305 6        10.453          36.000    39792211.242 6 160226729.977 6         8.349          41.000
C14  22186667.711 8 115531808.118 8     -1839.223          49.000    22186665.297 8  89336507.273 8     -1422.285          51.000
C24  21777465.055 8 113401006.418 8       -18.656          51.000
C25  24178112.297 7 125901758.906 7      2631.805          46.000
C26  23422294.617 5 121966059.301 5     -2491.113          31.000
E01  24099557.641 8 126644044.843 8      -892.734          51.000    24099558.609 8  97038968.393 8      -684.058          51.000
E04  23802121.844 8 125080983.680 8     -1089.676          51.000    23802123.320 8  95841257.996 8      -834.925          51.000
E19  28357788.641 5 149021184.188 5     -2712.559          32.000    28357787.242 5 114185062.096 5     -2077.807          34.000
E31  24346604.016 8 127942265.812 8      1959.137          51.000    24346605.000 8  98033695.778 8      1501.127          51.000
> 2020 05 10 04 13  0.0000000  0 16        .000000000000
G05  21566678.953 8 113333663.005 8     -2470.398          51.000    21566677.688 8  88311910.344 8     -1924.986          51.000
G28  20962625.594 8 110159413.446 8       742.641          50.000    20962624.500 8  85838501.327 8       578.681          48.000
G30  21377112.547 6 112337503.527 6     -1997.891          39.000    21377112.664 6  87535731.060 6     -1556.804          40.000
R02  22865334.891 6 122013784.320 6     -4015.992          41.000    22865335.477 5  94899590.286 5     -3123.549          34.000
R03  19447962.844 8 104106464.338 8     -1435.945          48.000    19447965.578 7  80971699.720 7     -1116.843          47.000
R12  23306684.516 5 124500124.076 5     -4041.055          30.000
R13  19532096.117 6 104300311.143 6     -1690.398          36.000    19532098.117 6  81122443.673 6     -1314.754          39.000
R14  20085833.203 8 107068823.608 8      2353.418          51.000    20085836.406 7  83275786.559 7      1830.436          47.000
C05  39792160.719 6 207208222.402 6        10.074          36.000    39792159.961 6 160226523.587 6         7.823          41.000
C14  22197312.570 8 115587240.487 8     -1853.188          49.000    22197310.562 8  89379371.076 8     -1433.017          51.000
C24  21777619.500 8 113401809.928 8       -32.020          51.000
C25  24162980.641 7 125822968.749 7      2623.852          46.000
E01  24104699.555 8 126671065.473 8      -905.676          51.000    24104700.430 8  97059672.504 8      -693.879          51.000
E04  23808380.578 8 125113871.137 8     -1099.953          51.000    23808381.469 8  95866457.458 8      -842.755          51.000
E19                                                                  28373287.727 5 114247473.650 5     -2080.854          31.000
E31  24335460.258 8 127883706.437 8      1947.785          51.000    24335461.555 8  97988825.602 8      1492.531          51.000
> 2020 05 10 04 13 30.0000000  0 17        .000000000000
G05  21580808.250 8 113407914.462 8     -2480.414          49.000    21580806.406 8  88369768.609 8     -1932.790          48.000
G07  23877139.094 5 125475212.674 5     -2813.219          31.000
G15  22002811.789 5 115625542.019 5      2699.543          31.000
G28  20958424.289 8 110137336.311 8       728.594          50.000    20958423.797 8  85821298.360 8       567.735          48.000
G30  21388528.062 6 112397492.857 6     -2002.254          37.000    21388528.766 6  87582475.928 6     -1560.201          38.000
R02  22887918.891 6 122134304.151 6     -4019.102          38.000    22887920.070 5  94993327.892 5     -3125.971          34.000
R03  19456057.938 8 104149798.430 8     -1453.527          49.000    19456060.438 7  81005404.022 7     -1130.521          47.000
R12  23329370.984 5 124621311.133 5     -4038.031          30.000
R13  19541628.320 6 104351212.297 6     -1703.863          37.000    19541629.805 6  81162033.443 6     -1325.227          38.000
R14  20072625.188 8 106998419.490 8      2339.520          51.000    20072627.898 7  83221027.795 7      1819.626          46.000
C05  39792087.820 6 207207843.218 6        14.527          36.000    39792087.156 6 160226230.350 6        11.451          41.000
C14  22208012.312 8 115642959.410 8     -1861.945          48.000    22208011.266 8  89422456.446 8     -1439.762          51.000
C24  21777826.180 8 113402884.760 8       -40.297          51.000
C25  24147870.945 7 125744289.809 7      2620.656          47.000
E01  24109889.398 8 126698338.550 8      -913.172          51.000    24109890.445 8  97080570.065 8      -699.664          51.000
E04  23814672.578 8 125146934.501 8     -1104.918          51.000    23814673.570 8  95891791.685 8      -846.610          51.000
E31  24324356.297 8 127825354.431 8      1941.664          51.000    24324357.719 8  97944114.316 8      1487.816          51.000
> 2020 05 10 04 14  0.0000000  0 14        .000000000000
G05  21595043.250 8 113482723.033 8     -2498.379          48.000    21595041.633 8  88428060.984 8     -1946.789          48.000
G28  20954352.688 8 110115939.161 8       706.422          51.000    20954352.109 7  85804625.248 7       550.456          47.000
G30  21400015.273 6 112457859.222 6     -2014.125          36.000    21400016.852 6  87629514.641 6     -1569.448          36.000
R02  22910570.672 6 122255184.475 6     -4030.789          39.000    22910573.070 5  95087345.796 5     -3135.064          34.000
R03  19464300.727 8 104193920.529 8     -1479.289          51.000    19464302.758 8  81039721.192 8     -1150.558          48.000
R13  19551289.109 6 104402798.362 6     -1726.836          36.000    19551291.070 6  81202155.946 6     -1343.095          38.000
R14  20059544.758 8 106928696.326 8      2317.273          50.000    20059547.609 7  83166798.675 7      1802.324          47.000
C05  39792038.086 5 207207584.408 5        11.004          35.000    39792037.500 6 160226030.218 6         8.593          41.000
C14  22218812.031 8 115699196.537 8     -1878.762          49.000    22218811.641 8  89465942.552 8     -1452.829          51.000
C24  21778129.289 8 113404462.863 8       -56.605          51.000
C25  24132827.820 7 125665955.503 7      2609.770          47.000
E01  24115171.844 8 126726097.785 8      -928.953          51.000    24115172.594 8  97101840.126 8      -711.795          51.000
E04  23821042.734 8 125180408.679 8     -1118.230          51.000    23821043.648 8  95917440.707 8      -856.844          51.000
E31  24313336.727 8 127767445.336 8      1927.406          51.000    24313338.320 8  97899742.404 8      1476.790          51.000
> 2020 05 10 04 14 30.0000000  0 16        .000000000000
G05  21609325.680 8 113557778.382 8     -2510.355          49.000    21609324.523 8  88486545.667 8     -1956.121          49.000
G15  21972123.758 6 115464249.803 6      2681.305          38.000    21972114.344 4  89972113.802 4      2089.325          29.000
G28  20950352.234 8 110094914.572 8       690.211          51.000    20950351.070 7  85788242.446 7       537.830          47.000
G30  21411515.828 5 112518293.451 5     -2019.930          34.000    21411517.383 5  87676606.282 5     -1573.971          33.000
R02  22933231.992 6 122376109.737 6     -4036.008          40.000    22933234.781 5  95181398.703 5     -3139.117          33.000
R03  19472632.250 8 104238516.604 8     -1498.867          51.000    19472633.688 8  81074407.007 8     -1165.786          48.000
R12  23374790.586 5 124863871.872 5     -4042.613          32.000
R13  19561018.695 6 104454753.542 6     -1742.102          36.000    19561020.562 6  81242565.539 6     -1354.971          36.000
R14  20046534.172 8 106859342.719 8      2301.238          51.000    20046537.641 8  83112856.971 8      1789.855          49.000
C05  39791952.820 6 207207139.808 6        13.445          36.000    39791952.352 6 160225687.184 6        10.548          41.000
C14  22229652.961 8 115755645.797 8     -1889.383          50.000    22229652.664 8  89509592.701 8     -1461.045          51.000
C24  21778470.461 8 113406238.321 8       -66.750          51.000
C25  24117792.617 8 125587661.447 8      2604.895          48.000
E01  24120487.961 8 126754034.054 8      -938.484          51.000    24120488.453 8  97123245.840 8      -719.143          51.000
E04  23827432.500 8 125213985.844 8     -1125.352          51.000    23827433.023 8  95943168.664 8      -862.255          51.000
E31  24302342.883 8 127709671.976 8      1919.172          51.000    24302344.641 8  97855474.490 8      1470.534          51.000
> 2020 05 10 04 15  0.0000000  0 15        .000000000000
G05  21623725.039 8 113633445.853 8     -2530.637          51.000    21623724.109 8  88545507.327 8     -1971.925          51.000
G28  20946492.688 8 110074631.095 8       665.570          51.000    20946491.305 7  85772437.175 7       518.626          47.000
G30  21423098.727 5 112579143.426 5     -2034.020          30.000    21423100.227 4  87724036.591 4     -1584.953          29.000
R02  22955971.773 6 122497452.132 6     -4049.805          39.000    22955974.211 5  95275776.066 5     -3149.854          33.000
R03  19481122.258 8 104283961.342 8     -1526.980          51.000    19481122.680 8  81109752.917 8     -1187.648          49.000
R13  19570886.945 6 104507448.995 6     -1766.996          36.000    19570888.477 6  81283550.871 6     -1374.330          37.000
R14  20033663.672 8 106790733.572 8      2276.461          51.000    20033667.477 8  83059494.299 8      1770.581          49.000
C05  39791902.250 5 207206876.343 5         7.832          35.000    39791901.742 6 160225483.454 6         5.812          40.000
C14  22240604.797 8 115812671.112 8     -1908.516          51.000    22240604.258 8  89553688.286 8     -1475.903          51.000
C24  21778919.203 8 113408575.240 8       -85.379          51.000
C25  24102835.500 7 125509773.301 7      2591.281          47.000
C26  23494426.047 5 122341663.841 5     -2521.602          32.000
E01  24125907.633 8 126782514.476 8      -956.543          51.000    24125908.305 8  97145068.505 8      -732.971          50.000
E04  23833911.812 8 125248034.325 8     -1140.973          51.000    23833912.047 8  95969257.767 8      -874.234          51.000
E31  24291445.172 8 127652403.380 8      1902.352          51.000    24291446.891 8  97811593.340 8      1457.586          51.000
> 2020 05 10 04 15 30.0000000  0 15        .000000000000
G05  21638200.547 8 113709512.415 8     -2540.648          51.000    21638199.469 8  88604779.949 8     -1979.726          51.000
G28  20942734.102 8 110054878.184 8       651.156          51.000    20942732.352 7  85757045.302 7       507.394          47.000
G30  21434723.625 5 112640234.515 5     -2038.461          33.000    21434725.070 5  87771640.074 5     -1588.411          34.000
R02  22978748.961 6 122618994.435 6     -4053.137          39.000    22978752.078 5  95370308.932 5     -3152.440          32.000
R03  19489730.195 8 104330038.944 8     -1544.809          51.000    19489730.406 8  81145591.025 8     -1201.521          49.000
R13  19580852.906 5 104560666.796 5     -1781.141          35.000    19580854.820 6  81324942.485 6     -1385.332          37.000
R14  20020893.016 8 106722655.735 8      2261.973          51.000    20020896.391 8  83006544.878 8      1759.312          49.000
C05  39791846.109 5 207206584.749 5        12.105          35.000    39791845.523 6 160225257.183 6         9.059          40.000
C14  22251626.914 8 115870062.251 8     -1917.555          51.000    22251625.891 8  89598066.745 8     -1482.715          51.000
C24  21779435.586 8 113411263.629 8       -93.844          51.000
C25  24087916.047 7 125432082.568 7      2588.012          46.000
C26  23508957.938 5 122417336.620 5     -2521.812          31.000
E01  24131390.531 8 126811326.770 8      -964.285          51.000    24131391.539 8  97167145.458 8      -738.871          50.000
E04  23840440.570 8 125282343.091 8     -1146.301          51.000    23840440.734 8  95995546.305 8      -878.352          51.000
E31  24280603.453 8 127595429.083 8      1895.891          51.000    24280605.211 8  97767937.704 8      1452.609          51.000
> 2020 05 10 04 16  0.0000000  0 16        .000000000000
G05  21652735.078 8 113785888.828 8     -2556.316          51.000    21652733.711 8  88664294.009 8     -1991.938          51.000
G15  21926457.414 5 115224313.669 5      2653.512          33.000    21926462.406 5  89785195.902 5      2067.684          31.000
G28  20939059.906 8 110035569.416 8       630.977          51.000    20939057.938 8  85741999.527 8       491.673          48.000
G30  21446374.055 5 112701459.568 5     -2048.352          35.000    21446375.492 6  87819347.886 6     -1596.121          36.000
R02  23001545.562 5 122740645.956 5     -4062.180          32.000    23001549.188 4  95464967.752 4     -3159.470          27.000
R03  19498439.648 8 104376660.714 8     -1568.418          51.000    19498439.750 8  81181852.406 8     -1219.878          48.000
R13  19590899.695 5 104614315.799 5     -1800.777          35.000    19590901.039 6  81366669.452 6     -1400.605          37.000
R14  20008205.359 8 106655022.440 8      2241.625          51.000    20008208.547 8  82953941.217 8      1743.486          48.000
C05  39791767.844 5 207206177.029 5        10.465          35.000    39791767.211 6 160224941.866 6         8.098          41.000
C14  22262702.312 8 115927732.130 8     -1932.254          51.000    22262700.836 8  89642660.748 8     -1494.096          51.000
C24  21780002.797 8 113414216.635 8      -108.043          51.000
C25  24073017.703 7 125354503.936 7      2578.832          46.000
C26  23523499.547 5 122493055.720 5     -2529.824          33.000
E01  24136919.742 8 126840382.911 8      -977.832          51.000    24136920.875 8  97189409.262 8      -749.224          50.000
E04  23847002.453 8 125316825.379 8     -1157.551          51.000    23847002.680 8  96021967.785 8      -886.940          51.000
E31  24269801.312 8 127538662.989 8      1883.457          51.000    24269803.133 8  97724441.628 8      1443.150          51.000
> 2020 05 10 04 16 30.0000000  0 14        .000000000000
G05  21667382.266 8 113862858.004 8     -2570.500          51.000    21667380.773 8  88724269.968 8     -2002.990          51.000
G07  23973904.445 5 125983711.298 5     -2831.988          33.000    23973901.211 5  98169118.617 5     -2206.744          33.000
G28  20935524.625 8 110016990.977 8       612.074          51.000    20935522.602 8  85727522.821 8       476.941          49.000
G30  21458104.133 6 112763103.058 6     -2056.918          36.000    21458106.133 6  87867381.738 6     -1602.796          37.000
R03  19507304.898 8 104424116.778 8     -1590.715          51.000    19507305.133 8  81218762.674 8     -1237.223          49.000
R13  19601081.148 5 104668684.014 5     -1818.953          35.000    19601083.062 6  81408955.839 6     -1414.741          36.000
R14  19995655.047 8 106588124.628 8      2222.723          50.000    19995658.836 8  82901909.577 8      1728.784          49.000
C05  39791721.680 5 207205936.373 5        10.789          35.000    39791721.234 6 160224756.543 6         7.923          40.000
C14  22273885.164 8 115985962.968 8     -1945.512          51.000    22273883.453 8  89687688.510 8     -1504.348          51.000
C24  21780674.898 8 113417716.693 8      -120.840          51.000
C25  24058195.289 7 125277321.378 7      2571.219          46.000
E01  24142549.516 8 126869967.585 8      -990.004          51.000    24142550.375 8  97212078.039 8      -758.559          49.000
E04  23853651.688 8 125351767.113 8     -1167.441          51.000    23853651.664 8  96048741.309 8      -894.503          51.000
E31  24259093.094 8 127482391.669 8      1872.391          51.000    24259095.195 8  97681324.664 8      1434.713          51.000
> 2020 05 10 04 17  0.0000000  0 14        .000000000000
G05  21682090.234 8 113940147.657 8     -2581.422          50.000    21682088.789 8  88784495.663 8     -2011.498          50.000
G13  20430537.617 5 107363188.499 5      1111.098          32.000
G28  20932076.812 8 109998872.867 8       596.391          51.000    20932074.500 8  85713404.789 8       464.720          49.000
G30  21469862.414 5 112824893.041 5     -2061.789          33.000    21469865.125 5  87915529.760 5     -1606.589          34.000
R03  19516274.188 8 104472131.002 8     -1609.582          51.000    19516274.688 7  81256107.032 7     -1251.900          47.000
R13  19611345.094 5 104723493.120 5     -1834.492          34.000    19611347.117 6  81451585.130 6     -1426.824          36.000
R14  19983191.602 8 106521689.033 8      2206.906          51.000    19983196.258 8  82850237.434 8      1716.483          50.000
C05  39791656.461 5 207205596.803 5        12.832          35.000    39791656.023 6 160224493.919 6        10.131          40.000
C14  22285123.977 8 116044485.717 8     -1955.398          51.000    22285122.047 8  89732942.008 8     -1512.056          51.000
C24  21781400.406 8 113421494.987 8      -130.477          51.000
C25  24043398.148 7 125200267.627 7      2566.547          47.000
E01  24148228.258 8 126899809.110 8      -998.773          51.000    24148228.992 8  97234943.618 8      -765.297          49.000
E04  23860336.703 8 125386897.862 8     -1174.062          51.000    23860336.344 8  96075659.663 8      -899.564          51.000
E31  24248427.352 8 127426345.320 8      1864.641          51.000    24248430.203 8  97638380.064 8      1428.781          51.000
> 2020 05 10 04 17 30.0000000  0 15        .000000000000
G05  21696874.023 8 114017838.984 8     -2596.598          49.000    21696872.977 8  88845034.352 8     -2023.323          49.000
G13  20424233.688 5 107330056.063 5      1098.461          35.000    20424229.992 5  83633807.018 5       855.944          34.000
G28  20928732.414 8 109981299.071 8       576.473          50.000    20928730.242 8  85699710.899 8       449.196          49.000
G30  21481665.086 5 112886907.894 5     -2070.824          30.000    21481667.656 5  87963856.204 5     -1613.626          31.000
R02  23070249.008 6 123107311.120 6     -4082.688          38.000    23070248.695 4  95750113.813 4     -3175.424          28.000
R03  19525363.828 8 104520788.189 8     -1632.828          51.000    19525363.961 7  81293951.492 7     -1269.977          46.000
R13  19621707.281 5 104778825.977 5     -1853.344          34.000    19621709.203 5  81494621.796 5     -1441.490          35.000
R14  19970831.383 8 106455801.828 8      2186.836          51.000    19970836.320 8  82798991.840 8      1700.872          50.000
C05  39791588.164 5 207205241.328 5        11.719          35.000    39791587.570 6 160224218.253 6         9.228          40.000
C14  22296434.500 8 116103382.339 8     -1969.727          51.000    22296432.586 8  89778484.589 8     -1523.021          51.000
C24  21782195.180 8 113425633.728 8      -144.160          51.000
C25  24028642.547 8 125123426.438 8      2557.582          49.000
E01  24153971.539 8 126929990.136 8     -1011.836          51.000    24153972.734 8  97258069.344 8      -775.312          49.000
E04  23867073.602 8 125422301.526 8     -1184.863          51.000    23867073.359 8  96102787.121 8      -907.849          51.000
E31  24237820.156 8 127370608.518 8      1852.496          51.000    24237824.102 8  97595672.635 8      1419.478          51.000
> 2020 05 10 04 18  0.0000000  0 15        .000000000000
G05  21711737.656 8 114095953.118 8     -2610.465          48.000    21711737.445 8  88905902.522 8     -2034.128          48.000
G13  20417995.711 5 107297274.502 5      1087.004          34.000    20417991.586 5  83608269.077 5       846.995          30.000
G28  20925496.141 8 109964294.315 8       557.656          50.000    20925494.383 8  85686460.423 8       434.537          49.000
G30  21493515.539 5 112949184.660 5     -2079.387          35.000    21493517.500 5  88012378.859 5     -1620.301          35.000
R02  23093221.250 6 123229907.157 6     -4089.961          41.000    23093217.641 4  95845426.759 4     -3181.081          28.000
R03  19534577.984 8 104570112.312 8     -1654.840          51.000    19534578.461 7  81332314.644 7     -1287.098          47.000
R13  19632171.555 5 104834703.388 5     -1870.910          31.000    19632172.789 5  81538081.962 5     -1455.149          34.000
R14  19958578.734 8 106390488.606 8      2167.922          51.000    19958583.273 8  82748192.691 8      1686.164          48.000
C05  39791521.078 5 207204891.819 5        11.965          35.000    39791520.453 6 160223947.984 6         9.204          41.000
C14  22307820.953 8 116162675.679 8     -1982.617          50.000    22307819.305 8  89824333.953 8     -1533.103          51.000
C24  21783063.586 8 113430156.012 8      -156.738          51.000
C25  24013933.086 8 125046822.393 8      2549.898          50.000
E01  24159783.711 8 126960533.618 8     -1023.789          51.000    24159785.234 8  97281472.791 8      -784.441          49.000
E04  23873867.117 8 125458002.274 8     -1194.629          51.000    23873866.930 8  96130142.216 8      -915.353          51.000
E31  24227276.695 8 127315206.059 8      1841.531          51.000    24227281.547 8  97553221.375 8      1411.013          51.000
> 2020 05 10 04 18 30.0000000  0 14        .000000000000
G05  21726680.461 7 114174483.657 7     -2625.230          47.000    21726681.023 7  88967095.180 7     -2045.634          47.000
G13  20411823.344 5 107264840.470 5      1074.723          32.000    20411819.742 5  83582995.931 5       837.449          31.000
G28  20922367.258 8 109947853.903 8       537.957          50.000    20922365.664 8  85673649.671 8       419.187          48.000
R02  23116235.617 6 123352720.547 6     -4098.316          37.000    23116235.062 4  95940950.259 4     -3187.579          28.000
R03  19543915.648 8 104620097.912 8     -1677.812          51.000    19543916.359 7  81371192.288 7     -1304.965          46.000
R13  19642736.133 5 104891118.070 5     -1890.508          30.000    19642737.391 5  81581960.060 5     -1470.395          33.000
R14  19946433.117 8 106325745.590 8      2147.836          51.000    19946436.703 7  82697837.037 7      1670.539          47.000
C05  39791454.391 5 207204544.791 5        10.777          35.000    39791453.930 6 160223679.583 6         8.548          41.000
C14  22319282.320 8 116222360.042 8     -1996.621          48.000    22319280.828 8  89870485.692 8     -1543.881          51.000
C24  21784004.766 8 113435056.424 8      -170.258          51.000
C25  23999267.773 8 124970451.635 8      2541.090          48.000
E01  24165663.758 8 126991433.702 8     -1036.602          51.000    24165665.023 8  97305149.465 8      -794.273          48.000
E04  23880716.312 8 125493995.510 8     -1205.297          51.000    23880715.781 8  96157721.427 8      -923.518          50.000
E31  24216796.633 8 127260133.947 8      1829.625          51.000    24216801.664 8  97511023.235 8      1401.932          51.000
> 2020 05 10 04 19  0.0000000  0 14        .000000000000
G05  21741703.945 7 114253434.207 7     -2638.922          47.000    21741704.773 7  89028615.105 7     -2056.303          47.000
G13  20405718.117 5 107232773.019 5      1063.512          34.000    20405714.062 5  83557998.828 5       828.698          32.000
G15  21836441.055 5 114751241.556 5      2601.125          30.000
G28  20919346.977 8 109931984.397 8       519.172          49.000    20919345.906 8  85661283.818 8       404.553          49.000
R02  23139289.406 5 123475754.626 5     -4104.688          33.000    23139295.891 6  96036642.963 6     -3192.532          36.000
R03  19553377.992 8 104670750.124 8     -1699.770          50.000    19553378.453 7  81410588.459 7     -1322.043          47.000
R14  19934396.305 8 106261580.043 8      2128.816          51.000    19934399.148 8  82647930.500 8      1655.749          48.000
C05  39791389.375 5 207204206.146 5        10.676          35.000    39791388.906 6 160223417.725 6         8.358          41.000
C14  22330819.664 8 116282440.320 8     -2009.641          49.000    22330817.789 8  89916943.597 8     -1553.942          51.000
C24  21785019.641 8 113440340.090 8      -182.758          51.000
C25  23984646.805 7 124894320.843 7      2533.227          46.000
E01  24171612.562 8 127022695.179 8     -1048.379          51.000    24171613.805 8  97329103.064 8      -803.318          49.000
E04  23887622.367 8 125530287.319 8     -1215.039          51.000    23887621.688 8  96185529.407 8      -931.016          51.000
E31  24206381.008 8 127205398.860 8      1818.574          51.000    24206385.844 8  97469083.355 8      1393.453          51.000
> 2020 05 10 04 19 30.0000000  0 15        .000000000000
G05  21756806.328 8 114332795.606 8     -2649.777          49.000    21756807.062 8  89090455.159 8     -2064.762          49.000
G13  20399679.383 5 107201042.843 5      1054.988          34.000    20399677.469 5  83533266.005 5       822.078          35.000
G28  20916434.312 8 109916679.829 8       503.211          48.000    20916433.633 8  85649358.167 8       392.109          48.000
R02  23162385.547 5 123599001.087 5     -4109.195          32.000    23162395.445 6  96132501.275 6     -3196.044          40.000
R03  19562963.273 8 104722062.202 8     -1718.801          51.000    19562964.391 8  81450497.854 8     -1336.845          48.000
R13  19664165.648 5 105005554.026 5     -1921.969          30.000    19664171.078 5  81670999.657 5     -1494.865          34.000
R14  19922466.930 8 106197986.492 8      2112.734          51.000    19922469.664 8  82598468.837 8      1643.238          50.000
C05  39791324.812 5 207203869.807 5        13.664          35.000    39791324.383 6 160223157.627 6        10.563          41.000
C14  22342432.094 8 116342909.373 8     -2019.609          50.000    22342429.234 8  89963702.087 8     -1561.557          50.000
C24  21786106.172 8 113446000.048 8      -192.449          51.000
C25  23970069.164 7 124818424.683 7      2528.375          46.000
C26  23626256.781 5 123028190.310 5     -2563.105          30.000
E01  24177628.719 8 127054310.709 8     -1057.133          51.000    24177630.297 8  97353327.947 8      -810.032          49.000
E04  23894584.219 8 125566871.588 8     -1221.781          51.000    23894583.828 8  96213561.466 8      -936.161          51.000
E31  24196028.742 8 127150995.328 8      1810.438          51.000    24196033.203 8  97427397.522 8      1387.287          51.000
> 2020 05 10 04 20  0.0000000  0 16        .000000000000
G05  21771968.125 8 114412467.804 8     -2676.371          51.000    21771968.398 8  89152537.359 8     -2085.484          51.000
G07  24087303.883 5 126579615.242 5     -2856.102          34.000    24087298.242 5  98633460.994 5     -2225.540          34.000
G13  20393688.703 5 107169556.782 5      1029.633          34.000    20393687.789 5  83508741.416 5       802.305          32.000
G28  20913610.594 8 109901842.422 8       471.289          48.000    20913609.805 7  85637796.534 7       367.238          46.000
R02  23185503.891 6 123722357.918 6     -4129.219          38.000    23185514.133 7  96228445.393 7     -3211.618          42.000
R03  19572653.031 8 104773933.489 8     -1754.121          51.000    19572654.539 8  81490842.176 8     -1364.316          48.000
R13  19675012.359 5 105063468.425 5     -1952.957          30.000    19675014.695 5  81716044.159 5     -1518.973          32.000
R14  19910625.875 8 106134866.726 8      2080.383          51.000    19910628.852 8  82549375.678 8      1618.076          50.000
C05  39791242.109 5 207203438.685 5          .762          35.000    39791241.633 6 160222824.244 6          .314          41.000
C14  22354100.359 8 116403669.017 8     -2045.562          50.000    22354096.586 8  90010685.253 8     -1581.765          49.000
C24  21787246.617 8 113451938.400 8      -217.945          51.000
C25  23955520.234 8 124742666.663 8      2507.602          49.000
C26  23641009.414 5 123104994.972 5     -2579.832          31.000
E01  24183693.477 8 127086181.144 8     -1082.078          51.000    24183694.953 8  97377748.133 8      -829.161          48.000
E04  23901583.266 8 125603650.385 8     -1244.703          51.000    23901582.922 8  96241742.581 8      -953.719          51.000
E31  24185721.031 8 127096826.091 8      1786.211          51.000    24185725.180 8  97385891.214 8      1368.673          51.000
> 2020 05 10 04 20 30.0000000  0 17        .000000000000
G05  21787242.906 8 114492733.457 8     -2677.613          51.000    21787242.266 8  89215081.972 8     -2086.455          51.000
G07  24103574.430 5 126665108.842 5     -2846.680          31.000    24103569.039 5  98700079.357 5     -2218.195          30.000
G13  20387801.219 5 107138618.561 5      1031.098          33.000    20387800.961 4  83484633.707 4       803.447          24.000
G28  20910930.312 8 109887757.613 8       464.664          50.000    20910929.516 7  85626821.349 7       362.076          46.000
G30  21553463.703 5 113264217.311 5     -2118.535          32.000    21553463.844 5  88257825.319 5     -1650.807          34.000
R02  23208697.422 7 123846112.054 7     -4123.938          42.000    23208706.406 6  96324698.580 6     -3207.510          41.000
R03  19582501.102 8 104826653.466 8     -1763.707          50.000    19582502.742 8  81531846.596 8     -1371.772          48.000
R13  19685991.438 5 105122098.291 5     -1958.867          31.000    19685994.312 5  81761645.202 5     -1523.563          32.000
R14  19898927.836 8 106072510.894 8      2073.625          51.000    19898931.109 8  82500876.707 8      1612.819          49.000
C05                                                                  39791194.875 6 160222635.997 6         9.778          41.000
C14  22365878.430 8 116465000.503 8     -2046.289          50.000    22365873.930 8  90058110.616 8     -1582.317          48.000
C24  21788494.727 8 113458436.743 8      -218.344          51.000
C25  23941053.344 8 124667329.895 8      2511.918          50.000
C26  23655833.727 5 123182261.921 5     -2574.672          31.000
E01  24189860.797 8 127118590.264 8     -1081.531          51.000    24189861.984 8  97402581.079 8      -828.670          48.000
E04  23908673.758 8 125640908.790 8     -1242.207          51.000    23908672.758 8  96270291.222 8      -951.857          51.000
E31  24175512.016 8 127043176.790 8      1787.348          51.000    24175515.984 8  97344783.320 8      1369.511          51.000
> 2020 05 10 04 21  0.0000000  0 16        .000000000000
G05  21802563.031 8 114573237.842 8     -2691.871          51.000    21802561.242 8  89277812.609 8     -2097.562          51.000
G07  24119823.789 5 126750499.688 5     -2849.031          34.000    24119818.492 5  98766617.695 5     -2220.021          32.000
G13  20381949.617 5 107107868.165 5      1017.238          32.000
G28  20908326.688 8 109874073.580 8       444.969          51.000    20908325.633 7  85616158.478 7       346.729          45.000
G30  21565576.359 6 113327871.958 6     -2127.312          37.000    21565576.625 6  88307426.291 6     -1657.646          37.000
R02  23231897.586 7 123969903.737 7     -4131.605          43.000    23231905.516 6  96420980.915 6     -3213.474          41.000
R03  19592440.414 8 104879862.753 8     -1786.340          49.000    19592442.992 8  81573231.571 8     -1389.378          48.000
R13  19697037.664 5 105181082.060 5     -1976.242          32.000    19697040.555 5  81807521.461 5     -1537.077          33.000
R14  19887305.922 8 106010562.777 8      2053.598          49.000    19887309.852 8  82452694.853 8      1597.243          49.000
C05  39791117.609 5 207202790.815 5        12.145          35.000    39791117.219 6 160222323.266 6         8.932          41.000
C14  22377698.875 8 116526554.057 8     -2059.777          50.000    22377694.305 8  90105707.664 8     -1592.832          49.000
C24  21789783.016 8 113465145.482 8      -231.613          51.000
C25  23926600.492 8 124592066.453 8      2503.078          49.000
E01  24196063.383 8 127151184.971 8     -1094.012          51.000    24196064.672 7  97427556.250 7      -838.308          47.000
E04  23915788.453 8 125678294.918 8     -1252.816          51.000    23915787.227 8  96298937.723 8      -959.932          51.000
E31  24165335.039 8 126989696.191 8      1775.379          51.000    24165338.750 8  97303804.676 8      1360.361          51.000
> 2020 05 10 04 21 30.0000000  0 14        .000000000000
G05  21817969.266 8 114654195.705 8     -2705.566          51.000    21817966.297 8  89340896.604 8     -2108.237          51.000
G28  20905840.695 8 109861007.717 8       425.891          51.000    20905838.875 7  85605977.296 7       331.863          45.000
G30  21577744.164 5 113391816.423 5     -2135.621          33.000    21577744.172 5  88357253.130 5     -1664.123          34.000
R02  23255145.156 7 124093950.903 7     -4138.363          43.000    23255151.805 6  96517461.961 6     -3218.727          39.000
R03  19602512.453 7 104933781.799 7     -1808.441          47.000    19602515.062 7  81615168.606 7     -1406.566          47.000
R13  19708190.391 5 105240638.106 5     -1994.129          32.000    19708192.391 5  81853842.844 5     -1550.986          31.000
R14  19875802.234 8 105949243.581 8      2033.988          51.000    19875806.391 8  82405002.165 8      1581.991          49.000
C05                                                                  39791049.938 6 160222052.400 6         8.850          41.000
C14  22389603.406 8 116588543.711 8     -2072.945          51.000    22389598.727 8  90153641.954 8     -1602.918          49.000
C24  21791153.086 8 113472278.979 8      -244.203          51.000
C25  23912201.531 8 124517092.235 8      2494.969          48.000
E01  24202342.352 8 127184181.205 8     -1105.906          51.000    24202343.648 7  97452839.067 7      -847.332          47.000
E04  23922968.359 8 125716025.983 8     -1262.879          51.000    23922967.680 8  96327848.511 8      -967.631          51.000
E31  24155231.766 8 126936602.074 8      1764.020          51.000    24155234.891 8  97263122.164 8      1351.618          51.000
> 2020 05 10 04 22  0.0000000  0 14        .000000000000
G05  21833449.719 8 114735544.875 8     -2717.766          51.000    21833445.695 8  89404285.508 8     -2117.742          51.000
G28  20903461.008 8 109848500.245 8       408.039          51.000    20903458.430 7  85596231.218 7       317.956          46.000
G30  21589956.023 5 113455989.687 5     -2142.055          33.000    21589956.477 5  88407258.191 5     -1669.134          35.000
R02  23278428.336 6 124218189.792 6     -4144.109          41.000    23278432.875 5  96614092.131 5     -3223.199          35.000
R03  19612705.414 8 104988348.523 8     -1829.254          48.000    19612708.109 8  81657609.404 8     -1422.753          48.000
R13  19719438.547 5 105300702.513 5     -2010.285          33.000    19719440.180 5  81900559.528 5     -1563.555          32.000
R14  19864405.945 8 105888493.760 8      2015.863          51.000    19864409.758 8  82357752.304 8      1567.894          49.000
C05  39790982.031 5 207202085.305 5        12.047          35.000    39790981.664 6 160221777.639 6         9.624          41.000
C14  22401580.344 8 116650909.046 8     -2084.754          51.000    22401575.852 8  90201866.772 8     -1612.007          51.000
C24  21792593.070 8 113479777.101 8      -255.691          51.000
C25  23897846.875 8 124442348.576 8      2488.008          49.000
E01  24208686.094 8 127217517.939 8     -1116.500          51.000    24208687.031 7  97478382.788 7      -855.470          46.000
E04  23930202.484 8 125754042.183 8     -1271.598          51.000    23930202.227 8  96356977.783 8      -974.356          51.000
E31  24145190.727 8 126883835.288 8      1753.785          51.000    24145193.398 8  97222690.461 8      1343.821          51.000
> 2020 05 10 04 22 30.0000000  0 15        .000000000000
G05  21849003.797 8 114817282.585 8     -2730.602          51.000    21848999.586 8  89467977.172 8     -2127.745          51.000
G13  20364827.008 5 107017892.689 5       982.535          31.000
G28  20901187.406 8 109836551.190 8       389.434          51.000    20901184.961 7  85586920.296 7       303.458          47.000
G30  21602211.102 5 113520390.175 5     -2149.211          31.000    21602211.922 5  88457440.367 5     -1674.707          34.000
R02  23301745.781 6 124342618.514 6     -4150.148          39.000    23301749.008 4  96710870.046 4     -3227.893          28.000
R03  19623020.422 8 105043562.188 8     -1850.766          51.000    19623023.039 8  81700553.349 8     -1439.487          49.000
R13  19730781.141 5 105361271.672 5     -2027.129          31.000    19730783.586 5  81947668.884 5     -1576.653          32.000
R14  19853116.562 8 105828313.987 8      1997.047          51.000    19853120.219 8  82310945.834 8      1553.259          49.000
C05  39790912.891 5 207201724.883 5        13.047          35.000    39790912.445 6 160221498.935 6         9.750          41.000
C14  22413629.391 8 116713648.852 8     -2097.113          51.000    22413625.305 8  90250381.128 8     -1621.518          51.000
C24  21794102.945 8 113487638.913 8      -267.629          51.000
C25  23883538.094 8 124367836.076 8      2480.230          50.000
E01  24215094.406 8 127251193.838 8     -1127.664          51.000    24215094.883 7  97504186.390 7      -864.006          45.000
E04  23937490.797 8 125792343.429 8     -1280.926          51.000    23937490.906 8  96386325.490 8      -981.483          51.000
E31  24135211.922 8 126831396.379 8      1742.949          51.000    24135214.305 8  97182510.014 8      1335.533          51.000
> 2020 05 10 04 23  0.0000000  0 16        .000000000000
G05  21864632.320 8 114899413.827 8     -2744.012          50.000    21864629.516 8  89531975.522 8     -2138.191          49.000
G13  20359254.672 6 106988607.619 6       970.773          36.000
G28  20899021.500 8 109825168.449 8       370.074          51.000    20899019.133 7  85578050.634 7       288.366          47.000
G30  21614510.305 6 113585024.276 6     -2158.500          36.000    21614512.359 6  88507804.592 6     -1681.948          36.000
R02  23325099.133 6 124467241.822 6     -4157.141          36.000    23325104.711 4  96807799.415 4     -3233.332          27.000
R03  19633457.633 8 105099429.354 8     -1872.961          51.000    19633459.633 8  81744005.563 8     -1456.747          48.000
R13  19742219.453 5 105422350.504 5     -2044.277          30.000    19742222.016 4  81995174.594 4     -1589.997          29.000
R14  19841936.141 8 105768712.796 8      1977.156          51.000    19841939.117 8  82264589.342 8      1537.788          49.000
C05  39790844.188 5 207201366.858 5        12.016          35.000    39790843.703 6 160221222.068 6         9.294          41.000
C14  22425751.578 8 116776769.451 8     -2110.199          51.000    22425747.711 8  90299189.946 8     -1631.710          51.000
C24  21795684.031 8 113495870.985 8      -280.453          51.000
C25  23869275.250 8 124293562.873 8      2471.945          49.000
C26  23730371.016 5 123570287.098 5     -2597.668          33.000
E01  24221568.336 8 127285215.228 8     -1139.641          51.000    24221568.914 7  97530254.725 7      -873.231          45.000
E04  23944834.641 8 125830937.315 8     -1291.094          51.000    23944835.055 8  96415897.420 8      -989.265          51.000
E31  24125297.078 8 126779293.480 8      1731.336          51.000    24125299.086 8  97142587.045 8      1326.629          51.000
> 2020 05 10 04 23 30.0000000  0 17        .000000000000
G05  21880332.445 8 114981923.654 8     -2754.711          49.000    21880331.922 8  89596268.926 8     -2146.525          49.000
G13  20353746.859 6 106959665.870 6       960.871          36.000    20353742.828 4  83345173.310 4       748.725          28.000
G15  21704791.086 5 114059452.142 5      2522.648          32.000
G28  20896960.859 8 109814339.197 8       353.742          51.000    20896958.438 8  85569612.263 8       275.643          48.000
G30  21626851.594 6 113649877.885 6     -2163.391          39.000    21626854.227 6  88558339.912 6     -1685.756          39.000
R02  23348487.023 5 124592044.554 5     -4160.977          35.000    23348494.859 5  96904868.187 5     -3236.318          33.000
R03  19644014.273 8 105155936.242 8     -1892.297          51.000    19644015.703 8  81787955.359 8     -1471.786          48.000
R13  19753749.672 5 105483921.612 5     -2058.281          30.000    19753752.469 5  82043064.008 5     -1600.888          30.000
R14  19830862.062 8 105709678.071 8      1960.180          51.000    19830863.883 8  82218673.405 8      1524.584          48.000
C05  39790773.461 5 207200998.732 5        14.145          35.000    39790773.000 6 160220937.370 6        11.221          41.000
C14  22437944.234 8 116840257.180 8     -2120.609          51.000    22437940.180 8  90348282.656 8     -1639.639          51.000
C24  21797333.742 8 113504459.949 8      -290.387          51.000
C25  23855055.289 8 124219517.226 8      2466.273          48.000
C26  23745346.312 5 123648284.193 5     -2600.117          34.000
E01  24228105.469 8 127319568.247 8     -1148.664          51.000    24228106.453 7  97556577.168 7      -880.154          45.000
E04  23952231.672 8 125869811.227 8     -1298.551          51.000    23952232.328 8  96445683.901 8      -994.943          51.000
E31  24115443.953 8 126727514.646 8      1722.441          51.000    24115445.359 8  97102912.375 8      1319.823          50.000
> 2020 05 10 04 24  0.0000000  0 16        .000000000000
G05  21896109.203 8 115064833.214 8     -2769.539          50.000    21896110.242 8  89660873.802 8     -2158.082          50.000
G13  20348309.906 5 106931095.846 5       946.555          35.000    20348306.898 4  83322910.932 4       737.563          27.000
G28  20895010.055 8 109804087.846 8       332.871          51.000    20895008.000 8  85561624.212 8       259.380          48.000
G30  21639239.219 5 113714973.872 5     -2172.621          32.000    21639241.906 5  88609064.103 5     -1692.952          32.000
R02  23371913.016 6 124717048.834 6     -4169.598          36.000    23371920.469 5  97002093.612 5     -3243.023          35.000
R03  19654694.617 8 105213106.313 8     -1915.906          51.000    19654695.930 8  81832420.929 8     -1490.152          49.000
R13  19765377.188 5 105546009.683 5     -2076.988          30.000    19765379.789 5  82091354.692 5     -1615.438          30.000
R14  19819898.289 8 105651235.177 8      1938.969          51.000    19819899.703 8  82173217.790 8      1508.087          48.000
C05  39790705.320 5 207200644.394 5        11.992          35.000    39790705.031 6 160220663.346 6         9.575          41.000
C14  22450211.312 8 116904134.658 8     -2134.969          51.000    22450207.289 8  90397676.746 8     -1650.887          51.000
C24  21799056.367 8 113513428.772 8      -304.520          51.000
C25  23840883.805 8 124145723.577 8      2456.309          50.000
C26  23760348.727 5 123726432.539 5     -2606.859          34.000
E01  24234710.156 8 127354275.713 8     -1162.059          50.000    24234711.062 7  97583171.201 7      -890.364          45.000
E04  23959686.781 8 125908989.243 8     -1310.309          51.000    23959687.672 8  96475703.400 8     -1003.973          51.000
E31  24105657.055 8 126676084.489 8      1709.281          51.000    24105658.109 8  97063504.876 8      1309.742          51.000
> 2020 05 10 04 24 30.0000000  0 16        .000000000000
G05  21911948.867 8 115148069.655 8     -2785.324          51.000    21911950.258 8  89725733.381 8     -2170.379          51.000
G13  20342930.625 6 106902827.704 6       931.516          39.000    20342927.492 4  83300883.810 4       725.853          28.000
G28  20893155.805 8 109794343.563 8       310.957          51.000    20893154.094 8  85554031.274 8       242.304          49.000
G30  21651659.617 5 113780240.240 5     -2183.633          34.000    21651661.172 5  88659920.972 5     -1701.529          34.000
R02  23395362.328 6 124842180.068 6     -4178.555          36.000    23395369.625 6  97099417.812 6     -3249.987          36.000
R03  19665484.805 8 105270866.444 8     -1940.676          51.000    19665486.133 8  81877345.436 8     -1509.414          48.000
R13  19777085.734 4 105608535.518 4     -2097.312          29.000    19777089.148 5  82139987.504 5     -1631.240          32.000
R14  19809031.523 8 105593313.069 8      1916.531          50.000    19809033.141 8  82128167.255 8      1490.635          49.000
C05  39790626.445 5 207200233.561 5         9.379          35.000    39790626.172 6 160220345.672 6         7.270          41.000
C14  22462539.141 8 116968330.532 8     -2150.457          50.000    22462535.539 8  90447317.046 8     -1662.915          51.000
C24  21800838.195 8 113522706.377 8      -319.812          51.000
C25  23826748.234 8 124072112.383 8      2445.219          51.000
C26  23775368.320 5 123804660.256 5     -2614.227          32.000
E01  24241368.484 8 127389265.541 8     -1176.445          50.000    24241369.172 7  97609981.580 7      -901.390          45.000
E04  23967186.438 8 125948400.478 8     -1323.070          51.000    23967187.414 8  96505901.599 8     -1013.715          51.000
E31  24095923.094 8 126624932.751 8      1695.059          51.000    24095924.367 8  97024310.703 8      1298.730          51.000
> 2020 05 10 04 25  0.0000000  0 16        .000000000000
G05  21927873.438 8 115231750.730 8     -2794.324          51.000    21927874.453 8  89790939.411 8     -2177.395          51.000
G13  20337632.312 7 106874983.542 7       923.410          42.000    20337628.500 5  83279187.097 5       719.540          31.000
G28  20891420.891 8 109785227.029 8       295.859          51.000    20891419.406 8  85546927.463 8       230.540          48.000
G30  21664134.461 6 113845796.261 6     -2187.547          38.000    21664135.906 6  88711003.615 6     -1704.582          38.000
R02  23418857.531 6 124967558.035 6     -4181.027          36.000    23418866.461 6  97196934.017 6     -3251.907          37.000
R03  19676407.281 8 105329338.489 8     -1958.344          49.000    19676409.203 8  81922823.694 8     -1523.156          48.000
R13  19788900.633 5 105671621.066 5     -2109.418          32.000    19788902.664 4  82189049.606 4     -1640.658          29.000
R14  19798285.352 8 105536034.871 8      1900.980          49.000    19798287.594 8  82083617.574 8      1478.540          49.000
C05  39790559.750 5 207199886.127 5        12.910          35.000    39790559.516 6 160220076.998 6        10.182          41.000
C14  22474950.742 8 117032963.279 8     -2159.312          50.000    22474947.969 8  90497295.162 8     -1669.654          51.000
C24  21802701.961 8 113532411.542 8      -328.211          51.000
C25  23812670.883 8 123998804.009 8      2440.988          50.000
C26  23790428.742 6 123883085.587 6     -2615.074          36.000
E01  24248103.281 8 127424657.296 8     -1184.020          50.000    24248104.430 7  97637099.937 7      -907.200          45.000
E04  23974753.531 8 125988165.718 8     -1328.941          51.000    23974754.594 8  96536371.071 8     -1018.283          51.000
E31  24086265.234 8 126574180.804 8      1687.551          51.000    24086267.250 8  96985422.855 8      1293.013          51.000
> 2020 05 10 04 25 30.0000000  0 16        .000000000000
G05  21943862.188 8 115315769.491 8     -2807.398          51.000    21943862.656 8  89856408.560 8     -2187.586          51.000
G13  20332395.062 6 106847460.168 6       910.918          40.000    20332391.578 5  83257740.304 5       709.803          35.000
G28  20889785.320 8 109776633.519 8       276.645          50.000    20889784.180 8  85540231.212 8       215.567          48.000
G30  21676644.219 6 113911536.152 6     -2195.633          39.000    21676645.266 6  88762229.480 6     -1710.883          39.000
R02  23442378.750 5 125093074.115 5     -4187.613          32.000    23442389.383 6  97294557.757 6     -3257.023          36.000
R03  19687442.703 8 105388414.884 8     -1980.438          50.000    19687445.328 8  81968771.990 8     -1540.340          48.000
R13  19800799.297 5 105735159.273 5     -2126.543          30.000    19800799.258 5  82238451.118 5     -1653.981          31.000
R14  19787640.367 8 105479295.299 8      1881.078          49.000    19787643.898 8  82039486.829 8      1463.061          50.000
C05  39790485.227 5 207199498.336 5        12.496          35.000    39790485.039 6 160219777.114 6         9.856          40.000
C14  22487426.148 8 117097927.974 8     -2172.168          51.000    22487424.367 8  90547529.968 8     -1679.601          51.000
C24  21804627.578 8 113542439.698 8      -340.785          51.000
C25  23798631.094 8 123925695.481 8      2432.402          49.000
C26  23805507.703 5 123961603.502 5     -2620.023          35.000
E01  24254894.539 8 127460345.050 8     -1195.668          49.000    24254895.828 7  97664445.083 7      -916.068          45.000
E04  23982368.039 8 126028180.337 8     -1339.043          51.000    23982369.227 8  96567031.625 8     -1026.005          51.000
E31  24076663.711 8 126523724.606 8      1675.797          51.000    24076666.523 8  96946761.605 8      1284.115          51.000
> 2020 05 10 04 26  0.0000000  0 14        .000000000000
G05  21959925.664 8 115400182.099 8     -2819.727          51.000    21959925.742 8  89922184.585 8     -2197.190          51.000
G13  20327230.133 7 106820317.119 7       898.844          42.000    20327226.719 5  83236589.868 5       700.398          35.000
G28  20888260.703 8 109768622.482 8       257.859          49.000    20888260.008 8  85533988.835 8       200.929          49.000
G30  21689199.961 6 113977517.404 6     -2203.230          38.000    21689200.938 6  88813643.455 6     -1716.800          38.000
R03  19698602.273 8 105448154.296 8     -2001.773          51.000    19698605.156 8  82015235.931 8     -1556.935          48.000
R13  19812792.648 5 105799204.413 5     -2142.520          32.000    19812797.430 5  82288273.086 5     -1666.401          32.000
R14  19777108.898 8 105423154.911 8      1861.832          50.000    19777113.055 8  81995822.068 8      1448.092          51.000
C05  39790414.320 5 207199128.666 5        12.266          34.000    39790414.031 6 160219491.238 6         9.723          40.000
C14  22499976.844 8 117163281.848 8     -2184.383          51.000    22499975.305 8  90598065.750 8     -1689.161          51.000
C24  21806626.352 8 113552848.298 8      -352.758          51.000
C25  23784640.086 8 123852845.789 8      2424.449          49.000
E01  24261753.023 8 127496386.460 8     -1206.777          48.000    24261753.953 7  97692061.224 7      -924.638          45.000
E04  23990041.297 8 126068503.246 8     -1348.758          51.000    23990042.516 8  96597928.407 8     -1033.512          51.000
E31  24067129.570 8 126473623.668 8      1664.621          51.000    24067133.109 8  96908372.559 8      1275.474          51.000
> 2020 05 10 04 26 30.0000000  0 14        .000000000000
G05  21976058.055 8 115484957.929 8     -2832.027          51.000    21976057.641 8  89988243.624 8     -2206.775          51.000
G13  20322132.344 7 106793527.744 7       886.871          43.000    20322129.180 5  83215715.012 5       691.068          35.000
G28  20886841.516 8 109761165.250 8       239.430          48.000    20886840.867 8  85528177.987 8       186.569          49.000
G30  21701796.109 5 114043710.606 5     -2209.805          35.000    21701796.344 5  88865222.528 5     -1721.929          35.000
R03  19709880.734 8 105508527.016 8     -2022.945          51.000    19709883.094 7  82062192.445 7     -1573.402          47.000
R13  19824875.406 5 105863725.134 5     -2158.660          32.000    19824876.789 5  82338465.824 5     -1678.961          30.000
R14  19766684.320 8 105367585.765 8      1842.695          49.000    19766688.836 8  81952601.633 8      1433.207          50.000
C05  39790341.453 5 207198748.963 5        12.906          35.000    39790341.156 6 160219197.622 6         9.910          40.000
C14  22512596.930 8 117228995.544 8     -2196.434          51.000    22512595.367 8  90648879.761 8     -1698.422          51.000
C24  21808692.648 8 113563608.381 8      -364.508          51.000
C25  23770694.172 8 123780227.481 8      2416.785          49.000
E01  24268673.094 8 127532751.983 8     -1217.625          48.000    24268674.281 7  97719925.706 7      -933.072          45.000
E04  23997767.945 8 126109106.100 8     -1358.133          51.000    23997769.117 8  96629039.681 8     -1040.620          51.000
E31  24057657.641 8 126423850.230 8      1653.699          51.000    24057661.695 8  96870234.448 8      1267.063          51.000
> 2020 05 10 04 27  0.0000000  0 14        .000000000000
G05  21992260.578 8 115570103.106 8     -2844.156          50.000    21992259.703 8  90054590.485 8     -2216.229          50.000
G13  20317103.758 7 106767101.741 7       874.812          44.000    20317101.203 6  83195123.298 6       681.672          37.000
G28  20885529.273 8 109754270.192 8       220.613          49.000    20885528.531 8  85522805.205 8       171.906          49.000
G30  21714433.859 5 114110123.069 5     -2217.391          35.000    21714433.961 5  88916972.511 5     -1727.834          35.000
R03  19721279.164 8 105569540.632 8     -2044.348          51.000    19721280.836 8  82109647.448 8     -1590.051          48.000
R13  19837047.969 5 105928726.874 5     -2174.605          32.000    19837049.547 5  82389016.717 5     -1691.360          32.000
R14  19756369.133 8 105312597.395 8      1823.430          51.000    19756372.859 8  81909832.924 8      1418.223          49.000
C05  39790268.312 5 207198368.060 5        12.652          34.000    39790267.969 6 160218903.040 6        10.161          40.000
C14  22525287.680 8 117295076.538 8     -2208.672          50.000    22525285.867 8  90699977.795 8     -1707.906          51.000
C24  21810827.930 8 113574727.733 8      -376.527          51.000
C25  23756794.852 8 123707849.854 8      2408.781          49.000
E01  24275656.281 8 127569449.096 8     -1228.609          48.000    24275657.672 7  97748044.254 7      -941.459          45.000
E04  24005549.727 8 126149997.612 8     -1367.680          51.000    24005550.781 8  96660372.133 8     -1048.001          51.000
E31  24048249.977 8 126374413.617 8      1642.363          51.000    24048253.867 8  96832354.419 8      1258.488          51.000
> 2020 05 10 04 27 30.0000000  0 15        .000000000000
G05  22008532.531 8 115655614.598 8     -2856.242          49.000    22008531.414 8  90121222.793 8     -2225.643          48.000
G13  20312144.398 7 106741040.201 7       862.875          44.000    20312142.438 6  83174815.586 6       672.373          38.000
G28  20884324.234 8 109747937.667 8       201.977          49.000    20884323.531 8  85517870.767 8       157.384          49.000
G30  21727112.836 6 114176753.658 6     -2224.215          36.000    21727113.242 6  88968892.380 6     -1733.157          36.000
R03  19732796.281 8 105631193.747 8     -2065.539          49.000    19732798.094 7  82157599.861 7     -1606.530          47.000
R13  19849310.695 5 105994206.639 5     -2191.398          31.000    19849312.320 5  82439945.406 5     -1704.421          31.000
R14  19746162.609 8 105258190.247 8      1804.051          51.000    19746166.016 8  81867516.243 8      1403.151          48.000
C05  39790194.875 5 207197985.842 5        13.051          34.000    39790194.594 6 160218607.491 6        10.083          41.000
C14  22538047.805 8 117361523.543 8     -2220.691          49.000    22538046.289 8  90751358.834 8     -1717.306          51.000
C24  21813032.086 8 113586205.396 8      -388.383          51.000
C25  23742941.734 8 123635713.579 8      2400.727          49.000
C26  23866085.688 5 124276972.522 5     -2636.625          31.000
E01  24282702.398 7 127606476.464 7     -1239.629          47.000    24282703.336 7  97776415.855 7      -949.783          46.000
E04  24013386.391 8 126191177.730 8     -1377.293          51.000    24013387.227 8  96691925.708 8     -1055.316          51.000
E31  24038906.781 8 126325314.289 8      1631.160          51.000    24038909.812 8  96794732.838 8      1249.874          51.000
> 2020 05 10 04 28  0.0000000  0 14        .000000000000
G05  22024873.547 7 115741490.853 7     -2869.055          47.000    22024872.609 7  90188139.349 7     -2235.627          47.000
G13  20307254.602 7 106715344.838 7       849.879          43.000    20307252.906 6  83154793.217 6       662.243          37.000
G28  20883226.250 8 109742167.997 8       182.445          49.000    20883225.586 8  85513374.911 8       142.162          49.000
G30  21739833.312 6 114243601.458 6     -2232.586          37.000    21739834.422 6  89020981.587 6     -1739.677          36.000
R03  19744432.414 7 105693485.781 7     -2087.465          47.000    19744434.664 7  82206049.239 7     -1623.581          46.000
R13  19861661.781 5 106060161.406 5     -2206.598          32.000    19861663.656 5  82491243.550 5     -1716.246          33.000
R14  19736065.281 8 105204365.611 8      1784.020          51.000    19736068.609 8  81825652.602 8      1387.571          49.000
C05  39790121.398 5 207197603.866 5        13.016          35.000    39790121.078 6 160218311.344 6         9.762          41.000
C14  22550877.328 8 117428335.761 8     -2233.488          48.000    22550876.500 8  90803022.277 8     -1727.084          51.000
C24  21815305.094 8 113598040.916 8      -400.883          51.000
C25  23729134.898 8 123563819.724 8      2392.035          49.000
E01  24289811.078 7 127643833.294 7     -1250.996          46.000    24289811.859 7  97805039.930 7      -958.555          45.000
E04  24021278.008 8 126232646.886 8     -1387.508          51.000    24021278.469 8  96723700.747 8     -1063.143          51.000
E31  24029628.180 8 126276553.248 8      1619.328          51.000    24029630.305 8  96757370.486 8      1240.820          51.000
> 2020 05 10 04 28 30.0000000  0 14        .000000000000
G05  22041281.117 7 115827716.964 7     -2880.215          47.000    22041280.703 7  90255328.528 7     -2244.323          47.000
G13  20302432.398 7 106690005.018 7       838.539          43.000    20302431.203 6  83135047.919 6       653.407          39.000
G28  20882233.086 8 109736949.021 8       164.578          48.000    20882232.406 8  85509308.158 8       128.243          48.000
G30  21752593.039 5 114310653.309 5     -2238.980          35.000    21752593.953 5  89073229.808 5     -1744.663          35.000
R03  19756185.477 8 105756403.526 8     -2107.762          49.000    19756187.930 7  82254985.255 7     -1639.370          46.000
R13  19874100.094 5 106126576.962 5     -2221.723          31.000    19874101.367 5  82542900.051 5     -1728.007          33.000
R14  19726074.867 8 105151111.842 8      1765.312          51.000    19726078.414 8  81784233.012 8      1373.021          50.000
C05  39790045.398 5 207197207.453 5        13.480          34.000    39790045.164 6 160218005.550 6        10.231          41.000
C14  22563774.445 7 117495500.158 7     -2244.832          47.000    22563773.812 8  90854958.030 8     -1735.922          51.000
C24  21817643.938 8 113610221.588 8      -411.938          51.000
C25  23715372.938 8 123492157.173 8      2384.641          50.000
E01  24296980.039 7 127681506.436 7     -1261.289          46.000    24296980.758 7  97833906.377 7      -966.308          45.000
E04  24029222.195 8 126274393.172 8     -1396.461          51.000    24029222.242 8  96755688.128 8     -1070.001          51.000
E31  24020411.914 8 126228119.170 8      1608.836          51.000    24020413.320 8  96720258.675 8      1232.720          51.000
> 2020 05 10 04 29  0.0000000  0 15        .000000000000
G05  22057757.227 8 115914301.468 8     -2892.180          48.000    22057757.305 8  90322796.969 8     -2253.647          48.000
G13  20297680.133 7 106665032.892 7       826.328          42.000    20297679.539 6  83115589.132 6       643.892          38.000
G28  20881346.500 7 109732291.386 7       145.828          47.000    20881346.195 7  85505678.826 7       113.632          47.000
G30  21765393.633 6 114377919.184 6     -2245.914          37.000    21765393.742 6  89125644.676 6     -1750.066          37.000
R03  19768057.734 8 105819956.741 8     -2128.969          50.000    19768060.141 7  82304415.482 7     -1655.865          47.000
R13  19886624.734 4 106193465.455 4     -2236.699          28.000    19886625.625 5  82594920.519 5     -1739.655          34.000
R14  19716193.617 8 105098440.974 8      1745.922          51.000    19716197.477 8  81743266.779 8      1357.942          50.000
C05                                                                  39789968.844 6 160217698.556 6        10.400          40.000
C14  22576741.734 8 117563026.366 8     -2256.945          50.000    22576740.344 8  90907173.498 8     -1745.129          50.000
C24  21820051.406 8 113622757.388 8      -423.797          51.000
C25  23701657.984 8 123420737.331 8      2376.547          50.000
C26  23911756.750 5 124514822.998 5     -2648.949          32.000
E01  24304211.148 7 127719505.623 7     -1272.094          47.000    24304211.875 7  97863022.647 7      -974.787          45.000
E04  24037221.078 8 126316427.477 8     -1406.000          51.000    24037220.828 8  96787896.189 8     -1077.361          51.000
E31  24011260.141 8 126180023.592 8      1597.539          51.000    24011260.992 8  96683406.220 8      1224.049          51.000
> 2020 05 10 04 29 30.0000000  0 14        .000000000000
G05  22074301.898 8 116001244.406 8     -2903.203          48.000    22074302.367 8  90390544.709 8     -2262.236          48.000
G13  20292998.367 7 106640432.087 7       814.648          43.000    20292997.930 6  83096419.640 6       634.788          40.000
G28  20880567.336 8 109728197.798 8       127.824          48.000    20880567.078 8  85502488.988 8        99.603          48.000
G30  21778235.281 6 114445400.106 6     -2252.250          36.000    21778234.000 6  89178227.227 6     -1755.000          36.000
R03  19780049.508 8 105884146.592 8     -2149.387          51.000    19780051.562 8  82354340.880 8     -1671.745          48.000
R14  19706422.047 8 105046355.920 8      1727.258          50.000    19706426.180 8  81702756.184 8      1343.423          49.000
C05  39789893.078 5 207196414.469 5        14.129          35.000    39789892.836 6 160217392.349 6        10.768          40.000
C14  22589779.539 8 117630915.620 8     -2268.184          51.000    22589777.281 8  90959669.713 8     -1753.909          51.000
C24  21822527.602 8 113635649.921 8      -434.938          51.000
C25  23687990.281 8 123349563.433 8      2369.117          49.000
C26  23927027.656 5 124594344.879 5     -2651.801          33.000
E01  24311504.461 7 127757832.100 7     -1282.199          46.000    24311505.516 7  97892389.696 7      -982.404          46.000
E04  24045274.922 8 126358752.326 8     -1414.840          51.000    24045274.422 8  96820326.870 8     -1084.131          51.000
E31  24002173.094 8 126132269.558 8      1586.906          51.000    24002173.938 8  96646815.458 8      1215.926          51.000
> 2020 05 10 04 30  0.0000000  0 15        .000000000000
G05  22090913.695 8 116088538.969 8     -2915.742          49.000    22090914.219 8  90458566.446 8     -2272.007          49.000
G13  20288387.047 7 106616199.492 7       801.324          45.000    20288386.422 6  83077537.094 6       624.408          39.000
G28  20879895.016 8 109724663.741 8       108.445          49.000    20879894.500 8  85499735.137 8        84.500          48.000
G30  21791116.727 6 114513090.726 6     -2260.043          36.000    21791115.234 6  89230973.098 6     -1761.072          36.000
R03  19792159.227 8 105948967.632 8     -2171.230          51.000    19792160.891 8  82404757.236 8     -1688.735          48.000
R13  19911934.414 4 106328624.854 4     -2268.117          28.000    19911938.172 5  82700052.753 5     -1764.091          35.000
R14  19696759.906 8 104994853.070 8      1707.031          51.000    19696764.211 8  81662698.436 8      1327.691          50.000
C05  39789816.445 5 207196015.267 5        13.512          34.000    39789816.164 6 160217083.656 6        10.188          41.000
C14  22602886.336 8 117699162.390 8     -2280.852          51.000    22602883.797 8  91012442.410 8     -1763.826          51.000
C24  21825070.766 8 113648893.914 8      -447.371          51.000
C25  23674368.859 8 123278631.808 8      2360.355          49.000
C26  23942323.648 5 124673983.678 5     -2656.906          33.000
E01  24318859.016 7 127796480.284 7     -1293.918          46.000    24318860.148 7  97922003.251 7      -991.339          46.000
E04  24053382.734 8 126401363.340 8     -1425.145          50.000    24053382.336 8  96852976.839 8     -1092.096          51.000
E31  23993150.023 8 126084853.285 8      1574.816          51.000    23993151.320 8  96610483.506 8      1206.639          51.000
> 2020 05 10 04 30 30.0000000  0 15        .000000000000
G05  22107592.789 8 116176186.374 8     -2927.309          49.000    22107592.961 8  90526863.111 8     -2281.023          49.000
G13  20283846.961 7 106592340.351 7       789.215          47.000    20283846.258 6  83058945.531 6       614.973          40.000
G28  20879329.906 8 109721693.134 8        89.812          49.000    20879329.344 8  85497420.376 8        69.987          48.000
G30  21804038.461 6 114580993.784 6     -2266.527          37.000    21804038.359 6  89283884.499 6     -1766.128          37.000
R03  19804386.977 8 106014422.501 8     -2192.215          51.000    19804388.523 8  82455666.562 8     -1705.056          48.000
R13  19924721.516 4 106396883.410 4     -2282.832          29.000    19924721.492 5  82753149.450 5     -1775.536          34.000
R14  19687208.805 8 104943937.057 8      1687.586          51.000    19687212.742 8  81623097.077 8      1312.564          51.000
C05  39789739.953 5 207195616.929 5        13.121          34.000    39789739.734 6 160216775.618 6        10.231          41.000
C14  22616062.148 8 117767769.362 8     -2292.785          50.000    22616059.852 8  91065493.637 8     -1772.845          51.000
C24  21827682.500 8 113662492.515 8      -459.035          51.000
C25  23660794.641 8 123207947.121 8      2352.176          49.000
C26  23957644.805 5 124753741.959 5     -2660.250          32.000
E01  24326275.516 7 127835452.926 7     -1304.223          46.000    24326276.164 7  97951865.395 7      -999.423          46.000
E04  24061545.617 8 126444264.488 8     -1434.727          49.000    24061546.195 8  96885849.142 8     -1099.393          51.000
E31  23984191.891 8 126037779.314 8      1563.555          51.000    23984194.023 8  96574413.829 8      1198.048          51.000
> 2020 05 10 04 31  0.0000000  0 14        .000000000000
G05  22124338.188 8 116264181.489 8     -2938.855          50.000    22124337.648 8  90595430.715 8     -2290.017          50.000
G13  20279377.828 7 106568853.893 7       776.582          47.000    20279376.836 6  83040644.395 6       605.129          41.000
G28  20878871.781 8 109719283.600 8        70.934          50.000    20878870.609 8  85495542.805 8        55.273          48.000
G30  21817000.047 5 114649106.011 5     -2273.918          35.000    21817001.766 5  89336959.001 5     -1771.884          35.000
R03  19816732.820 8 106080507.797 8     -2213.379          51.000    19816733.648 7  82507066.263 7     -1721.517          47.000
R14  19677767.359 8 104893606.113 8      1667.914          51.000    19677770.883 8  81583950.781 8      1297.270          51.000
C05  39789663.211 5 207195217.587 5        13.031          34.000    39789663.078 6 160216466.773 6        10.475          40.000
C14  22629305.750 8 117836733.242 8     -2304.727          48.000    22629304.312 8  91118820.870 8     -1782.112          51.000
C24  21830361.539 8 113676442.855 8      -470.895          51.000
C25  23647267.195 8 123137507.994 8      2343.895          50.000
C26  23972988.320 5 124833616.686 5     -2664.754          34.000
E01  24333753.180 7 127874746.786 7     -1315.016          43.000    24333753.492 7  97981973.672 7     -1007.597          46.000
E04  24069764.188 8 126487453.797 8     -1444.465          51.000    24069765.367 8  96918942.254 8     -1106.726          51.000
E31  23975298.531 8 125991046.155 8      1552.062          51.000    23975301.539 8  96538605.311 8      1189.276          51.000
> 2020 05 10 04 31 30.0000000  0 15        .000000000000
G05  22141148.680 8 116352518.175 8     -2950.500          51.000    22141147.242 8  90664264.471 8     -2299.091          51.000
G13  20274979.055 7 106545737.254 7       764.168          46.000    20274977.531 6  83022631.428 6       595.456          41.000
G28  20878519.602 8 109717431.028 8        52.129          51.000    20878517.992 8  85494099.251 8        40.623          48.000
G30  21830000.430 5 114717422.388 5     -2280.301          35.000    21830002.906 5  89390192.555 5     -1776.858          35.000
R03  19829195.398 8 106147218.168 8     -2234.414          51.000    19829195.664 8  82558952.085 8     -1737.881          48.000
R13  19950550.719 5 106534799.044 5     -2313.359          31.000    19950550.664 5  82860415.983 5     -1799.280          35.000
R14  19668435.242 8 104843857.140 8      1648.293          51.000    19668438.117 8  81545257.157 8      1282.009          51.000
C05  39789585.648 5 207194813.297 5        12.926          35.000    39789585.461 6 160216154.122 6        10.297          41.000
C14  22642616.281 7 117906048.825 7     -2316.695          46.000    22642615.930 8  91172420.103 8     -1791.331          51.000
C24  21833106.961 8 113690739.989 8      -482.652          51.000
C25  23633786.367 8 123067311.135 8      2335.543          51.000
C26  23988352.055 5 124913602.545 5     -2667.949          30.000
E01  24341290.844 7 127914356.585 7     -1325.707          43.000    24341291.438 7  98012324.079 7     -1015.954          47.000
E04  24078037.641 8 126530927.238 8     -1454.117          51.000    24078038.750 8  96952253.076 8     -1114.215          51.000
E31  23966469.508 8 125944650.384 8      1540.637          51.000    23966472.961 8  96503055.304 8      1180.494          51.000
> 2020 05 10 04 32  0.0000000  0 13        .000000000000
G05  22158023.734 8 116441194.772 8     -2961.285          51.000    22158021.695 8  90733363.086 8     -2307.495          51.000
G13  20270650.906 7 106522992.095 7       752.133          46.000    20270649.000 7  83004907.926 7       586.078          42.000
G28  20878273.391 8 109716135.962 8        34.074          51.000    20878271.680 8  85493090.111 8        26.551          48.000
G30  21843039.016 5 114785945.318 5     -2287.215          32.000    21843042.180 5  89443584.577 5     -1782.248          30.000
R03  19841774.414 8 106214552.710 8     -2254.695          51.000    19841774.375 8  82611323.336 8     -1753.655          48.000
R14  19659212.148 8 104794690.856 8      1629.426          51.000    19659214.680 8  81507016.698 8      1267.328          51.000
C05                                                                  39789506.977 6 160215838.091 6        10.626          40.000
C14  22655993.992 7 117975715.233 7     -2327.762          46.000    22655994.742 8  91226290.628 8     -1800.055          51.000
C24  21835919.203 8 113705383.507 8      -493.676          51.000
C25  23620352.844 8 122997357.539 8      2327.910          51.000
E01  24348887.930 7 127954281.545 7     -1335.738          43.000    24348889.531 8  98042915.920 8     -1023.572          48.000
E04  24086365.406 8 126574685.197 8     -1463.117          51.000    24086366.219 8  96985781.886 8     -1121.117          51.000
E31  23957705.148 8 125898592.933 8      1529.781          51.000    23957708.469 8  96467764.515 8      1172.182          51.000
> 2020 05 10 04 32 30.0000000  0 13        .000000000000
G05  22174962.352 8 116530207.324 8     -2971.883          51.000    22174960.438 8  90802723.490 8     -2315.753          51.000
G13  20266393.461 7 106500618.741 7       740.367          46.000    20266391.414 7  82987474.133 7       576.909          42.000
G28  20878132.789 8 109715396.598 8        16.145          51.000    20878130.922 7  85492513.987 7        12.580          47.000
R03  19854469.422 8 106282508.836 8     -2274.723          51.000    19854469.359 8  82664178.061 8     -1769.232          48.000
R13  19976704.562 4 106674486.769 4     -2341.621          29.000    19976708.836 5  82969063.087 5     -1821.261          33.000
R14  19650098.055 8 104746106.832 8      1610.582          51.000    19650100.500 8  81469229.104 8      1252.675          51.000
C05  39789427.656 5 207193990.646 5        14.133          35.000    39789427.500 6 160215517.940 6        11.336          40.000
C14  22669439.508 8 118045730.271 8     -2338.773          48.000    22669440.594 8  91280430.693 8     -1808.545          51.000
C24  21838797.094 8 113720371.455 8      -504.559          51.000
C25  23606966.312 8 122927646.882 8      2320.430          51.000
E01  24356544.617 7 127994519.411 7     -1345.574          42.000    24356546.766 8  98073747.496 8     -1031.102          48.000
E04  24094746.906 8 126618726.633 8     -1472.012          51.000    24094747.547 8  97019527.896 8     -1127.890          51.000
E31  23949005.141 8 125852873.322 8      1519.129          51.000    23949008.117 8  96432732.577 8      1163.996          51.000
> 2020 05 10 04 33  0.0000000  0 13        .000000000000
G05  22191965.281 8 116619560.860 8     -2983.629          49.000    22191964.180 8  90872349.622 8     -2324.906          49.000
G13  20262208.297 7 106478626.384 7       727.094          46.000    20262206.531 7  82970337.227 7       566.567          43.000
G28  20878099.250 8 109715220.824 8        -2.984          51.000    20878097.562 7  85492377.036 7        -2.325          46.000
R03  19867281.266 8 106351093.095 8     -2296.078          51.000    19867281.359 8  82717521.338 8     -1785.839          48.000
R13  19989912.039 5 106745038.610 5     -2357.535          31.000    19989916.820 5  83023921.945 5     -1833.641          31.000
R14  19641094.438 8 104698113.355 8      1590.398          51.000    19641097.031 8  81431900.848 8      1236.977          50.000
C05                                                                  39789348.508 6 160215199.757 6        11.013          40.000
C14  22682954.266 8 118116100.348 8     -2351.008          50.000    22682954.586 8  91334845.299 8     -1817.906          51.000
C24  21841742.695 8 113735710.654 8      -516.609          51.000
C25  23593627.945 8 122858187.565 8      2311.625          51.000
E01  24364262.281 6 128035076.684 6     -1356.660          40.000    24364264.305 8  98104823.828 8     -1039.507          48.000
E04  24103183.641 8 126663059.314 8     -1482.066          51.000    24103184.242 8  97053497.071 8     -1135.576          51.000
E31  23940370.867 8 125807499.875 8      1507.297          51.000    23940373.789 8  96397965.883 8      1154.972          51.000
> 2020 05 10 04 33 30.0000000  0 13        .000000000000
G05  22209035.922 8 116709270.740 8     -2995.820          50.000    22209035.211 8  90942253.435 8     -2334.405          50.000
G13  20258099.125 7 106457033.587 7       713.609          46.000    20258097.695 7  82953511.669 7       556.059          43.000
G28  20878176.398 8 109715626.309 8       -22.844          51.000    20878174.438 7  85492692.992 7       -17.800          45.000
R03  19880213.328 8 106420322.347 8     -2317.871          50.000    19880213.961 8  82771366.296 8     -1802.789          49.000
R13  20003201.836 5 106815983.907 5     -2373.090          31.000    20003209.414 5  83079126.532 5     -1845.737          30.000
R14  19632204.531 8 104650729.127 8      1569.805          51.000    19632207.453 8  81395046.424 8      1220.956          49.000
C05  39789273.586 5 207193188.191 5        12.906          35.000    39789273.398 6 160214897.411 6        10.182          41.000
C14  22696540.672 8 118186841.906 8     -2363.812          51.000    22696539.898 8  91389547.127 8     -1827.826          51.000
C24  21844759.227 8 113751418.064 8      -529.266          51.000
C25  23580340.188 8 122788998.041 8      2302.270          49.000
E01  24372043.812 6 128075970.103 6     -1368.285          41.000    24372046.109 8  98136157.721 8     -1048.363          49.000
E04  24111679.070 8 126707701.148 8     -1492.738          51.000    24111679.523 8  97087703.140 8     -1143.828          51.000
E31  23931805.922 8 125762491.027 8      1494.668          51.000    23931808.875 8  96363478.580 8      1145.295          51.000
> 2020 05 10 04 34  0.0000000  0 13        .000000000000
G05  22226168.078 8 116799299.810 8     -3005.938          51.000    22226166.609 8  91012405.935 8     -2342.292          51.000
G13  20254059.734 7 106435807.200 7       701.781          46.000    20254058.344 7  82936971.606 7       546.843          45.000
G28  20878357.383 8 109716577.876 8       -40.418          51.000    20878355.078 7  85493434.486 7       -31.495          46.000
R03  19893259.164 8 106490159.992 8     -2337.727          49.000    19893260.414 8  82825684.515 8     -1818.229          49.000
R13  20016573.375 5 106887385.740 5     -2386.812          30.000    20016577.539 4  83134649.723 4     -1856.410          27.000
R14  19623423.141 8 104603919.681 8      1551.098          51.000    19623426.172 8  81358639.064 8      1206.409          49.000
C05  39789195.852 5 207192783.474 5        13.719          35.000    39789195.703 6 160214584.417 6        10.907          41.000
C14  22710191.430 8 118257919.365 8     -2374.508          51.000    22710189.359 8  91444508.685 8     -1836.035          51.000
C24  21847839.406 8 113767458.377 8      -539.840          51.000
C25  23567097.367 8 122720044.604 8      2294.941          49.000
E01  24379882.695 6 128117163.800 6     -1377.660          41.000    24379885.242 8  98167721.681 8     -1055.717          49.000
E04  24120226.453 8 126752617.442 8     -1501.363          51.000    24120226.586 8  97122119.507 8     -1150.416          51.000
E31  23923303.938 8 125717812.657 8      1484.172          51.000    23923306.828 8  96329244.498 8      1137.241          51.000
> 2020 05 10 04 34 30.0000000  0 12        .000000000000
G05  22243360.375 8 116889642.964 8     -3016.777          51.000    22243357.922 8  91082803.155 8     -2350.736          51.000
G13  20250089.953 7 106414946.272 7       689.277          46.000    20250088.625 7  82920716.329 7       537.099          45.000
G28  20878641.898 8 109718073.210 8       -58.996          51.000    20878639.375 7  85494599.704 7       -45.968          45.000
R03  19906417.328 8 106560602.020 8     -2358.281          49.000    19906419.922 8  82880472.761 8     -1834.219          48.000
R14  19614749.258 8 104557682.614 8      1531.582          51.000    19614752.742 8  81322676.926 8      1191.234          49.000
C05  39789115.062 5 207192362.789 5        13.934          35.000    39789114.938 6 160214259.087 6        11.070          40.000
C14  22723905.594 8 118329329.089 8     -2385.883          51.000    22723902.414 8  91499727.169 8     -1844.886          51.000
C24  21850983.234 8 113783828.432 8      -551.234          51.000
C25  23553900.742 8 122651325.531 8      2286.582          51.000
E01  24387778.266 7 128158654.114 7     -1387.879          42.000    24387780.406 8  98199512.941 8     -1063.509          49.000
E04  24128825.258 8 126797805.818 8     -1510.812          51.000    24128824.914 8  97156744.355 8     -1157.549          51.000
E31  23914864.453 8 125673462.921 8      1472.762          51.000    23914867.289 8  96295262.213 8      1128.552          51.000
> 2020 05 10 04 35  0.0000000  0 13        .000000000000
G05  22260615.195 8 116980314.477 8     -3027.453          51.000    22260612.320 8  91153456.245 8     -2359.057          51.000
G13  20246193.148 7 106394468.554 7       676.648          47.000    20246191.953 7  82904759.641 7       527.259          44.000
G28  20879033.047 8 109720128.571 8       -77.578          51.000    20879030.164 7  85496201.284 7       -60.450          45.000
R03  19919691.734 8 106631663.598 8     -2378.625          49.000    19919694.930 7  82935742.853 7     -1850.042          45.000
R14  19606186.289 8 104512035.527 8      1512.098          51.000    19606189.211 8  81287173.618 8      1176.076          48.000
C05  39789034.289 5 207191942.692 5        14.438          35.000    39789034.273 6 160213934.251 6        11.098          41.000
C14  22737685.523 8 118401086.276 8     -2397.258          50.000    22737682.375 8  91555214.337 8     -1853.787          51.000
C24  21854193.188 8 113800543.782 8      -562.559          51.000
C25  23540752.445 8 122582857.968 8      2278.398          49.000
C26  24096462.289 4 125476607.499 4     -2693.496          29.000
E01  24395733.141 7 128200456.504 7     -1398.246          43.000    24395734.672 8  98231543.311 8     -1071.374          50.000
E04  24137478.766 8 126843282.887 8     -1520.387          51.000    24137478.141 8  97191590.397 8     -1164.999          51.000
E31  23906490.641 8 125629458.945 8      1461.379          51.000    23906493.508 8  96261544.877 8      1119.725          51.000
> 2020 05 10 04 35 30.0000000  0 15        .000000000000
G05  22277927.383 8 117071288.602 8     -3037.430          51.000    22277924.555 8  91224345.147 8     -2366.828          51.000
G13  20242365.164 7 106374352.283 7       664.641          47.000    20242364.172 7  82889084.605 7       517.902          45.000
G15  21375601.594 5 112329544.260 5      2279.195          30.000
G28  20879526.133 8 109722720.399 8       -95.281          50.000    20879523.656 7  85498220.920 7       -74.245          46.000
G30  21935391.875 5 115271251.872 5     -2333.348          33.000    21935383.031 4  89821741.479 4     -1818.190          28.000
R03  19933077.516 8 106703320.121 8     -2398.477          48.000    19933080.336 7  82991475.627 7     -1865.488          43.000
R14  19597729.531 8 104466955.549 8      1493.195          51.000    19597732.148 8  81252111.437 8      1161.377          48.000
C05  39788949.461 5 207191500.670 5        14.789          35.000    39788949.367 6 160213592.414 6        11.653          41.000
C14  22751526.930 8 118473166.810 8     -2408.020          49.000    22751524.734 8  91610951.544 8     -1862.091          51.000
C24  21857464.867 8 113817580.734 8      -573.250          51.000
C25  23527647.195 8 122514619.846 8      2270.699          49.000
C26  24111982.727 5 125557434.273 5     -2695.664          32.000
E01  24403742.727 7 128242546.719 7     -1407.734          43.000    24403743.852 8  98263794.223 8     -1078.719          50.000
E04  24146182.891 8 126889025.595 8     -1529.234          51.000    24146182.211 8  97226639.957 8     -1171.766          51.000
E31  23898178.289 8 125585778.218 8      1450.578          51.000    23898181.219 8  96228075.227 8      1111.506          51.000
> 2020 05 10 04 36  0.0000000  0 15        .000000000000
G05  22295306.836 8 117162617.618 8     -3049.215          51.000    22295304.367 8  91295510.596 8     -2376.012          51.000
G13  20238616.719 8 106354653.423 8       650.582          48.000    20238615.797 7  82873734.822 7       506.947          46.000
G28  20880131.805 8 109725903.354 8      -115.008          50.000    20880129.469 7  85500701.151 7       -89.616          46.000
G30  21948733.844 5 115341383.743 5     -2340.332          32.000
R03  19946584.656 8 106775625.655 8     -2419.996          49.000    19946587.156 7  83047713.165 7     -1882.219          44.000
R13  20070857.406 5 107177225.939 5     -2443.676          31.000    20070859.859 5  83360095.720 5     -1900.643          32.000
R14  19589389.461 8 104422498.291 8      1472.539          51.000    19589392.047 8  81217533.584 8      1145.308          49.000
C05  39788870.758 5 207191091.022 5        14.039          35.000    39788870.703 6 160213275.645 6        10.934          40.000
C14  22765440.570 8 118545623.547 8     -2420.488          49.000    22765439.484 8  91666979.680 8     -1871.684          51.000
C24  21860808.773 8 113834992.615 8      -585.652          51.000
C25  23514597.062 8 122446665.882 8      2261.309          51.000
C26  24127528.789 5 125638397.259 5     -2699.309          31.000
E01  24411817.125 7 128284978.187 7     -1419.094          43.000    24411818.250 8  98296306.625 8     -1087.328          50.000
E04  24154948.133 8 126935088.621 8     -1539.770          51.000    24154947.250 8  97261934.970 8     -1179.847          51.000
E31  23889937.969 8 125542475.966 8      1438.145          51.000    23889940.758 8  96194895.595 8      1101.910          51.000
> 2020 05 10 04 36 30.0000000  0 13        .000000000000
G05  22312741.375 8 117254237.414 8     -3058.836          50.000    22312739.492 8  91366902.631 8     -2383.509          50.000
G13  20234936.383 8 106335312.109 8       638.707          49.000    20234935.508 7  82858663.666 7       497.694          46.000
G28  20880838.250 8 109729615.837 8      -132.605          50.000    20880835.812 7  85503593.973 7      -103.329          47.000
G30  21962115.930 4 115411697.418 4     -2347.195          29.000
R03  19960201.461 8 106848516.570 8     -2439.539          48.000    19960204.102 7  83104406.070 7     -1897.416          46.000
R14  19581154.695 8 104378602.367 8      1453.891          51.000    19581157.695 8  81183392.306 8      1130.804          50.000
C05  39788786.695 5 207190653.368 5        15.527          35.000    39788786.688 6 160212937.199 6        11.789          40.000
C14  22779414.891 8 118618394.727 8     -2431.000          48.000    22779414.633 8  91723250.974 8     -1879.767          51.000
C24  21864212.672 8 113852718.016 8      -596.012          51.000
C25  23501590.867 8 122378936.294 8      2253.832          51.000
E01  24419944.453 7 128327688.670 7     -1428.383          44.000    24419946.102 8  98329032.837 8     -1094.499          50.000
E04  24163762.891 8 126981410.879 8     -1548.355          51.000    24163762.109 8  97297428.622 8     -1186.435          51.000
E31  23881758.125 8 125499491.623 8      1427.461          51.000    23881760.656 8  96161959.556 8      1093.784          51.000
> 2020 05 10 04 37  0.0000000  0 14        .000000000000
G05  22330232.891 8 117346157.651 8     -3069.012          49.000    22330231.844 8  91438528.775 8     -2391.441          49.000
G13  20231326.555 8 106316341.515 8       626.293          48.000    20231325.570 7  82843881.370 7       488.020          47.000
G28  20881647.656 8 109733869.441 8      -150.789          51.000    20881645.625 8  85506908.480 8      -117.495          49.000
G30  21975528.406 5 115482182.542 5     -2351.988          31.000    21975526.102 5  89986089.034 5     -1832.715          31.000
R03  19973929.461 8 106922003.433 8     -2459.461          49.000    19973932.586 8  83161562.541 8     -1912.914          48.000
R14  19573027.344 8 104335280.363 8      1434.543          51.000    19573031.094 8  81149697.416 8      1115.756          50.000
C05  39788699.617 5 207190199.734 5        15.398          35.000    39788699.656 6 160212586.389 6        12.037          41.000
C14  22793452.000 8 118691490.816 8     -2441.941          48.000    22793452.031 8  91779773.501 8     -1888.222          51.000
C24  21867679.000 8 113870767.845 8      -606.969          51.000
C25  23488630.023 8 122311443.531 8      2245.941          51.000
C26  24158648.766 4 125800411.773 4     -2705.746          29.000
E01  24428126.758 7 128370688.829 7     -1438.043          45.000    24428128.891 8  98361980.989 8     -1101.907          50.000
E04  24172629.391 8 127028004.207 8     -1557.582          51.000    24172629.109 8  97333129.980 8     -1193.463          51.000
E31  23873641.312 8 125456837.588 8      1416.344          51.000    23873643.492 8  96129276.604 8      1085.310          51.000
> 2020 05 10 04 37 30.0000000  0 16        .000000000000
G05  22347788.281 8 117438413.819 8     -3081.637          50.000    22347788.016 8  91510416.673 8     -2401.278          50.000
G13  20227794.594 8 106297780.876 8       610.969          49.000    20227793.328 7  82829418.536 7       476.080          45.000
G28  20882567.445 8 109738702.245 8      -171.613          51.000    20882565.305 8  85510674.276 8      -133.725          48.000
G30  21988983.078 6 115552902.705 6     -2361.230          36.000    21988977.992 5  90041195.955 5     -1839.920          34.000
R03  19987775.742 8 106996123.020 8     -2482.074          50.000    19987779.047 8  83219211.132 8     -1930.502          49.000
R13  20112387.562 4 107399026.756 4     -2487.824          29.000    20112389.922 5  83532586.146 5     -1934.974          31.000
R14  19565015.125 8 104292570.843 8      1412.531          51.000    19565018.883 8  81116478.941 8      1098.638          50.000
R15  23172076.969 6 123824549.639 6      3800.078          37.000    23172080.562 6  96308001.808 6      2955.616          36.000
C05  39788616.711 5 207189767.917 5        12.734          35.000    39788616.773 6 160212252.448 6        10.155          40.000
C14  22807558.969 8 118764948.213 8     -2455.434          49.000    22807558.664 8  91836575.404 8     -1898.766          51.000
C24  21871214.750 8 113889178.930 8      -620.598          51.000
C25  23475721.508 8 122244225.953 8      2235.133          50.000
C26  24174248.375 5 125881655.207 5     -2710.996          30.000
E01  24436371.305 7 128414015.462 7     -1450.465          46.000    24436373.328 8  98395179.299 8     -1111.485          50.000
E04  24181554.844 8 127074906.625 8     -1569.516          51.000    24181554.898 8  97369068.183 8     -1202.580          51.000
E31  23865594.742 8 125414552.404 8      1402.473          51.000    23865596.828 8  96096876.272 8      1074.589          51.000
> 2020 05 10 04 38  0.0000000  0 14        .000000000000
G05  22365410.602 8 117531021.179 8     -3091.434          50.000    22365410.531 8  91582578.218 8     -2408.909          50.000
G13  20224344.156 8 106279649.403 8       598.559          48.000    20224342.625 7  82815290.115 7       466.412          46.000
G28  20883600.562 8 109744130.940 8      -189.586          51.000    20883598.531 8  85514904.423 8      -147.729          50.000
G30  22002478.539 5 115623835.590 5     -2366.871          33.000    22002477.492 5  90096471.464 5     -1844.318          32.000
R03  20001744.023 8 107070892.222 8     -2501.719          51.000    20001746.492 8  83277364.970 8     -1945.778          48.000
R14  19557121.328 8 104250492.287 8      1393.414          50.000    19557124.570 8  81083751.167 8      1083.766          50.000
R15  23150763.328 6 123710656.700 6      3793.824          36.000    23150768.258 6  96219418.431 6      2950.749          38.000
C05  39788541.398 5 207189375.740 5        13.734          35.000    39788541.477 6 160211949.195 6        10.717          40.000
C14  22821738.648 8 118838783.243 8     -2466.008          49.000    22821737.789 8  91893669.325 8     -1906.958          51.000
C24  21874822.836 8 113907968.037 8      -631.258          51.000
C25  23462869.297 8 122177301.843 8      2227.363          50.000
E01  24444681.430 7 128457685.225 7     -1460.094          45.000    24444683.383 8  98428640.534 8     -1118.671          51.000
E04  24190542.469 8 127122135.940 8     -1578.457          51.000    24190543.023 8  97405256.852 8     -1209.470          51.000
E31  23857621.844 8 125372654.342 8      1391.566          51.000    23857623.906 8  96064772.564 8      1066.178          51.000
> 2020 05 10 04 38 30.0000000  0 14        .000000000000
G05  22383085.281 8 117623902.605 8     -3100.254          51.000    22383084.555 8  91654953.289 8     -2415.785          51.000
G13  20220961.461 8 106261873.635 8       586.957          49.000    20220959.867 7  82801438.853 7       457.369          47.000
G28  20884732.859 8 109750081.036 8      -206.770          51.000    20884731.219 8  85519540.845 8      -161.122          50.000
G30  22016007.180 6 115694900.096 6     -2372.297          37.000    22016010.219 6  90151871.631 6     -1848.540          37.000
R03  20015819.203 8 107146233.574 8     -2520.582          51.000    20015820.547 7  83335963.795 7     -1960.453          47.000
R14  19549331.203 8 104208969.562 8      1375.121          49.000    19549335.297 8  81051455.728 8      1069.539          51.000
R15  23129487.500 5 123596958.972 5      3787.082          35.000    23129491.539 6  96130986.922 6      2945.508          38.000
C05  39788459.578 5 207188949.559 5        15.219          35.000    39788459.625 6 160211619.611 6        11.762          41.000
C14  22835976.094 8 118912920.708 8     -2475.820          48.000    22835974.859 8  91950997.099 8     -1914.531          51.000
C24  21878489.242 8 113927060.419 8      -641.129          51.000
C25  23450059.625 8 122110597.945 8      2220.184          50.000
E01  24453042.836 7 128501622.254 7     -1468.621          46.000    24453044.797 8  98462306.592 8     -1125.292          51.000
E04  24199578.031 8 127169617.495 8     -1586.566          51.000    24199578.812 8  97441638.801 8     -1215.684          51.000
E31  23849708.461 8 125331069.332 8      1381.246          51.000    23849710.602 8  96032908.727 8      1058.402          51.000
> 2020 05 10 04 39  0.0000000  0 14        .000000000000
G05  22400816.578 8 117717081.017 8     -3110.836          51.000    22400815.008 8  91727559.766 8     -2424.031          51.000
G13  20217651.805 8 106244481.189 8       573.461          50.000    20217650.086 7  82787886.292 7       446.853          47.000
G28  20885969.211 8 109756578.241 8      -225.531          51.000    20885967.672 8  85524603.598 8      -175.736          50.000
G30  22029569.609 5 115766169.457 5     -2378.766          35.000    22029576.117 5  90207409.222 5     -1853.587          34.000
R03  20030005.359 8 107222171.916 8     -2541.062          51.000    20030006.570 7  83395026.907 7     -1976.385          46.000
R14  19541650.867 8 104168029.637 8      1354.996          49.000    19541654.906 8  81019613.544 8      1053.886          50.000
R15  23108252.391 5 123483485.492 5      3779.070          33.000    23108257.695 6  96042729.743 6      2939.274          38.000
C05                                                                  39788376.305 6 160211284.075 6        11.508          40.000
C14  22850275.594 7 118987385.415 7     -2487.426          46.000    22850274.633 8  92008577.881 8     -1923.429          51.000
C24  21882218.672 8 113946481.339 8      -652.785          51.000
C25  23437297.602 8 122044141.098 8      2211.207          50.000
E01  24461459.680 8 128545851.829 8     -1478.992          48.000    24461461.547 8  98496196.765 8     -1133.305          51.000
E04  24208666.547 8 127217377.713 8     -1596.438          51.000    24208667.086 8  97478234.269 8     -1223.217          51.000
E31  23841859.906 8 125289824.265 8      1369.355          51.000    23841862.188 8  96001305.380 8      1049.225          51.000
> 2020 05 10 04 39 30.0000000  0 14        .000000000000
G05  22418597.797 8 117810521.980 8     -3112.320          50.000    22418596.156 8  91800370.846 8     -2425.185          50.000
G13  20214408.984 8 106227440.284 8       568.844          49.000    20214407.219 8  82774607.667 8       443.255          48.000
G28  20887303.234 8 109763588.756 8      -235.637          51.000    20887301.570 8  85530066.319 8      -183.613          50.000
R03  20044296.508 8 107298672.032 8     -2552.637          51.000    20044297.500 7  83454526.944 7     -1985.387          46.000
R14  19534073.711 8 104127639.120 8      1343.934          49.000    19534076.953 8  80988198.659 8      1045.282          50.000
R15  23087054.617 5 123370204.430 5      3779.492          32.000    23087059.633 6  95954622.203 6      2939.599          39.000
C05  39788285.188 5 207188041.387 5        23.152          35.000    39788285.227 6 160210917.336 6        17.649          40.000
C14  22864630.898 7 119062143.204 7     -2490.215          45.000    22864630.648 8  92066385.327 8     -1925.695          51.000
C24  21886004.695 8 113966197.016 8      -655.535          51.000
C25  23424576.125 8 121977899.101 8      2211.137          50.000
C26  24236861.086 5 126207699.281 5     -2713.551          30.000
E01  24469925.500 8 128590339.528 8     -1480.629          49.000    24469927.062 8  98530284.720 8     -1134.517          51.000
E04  24217801.680 8 127265383.355 8     -1597.719          51.000    24217802.227 8  97515017.805 8     -1224.322          51.000
E31  23834069.875 8 125248886.485 8      1366.012          51.000    23834072.320 8  95969937.472 8      1046.633          51.000
> 2020 05 10 04 40  0.0000000  0 13        .000000000000
G05  22436439.984 8 117904285.204 8     -3140.301          48.000    22436439.266 8  91873433.061 8     -2446.988          48.000
G13  20211245.117 8 106210814.635 8       537.703          50.000    20211243.516 8  82761652.602 8       418.989          48.000
G28  20888746.984 8 109771175.256 8      -272.098          51.000    20888745.336 8  85535977.866 8      -212.024          50.000
R03  20058704.445 8 107375795.932 8     -2590.938          51.000    20058705.266 8  83514512.133 8     -2015.174          48.000
R14  19526611.594 8 104087861.811 8      1306.004          49.000    19526614.711 8  80957260.758 8      1015.781          50.000
R15  23065904.781 6 123257181.569 6      3753.133          37.000    23065909.836 6  95866715.537 6      2919.103          38.000
C05  39788198.414 5 207187589.993 5         5.070          34.000    39788198.375 6 160210567.491 6         4.147          40.000
C14  22879054.562 7 119137254.819 7     -2519.191          45.000    22879054.883 8  92124466.341 8     -1947.938          50.000
C24  21889859.398 8 113986268.696 8      -684.488          51.000
C25  23411908.156 8 121911934.639 8      2184.637          51.000
E01  24478452.094 8 128635146.731 8     -1508.422          50.000    24478453.766 8  98564617.516 8     -1155.771          51.000
E04  24226995.203 8 127313697.012 8     -1625.199          51.000    24226996.172 8  97552037.340 8     -1245.268          51.000
E31  23826350.102 8 125208319.027 8      1336.543          51.000    23826352.727 8  95938853.318 8      1024.059          51.000
> 2020 05 10 04 40 30.0000000  0 14        .000000000000
G05  22454348.734 7 117998402.507 7     -3139.375          44.000    22454349.805 7  91946771.243 7     -2446.263          44.000
G13  20208167.180 8 106194640.052 8       535.387          50.000    20208165.820 8  82749049.026 8       417.184          49.000
G28  20890306.766 8 109779371.829 8      -279.625          51.000    20890305.172 8  85542364.806 8      -217.890          50.000
R03  20073235.102 8 107453577.150 8     -2599.727          51.000    20073235.648 8  83575008.616 8     -2022.010          49.000
R13  20197540.992 4 107853741.291 4     -2563.941          28.000    20197543.344 5  83886253.062 5     -1994.177          35.000
R14  19519271.555 8 104048733.002 8      1297.258          51.000    19519274.461 8  80926827.218 8      1008.978          51.000
R15  23044809.289 6 123144453.936 6      3756.469          38.000    23044813.719 6  95779038.447 6      2921.698          37.000
C05  39788122.453 5 207187193.997 5        16.008          34.000    39788122.344 6 160210261.258 6        12.354          40.000
C14  22893553.180 7 119212753.048 7     -2519.324          45.000    22893553.250 8  92182846.383 8     -1948.192          50.000
C24  21893788.797 8 114006729.698 8      -684.781          51.000
C25  23399301.086 8 121846282.538 8      2186.961          51.000
E01  24487045.906 8 128680306.849 8     -1507.461          50.000    24487047.812 8  98599220.709 8     -1155.154          51.000
E04  24236253.742 8 127362353.180 8     -1623.887          51.000    24236255.461 8  97589319.327 8     -1244.319          51.000
E31  23818707.266 8 125168156.954 8      1335.664          51.000    23818710.391 8  95908079.774 8      1023.425          51.000
> 2020 05 10 04 41  0.0000000  0 13        .000000000000
G05  22472304.336 7 118092766.058 7     -3150.688          44.000    22472306.953 7  92020301.348 7     -2455.078          44.000
G13  20205155.375 8 106178812.760 8       520.820          50.000    20205154.148 8  82736716.055 8       405.834          50.000
G28  20891962.500 8 109788072.656 8      -299.430          51.000    20891960.859 8  85549144.665 8      -233.325          49.000
R03  20087867.555 8 107531907.062 8     -2621.160          51.000    20087868.656 8  83635931.894 8     -2038.680          50.000
R14  19512033.484 8 104010146.373 8      1276.258          51.000    19512035.977 8  80896815.383 8       992.645          50.000
R15  23023747.242 5 123031917.004 5      3747.562          35.000    23023751.242 5  95691509.731 5      2914.771          35.000
C05  39788037.211 5 207186750.502 5        14.746          34.000    39788037.148 6 160209918.325 6        11.240          40.000
C14  22908106.273 7 119288532.667 7     -2531.566          47.000    22908106.094 8  92241443.954 8     -1957.628          51.000
C24  21897772.586 8 114027475.157 8      -697.234          51.000
C25  23386734.008 8 121780839.517 8      2177.031          51.000
E01  24495686.688 8 128725713.668 8     -1518.660          50.000    24495688.516 8  98634012.936 8     -1163.670          51.000
E04  24245557.586 8 127411246.838 8     -1634.719          51.000    24245559.805 8  97626783.309 8     -1252.628          51.000
E31  23811121.492 8 125128295.706 8      1322.641          51.000    23811125.531 8  95877536.750 8      1013.473          51.000
> 2020 05 10 04 41 30.0000000  0 14        .000000000000
G05  22490316.203 7 118187418.133 7     -3158.789          47.000    22490318.695 7  92094056.222 7     -2461.394          47.000
G13  20202218.445 8 106163378.931 8       508.965          50.000    20202217.266 8  82724689.683 8       396.593          49.000
G28  20893722.492 8 109797322.140 8      -316.383          51.000    20893721.078 8  85556352.059 8      -246.532          49.000
G30  22097911.484 5 116125320.399 5     -2408.273          35.000    22097913.828 5  90487253.459 5     -1876.565          35.000
R03  20102610.117 8 107610829.450 8     -2639.516          49.000    20102612.172 8  83697315.993 8     -2052.957          49.000
R14  19504905.328 8 103972147.569 8      1257.930          51.000    19504907.328 8  80867260.753 8       978.390          49.000
C05  39787951.398 5 207186303.117 5        15.828          35.000    39787951.422 6 160209573.109 6        12.330          40.000
C14  22922722.047 8 119364636.632 8     -2541.086          49.000    22922721.180 8  92300292.371 8     -1964.992          51.000
C24  21901819.547 8 114048548.546 8      -706.824          51.000
C25  23374214.492 8 121715650.597 8      2169.816          50.000
C26  24299751.844 5 126535097.764 5     -2733.730          32.000
E01  24504382.523 8 128771410.732 8     -1527.031          51.000    24504384.297 8  98669027.552 8     -1170.030          51.000
E04  24254915.469 8 127460422.706 8     -1642.797          51.000    24254917.453 8  97664463.525 8     -1258.763          51.000
E31  23803601.812 8 125088780.506 8      1312.527          51.000    23803606.484 8  95847258.875 8      1005.655          51.000
> 2020 05 10 04 42  0.0000000  0 15        .000000000000
G05  22508381.359 8 118282346.895 8     -3169.426          50.000    22508382.766 8  92168026.683 8     -2469.682          50.000
G13  20199354.953 8 106148330.926 8       494.504          51.000    20199353.781 8  82712963.952 8       385.328          50.000
G28  20895585.094 8 109807110.677 8      -335.719          51.000    20895583.617 8  85563979.479 8      -261.602          48.000
G30  22111683.406 5 116197680.246 5     -2414.719          30.000    22111685.305 4  90543661.045 4     -1881.599          28.000
R03  20117461.617 8 107690333.458 8     -2660.410          50.000    20117463.852 7  83759152.453 7     -2069.208          47.000
R14  19497885.633 8 103934727.591 8      1237.047          51.000    19497887.680 8  80838156.320 8       962.148          50.000
R15  22981768.180 5 122807589.200 5      3731.332          35.000    22981762.070 6  95516997.767 6      2902.150          38.000
C05  39787863.438 5 207185845.069 5        15.047          35.000    39787863.531 6 160209218.921 6        11.532          40.000
C14  22937398.398 8 119441054.632 8     -2553.113          50.000    22937396.578 8  92359383.573 8     -1974.129          51.000
C24  21905927.414 8 114069940.016 8      -718.867          51.000
C25  23361742.070 8 121650707.408 8      2160.062          51.000
C26  24315509.695 6 126617156.246 6     -2737.305          36.000
E01  24513131.711 8 128817387.826 8     -1537.738          51.000    24513133.445 8  98704256.737 8     -1178.288          51.000
E04  24264325.602 8 127509871.748 8     -1653.398          51.000    24264326.828 8  97702353.039 8     -1266.887          51.000
E31  23796146.852 8 125049602.825 8      1299.789          51.000    23796151.570 8  95817239.601 8       995.921          51.000
> 2020 05 10 04 42 30.0000000  0 15        .000000000000
G05  22526501.891 8 118377565.753 8     -3179.703          51.000    22526501.570 8  92242223.155 8     -2477.691          51.000
G13  20196567.961 8 106133684.914 8       480.629          51.000    20196566.727 8  82701551.467 8       374.516          50.000
G28  20897553.070 8 109817453.092 8      -354.902          51.000    20897551.445 8  85572038.510 8      -276.544          48.000
G30  22125489.773 5 116270246.385 5     -2421.734          32.000    22125495.883 5  90600183.786 5     -1887.063          33.000
R03  20132425.109 8 107770432.745 8     -2680.809          51.000    20132426.188 7  83821451.890 7     -2085.073          46.000
R14  19490976.859 8 103897902.135 8      1216.695          50.000    19490979.938 8  80809514.313 8       946.319          50.000
R15  22960839.625 6 122695770.348 6      3722.438          39.000    22960838.820 6  95430027.604 6      2895.229          39.000
C05  39787776.109 5 207185390.791 5        14.465          35.000    39787776.281 6 160208867.625 6        11.104          40.000
C14  22952137.625 8 119517800.565 8     -2564.484          51.000    22952134.688 8  92418728.395 8     -1983.031          51.000
C24  21910099.266 8 114091663.947 8      -730.457          51.000
C25  23349320.875 8 121586025.756 8      2150.809          51.000
C26  24331283.305 5 126699305.555 5     -2740.207          34.000
E01  24521936.914 8 128863659.124 8     -1548.184          51.000    24521938.531 8  98739711.343 8     -1186.277          51.000
E04  24273790.820 8 127559609.219 8     -1663.629          51.000    24273790.648 8  97740463.545 8     -1274.666          51.000
E31  23788759.039 8 125010778.446 8      1287.434          51.000    23788763.648 8  95787491.053 8       986.433          51.000
> 2020 05 10 04 43  0.0000000  0 14        .000000000000
G05  22544678.812 8 118473081.073 8     -3188.090          51.000    22544676.438 8  92316650.621 8     -2484.229          51.000
G13  20193859.609 8 106119452.030 8       468.191          51.000    20193858.227 8  82690460.898 8       364.824          50.000
G28  20899628.266 8 109828358.520 8      -372.258          51.000    20899626.672 8  85580536.259 8      -290.071          48.000
R03  20147501.469 8 107851135.395 8     -2699.379          51.000    20147501.633 7  83884220.590 7     -2099.520          46.000
R14  19484181.523 8 103861681.172 8      1197.992          50.000    19484184.805 8  80781342.443 8       931.769          49.000
R15  22939960.477 6 122584212.161 6      3714.863          40.000    22939963.039 6  95343260.145 6      2889.338          40.000
C05                                                                  39787691.688 6 160208526.885 6        11.747          41.000
C14  22966941.188 8 119594882.595 8     -2574.332          50.000    22966937.461 8  92478333.072 8     -1990.543          51.000
C24  21914336.992 8 114113729.032 8      -740.484          51.000
C25  23336952.320 8 121521615.955 8      2143.121          51.000
C26  24347074.133 5 126781554.382 5     -2742.844          32.000
E01  24530799.562 8 128910233.017 8     -1556.773          51.000    24530801.016 8  98775397.831 8     -1192.816          51.000
E04  24283312.734 8 127609644.721 8     -1672.094          51.000    24283311.133 8  97778802.391 8     -1281.185          50.000
E31  23781440.219 8 124972317.422 8      1276.723          51.000    23781444.461 8  95758020.937 8       978.250          51.000
> 2020 05 10 04 43 30.0000000  0 15        .000000000000
G05  22562895.508 8 118568806.447 8     -3188.676          51.000    22562891.406 8  92391241.760 8     -2484.682          51.000
G13  20191214.117 8 106105549.801 8       463.523          51.000    20191212.695 8  82679627.987 8       361.187          51.000
G28  20901794.641 8 109839742.603 8      -381.816          51.000    20901793.016 8  85589406.981 8      -297.519          48.000
R03  20162673.852 8 107932354.186 8     -2710.062          50.000    20162674.422 8  83947390.738 8     -2107.829          48.000
R13  20285316.414 4 108322487.152 4     -2632.820          29.000    20285319.734 5  84250810.311 5     -2047.749          33.000
R14  19477483.594 8 103825979.708 8      1187.145          50.000    19477487.328 8  80753574.645 8       923.335          50.000
R15  22919115.805 7 122472831.137 7      3715.266          43.000    22919120.234 6  95256630.497 6      2889.654          40.000
C05  39787593.508 5 207184440.171 5        23.598          35.000    39787593.789 6 160208132.505 6        18.299          41.000
C14  22981792.766 8 119672216.219 8     -2576.316          49.000    22981788.586 8  92538132.330 8     -1992.208          51.000
C24  21918623.938 8 114136051.219 8      -742.777          51.000
C25  23324619.438 8 121457395.500 8      2143.070          49.000
C26  24362867.297 5 126863818.332 5     -2736.453          34.000
E01  24539703.602 8 128957024.443 8     -1557.641          51.000    24539704.711 8  98811250.984 8     -1193.511          51.000
E04  24292875.211 8 127659894.238 8     -1672.867          51.000    24292872.656 8  97817305.228 8     -1281.816          50.000
E31  23774174.977 8 124934136.328 8      1273.742          51.000    23774178.398 8  95728765.286 8       975.951          51.000
> 2020 05 10 04 44  0.0000000  0 14        .000000000000
G05  22581165.062 8 118664811.478 8     -3207.691          51.000    22581160.711 8  92466050.822 8     -2499.503          50.000
G13  20188645.234 8 106092050.387 8       440.285          51.000    20188643.836 8  82669108.950 8       343.079          51.000
G28  20904065.570 8 109851676.211 8      -409.863          51.000    20904063.688 8  85598705.896 8      -319.377          48.000
R03  20177955.516 8 108014160.038 8     -2739.535          50.000    20177957.234 8  84011017.482 8     -2130.750          48.000
R14  19470896.828 8 103790870.365 8      1157.500          51.000    19470900.945 8  80726267.427 8       900.278          49.000
R15  22898318.945 7 122361701.988 7      3697.246          45.000    22898324.305 6  95170196.747 6      2875.639          39.000
C05  39787496.086 5 207183932.910 5        14.078          35.000    39787496.219 6 160207739.471 6        10.943          40.000
C14  22996705.586 8 119749870.956 8     -2596.656          49.000    22996701.648 8  92598179.856 8     -2007.884          51.000
C24  21922973.656 8 114158700.501 8      -763.285          51.000
C25  23312336.016 8 121393435.832 8      2124.684          50.000
C26  24378679.000 6 126946167.374 6     -2749.457          40.000
E01  24548662.391 8 129004103.721 8     -1576.918          51.000    24548663.383 8  98847324.689 8     -1208.276          51.000
E04  24302491.727 8 127710429.256 8     -1692.035          51.000    24302488.898 8  97856026.842 8     -1296.491          50.000
E31  23766976.781 8 124896307.103 8      1252.277          51.000    23766979.406 8  95699779.227 8       959.573          51.000
> 2020 05 10 04 44 30.0000000  0 14        .000000000000
G05  22599499.383 8 118761159.469 8     -3216.344          49.000    22599496.164 8  92541127.143 8     -2506.242          49.000
G13  20186165.945 8 106079021.597 8       427.398          51.000    20186164.438 8  82658956.631 8       333.038          51.000
G28  20906453.555 8 109864224.856 8      -427.680          50.000    20906451.523 8  85608484.055 8      -333.254          49.000
R03  20193359.289 8 108096618.569 8     -2758.484          49.000    20193361.648 8  84075151.907 8     -2145.488          48.000
R14  19464434.180 8 103756420.326 8      1138.293          51.000    19464437.953 8  80699472.922 8       885.339          50.000
R15  22877582.758 7 122250894.300 7      3689.262          45.000    22877587.945 6  95084013.040 6      2869.426          38.000
C05  39787411.453 5 207183492.241 5        14.398          35.000    39787411.539 6 160207398.688 6        11.273          40.000
C14  23011692.305 8 119827910.949 8     -2606.812          49.000    23011688.797 8  92658525.333 8     -2015.774          51.000
C24  21927398.531 8 114181741.613 8      -773.730          51.000
C25  23300116.055 8 121329803.151 8      2116.543          51.000
C26  24394521.039 6 127028665.956 6     -2751.375          41.000
E01  24557688.242 8 129051535.802 8     -1585.969          51.000    24557689.727 8  98883668.745 8     -1215.256          51.000
E04  24312174.781 8 127761315.878 8     -1701.109          51.000    24312172.766 8  97895017.888 8     -1303.510          51.000
E31  23759857.805 8 124858896.354 8      1240.980          51.000    23759860.188 8  95671113.826 8       950.887          51.000
> 2020 05 10 04 45  0.0000000  0 14        .000000000000
G05  22617880.484 8 118857756.004 8     -3224.062          48.000    22617878.891 8  92616397.139 8     -2512.260          48.000
G13  20183759.070 8 106066373.147 8       415.055          51.000    20183757.422 8  82649100.695 8       323.419          51.000
G28  20908940.812 8 109877296.187 8      -444.562          51.000    20908938.883 8  85618669.512 8      -346.412          48.000
R03  20208867.188 8 108179634.559 8     -2776.613          50.000    20208869.586 7  84139719.920 7     -2159.588          47.000
R14  19458077.898 8 103722536.632 8      1119.844          51.000    19458081.523 8  80673118.924 8       870.990          50.000
R15  22856890.000 7 122140316.762 7      3681.926          45.000    22856894.656 6  94998008.337 6      2863.720          37.000
C05  39787322.461 5 207183028.471 5        15.883          35.000    39787322.500 6 160207040.087 6        12.097          40.000
C14  23026735.289 8 119906243.981 8     -2616.176          49.000    23026732.453 8  92719097.376 8     -2022.927          51.000
C24  21931880.914 8 114205082.796 8      -783.117          51.000
C25  23287941.758 8 121266407.254 8      2109.141          50.000
C26  24410375.172 6 127111222.332 6     -2752.859          40.000
E01  24566763.742 8 129099227.812 8     -1594.141          51.000    24566765.688 8  98920211.960 8     -1221.520          51.000
E04  24321907.266 8 127812462.353 8     -1709.336          51.000    24321906.383 8  97934208.060 8     -1309.769          51.000
E31  23752800.578 8 124821812.731 8      1230.598          50.000    23752803.258 8  95642699.098 8       942.902          51.000
> 2020 05 10 04 45 30.0000000  0 15        .000000000000
G05  22636312.539 7 118954621.678 7     -3233.375          47.000    22636312.398 7  92691876.888 7     -2519.510          47.000
G13  20181429.234 8 106054129.386 8       401.078          51.000    20181427.445 8  82639560.082 8       312.528          51.000
G28  20911531.992 8 109890912.807 8      -463.148          51.000    20911529.820 8  85629279.844 8      -360.895          49.000
R03  20224483.094 8 108263229.803 8     -2796.297          51.000    20224485.750 7  84204738.410 7     -2174.898          47.000
R14  19451832.688 8 103689243.033 8      1099.801          51.000    19451835.250 8  80647223.931 8       855.404          49.000
R15  22836244.359 6 122029994.902 6      3672.891          41.000    22836249.734 6  94912202.470 6      2856.696          39.000
C05  39787233.492 5 207182564.944 5        15.621          34.000    39787233.453 6 160206681.635 6        11.931          40.000
C14  23041838.836 8 119984891.772 8     -2627.113          50.000    23041836.383 8  92779912.828 8     -2031.348          51.000
C24  21936425.203 8 114228746.254 8      -794.281          51.000
C25  23275817.023 8 121203271.882 8      2099.969          50.000
C26  24426245.242 5 127193858.573 5     -2755.684          34.000
E01  24575892.984 8 129147201.808 8     -1603.984          51.000    24575894.836 8  98956971.236 8     -1229.069          51.000
E04  24331693.891 8 127863891.890 8     -1719.246          51.000    24331694.008 8  97973615.104 8     -1317.368          51.000
E24  25396658.719 6 133460349.773 6      2928.094          38.000    25396671.789 6 102261870.038 6      2243.568          36.000
E31  23745810.242 8 124785079.982 8      1218.418          51.000    23745812.969 8  95614553.212 8       933.587          51.000
> 2020 05 10 04 46  0.0000000  0 15        .000000000000
G05  22654815.102 7 119051857.367 7     -3245.988          47.000    22654815.750 7  92767644.952 7     -2529.342          47.000
G13  20179196.266 8 106042394.872 8       383.969          51.000    20179194.391 8  82630416.300 8       299.196          51.000
G28  20914246.469 8 109905177.575 8      -484.988          51.000    20914244.367 8  85640395.238 8      -377.913          49.000
G30  22223105.367 5 116783195.967 5     -2466.207          35.000
R03  20240226.438 8 108347507.690 8     -2819.277          51.000    20240229.172 7  84270287.829 7     -2192.774          46.000
R14  19445717.664 8 103656644.425 8      1076.414          51.000    19445719.086 8  80621869.468 8       837.211          48.000
R15  22815663.852 5 121920036.108 5      3660.473          32.000    22815672.961 6  94826678.934 6      2847.034          41.000
C05  39787164.281 5 207182204.460 5        11.098          35.000    39787164.250 6 160206402.829 6         8.977          40.000
C14  23057022.289 8 120063955.374 8     -2641.051          50.000    23057019.859 8  92841049.800 8     -2042.149          51.000
C24  21941050.844 8 114252833.555 8      -808.621          51.000
C25  23263762.000 8 121140500.032 8      2087.547          49.000
E01  24585095.227 8 129195559.995 8     -1616.984          51.000    24585096.594 8  98994024.901 8     -1238.973          51.000
E04  24341554.125 8 127915707.758 8     -1732.203          51.000    24341554.961 8  98013318.174 8     -1327.299          51.000
E24  25379974.297 6 133372670.125 6      2920.031          38.000    25379986.117 6 102194686.900 6      2237.507          36.000
E31  23738906.844 8 124748801.880 8      1203.066          51.000    23738909.328 8  95586755.684 8       921.830          51.000
> 2020 05 10 04 46 30.0000000  0 16        .000000000000
G05  22673342.297 7 119149219.806 7     -3249.316          47.000    22673343.023 7  92843511.789 7     -2531.935          47.000
G13  20177014.602 8 106030929.978 8       375.902          51.000    20177012.625 8  82621482.603 8       292.911          51.000
G28  20917038.406 8 109919849.132 8      -497.590          51.000    20917036.445 8  85651827.617 8      -387.732          50.000
G30  22237182.258 5 116857179.864 5     -2466.438          34.000    22237171.938 5  91057512.374 5     -1921.899          35.000
R03  20256051.461 8 108432220.850 8     -2832.777          51.000    20256053.508 7  84336175.791 7     -2203.274          45.000
R14  19439686.961 8 103624496.452 8      1062.391          51.000    19439688.414 8  80596865.480 8       826.304          50.000
R15  22795109.305 6 121810197.300 6      3657.801          37.000    22795118.227 7  94741248.585 7      2844.956          43.000
C05                                                                  39787069.039 6 160206019.348 6        13.218          41.000
C14  23072239.438 8 120143194.874 8     -2645.984          50.000    23072236.453 8  92902322.822 8     -2046.037          50.000
C24  21945712.047 8 114277105.319 8      -813.855          51.000
C25  23251731.445 8 121077853.792 8      2084.395          50.000
C26  24458026.188 5 127359352.988 5     -2759.430          33.000
E01  24594324.508 8 129244060.469 8     -1620.723          51.000    24594325.703 8  99031187.591 8     -1241.867          51.000
E04  24351441.891 8 127967669.215 8     -1736.113          51.000    24351443.109 8  98053132.777 8     -1330.272          51.000
E24  25363288.289 6 133284982.481 6      2921.516          36.000    25363299.227 6 102127497.682 6      2238.247          37.000
E31  23732044.258 8 124712738.076 8      1196.832          51.000    23732046.555 8  95559122.381 8       917.083          51.000
> 2020 05 10 04 47  0.0000000  0 17        .000000000000
G05  22691919.852 8 119246844.209 8     -3258.363          48.000    22691920.336 8  92919582.744 8     -2538.984          48.000
G13  20174910.898 8 106019874.335 8       361.652          51.000    20174908.883 8  82612867.810 8       281.804          51.000
G24  24053516.734 6 126402096.202 6      3157.832          38.000
G28  20919933.945 8 109935064.943 8      -516.207          51.000    20919931.750 8  85663684.085 8      -402.239          49.000
G30  22251290.258 5 116931318.895 5     -2472.789          33.000
R03  20271984.250 8 108517508.244 8     -2852.477          50.000    20271984.320 7  84402510.403 7     -2218.593          44.000
R14  19433766.992 8 103592939.565 8      1041.980          51.000    19433769.062 8  80572321.239 8       810.429          51.000
R15  22774606.086 7 121700621.076 7      3648.129          42.000    22774612.078 7  94656022.676 7      2837.434          43.000
C05  39786974.188 5 207181214.498 5        16.375          35.000    39786974.164 6 160205637.322 6        12.665          40.000
C14  23087516.000 8 120222745.757 8     -2656.898          49.000    23087512.914 8  92963836.555 8     -2054.507          49.000
C24  21950434.922 8 114301697.585 8      -825.082          51.000
C25  23239751.477 8 121015470.778 8      2074.984          50.000
C26  24473939.242 5 127442190.406 5     -2763.152          33.000
E01  24603607.000 8 129292840.239 8     -1630.695          51.000    24603608.617 8  99068564.287 8     -1249.500          51.000
E04  24361383.375 8 128019914.339 8     -1746.320          51.000    24361385.023 8  98093164.729 8     -1338.036          51.000
E24  25346627.430 5 133197426.467 5      2916.406          35.000    25346637.336 6 102060409.252 6      2234.787          37.000
E31  23725248.648 8 124677027.146 8      1184.426          51.000    23725251.047 8  95531759.476 8       907.553          51.000
> 2020 05 10 04 47 30.0000000  0 16        .000000000000
G05  22710538.445 8 119344683.657 8     -3263.980          48.000    22710538.523 8  92995821.250 8     -2543.361          48.000
G13  20172876.703 8 106009184.112 8       351.078          51.000    20172874.656 8  82604537.773 8       273.567          51.000
G24  24035494.570 5 126307387.385 5      3156.199          34.000
G28  20922924.266 8 109950778.982 8      -531.207          51.000    20922922.125 8  85675928.783 8      -413.928          50.000
R03  20288015.297 8 108603322.112 8     -2868.379          49.000    20288014.031 7  84469254.516 7     -2230.958          43.000
R14  19427948.961 8 103561927.967 8      1025.465          51.000    19427951.461 8  80548201.073 8       797.584          50.000
R15  22754143.156 7 121591263.680 7      3642.484          43.000    22754146.211 7  94570966.982 7      2833.043          42.000
C05  39786871.164 5 207180677.937 5        19.195          35.000    39786871.141 6 160205222.391 6        15.070          40.000
C14  23102842.961 7 120302562.019 7     -2664.254          47.000    23102840.195 8  93025555.505 8     -2060.010          50.000
C24  21955210.531 8 114326564.872 8      -832.621          51.000
C25  23227813.703 8 120953306.995 8      2069.312          50.000
C26  24489859.305 5 127525060.011 5     -2761.922          33.000
E01  24612933.961 8 129341853.062 8     -1636.836          51.000    24612935.891 8  99106119.557 8     -1254.166          51.000
E04  24371370.203 8 128072397.979 8     -1752.625          51.000    24371372.242 8  98133379.461 8     -1342.926          51.000
E24  25329983.203 5 133109959.304 5      2915.195          34.000    25329992.477 6 101993388.186 6      2233.592          38.000
E31  23718511.727 8 124641624.501 8      1175.828          51.000    23718514.281 8  95504632.778 8       900.935          51.000
> 2020 05 10 04 48  0.0000000  0 15        .000000000000
G05  22729214.797 7 119442826.987 7     -3277.418          47.000    22729214.156 7  93072296.532 7     -2553.832          47.000
G13  20170929.750 8 105998952.505 8       332.496          51.000    20170927.656 8  82596565.085 8       259.088          51.000
G28  20926026.758 8 109967082.507 8      -554.219          51.000    20926024.766 8  85688632.826 8      -431.859          50.000
R03  20304161.055 8 108689753.685 8     -2892.254          49.000    20304159.359 6  84536479.067 6     -2249.531          41.000
R14  19422250.359 8 103531554.561 8      1000.910          51.000    19422253.359 8  80524577.309 8       778.489          50.000
R15  22733737.789 6 121482220.430 6      3628.566          41.000    22733739.102 6  94486155.578 6      2822.218          41.000
C05                                                                  39786777.406 6 160204845.107 6        11.088          40.000
C14  23118237.461 7 120382733.145 7     -2679.199          46.000    23118236.070 8  93087548.863 8     -2071.796          51.000
C24  21960056.352 8 114351797.206 8      -848.102          51.000
C25  23215935.547 8 120891453.881 8      2055.633          51.000
C26  24505806.492 5 127608051.826 5     -2769.602          32.000
E01  24622322.438 8 129391189.457 8     -1650.883          51.000    24622324.172 8  99143922.769 8     -1265.013          51.000
E04  24381419.938 8 128125211.743 8     -1766.852          51.000    24381422.117 8  98173847.148 8     -1353.920          51.000
E24  25313379.664 5 133022705.013 5      2905.250          33.000    25313382.453 6 101926505.692 6      2226.304          38.000
E31  23711851.047 8 124606622.228 8      1159.078          51.000    23711853.758 8  95477812.847 8       888.080          51.000
> 2020 05 10 04 48 30.0000000  0 17        .000000000000
G05  22747962.852 7 119541347.376 7     -3283.316          47.000    22747960.617 7  93149065.620 7     -2558.428          47.000
G13  20169084.656 8 105989256.556 8       321.168          51.000    20169082.594 8  82589009.793 8       250.261          51.000
G28  20929255.812 8 109984050.996 8      -569.754          51.000    20929253.742 8  85701855.009 8      -443.964          50.000
G30  22293773.078 5 117154569.242 5     -2488.805          32.000    22293769.672 5  91289251.860 5     -1939.328          30.000
R03  20320436.789 8 108776878.712 8     -2908.633          51.000    20320434.594 6  84604242.924 6     -2262.273          41.000
R04  19399694.500 6 103884481.330 6      1136.906          37.000    19399691.914 5  80799030.388 5       884.260          33.000
R14  19416686.695 8 103501896.653 8       983.680          51.000    19416689.625 8  80501510.057 8       765.084          51.000
R15  22713404.719 6 121373570.871 6      3622.176          40.000    22713406.344 6  94401650.296 6      2817.245          41.000
C05  39786707.734 5 207179827.526 5        16.887          35.000    39786707.664 6 160204563.997 6        13.206          40.000
C14  23133714.789 7 120463333.269 7     -2687.000          47.000    23133714.578 8  93149873.969 8     -2077.650          51.000
C24  21964986.664 8 114377469.294 8      -856.172          51.000
C25  23204131.750 8 120829987.605 8      2049.270          50.000
C26  24521789.492 5 127691240.523 5     -2769.469          33.000
E01  24631786.711 8 129440924.523 8     -1657.512          51.000    24631788.109 8  99182031.439 8     -1270.038          51.000
E04  24391547.289 8 128178431.845 8     -1773.844          51.000    24391549.703 8  98214626.154 8     -1359.149          51.000
E24  25296825.422 6 132935705.032 6      2903.586          36.000    25296821.664 6 101859821.196 6      2224.829          38.000
E31  23705281.141 8 124572096.935 8      1149.832          51.000    23705284.055 8  95451358.388 8       881.025          51.000
> 2020 05 10 04 49  0.0000000  0 17        .000000000000
G05  22766733.070 8 119639983.240 8     -3292.230          48.000    22766728.977 8  93225924.688 8     -2565.374          48.000
G13  20167292.344 8 105979837.878 8       306.949          51.000    20167290.461 8  82581670.551 8       239.181          51.000
G28  20932561.805 8 110001424.115 8      -588.145          51.000    20932560.039 8  85715392.509 8      -458.294          50.000
G30  22308002.383 5 117229346.667 5     -2495.387          32.000    22308001.180 5  91347519.970 5     -1944.463          31.000
R03  20336792.938 8 108864430.639 8     -2927.852          51.000    20336790.984 7  84672338.774 7     -2277.221          43.000
R04  19393391.656 6 103850740.337 6      1113.184          36.000    19393389.922 5  80772787.430 5       865.812          34.000
R14  19411207.758 8 103472690.784 8       963.656          51.000    19411210.961 8  80478794.371 8       749.510          51.000
R15  22693097.828 7 121265052.548 7      3612.668          45.000    22693099.000 7  94317247.125 7      2809.853          42.000
C05                                                                  39786612.453 6 160204180.427 6        12.556          40.000
C14  23149225.859 8 120544103.660 8     -2697.391          48.000    23149226.000 8  93212330.765 8     -2085.854          51.000
C24  21969951.531 8 114403322.943 8      -867.141          51.000
C25  23192352.648 8 120768651.573 8      2040.000          49.000
C26  24537756.539 5 127774367.902 5     -2772.371          34.000
E01  24641277.219 8 129490797.402 8     -1667.027          51.000    24641278.656 8  99220245.706 8     -1277.333          51.000
E04  24401702.719 8 128231798.475 8     -1783.586          51.000    24401705.031 8  98255517.440 8     -1366.671          51.000
E24  25280269.133 5 132848676.180 5      2898.637          33.000    25280260.633 6 101793136.750 6      2221.141          38.000
E31  23698752.594 8 124537789.346 8      1137.629          51.000    23698755.734 8  95425070.745 8       871.684          51.000
> 2020 05 10 04 49 30.0000000  0 17        .000000000000
G05  22785552.008 8 119738874.280 8     -3300.172          49.000    22785547.406 8  93302982.606 8     -2571.566          48.000
G13  20165580.258 8 105970840.259 8       293.238          51.000    20165578.359 8  82574659.413 8       228.497          51.000
G17  24588368.852 6 129212749.708 6      2823.473          38.000    24588367.078 6 100685247.124 6      2200.109          38.000
G28  20935971.828 8 110019343.560 8      -606.047          51.000    20935970.281 8  85729355.701 8      -472.244          50.000
R03  20353255.656 8 108952552.755 8     -2946.512          51.000    20353254.758 7  84740878.132 7     -2291.731          46.000
R04  19387221.711 6 103817712.266 6      1089.359          37.000    19387225.727 6  80747098.853 6       847.276          36.000
R14  19405840.500 8 103444081.339 8       943.941          51.000    19405844.125 8  80456542.566 8       734.177          51.000
R15  22672843.719 8 121156812.663 8      3603.594          48.000    22672844.016 7  94233060.559 7      2802.795          43.000
C05  39786518.969 5 207178844.411 5        16.121          35.000    39786518.922 6 160203803.755 6        12.532          40.000
C14  23164797.211 8 120625184.235 8     -2707.430          49.000    23164796.852 8  93275027.401 8     -2093.626          51.000
C24  21974978.281 8 114429498.557 8      -877.566          51.000
C25  23180625.852 8 120707587.604 8      2031.281          49.000
C26  24553737.133 6 127857574.382 6     -2774.922          38.000
E01  24650820.852 8 129540949.459 8     -1676.078          51.000    24650822.547 8  99258673.902 8     -1284.322          51.000
E04  24411913.336 8 128285454.119 8     -1793.160          51.000    24411915.430 8  98296630.189 8     -1374.001          51.000
E24  25263736.766 5 132761829.218 5      2893.977          34.000    25263727.039 6 101726562.601 6      2217.469          37.000
E31  23692292.734 8 124503842.377 8      1125.809          51.000    23692296.016 8  95399059.421 8       862.609          51.000
> 2020 05 10 04 50  0.0000000  0 17        .000000000000
G05  22804415.430 8 119837998.952 8     -3307.207          48.000    22804411.148 8  93380222.570 8     -2577.047          48.000
G13  20163944.930 8 105962245.730 8       280.430          51.000    20163942.844 8  82567962.378 8       218.517          51.000
G17  24572259.078 6 129128091.669 6      2821.117          36.000    24572256.141 6 100619279.847 6      2198.273          37.000
G28  20939481.969 8 110037789.496 8      -622.957          51.000    20939480.344 8  85743729.150 8      -485.421          49.000
G30  22336559.148 6 117379382.420 6     -2505.305          36.000    22336559.430 5  91464462.045 5     -1952.182          35.000
R03  20369820.484 8 109041223.201 8     -2964.027          51.000    20369820.547 8  84809844.025 8     -2305.355          48.000
R04  19381184.648 6 103785380.117 6      1066.707          38.000    19381186.688 5  80721951.600 5       829.661          35.000
R14  19400581.734 8 103416048.932 8       925.520          51.000    19400585.281 8  80434739.559 8       719.849          51.000
R15  22652637.820 8 121048833.722 8      3595.617          48.000    22652637.383 7  94149076.952 7      2796.591          43.000
C05                                                                  39786423.445 6 160203419.475 6        13.411          40.000
C14  23180424.219 8 120706554.473 8     -2716.328          48.000    23180423.328 8  93337948.001 8     -2100.516          51.000
C24  21980063.258 8 114455976.235 8      -886.867          51.000
C25  23168948.250 8 120646777.272 8      2023.516          50.000
C26  24569728.242 6 127940840.009 6     -2775.684          37.000
E01  24660413.719 8 129591360.293 8     -1683.949          51.000    24660415.516 8  99297300.374 8     -1290.308          51.000
E04  24422175.328 8 128339379.415 8     -1801.348          51.000    24422176.742 8  98337949.555 8     -1380.217          51.000
E31  23685898.102 8 124470237.154 8      1115.203          51.000    23685901.234 8  95373309.949 8       854.497          51.000
> 2020 05 10 04 50 30.0000000  0 18        .000000000000
G05  22823324.625 7 119937364.925 7     -3316.727          47.000    22823320.922 7  93457650.563 7     -2584.465          47.000
G13  20162388.578 8 105954066.232 8       265.254          51.000    20162386.352 8  82561588.739 8       206.691          51.000
G17  24556166.617 5 129043527.184 5      2816.785          34.000    24556160.766 5 100553385.468 5      2194.904          34.000
G28  20943094.117 8 110056771.480 8      -642.082          51.000    20943092.492 8  85758520.286 8      -500.324          48.000
G30  22350884.398 6 117454656.136 6     -2512.766          38.000    22350883.055 6  91523116.865 6     -1958.002          38.000
R03  20386488.828 8 109130450.752 8     -2983.910          49.000    20386489.664 8  84879243.236 8     -2320.819          48.000
R04  19375279.672 6 103753757.431 6      1041.641          39.000    19375279.930 5  80697356.204 5       810.165          34.000
R14  19395433.102 8 103388603.843 8       904.594          51.000    19395436.500 8  80413393.405 8       703.573          50.000
R15  22632481.742 7 120941128.272 7      3585.070          47.000    22632481.539 7  94065306.053 7      2788.388          42.000
C05  39786328.227 5 207177851.474 5        15.773          34.000    39786328.172 6 160203035.923 6        12.321          40.000
C14  23196107.766 7 120788223.433 7     -2727.539          47.000    23196107.164 8  93401099.574 8     -2109.167          51.000
C24  21985207.938 8 114482765.576 8      -898.574          51.000
C25  23157321.688 8 120586231.626 8      2013.355          51.000
C26  24585731.281 5 128024174.456 5     -2779.645          34.000
E01  24670057.617 8 129642039.316 8     -1694.188          51.000    24670059.305 8  99336132.333 8     -1298.108          51.000
E04  24432490.594 8 128393584.852 8     -1811.852          51.000    24432491.297 8  98379483.570 8     -1388.347          51.000
E24                                                                  25230736.258 5 101593717.976 5      2210.629          34.000
E31  23679570.539 8 124436984.562 8      1102.176          51.000    23679573.375 8  95347830.684 8       844.524          51.000
> 2020 05 10 04 51  0.0000000  0 18        .000000000000
G05  22842279.875 7 120036974.035 7     -3324.047          45.000    22842276.711 7  93535268.037 7     -2590.166          45.000
G13  20160912.227 8 105946307.564 8       251.781          51.000    20160909.984 8  82555543.024 8       196.193          51.000
G17  24540093.719 5 128959064.364 5      2813.910          34.000    24540089.562 5 100487570.299 5      2192.660          33.000
G28  20946808.969 8 110076293.621 8      -659.520          50.000    20946807.289 8  85773732.328 8      -513.911          48.000
G30  22365240.883 6 117530099.059 6     -2517.312          37.000    22365236.820 6  91581903.599 6     -1961.542          36.000
R03  20403261.227 8 109220238.211 8     -3002.168          48.000    20403262.969 8  84949077.972 8     -2335.016          49.000
R04  19369507.555 6 103722851.434 6      1018.242          39.000    19369508.898 6  80673318.180 6       791.960          36.000
R14  19390395.977 8 103361751.154 8       885.457          51.000    19390398.883 8  80392507.982 8       688.689          51.000
R15  22612377.273 7 120833703.369 7      3576.395          47.000    22612378.133 6  93981753.336 6      2781.637          41.000
C05  39786234.086 5 207177361.460 5        16.480          35.000    39786234.094 6 160202657.009 6        12.714          40.000
C14  23211849.141 7 120870194.411 7     -2737.102          46.000    23211849.039 8  93464484.681 8     -2116.452          51.000
C24  21990413.000 8 114509870.514 8      -908.512          51.000
C25  23145746.836 8 120525956.079 8      2004.867          50.000
C26  24601746.648 5 128107581.550 5     -2781.316          32.000
E01  24679753.219 8 129692990.146 8     -1702.590          51.000    24679754.742 8  99375172.562 8     -1304.576          51.000
E04  24442859.852 8 128448075.141 8     -1820.746          51.000    24442860.742 8  98421235.824 8     -1395.036          51.000
E24                                                                  25214281.836 5 101527456.288 5      2207.280          33.000
E31  23673311.070 8 124404089.785 8      1090.840          51.000    23673313.555 8  95322625.599 8       835.844          51.000
> 2020 05 10 04 51 30.0000000  0 18        .000000000000
G05  22861277.859 6 120136811.272 6     -3331.902          41.000    22861275.609 6  93613063.279 6     -2596.288          41.000
G13  20159513.625 8 105938958.030 8       238.000          51.000    20159511.406 8  82549816.106 8       185.455          51.000
G17  24524039.055 6 128874693.790 6      2810.762          36.000    24524034.281 5 100421827.008 5      2190.207          35.000
G28  20950624.016 8 110096342.046 8      -677.223          51.000    20950622.180 7  85789354.459 7      -527.706          47.000
G30  22379626.219 5 117605697.486 5     -2522.598          35.000    22379623.750 5  91640811.514 5     -1965.667          33.000
R03  20420135.492 8 109310570.254 8     -3020.234          49.000    20420138.156 8  85019336.273 8     -2349.068          48.000
R04  19363868.586 6 103692651.699 6       994.816          41.000    19363869.141 5  80649829.477 5       773.746          35.000
R14  19385467.008 8 103335477.438 8       866.027          51.000    19385469.961 8  80372072.868 8       673.577          51.000
R15  22592323.664 8 120726547.592 8      3567.207          49.000    22592325.688 7  93898409.944 7      2774.494          42.000
C05  39786138.688 5 207176863.866 5        16.406          35.000    39786138.703 6 160202272.986 6        12.819          40.000
C14  23227646.148 8 120952453.174 8     -2746.859          48.000    23227646.375 8  93528092.359 8     -2124.016          51.000
C24  21995676.242 8 114537277.323 8      -918.762          51.000
C25  23134220.844 8 120465938.377 8      1996.254          48.000
C26  24617770.875 5 128191047.661 5     -2783.617          33.000
E01  24689497.906 8 129744198.653 8     -1711.359          51.000    24689499.141 8  99414410.237 8     -1311.286          51.000
E04  24453280.609 8 128502837.173 8     -1830.047          50.000    24453281.492 8  98463196.326 8     -1402.259          51.000
E24                                                                  25197854.336 5 101461305.977 5      2203.682          33.000
E31  23667117.328 8 124371540.239 8      1079.094          51.000    23667119.398 8  95297685.049 8       826.811          51.000
> 2020 05 10 04 52  0.0000000  0 19        .000000000000
G05  22880322.758 6 120236896.150 6     -3341.379          40.000    22880321.297 6  93691051.481 6     -2603.672          39.000
G13  20158197.219 8 105932040.310 8       222.129          51.000    20158194.961 8  82544425.663 8       173.087          51.000
G17  24508007.000 5 128790464.380 5      2805.547          34.000    24508006.578 5 100356184.105 5      2186.140          31.000
G28  20954543.109 8 110116937.589 8      -696.859          49.000    20954541.391 7  85805402.933 7      -543.007          47.000
G30  22394042.117 4 117681494.245 4     -2530.410          28.000    22394052.648 4  91699884.826 4     -1971.742          27.000
R03  20437115.820 8 109401466.854 8     -3040.445          51.000    20437118.656 8  85090033.618 8     -2364.791          48.000
R04  19358366.367 7 103663182.686 7       968.938          42.000    19358365.297 5  80626909.125 5       753.618          35.000
R14  19380651.031 8 103309804.258 8       844.484          51.000    19380653.859 8  80352104.853 8       656.821          51.000
R15  22572325.508 8 120619684.771 8      3556.012          50.000    22572328.148 7  93815294.414 7      2765.787          43.000
C05  39786046.281 5 207176383.384 5        14.344          35.000    39786046.273 6 160201900.660 6        11.342          40.000
C14  23243502.789 8 121035019.619 8     -2758.508          49.000    23243502.906 8  93591937.964 8     -2133.044          51.000
C24  22001001.508 8 114565006.493 8      -930.805          51.000
C25  23122747.977 8 120406200.510 8      1985.496          48.000
C26  24633812.047 6 128274593.114 6     -2788.020          36.000
E01  24699295.477 8 129795685.209 8     -1722.043          51.000    24699296.531 8  99453860.957 8     -1319.520          51.000
E04  24463756.766 8 128557892.378 8     -1841.262          49.000    24463758.336 8  98505381.466 8     -1410.879          51.000
E09  21768330.992 6 114393349.724 6       860.992          41.000    21768327.703 6  87652038.227 6       659.958          38.000
E24                                                                  25181455.609 5 101395264.528 5      2198.385          33.000
E31  23660993.062 8 124339357.742 8      1065.469          51.000    23660994.914 8  95273025.746 8       816.377          51.000
> 2020 05 10 04 52 30.0000000  0 16        .000000000000
G05  22899402.016 6 120337160.577 6     -3336.844          39.000    22899401.328 6  93769179.528 6     -2600.138          40.000
G13  20156950.953 8 105925491.081 8       220.324          51.000    20156948.641 8  82539322.367 8       171.681          51.000
G28  20958553.750 8 110138014.667 8      -702.328          51.000    20958552.242 7  85821826.639 7      -547.269          46.000
R03  20454189.039 8 109492859.686 8     -3046.320          51.000    20454191.594 8  85161116.892 8     -2369.363          48.000
R04  19352987.891 7 103634380.969 7       957.227          42.000    19352986.758 6  80604507.771 6       744.507          37.000
R14  19375935.062 8 103284665.736 8       837.410          51.000    19375937.648 8  80332552.683 8       651.319          50.000
R15  22552370.234 8 120513051.030 8      3558.859          48.000    22552373.133 7  93732357.087 7      2768.002          42.000
C05  39785944.391 5 207175853.049 5        26.965          35.000    39785944.477 6 160201490.570 6        20.639          40.000
C14  23259405.797 8 121117828.153 8     -2756.125          48.000    23259405.773 8  93655970.753 8     -2131.214          51.000
C24  22006376.039 8 114592993.050 8      -929.004          51.000
C25  23111317.055 8 120346678.867 8      1988.566          49.000
C26  24649856.664 6 128358152.831 6     -2776.930          38.000
E01  24709133.352 8 129847383.927 8     -1718.633          51.000    24709134.492 8  99493474.239 8     -1316.863          51.000
E04  24474276.273 8 128613175.890 8     -1838.414          49.000    24474278.602 8  98547741.552 8     -1408.637          51.000
E09  21763425.367 6 114367571.809 6       863.160          41.000    21763421.984 6  87632286.338 6       661.356          38.000
E31  23654926.164 8 124307477.933 8      1065.816          51.000    23654928.000 8  95248598.358 8       816.665          51.000
> 2020 05 10 04 53  0.0000000  0 17        .000000000000
G05  22918520.336 6 120437629.183 6     -3354.461          38.000    22918520.477 6  93847466.706 6     -2613.866          39.000
G13  20155780.211 8 105919338.622 8       196.309          51.000    20155777.742 8  82534528.238 8       152.968          51.000
G28  20962661.281 8 110159599.399 8      -730.090          51.000    20962659.695 7  85838645.893 7      -568.901          47.000
R03  20471359.898 8 109584774.711 8     -3074.594          51.000    20471361.977 7  85232606.306 7     -2391.354          47.000
R04  19347740.117 7 103606276.802 7       923.133          44.000    19347739.000 6  80582648.969 6       717.992          37.000
R14  19371324.125 8 103260089.374 8       807.707          51.000    19371326.508 8  80313437.711 8       628.217          51.000
R15  22532462.922 7 120406675.905 7      3539.375          47.000    22532466.266 6  93649620.923 6      2752.850          41.000
C05  39785838.539 5 207175301.311 5        16.559          35.000    39785838.578 6 160201063.931 6        12.816          40.000
C14  23275359.773 8 121200904.413 8     -2775.676          48.000    23275359.258 8  93720210.566 8     -2146.380          50.000
C24  22011804.797 8 114621263.204 8      -949.105          51.000
C25  23099933.961 8 120287401.138 8      1969.750          50.000
C26  24665910.523 6 128441753.286 6     -2789.594          38.000
E01  24719016.711 8 129899320.957 8     -1737.238          51.000    24719017.781 8  99533270.121 8     -1331.196          51.000
E04  24484844.609 8 128668714.902 8     -1857.645          50.000    24484847.602 8  98590297.418 8     -1423.378          51.000
E09  21758573.906 6 114342080.802 6       842.918          40.000    21758572.172 6  87612754.284 6       645.779          40.000
E24  25148695.922 5 132157298.234 5      2862.117          35.000
E31  23648922.156 8 124275928.453 8      1044.105          51.000    23648924.195 8  95224424.071 8       799.993          51.000
> 2020 05 10 04 53 30.0000000  0 18        .000000000000
G05  22937692.672 4 120538387.206 4     -3365.578          29.000    22937694.758 4  93925979.421 4     -2622.528          29.000
G13  20154701.820 8 105913671.752 8       178.066          51.000    20154699.258 8  82530112.494 8       138.753          50.000
G17  24459999.719 4 128538157.703 4      2792.277          29.000
G28  20966882.008 8 110181778.659 8      -751.891          51.000    20966880.445 8  85855928.451 8      -585.886          48.000
R03  20488644.109 8 109677298.417 8     -3096.984          50.000    20488645.742 7  85304569.137 7     -2408.766          46.000
R04  19342638.844 7 103578961.903 7       894.465          43.000    19342637.500 6  80561404.053 6       695.692          37.000
R14  19366835.789 8 103236163.812 8       783.930          51.000    19366838.461 8  80294828.931 8       609.723          51.000
R15  22512621.125 7 120300650.672 7      3525.539          47.000    22512625.086 6  93567156.859 6      2742.086          41.000
C05  39785745.164 5 207174815.134 5        12.629          35.000    39785745.133 6 160200687.976 6         9.602          40.000
C14  23291381.570 8 121284333.649 8     -2789.523          48.000    23291379.766 8  93784723.318 8     -2157.046          48.000
C24  22017304.516 8 114649902.745 8      -963.395          51.000
C25  23088614.375 8 120228454.571 8      1956.723          49.000
C26  24681989.906 6 128525480.245 6     -2795.941          37.000
E01  24728961.992 8 129951582.549 8     -1750.137          51.000    24728962.656 8  99573314.698 8     -1341.023          51.000
E04  24495478.859 8 128724596.737 8     -1871.078          49.000    24495481.867 8  98633115.974 8     -1433.599          51.000
E09  21753793.609 6 114316965.561 6       828.328          39.000    21753794.672 6  87593510.095 6       634.594          41.000
E24  25132372.281 5 132071529.630 5      2852.535          35.000    25132388.414 6 101197697.405 6      2185.769          36.000
E31  23642997.758 8 124244797.038 8      1028.113          51.000    23643000.023 8  95200570.119 8       787.787          51.000
> 2020 05 10 04 54  0.0000000  0 17        .000000000000
G13  20153697.320 8 105908393.951 8       168.473          50.000    20153694.984 8  82525999.925 8       131.277          50.000
G24  23803544.117 5 125088467.754 5      3097.109          31.000
G28  20971197.195 8 110204454.352 8      -765.098          51.000    20971195.555 7  85873597.827 7      -596.180          47.000
R03  20506022.961 8 109770329.544 8     -3110.441          50.000    20506024.758 7  85376926.648 7     -2419.232          46.000
R04  19337666.891 7 103552339.176 7       874.754          43.000    19337666.273 6  80540697.474 6       680.364          37.000
R14  19362450.977 8 103212789.623 8       769.047          51.000    19362453.633 8  80276649.003 8       598.148          51.000
R15  22492829.062 8 120194858.838 8      3520.570          48.000    22492832.258 7  93484899.057 7      2738.221          43.000
C05  39785645.953 5 207174298.117 5        16.859          35.000    39785645.859 6 160200288.192 6        12.976          40.000
C14  23307452.539 8 121368017.719 8     -2794.664          49.000    23307449.234 8  93849433.110 8     -2161.039          48.000
C24  22022856.531 8 114678814.206 8      -969.160          51.000
C25  23077339.195 7 120169743.173 7      1952.273          47.000
C26  24698075.750 5 128609236.265 5     -2793.598          35.000
E01  24738950.078 8 130004070.051 8     -1754.285          51.000    24738950.602 8  99613532.382 8     -1344.175          50.000
E04  24506159.969 8 128780723.759 8     -1875.879          51.000    24506162.625 8  98676122.394 8     -1437.353          51.000
E09  21749066.875 6 114292129.868 6       822.242          40.000    21749069.586 7  87574480.117 7       630.143          42.000
E24  25116070.227 6 131985846.733 6      2852.500          36.000    25116088.383 6 101132064.992 6      2185.556          37.000
E31  23637134.695 8 124213986.488 8      1020.758          51.000    23637136.891 8  95176962.030 8       782.151          51.000
> 2020 05 10 04 54 30.0000000  0 17        .000000000000
G05  22976157.922 6 120740519.669 6     -3375.234          37.000    22976155.570 6  94083518.827 6     -2630.059          37.000
G13  20152774.570 8 105903546.376 8       155.082          49.000    20152772.648 8  82522222.577 8       120.840          49.000
G28  20975614.148 8 110227665.072 8      -781.840          51.000    20975612.398 8  85891684.108 8      -609.226          48.000
R03  20523503.820 8 109863906.332 8     -3127.582          50.000    20523505.664 7  85449708.574 7     -2432.564          46.000
R04  19332832.305 7 103526451.723 7       851.441          45.000    19332831.727 6  80520562.798 6       662.235          37.000
R14  19358176.914 8 103190006.923 8       750.281          51.000    19358179.805 8  80258929.095 8       583.552          51.000
R15  22473091.562 8 120089380.919 8      3511.812          49.000    22473094.031 7  93402860.660 7      2731.410          45.000
C05  39785548.398 5 207173790.096 5        17.766          34.000    39785548.273 6 160199895.328 6        13.626          40.000
C14  23323579.945 8 121451994.658 8     -2803.391          49.000    23323575.828 8  93914369.340 8     -2167.624          49.000
C24  22028468.047 8 114708036.201 8      -978.516          51.000
C25  23066116.680 7 120111306.972 7      1943.965          46.000
C26  24714174.633 5 128693060.031 5     -2794.113          31.000
E01  24748988.297 8 130056822.132 8     -1762.023          51.000    24748989.188 8  99653952.790 8     -1350.125          51.000
E04  24516895.219 8 128837135.671 8     -1884.348          51.000    24516897.672 8  98719347.083 8     -1443.824          51.000
E09  21744401.383 6 114267614.961 6       812.559          40.000    21744404.773 7  87555695.944 7       622.571          42.000
E24  25099797.758 5 131900344.858 5      2848.328          35.000    25099817.922 6 101066550.556 6      2182.617          37.000
E31  23631340.727 8 124183536.949 8      1009.750          51.000    23631342.555 8  95153630.557 8       773.737          51.000
> 2020 05 10 04 55  0.0000000  0 18        .000000000000
G05  22995477.234 6 120842042.205 6     -3384.863          37.000    22995471.375 6  94162627.148 6     -2637.562          37.000
G13  20151957.578 8 105899254.418 8       138.375          49.000    20151956.062 8  82518878.161 8       107.822          49.000
G17  24412225.930 5 128287122.411 5      2783.020          33.000    24412232.312 5  99964015.584 5      2168.578          34.000
G28  20980156.328 8 110251533.946 8      -801.980          51.000    20980154.547 8  85910283.236 8      -624.920          48.000
G30  22481177.500 5 118139401.224 5     -2561.012          33.000    22481202.766 5  92056715.333 5     -1995.578          32.000
R03  20541109.945 8 109958153.446 8     -3147.980          49.000    20541111.922 7  85523011.865 7     -2448.429          46.000
R04  19328158.867 7 103501428.614 7       824.406          43.000    19328158.773 6  80501100.390 6       641.205          38.000
R14  19354037.562 8 103167941.436 8       728.281          51.000    19354040.883 8  80241767.054 8       566.444          50.000
R15  22453431.508 7 119984325.817 7      3499.469          46.000    22453434.172 7  93321151.130 7      2721.806          45.000
C05                                                                  39785476.172 6 160199604.840 6        11.554          40.000
C14  23339786.844 8 121536386.096 8     -2815.336          49.000    23339782.945 8  93979626.135 8     -2177.048          51.000
C24  22034162.602 8 114737690.978 8      -991.129          51.000
C25  23054971.406 7 120053269.647 7      1932.559          47.000
E01  24759100.398 8 130109961.890 8     -1773.156          51.000    24759101.594 8  99694670.267 8     -1358.718          51.000
E04  24527708.414 8 128893956.566 8     -1896.160          51.000    24527709.922 8  98762885.147 8     -1452.959          51.000
E09  21739820.898 6 114243546.434 6       799.621          41.000    21739824.977 7  87537253.820 7       612.643          43.000
E24                                                                  25083600.297 6 101001250.322 6      2176.580          37.000
E31  23625639.164 8 124153572.963 8       995.355          51.000    23625640.672 8  95130671.145 8       762.627          51.000
> 2020 05 10 04 55 30.0000000  0 18        .000000000000
G05  23014805.719 6 120943618.668 6     -3388.781          37.000    23014802.922 6  94241777.576 6     -2640.615          37.000
G13  20151191.195 8 105895227.591 8       127.668          50.000    20151189.805 8  82515740.361 8        99.482          49.000
G17  24396334.492 5 128203613.031 5      2781.848          35.000    24396337.664 5  99898943.478 5      2167.673          34.000
G28  20984768.086 8 110275768.586 8      -816.027          51.000    20984766.305 8  85929167.382 8      -635.862          49.000
G30  22495797.773 6 118216223.024 6     -2562.902          37.000    22495829.828 5  92116576.287 5     -1997.073          34.000
R03  20558785.328 8 110052771.013 8     -3162.223          48.000    20558787.391 7  85596603.291 7     -2459.507          46.000
R04  19323591.609 7 103476975.030 7       803.473          44.000    19323592.242 6  80482080.914 6       624.920          38.000
R14  19349977.281 8 103146297.230 8       712.199          51.000    19349980.469 8  80224932.677 8       553.936          50.000
R15  22433794.102 7 119879399.239 7      3493.227          45.000    22433797.469 7  93239541.520 7      2716.951          44.000
C05  39785374.148 5 207172882.609 5        18.266          35.000    39785374.070 6 160199193.585 6        13.934          40.000
C14  23356017.219 8 121620901.686 8     -2821.461          48.000    23356014.195 8  94044978.944 8     -2181.666          51.000
C24  22039884.820 8 114767488.764 8      -997.734          51.000
C25  23043847.406 7 119995342.880 7      1927.008          47.000
E01  24769230.633 8 130163196.569 8     -1778.219          51.000    24769231.789 8  99735460.472 8     -1362.510          50.000
E04  24538544.039 8 128950894.675 8     -1902.066          51.000    24538544.438 8  98806513.018 8     -1457.365          51.000
E09  21735270.430 6 114219634.139 6       792.145          41.000    21735274.914 7  87518931.375 7       607.052          43.000
E24  25067357.891 5 131729856.394 5      2839.215          33.000    25067380.852 6 100935941.791 6      2175.508          36.000
E31  23619974.555 8 124123803.228 8       986.934          51.000    23619975.609 8  95107860.571 8       756.216          51.000
> 2020 05 10 04 56  0.0000000  0 18        .000000000000
G05  23034176.195 6 121045413.029 6     -3396.855          39.000    23034180.984 6  94321097.843 6     -2646.900          39.000
G13  20150507.320 8 105891633.395 8       112.672          50.000    20150505.688 8  82512939.685 8        87.796          49.000
G17  24380469.984 5 128120238.873 5      2776.395          33.000    24380471.336 5  99833976.550 5      2163.424          33.000
G28  20989480.891 8 110300534.752 8      -834.184          51.000    20989479.133 8  85948465.699 8      -650.016          48.000
G30  22510449.102 5 118293206.777 5     -2568.492          35.000    22510482.117 5  92176563.492 5     -2001.432          35.000
R03  20576560.672 7 110147926.928 7     -3180.758          47.000    20576563.250 7  85670613.455 7     -2473.923          45.000
R04  19319163.320 7 103453263.046 7       778.273          44.000    19319164.281 6  80463638.249 6       605.324          39.000
R14  19346027.516 8 103125243.043 8       692.082          51.000    19346030.711 8  80208557.180 8       538.286          50.000
R15  22414214.148 7 119774772.515 7      3482.621          47.000    22414216.367 7  93158165.131 7      2708.705          43.000
C05                                                                  39785273.773 6 160198789.470 6        13.586          40.000
C14  23372302.250 7 121705705.029 7     -2831.484          46.000    23372300.594 8  94110554.286 8     -2189.447          51.000
C24  22045666.273 8 114797593.876 8     -1008.535          51.000
C25  23032776.141 7 119937692.429 7      1917.223          46.000
E01  24779410.359 8 130216691.688 8     -1787.297          51.000    24779411.414 8  99776450.229 8     -1369.511          50.000
E04  24549433.422 8 129008116.513 8     -1911.996          51.000    24549432.805 8  98850358.288 8     -1464.991          51.000
E09  21730782.227 7 114196046.027 7       780.844          43.000    21730786.469 7  87500857.331 7       598.444          44.000
E24  25051171.336 5 131644791.375 5      2833.758          33.000    25051191.461 5 100870753.708 5      2171.049          35.000
E31  23614378.586 8 124094394.672 8       974.434          51.000    23614379.375 8  95085326.742 8       746.644          51.000
> 2020 05 10 04 56 30.0000000  0 18        .000000000000
G05  23053587.031 6 121147414.720 6     -3402.551          41.000    23053594.688 6  94400579.656 6     -2651.338          41.000
G13  20149904.398 8 105888464.912 8        99.305          50.000    20149902.609 8  82510470.741 8        77.380          48.000
G24  23715424.984 5 124625408.826 5      3077.078          31.000
G28  20994293.055 8 110325822.763 8      -850.793          51.000    20994291.203 8  85968170.630 8      -662.956          48.000
G30  22525127.836 6 118370343.338 6     -2572.789          36.000    22525127.102 5  92236632.298 5     -2004.780          34.000
R03  20594434.281 7 110243609.995 7     -3197.355          47.000    20594437.109 7  85745033.572 7     -2486.835          43.000
R04  19314872.242 7 103430286.345 7       754.473          45.000    19314873.703 6  80445767.467 6       586.812          40.000
R14  19342186.742 8 103104769.640 8       673.578          51.000    19342189.867 8  80192633.435 8       523.894          49.000
R15  22394690.023 8 119670438.583 8      3473.711          48.000    22394690.320 7  93077016.531 7      2701.775          43.000
C05  39785173.617 5 207171839.379 5        18.719          35.000    39785173.586 6 160198386.106 6        14.064          40.000
C14  23388640.641 7 121790786.146 7     -2839.809          47.000    23388639.977 8  94176344.426 8     -2195.890          51.000
C24  22051504.906 8 114827996.902 8     -1017.578          51.000
C25  23021757.078 7 119880310.276 7      1909.051          47.000
E01  24789637.820 8 130270437.456 8     -1794.805          51.000    24789639.008 8  99817632.045 8     -1375.228          50.000
E04  24560374.812 8 129065613.370 8     -1920.359          51.000    24560373.914 8  98894414.259 8     -1471.393          51.000
E09  21726354.688 7 114172774.870 7       771.156          43.000    21726358.289 7  87483026.191 7       590.916          44.000
E24  25035019.383 6 131559901.206 6      2829.219          36.000    25035030.570 5 100805680.409 5      2168.014          34.000
E31  23608849.742 8 124065338.993 8       963.469          51.000    23608850.742 8  95063063.300 8       738.278          51.000
> 2020 05 10 04 57  0.0000000  0 18        .000000000000
G05  23073036.023 7 121249615.296 7     -3409.227          43.000    23073044.023 7  94480216.462 7     -2656.540          42.000
G13  20149381.422 8 105885717.316 8        85.441          50.000    20149379.570 8  82508329.733 8        66.578          49.000
G28  20999203.008 8 110351625.354 8      -867.734          51.000    20999201.266 8  85988276.563 8      -676.157          48.000
G30  22539834.883 6 118447625.930 6     -2577.684          36.000    22539833.688 5  92296852.548 5     -2008.575          31.000
R03  20612405.367 8 110339812.298 8     -3214.375          48.000    20612407.852 7  85819857.500 7     -2500.072          43.000
R04  19310717.945 7 103408041.317 7       730.145          45.000    19310719.906 6  80428465.787 6       567.890          41.000
R14  19338453.820 8 103084870.891 8       654.672          51.000    19338456.695 8  80177156.644 8       509.189          49.000
R15  22375220.008 8 119566393.612 8      3464.254          48.000    22375218.969 7  92996092.718 7      2694.420          44.000
C05  39785072.648 5 207171313.499 5        18.266          34.000    39785072.477 6 160197979.424 6        14.121          40.000
C14  23405031.750 8 121876137.937 8     -2848.539          49.000    23405031.148 8  94242343.841 8     -2202.759          51.000
C24  22057399.477 8 114858691.339 8     -1027.113          51.000
C25  23010789.000 8 119823191.369 8      1900.355          48.000
C26  24794837.273 5 129113218.091 5     -2803.207          32.000
E01  24799911.703 8 130324426.995 8     -1802.754          51.000    24799913.312 8  99859000.643 8     -1381.376          50.000
E04  24571367.359 8 129123379.275 8     -1929.117          51.000    24571366.828 8  98938676.407 8     -1478.176          51.000
E09  21721986.586 7 114149816.305 7       760.883          44.000    21721989.383 7  87465434.559 7       583.026          44.000
E24  25018893.875 6 131475120.346 6      2824.594          37.000    25018898.180 5 100740735.498 5      2164.661          30.000
E31  23603386.922 8 124036630.688 8       952.070          51.000    23603388.320 8  95041066.031 8       729.496          51.000
> 2020 05 10 04 57 30.0000000  0 17        .000000000000
G05  23092524.070 7 121352020.868 7     -3416.605          42.000    23092531.602 6  94560013.040 6     -2662.287          41.000
G13  20148940.500 8 105883400.695 8        70.441          50.000    20148938.578 8  82506524.558 8        54.889          49.000
G28  21004212.578 8 110377951.337 8      -885.836          51.000    21004210.898 7  86008790.320 7      -690.262          47.000
R03  20630474.945 8 110436540.290 8     -3232.516          48.000    20630477.594 7  85895090.316 7     -2514.182          44.000
R04  19306702.484 7 103386539.077 7       704.793          46.000    19306705.094 7  80411741.784 7       548.172          42.000
R14  19334830.203 8 103065555.420 8       634.492          51.000    19334833.047 8  80162133.500 8       493.494          49.000
R15  22355805.570 8 119462648.547 8      3453.633          48.000    22355805.016 7  92915402.128 7      2686.159          45.000
C05  39784972.469 5 207170791.262 5        17.891          35.000    39784972.375 6 160197576.353 6        13.659          40.000
C14  23421476.734 8 121961767.619 8     -2858.527          51.000    23421475.500 8  94308558.087 8     -2210.416          51.000
C24  22063351.766 8 114889685.069 8     -1037.719          51.000
C25  22999872.555 7 119766344.952 7      1890.758          47.000
C26  24810996.477 5 129197358.405 5     -2805.246          35.000
E01  24810233.312 8 130378667.970 8     -1811.805          51.000    24810235.320 8  99900561.903 8     -1388.251          49.000
E04  24582412.594 8 129181422.866 8     -1938.926          51.000    24582412.672 8  98983151.366 8     -1485.742          51.000
E09  21717679.711 7 114127180.496 7       749.535          44.000    21717681.703 7  87448090.225 7       574.340          44.000
E24  25002791.148 6 131390495.018 6      2818.500          39.000
E31  23597991.578 8 124008278.840 8       939.512          51.000    23597993.445 8  95019341.890 8       719.871          51.000
> 2020 05 10 04 58  0.0000000  0 19        .000000000000
G05  23112052.086 6 121454635.486 6     -3423.539          40.000    23112058.172 6  94639972.476 6     -2667.693          39.000
G13  20148583.133 8 105881522.728 8        55.789          50.000    20148581.211 8  82505061.193 8        43.472          49.000
G17  24317259.320 5 127788045.673 5      2759.125          33.000    24317256.531 5  99575083.471 5      2149.974          32.000
G28  21009322.773 8 110404806.149 8      -903.516          50.000    21009321.133 7  86029716.142 7      -704.038          47.000
G30  22569334.578 5 118602674.222 5     -2588.742          31.000
R03  20648643.320 8 110533798.211 8     -3250.340          48.000    20648646.672 7  85970735.383 7     -2528.042          45.000
R04  19302827.703 7 103365788.782 7       679.633          47.000    19302830.125 7  80395602.666 7       528.603          42.000
R14  19331317.242 8 103046829.377 8       614.816          51.000    19331320.062 8  80147568.790 8       478.191          49.000
R15  22336448.367 8 119359211.831 8      3443.141          48.000    22336449.234 7  92834951.315 7      2677.995          45.000
C05  39784874.648 5 207170282.578 5        17.125          35.000    39784874.484 6 160197182.190 6        13.324          40.000
C14  23437976.008 8 122047680.183 8     -2868.051          51.000    23437973.805 8  94374991.056 8     -2217.674          50.000
C24  22069362.500 8 114920983.798 8     -1048.004          51.000
C25  22989009.031 7 119709778.155 7      1881.262          47.000
C26  24827168.430 5 129281561.491 5     -2807.363          34.000
E01  24820603.812 8 130433165.846 8     -1820.406          51.000    24820605.828 8  99942320.003 8     -1394.884          49.000
E04  24593511.594 8 129239750.609 8     -1948.609          51.000    24593513.359 8  99027844.026 8     -1493.045          51.000
E09  21713435.242 7 114104875.414 7       738.371          44.000    21713436.461 7  87430999.319 7       565.660          44.000
E24  24986717.945 6 131306032.960 6      2813.055          38.000
E31  23592665.086 8 123980290.306 8       927.336          51.000    23592667.570 8  94997896.122 8       710.553          51.000
> 2020 05 10 04 58 30.0000000  0 19        .000000000000
G05  23131618.406 6 121557448.087 6     -3430.645          37.000    23131621.477 5  94720086.093 5     -2673.236          34.000
G13  20148307.922 8 105880076.456 8        40.574          51.000    20148305.930 8  82503934.216 8        31.616          49.000
G17  24301524.688 5 127705361.503 5      2753.012          32.000    24301525.125 5  99510654.146 5      2145.201          32.000
G28  21014531.852 8 110432180.224 8      -921.512          50.000    21014530.625 7  86051046.602 7      -718.061          47.000
G30  22584128.523 5 118680422.757 5     -2594.594          30.000    22584149.828 5  92478237.641 5     -2021.770          30.000
R03  20666909.578 8 110631575.644 8     -3268.340          51.000    20666912.680 7  86046784.528 7     -2542.039          46.000
R04  19299092.039 7 103345784.058 7       653.930          47.000    19299094.430 7  80380043.432 7       508.612          44.000
R14  19327913.617 8 103028684.045 8       594.781          51.000    19327916.180 8  80133455.760 8       462.608          49.000
R15  22317147.914 8 119256076.797 8      3432.363          49.000    22317150.016 7  92754735.141 7      2669.616          46.000
C05  39784777.617 5 207169776.667 5        16.363          35.000    39784777.383 6 160196790.988 6        12.819          40.000
C14  23454527.484 8 122133866.107 8     -2877.824          51.000    23454524.125 8  94441635.393 8     -2225.211          50.000
C24  22075429.797 8 114952578.550 8     -1058.492          51.000
C25  22978198.023 8 119653483.415 8      1871.359          48.000
C26  24843351.094 5 129365818.430 5     -2810.004          31.000
E01  24831021.664 8 130487911.271 8     -1829.309          50.000    24831023.406 8  99984267.778 8     -1401.648          48.000
E04  24604662.727 8 129298354.110 8     -1958.457          51.000    24604666.023 8  99072748.008 8     -1500.588          51.000
E09  21709251.797 7 114082894.224 7       727.090          44.000    21709252.797 7  87414156.575 7       557.145          44.000
E24  24970673.492 6 131221727.352 6      2807.195          37.000
E31  23587406.125 8 123952657.143 8       914.754          51.000    23587409.344 8  94976722.654 8       700.969          51.000
> 2020 05 10 04 59  0.0000000  0 18        .000000000000
G05  23151221.312 6 121660441.958 6     -3436.801          36.000    23151218.617 5  94800340.770 5     -2678.045          33.000
G13  20148112.406 8 105879048.435 8        26.754          51.000    20148110.281 8  82503133.151 8        20.844          49.000
G17  24285815.891 6 127622810.458 6      2749.098          36.000    24285816.969 5  99446328.693 5      2142.154          35.000
G28  21019836.734 8 110460057.807 8      -938.137          49.000    21019835.578 7  86072769.388 7      -731.019          47.000
R03  20685270.445 8 110729855.534 8     -3284.918          51.000    20685272.016 7  86123224.439 7     -2554.936          46.000
R04  19295493.508 8 103326512.735 8       629.453          48.000    19295495.734 7  80365054.600 7       489.575          44.000
R14  19324615.945 8 103011104.344 8       575.961          51.000    19324618.148 8  80119782.669 8       447.970          48.000
R15  22297901.828 8 119153230.748 8      3422.797          49.000    22297904.578 7  92674743.759 7      2662.175          46.000
C05  39784678.555 5 207169260.640 5        16.988          35.000    39784678.359 6 160196391.971 6        12.795          40.000
C14  23471128.062 8 122220309.610 8     -2886.367          50.000    23471124.359 8  94508478.938 8     -2231.937          51.000
C24  22081551.094 8 114984454.288 8     -1067.812          51.000
C25  22967436.727 7 119597447.103 7      1863.039          46.000
C26  24859540.852 5 129450150.330 5     -2811.055          30.000
E01  24841483.695 8 130542888.736 8     -1837.113          50.000    24841485.461 8 100026393.378 8     -1407.610          48.000
E04  24615863.391 8 129357218.878 8     -1967.180          50.000    24615868.266 8  99117852.159 8     -1507.373          51.000
E09  21705127.820 7 114061223.961 7       716.520          45.000    21705128.906 7  87397552.080 7       548.974          45.000
E24  24954654.758 6 131137565.090 6      2802.535          36.000
E31  23582211.953 8 123925365.265 8       903.418          51.000    23582215.883 8  94955810.696 8       692.164          51.000
> 2020 05 10 04 59 30.0000000  0 18        .000000000000
G05  23170858.398 6 121763623.471 6     -3443.156          38.000    23170852.453 5  94880741.855 5     -2682.979          35.000
G13  20147998.320 8 105878448.198 8        12.332          51.000    20147996.234 8  82502665.418 8         9.606          49.000
G17  24270134.852 6 127540404.531 6      2743.922          37.000    24270136.398 6  99382116.287 6      2138.121          36.000
G28  21025238.961 8 110488446.853 8      -955.242          48.000    21025237.695 7  86094890.713 7      -744.345          47.000
R03  20703726.039 8 110828644.187 8     -3302.004          51.000    20703726.062 7  86200060.028 7     -2568.225          45.000
R04  19292033.719 8 103307985.324 8       604.707          48.000    19292035.836 7  80350644.380 7       470.328          45.000
R14  19321425.688 8 102994098.659 8       556.723          51.000    19321427.664 8  80106555.997 8       433.007          48.000
R15  22278711.883 8 119050684.492 8      3412.664          48.000    22278714.672 7  92594985.568 7      2654.294          46.000
C05  39784579.164 5 207168743.239 5        16.578          35.000    39784579.008 6 160195991.858 6        12.852          40.000
C14  23487778.961 8 122307017.613 8     -2895.223          49.000    23487776.258 8  94575527.023 8     -2238.700          51.000
C24  22087727.977 8 115016618.521 8     -1077.469          51.000
C25  22956725.609 7 119541678.146 7      1853.922          42.000
C26  24875738.312 4 129534497.457 4     -2813.543          29.000
E01  24851991.117 8 130598105.570 8     -1845.125          50.000    24851993.039 8 100068702.365 8     -1413.713          48.000
E04  24627115.805 8 129416353.114 8     -1976.137          50.000    24627120.820 8  99163162.804 8     -1514.156          51.000
E09  21701065.359 7 114039874.320 7       705.859          46.000    21701066.430 7  87381193.274 7       540.793          45.000
E24  24938664.086 5 131053555.899 5      2797.480          33.000
E31  23577084.617 8 123898423.299 8       891.801          51.000    23577088.633 8  94935166.835 8       683.352          51.000
