     3.02           OBSERVATION DATA    M (MIXED)           RINEX VERSION / TYPE
SAVERINEX           SC600               20200509 215931 LCL PGM / RUN BY / DATE
       G = GPS       R = GLONASS       C = COMPASS          COMMENT
       S = SBAS      J = QZSS          E = GALILEO          COMMENT
BEAN                                                        MARKER NAME
1                                                           MARKER NUMBER
GEODETIC                                                    MARKER TYPE
Unige DICCA         GTER                                    OBSERVER / AGENCY
SC60291900056       SC600               2.12(191226)        REC # / TYPE / VERS
                    HEMA45          NONE                    ANT # / TYPE
  4509407.8091   693652.4678  4442337.6214                  APPROX POSITION XYZ
        0.0000        0.0000        0.0000                  ANTENNA: DELTA H/E/N
G    8 C1C L1C D1C S1C C2Y L2Y D2Y S2Y                      SYS / # / OBS TYPES
R    8 C1C L1C D1C S1C C2P L2P D2P S2P                      SYS / # / OBS TYPES
C    4 C1I L1I D1I S1I                                      SYS / # / OBS TYPES
E    8 C1C L1C D1C S1C C7Q L7Q D7Q S7Q                      SYS / # / OBS TYPES
DBHZ                                                        COMMENT
     30.000                                                 INTERVAL
  2020    05    09    19    00    0.0000000     GPS         TIME OF FIRST OBS
  2020    05    09    19    59   30.0000000     GPS         TIME OF LAST OBS
     0                                                      RCV CLOCK OFFS APPL
G L1C  0.00000                                              SYS / PHASE SHIFT
G L2Y  0.00000                                              SYS / PHASE SHIFT
R L1C  0.00000                                              SYS / PHASE SHIFT
R L2P  0.25000                                              SYS / PHASE SHIFT
C L1I  0.00000                                              SYS / PHASE SHIFT
E L1C  0.50000                                              SYS / PHASE SHIFT
E L7Q -0.25000                                              SYS / PHASE SHIFT
 12 R05  1 R06 -4 R07  5 R08  6 R09 -2 R10 -5 R11  0 R16 -1 GLONASS SLOT / FRQ #
    R19  3 R20  2 R21  4 R22 -3                             GLONASS SLOT / FRQ #
 C1C   71.950 C2C   71.950 C2P   71.950                     GLONASS COD/PHS/BIS
    18                                                      LEAP SECONDS
*** Above antenna height is from mark to ANTENNA BOTTOM.    COMMENT
    17     4        0.0000        ANT MEASURE TYPE/HEIGT    COMMENT
    0.0000    0.0000    0.0458    0.0405    0.0000          COMMENT
                    BASE STATION                            COMMENT
                                                            END OF HEADER
> 2020 05 09 19 00  0.0000000  0 17        .000000000000
G03  22604638.672 7 118788185.857 7      2987.469          46.000    22604638.469 7  92562246.031 7      2327.901          46.000
G08  21201043.539 8 111412240.164 8     -2236.801          51.000    21201043.797 8  86814714.217 8     -1742.962          51.000
G11  19855956.695 8 104343764.540 8        57.336          51.000    19855955.469 8  81306837.178 8        44.677          51.000
G14  22109991.617 6 116188834.405 6      1131.656          39.000    22109990.078 5  90536782.314 5       881.804          31.000
G22  21135794.336 8 111069372.170 8      1536.613          51.000    21135791.977 8  86547516.973 8      1197.361          48.000
G27  23494962.188 7 123466840.594 7     -3572.664          42.000    23494966.938 7  96207915.481 7     -2783.891          43.000
G32  22029356.719 6 115765029.009 6      -382.281          41.000    22029353.898 6  90206532.030 6      -297.885          40.000
R06  20063296.773 7 107061589.399 7     -2252.961          43.000
R07  19616086.656 8 105006490.973 8      1882.703          50.000    19616089.719 7  81671757.583 7      1464.325          47.000
R21  20454098.266 8 109454006.565 8     -2209.234          51.000    20454100.961 8  85130880.420 8     -1718.293          48.000
R22  19631147.703 6 104792394.258 6      1562.301          38.000    19631153.836 5  81505202.230 5      1215.123          32.000
C19  21585163.578 8 112399737.262 8      -233.512          51.000
C22  23583271.469 7 122804234.865 7      2658.582          47.000
C29  24143337.883 7 125720654.627 7     -2843.672          47.000
E07  24070296.703 8 126490349.545 8       721.055          51.000    24070298.977 8  96921129.262 8       552.481          51.000
E13  25852111.750 5 135853763.858 5     -2111.023          33.000
E26  22363602.219 8 117521522.649 8       -91.500          51.000    22363605.750 8  90048963.588 8       -70.122          51.000
> 2020 05 09 19 00 30.0000000  0 18        .000000000000
G03  22587605.883 7 118698678.252 7      2984.922          45.000    22587606.195 7  92492499.895 7      2325.916          45.000
G08  21213851.703 8 111479544.369 8     -2244.883          51.000    21213852.281 8  86867159.000 8     -1749.259          51.000
G11  19855673.641 8 104342277.514 8        46.984          49.000    19855672.461 8  81305678.460 8        36.611          49.000
G14  22103575.445 6 116155120.030 6      1121.156          39.000    22103573.703 6  90510511.414 6       873.628          36.000
G22  21127055.039 8 111023446.047 8      1530.352          51.000    21127052.281 8  86511730.399 8      1192.482          48.000
G27  23515371.117 7 123574092.145 7     -3572.086          43.000    23515376.273 7  96291488.114 7     -2783.444          44.000
G32  22031590.133 5 115776762.220 5      -394.633          34.000    22031587.203 5  90215674.778 5      -307.503          34.000
R06  20076015.883 7 107129461.796 7     -2266.355          42.000
R07  19605596.156 8 104950336.578 8      1866.176          50.000    19605598.820 7  81628081.979 7      1451.470          45.000
R21  20466523.250 8 109520495.474 8     -2218.109          51.000    20466525.898 8  85182594.020 8     -1725.196          48.000
R22  19622406.125 5 104745733.008 5      1554.207          32.000    19622412.773 5  81468910.104 5      1208.828          33.000
C19  21586547.000 8 112406943.327 8      -241.770          51.000
C20  24707809.508 5 128660037.920 5     -2766.383          31.000
C22  23567974.867 7 122724595.550 7      2655.859          43.000
C29  24159738.188 8 125806052.741 8     -2844.195          48.000
E07  24066215.625 8 126468902.185 8       714.012          51.000    24066217.961 8  96904695.588 8       547.052          51.000
E13                                                                  25864174.773 5 104144317.129 5     -1615.637          34.000
E26  22364141.664 8 117524357.564 8       -92.293          51.000    22364145.070 8  90051135.790 8       -70.709          51.000
> 2020 05 09 19 01  0.0000000  0 18        .000000000000
G03  22570624.469 7 118609442.028 7      2972.473          45.000    22570625.656 7  92422965.213 7      2316.212          45.000
G08  21226743.664 8 111547288.794 8     -2262.953          51.000    21226745.188 8  86919946.836 8     -1763.340          51.000
G11  19855488.344 8 104341304.519 8        26.320          49.000    19855487.344 8  81304920.280 8        20.509          49.000
G14  22097256.234 6 116121914.115 6      1100.781          40.000    22097255.250 5  90484636.663 5       857.749          31.000
G22  21118388.609 8 110977904.136 8      1514.148          51.000    21118386.211 8  86476243.234 8      1179.859          49.000
G27  23535815.320 7 123681523.804 7     -3581.590          46.000    23535819.648 7  96375201.039 7     -2790.849          46.000
G32  22033933.219 6 115789075.043 6      -417.559          39.000    22033929.594 6  90225269.318 6      -325.373          38.000
R06  20088847.898 7 107197936.023 7     -2289.750          42.000
R07  19595236.312 8 104894880.830 8      1839.391          48.000    19595238.109 7  81584949.718 7      1430.637          44.000
R21  20479035.641 8 109587453.607 8     -2237.223          51.000    20479038.711 7  85234672.547 7     -1740.062          47.000
R22  19613746.727 5 104699515.255 5      1535.449          33.000    19613755.938 5  81432962.951 5      1194.232          33.000
C19  21588015.469 8 112414593.337 8      -259.895          51.000
C20  24723799.289 5 128743298.062 5     -2775.590          34.000
C22  23552732.148 7 122645241.852 7      2642.852          42.000
C29  24176178.852 7 125891663.301 7     -2854.762          47.000
E07  24062213.094 8 126447867.466 8       696.684          51.000    24062215.812 8  96888578.094 8       533.858          51.000
E13  25876260.570 5 135980660.001 5     -2117.086          35.000    25876255.352 6 104192987.335 6     -1622.320          36.000
E26  22364723.852 8 117527416.785 8      -103.219          51.000    22364727.023 8  90053479.874 8       -79.111          51.000
> 2020 05 09 19 01 30.0000000  0 18        .000000000000
G03  22553712.953 7 118520572.199 7      2961.508          46.000    22553714.891 7  92353716.014 7      2307.668          46.000
G08  21239736.625 8 111615566.182 8     -2279.434          49.000    21239739.039 8  86973149.973 8     -1776.185          50.000
G11  19855418.797 8 104340940.246 8         7.227          48.000    19855418.000 8  81304636.429 8         5.631          48.000
G14  22091052.078 6 116089312.252 6      1082.039          37.000    22091051.805 5  90459232.648 5       843.150          35.000
G22  21109813.117 8 110932841.068 8      1499.422          51.000    21109811.453 8  86441129.165 8      1168.381          50.000
G27  23556311.703 7 123789227.272 7     -3589.250          46.000    23556314.445 7  96459125.746 7     -2796.821          46.000
G32  22036404.930 6 115802061.406 6      -438.605          38.000    22036404.531 6  90235388.603 6      -341.767          38.000
R06  20101810.078 7 107267103.767 7     -2311.766          42.000
R07  19585024.641 8 104840220.867 8      1814.129          48.000    19585027.156 7  81542436.435 7      1410.989          46.000
R21  20491653.164 8 109654975.599 8     -2254.766          50.000    20491656.367 7  85287189.672 7     -1753.707          46.000
R22  19605190.305 6 104653838.826 6      1519.004          39.000    19605200.383 5  81397436.851 5      1181.447          30.000
C19  21589587.016 8 112422779.457 8      -276.625          51.000
C20  24739843.422 6 128826836.645 6     -2783.863          36.000
C22  23537566.250 7 122566267.887 7      2631.281          47.000
C29  24192677.859 8 125977578.211 8     -2863.727          49.000
E07  24058306.703 8 126427339.448 8       681.035          51.000    24058309.922 8  96872848.859 8       521.871          51.000
E13  25888393.969 5 136044425.615 5     -2123.906          34.000    25888386.969 5 104241841.328 5     -1627.304          35.000
E26  22365366.766 8 117530794.772 8      -112.660          51.000    22365369.734 8  90056068.212 8       -86.354          51.000
> 2020 05 09 19 02  0.0000000  0 18        .000000000000
G03  22536837.781 7 118431892.492 7      2951.156          47.000    22536840.719 7  92284615.038 7      2299.605          47.000
G08  21252796.656 8 111684197.369 8     -2295.277          50.000    21252799.750 8  87026628.814 8     -1788.528          49.000
G11  19855431.602 7 104341008.149 7       -11.227          47.000    19855430.812 7  81304689.340 7        -8.748          47.000
G14  22084929.391 6 116057138.431 6      1063.676          40.000    22084929.305 5  90434162.126 5       828.838          33.000
G22  21101295.344 8 110888079.538 8      1485.344          51.000    21101293.602 8  86406250.049 8      1157.414          49.000
G27  23576825.586 7 123897023.070 7     -3596.434          45.000    23576826.586 7  96543122.372 7     -2802.419          45.000
G32  22038969.945 5 115815543.104 5      -459.145          35.000    22038973.070 5  90245894.025 5      -357.772          35.000
R06  20114867.875 6 107336781.816 6     -2332.867          41.000
R07  19574928.820 8 104786177.655 8      1789.465          50.000    19574932.141 7  81500402.846 7      1391.806          46.000
R21  20504342.070 8 109722880.471 8     -2271.633          49.000    20504345.438 7  85340004.544 7     -1766.829          46.000
R22  19596701.719 6 104608526.180 6      1502.801          36.000
C19  21591227.758 8 112431324.986 8      -292.555          51.000
C20  24755906.930 6 128910475.813 6     -2791.234          37.000
C22  23522441.688 8 122487499.052 8      2620.547          50.000
C29  24209201.430 8 126063620.478 8     -2871.887          48.000
E07  24054462.992 8 126407141.021 8       666.027          51.000    24054466.609 8  96857372.162 8       510.375          51.000
E13                                                                  25900532.711 5 104290743.186 5     -1631.970          33.000
E26  22366036.711 8 117534314.670 8      -121.371          51.000    22366039.609 8  90058765.283 8       -93.002          51.000
> 2020 05 09 19 02 30.0000000  0 19        .000000000000
G03  22520015.164 7 118343488.847 7      2942.457          46.000    22520018.211 7  92215729.139 7      2292.824          46.000
G08  21265939.805 8 111753265.521 8     -2309.145          50.000    21265943.328 8  87080448.153 8     -1799.333          50.000
G11  19855542.789 8 104341593.246 8       -27.770          48.000    19855542.047 8  81305145.272 8       -21.639          48.000
G14  22078904.727 6 116025478.554 6      1046.910          37.000    22078904.797 6  90409492.096 6       815.777          37.000
G22  21092851.258 8 110843704.330 8      1473.121          51.000    21092848.828 8  86371672.013 8      1147.890          48.000
G27  23597372.461 7 124004993.712 7     -3601.504          44.000    23597371.930 7  96627255.243 7     -2806.370          44.000
G32  22041646.312 6 115829604.809 6      -478.008          37.000    22041650.031 6  90256851.170 6      -372.477          38.000
R06  20128036.648 6 107407052.336 6     -2351.750          40.000
R07  19564964.906 8 104732838.589 8      1766.633          51.000    19564968.500 7  81458916.925 7      1374.048          46.000
R08  22798284.375 5 122083735.356 5      4259.195          35.000    22798286.023 4  94954027.319 4      3312.717          28.000
R21  20517119.273 8 109791253.822 8     -2286.488          51.000    20517122.141 7  85393183.778 7     -1778.383          45.000
R22  19588297.422 5 104563665.688 5      1488.070          34.000    19588298.625 4  81327292.304 4      1157.382          27.000
C19  21592953.367 8 112440312.991 8      -306.492          51.000
C20  24772005.211 6 128994297.627 6     -2796.551          38.000
C22  23507373.289 8 122409020.586 8      2611.512          51.000
C29  24225764.523 7 126149873.074 7     -2878.219          46.000
E07  24050698.336 8 126387357.108 8       652.859          51.000    24050702.023 8  96842213.077 8       500.252          51.000
E13                                                                  25912705.211 5 104339725.757 5     -1635.287          31.000
E26  22366749.812 8 117538061.760 8      -128.301          51.000    22366752.852 8  90061636.433 8       -98.314          51.000
> 2020 05 09 19 03  0.0000000  0 19        .000000000000
G03  22503250.906 7 118255392.560 7      2932.059          45.000    22503254.203 7  92147082.723 7      2284.721          45.000
G08  21279171.539 8 111822798.798 8     -2324.879          51.000    21279175.258 8  87134629.930 8     -1811.594          51.000
G11  19855758.344 8 104342726.478 8       -46.301          48.000    19855757.664 7  81306028.314 7       -36.079          47.000
G14  22072983.266 6 115994363.722 6      1028.594          38.000    22072983.867 6  90385246.755 6       801.502          37.000
G22  21084486.375 8 110799745.612 8      1459.016          51.000    21084483.609 8  86337418.512 8      1136.898          49.000
G27  23617957.023 6 124113167.234 6     -3608.648          41.000    23617956.312 6  96711546.209 6     -2811.934          41.000
G32  22044437.469 5 115844299.962 5      -498.301          32.000    22044439.602 5  90268283.159 5      -388.289          31.000
R06  20141321.219 6 107477942.756 6     -2372.719          39.000
R07  19555138.742 8 104680235.786 8      1741.824          51.000    19555142.258 7  81418003.693 7      1354.755          47.000
R08  22774450.531 6 121956119.270 6      4250.422          36.000    22774453.477 4  94854770.550 4      3305.893          24.000
R21  20529989.867 8 109860125.730 8     -2303.336          51.000    20529992.211 7  85446750.796 7     -1791.484          46.000
R22  19579983.938 6 104519290.588 6      1471.629          37.000    19579992.758 4  81292778.335 4      1144.600          29.000
C19  21594769.898 8 112449772.512 8      -322.473          51.000
C20  24788142.828 5 129078330.020 5     -2804.500          34.000
C22  23492365.844 8 122330863.554 8      2600.570          51.000
C29  24242373.547 7 126236364.749 7     -2886.352          45.000
E07  24047018.250 8 126368018.067 8       637.977          51.000    24047022.117 8  96827394.878 8       488.788          51.000
E13                                                                  25924910.078 5 104388870.000 5     -1639.995          30.000
E26  22367511.867 8 117542066.743 8      -137.117          51.000    22367515.180 8  90064705.194 8      -105.010          51.000
> 2020 05 09 19 03 30.0000000  0 18        .000000000000
G03  22486537.672 7 118167564.978 7      2922.934          46.000    22486541.375 7  92078645.682 7      2277.611          45.000
G08  21292483.898 8 111892755.868 8     -2339.008          51.000    21292487.648 8  87189141.940 8     -1822.603          51.000
G11  19856070.891 8 104344368.982 8       -63.098          48.000    19856070.297 8  81307308.186 8       -49.167          48.000
G14  22067158.586 6 115963755.917 6      1011.379          36.000    22067160.023 5  90361396.509 5       788.091          33.000
G22  21076193.109 8 110756164.143 8      1446.395          51.000    21076190.695 8  86303458.934 8      1127.061          50.000
G27  23638571.320 6 124221501.768 6     -3613.918          40.000    23638572.258 6  96795962.687 6     -2816.040          38.000
G32  22047337.273 6 115859539.413 6      -517.895          36.000    22047337.906 6  90280158.814 6      -403.554          36.000
R06  20154713.859 6 107549409.268 6     -2391.719          39.000
R07  19545443.023 8 104628330.180 8      1718.449          51.000    19545445.828 7  81377632.676 7      1336.572          45.000
R08  22750658.625 6 121828721.554 6      4242.656          37.000
R21  20542945.961 8 109929454.931 8     -2318.660          51.000    20542948.727 7  85500673.445 7     -1803.405          45.000
R22  19571754.938 6 104475362.730 6      1456.875          38.000    19571763.930 4  81258612.148 4      1133.125          27.000
C19  21596669.250 8 112459663.221 8      -336.867          50.000
C22  23477411.523 8 122252989.827 8      2591.043          50.000
C29  24259021.398 7 126323054.982 7     -2893.000          46.000
E07  24043415.180 8 126349084.377 8       624.238          51.000    24043419.375 8  96812887.275 8       478.324          51.000
E13  25937142.359 6 136300597.379 6     -2144.996          36.000    25937142.469 5 104438122.419 5     -1643.461          33.000
E26  22368315.500 8 117546290.480 8      -144.523          51.000    22368318.930 8  90067941.572 8      -110.763          51.000
> 2020 05 09 19 04  0.0000000  0 18        .000000000000
G03  22469878.828 7 118080023.061 7      2912.613          46.000    22469882.711 7  92010431.266 7      2269.569          47.000
G08  21305879.555 8 111963151.243 8     -2354.445          50.000    21305883.484 8  87243995.463 8     -1834.633          50.000
G11  19856483.547 8 104346537.205 8       -81.605          48.000    19856482.805 8  81308997.706 8       -63.589          48.000
G14  22061433.422 6 115933672.063 6       993.180          39.000    22061434.477 5  90337954.523 5       773.912          35.000
G22  21067974.289 8 110712975.759 8      1432.523          50.000    21067972.477 8  86269805.642 8      1116.252          49.000
G27  23659219.055 6 124330011.102 6     -3620.848          40.000    23659222.148 6  96880515.393 6     -2821.440          39.000
G32  22050347.531 5 115875364.578 5      -537.223          30.000    22050350.367 5  90292490.079 5      -418.615          31.000
R06  20168217.148 6 107621464.218 6     -2412.355          40.000
R07  19535880.398 8 104577139.019 8      1693.895          50.000    19535882.703 7  81337817.383 7      1317.477          46.000
R08  22726911.578 5 121701562.287 5      4234.086          35.000
R21  20555990.703 8 109999257.037 8     -2335.285          51.000    20555993.328 7  85554963.982 7     -1816.333          47.000
R22  19563613.227 6 104431900.885 6      1440.422          37.000    19563618.289 4  81224808.542 4      1120.325          29.000
C19  21598654.516 8 112469999.950 8      -352.605          51.000
C22  23462513.383 8 122175416.303 8      2580.133          49.000
C29  24275710.844 7 126409958.463 7     -2901.000          47.000
E07  24039892.477 8 126330572.114 8       609.477          51.000    24039896.578 8  96798702.572 8       467.005          51.000
E13  25949404.375 5 136365038.947 5     -2151.062          33.000
E26  22369163.828 8 117550749.396 8      -153.121          51.000    22369167.117 8  90071358.150 8      -117.315          51.000
> 2020 05 09 19 04 30.0000000  0 18        .000000000000
G03  22453276.594 7 117992777.898 7      2905.977          46.000    22453280.359 7  91942448.089 7      2264.400          46.000
G08  21319360.219 8 112033993.101 8     -2365.879          49.000    21319364.133 8  87299196.896 8     -1843.542          49.000
G11  19856998.258 8 104349241.855 8       -96.062          49.000    19856997.320 8  81311105.221 8       -74.854          48.000
G14  22055810.984 7 115904123.101 7       978.902          42.000    22055811.578 5  90314929.372 5       762.784          30.000
G22  21059832.031 8 110670190.413 8      1422.293          50.000    21059830.086 8  86236466.443 8      1108.280          48.000
G27  23679901.961 6 124438702.951 6     -3623.285          39.000    23679906.891 6  96965210.340 6     -2823.336          40.000
G32  22053470.508 5 115891764.717 5      -554.586          35.000    22053475.656 5  90305287.292 5      -432.142          35.000
R06  20181831.609 6 107694114.603 6     -2428.277          38.000
R07  19526453.289 8 104526673.893 8      1673.051          51.000    19526455.141 7  81298566.750 7      1301.259          46.000
R08  22703210.617 5 121574654.057 5      4229.133          32.000    22703219.234 4  94558081.882 4      3289.329          25.000
R21  20569125.281 8 110069541.386 8     -2347.820          51.000    20569128.500 8  85609629.550 8     -1826.082          48.000
R22  19555561.070 5 104388917.555 5      1427.695          34.000    19555563.570 4  81191387.151 4      1110.433          28.000
C19  21600727.453 8 112480791.510 8      -364.379          51.000
C22  23447674.352 8 122098153.959 8      2573.133          50.000
C29  24292442.945 8 126497083.802 8     -2904.957          49.000
E07  24036451.961 8 126312491.312 8       598.391          51.000    24036455.703 8  96784848.463 8       458.573          51.000
E13  25961699.289 5 136429650.196 5     -2152.934          32.000
E26  22370058.961 8 117555453.908 8      -157.957          51.000    22370062.031 8  90074962.925 8      -121.050          51.000
> 2020 05 09 19 05  0.0000000  0 18        .000000000000
G03  22436720.742 7 117905775.867 7      2895.051          45.000    22436724.172 7  91874654.347 7      2255.884          46.000
G08  21332914.969 8 112105224.804 8     -2381.910          48.000    21332918.930 8  87354702.113 8     -1856.034          48.000
G11  19857604.641 8 104352428.488 8      -115.457          48.000    19857603.945 8  81313588.299 8       -89.970          48.000
G14  22050280.516 6 115875055.752 6       959.605          40.000    22050280.422 5  90292279.556 5       747.745          34.000
G22  21051756.445 8 110627753.340 8      1407.715          50.000    21051753.609 8  86203398.616 8      1096.921          49.000
G27  23700608.945 6 124547520.464 6     -3630.660          38.000    23700615.453 6  97050003.203 6     -2829.083          37.000
G32  22056696.805 6 115908722.840 6      -575.402          36.000    22056703.805 6  90318501.373 6      -448.365          37.000
R06  20195546.773 6 107767300.821 6     -2449.613          41.000
R07  19517151.445 8 104476880.291 8      1647.473          50.000    19517153.125 7  81259838.411 7      1281.371          46.000
R08  22679545.875 5 121447944.023 5      4219.391          34.000    22679555.039 4  94459546.755 4      3281.751          25.000
R21  20582339.359 8 110140251.500 8     -2365.191          51.000    20582342.367 7  85664626.303 7     -1839.593          47.000
R22  19547587.711 5 104346359.355 5      1410.418          32.000    19547590.219 4  81158283.237 4      1096.980          29.000
C19  21602876.984 8 112491982.777 8      -380.758          51.000
C22  23432885.617 8 122021149.636 8      2561.453          51.000
C29  24309207.156 8 126584375.632 8     -2913.516          51.000
E07  24033082.961 8 126294787.426 8       582.688          51.000    24033086.562 8  96771283.169 8       446.472          51.000
E13                                                                  25974019.508 5 104586620.635 5     -1654.766          35.000
E26  22370990.625 8 117560349.884 8      -167.578          51.000    22370993.664 8  90078714.386 8      -128.371          51.000
> 2020 05 09 19 05 30.0000000  0 17        .000000000000
G03  22420222.734 7 117819081.388 7      2885.102          43.000    22420226.695 7  91807100.186 7      2248.131          43.000
G08  21346555.609 8 112176908.237 8     -2396.539          49.000    21346560.094 8  87410559.334 8     -1867.430          49.000
G11  19858315.047 8 104356161.118 8      -133.125          49.000    19858314.359 8  81316496.814 8      -103.734          49.000
G14  22044853.547 6 115846534.445 6       942.148          41.000    22044852.961 5  90270055.198 5       734.145          35.000
G22  21043759.633 8 110585728.024 8      1394.371          51.000    21043756.672 8  86170651.598 8      1086.523          50.000
G27  23721351.703 6 124656524.789 6     -3635.793          37.000    23721359.531 6  97134941.647 6     -2833.085          38.000
R06  20209373.656 6 107841083.912 6     -2468.980          39.000
R07  19507986.875 8 104427823.327 8      1623.371          51.000    19507988.781 7  81221683.029 7      1262.625          47.000
R08  22655933.992 5 121321499.674 5      4210.750          32.000    22655940.406 4  94361191.248 4      3275.034          25.000
R21  20595644.859 8 110211451.119 8     -2381.043          51.000    20595647.656 7  85720003.732 7     -1851.922          46.000
R22  19539706.859 5 104304293.360 5      1394.340          33.000    19539709.352 5  81125565.164 5      1084.484          31.000
C19  21605115.227 8 112503635.409 8      -395.738          51.000
C22  23418159.633 8 121944467.222 8      2551.141          51.000
C29  24326015.250 8 126671895.482 8     -2920.672          51.000
E07  24029797.562 8 126277523.793 8       568.566          51.000    24029801.203 8  96758055.208 8       435.646          51.000
E13                                                                  25986361.727 5 104636331.540 5     -1658.794          35.000
E26  22371970.852 8 117565501.071 8      -175.508          51.000    22371974.070 8  90082661.393 8      -134.465          51.000
> 2020 05 09 19 06  0.0000000  0 18        .000000000000
G03  22403779.547 7 117732673.933 7      2875.316          47.000    22403784.289 7  91739769.721 7      2240.509          46.000
G08  21360278.047 8 112249019.935 8     -2411.039          50.000    21360282.969 8  87466750.284 8     -1878.732          50.000
G11  19859125.430 8 104360418.843 8      -150.965          50.000    19859124.625 8  81319814.501 8      -117.635          49.000
G14  22039526.383 7 115818538.944 7       924.180          42.000    22039526.602 6  90248240.506 6       720.143          36.000
G22  21035836.914 8 110544092.960 8      1381.020          51.000    21035834.648 8  86138208.702 8      1076.119          49.000
G27  23742126.016 6 124765692.226 6     -3641.988          40.000    23742134.484 6  97220007.198 6     -2837.913          40.000
G32  22063490.930 5 115944422.115 5      -614.930          33.000    22063496.258 5  90346300.264 5      -479.163          31.000
R06  20223308.062 7 107915438.359 7     -2488.297          42.000
R07  19498956.703 8 104379482.730 8      1599.035          51.000    19498958.508 7  81184084.797 7      1243.694          46.000
R08  22632368.398 6 121195302.354 6      4202.129          36.000
R21  20609037.602 8 110283117.630 8     -2396.898          51.000    20609039.594 7  85775744.345 7     -1864.254          46.000
R22  19531915.875 6 104262699.620 6      1378.289          37.000    19531920.008 5  81093214.531 5      1072.003          34.000
C19  21607437.898 8 112515727.171 8      -410.637          51.000
C22  23403492.109 8 121868086.596 8      2540.672          51.000
C29  24342862.547 8 126759620.953 8     -2927.922          50.000
E07  24026592.070 8 126260679.144 8       554.195          51.000    24026595.844 8  96745148.271 8       424.694          51.000
E13  25998738.625 5 136624292.619 5     -2170.988          31.000    25998730.992 5 104686156.961 5     -1662.904          32.000
E26  22372995.664 8 117570886.592 8      -183.684          51.000    22372999.148 8  90086787.961 8      -140.751          51.000
> 2020 05 09 19 06 30.0000000  0 18        .000000000000
G03  22387391.695 8 117646555.043 8      2865.969          48.000    22387396.438 8  91672664.163 8      2233.225          48.000
G08  21374081.719 8 112321558.669 8     -2425.070          49.000    21374086.891 8  87523273.977 8     -1889.665          49.000
G11  19860035.875 8 104365202.691 8      -168.156          50.000    19860034.938 8  81323542.156 8      -131.031          48.000
G14  22034299.430 6 115791070.699 6       906.742          40.000    22034300.109 5  90226836.683 5       706.555          34.000
G22  21027988.375 8 110502848.745 8      1368.348          51.000    21027986.625 8  86106070.376 8      1066.245          49.000
G27  23762931.531 7 124875021.153 7     -3646.914          43.000    23762940.039 7  97305198.562 7     -2841.751          43.000
G32  22067051.719 5 115963140.339 5      -633.371          34.000    22067060.172 5  90360885.918 5      -493.536          34.000
R06  20237348.844 6 107990361.095 6     -2506.781          41.000
R07  19490060.461 8 104331860.135 8      1575.617          51.000    19490062.312 7  81147045.005 7      1225.480          47.000
R08  22608849.922 6 121069355.634 6      4193.883          36.000
R21  20622517.211 8 110355250.706 8     -2412.055          51.000    20622519.359 7  85831847.827 7     -1876.043          46.000
R22  19524213.977 6 104221581.215 6      1362.844          39.000    19524219.938 5  81061233.542 5      1059.993          35.000
C19  21609844.602 8 112528257.578 8      -424.922          51.000
C22  23388882.695 8 121792009.403 8      2530.906          51.000
C29  24359748.047 7 126847551.356 7     -2934.277          46.000
E07  24023466.219 8 126244254.020 8       540.613          51.000    24023470.648 8  96732562.798 8       414.239          51.000
E13                                                                  26011135.047 5 104736097.023 5     -1666.202          34.000
E26  22374065.250 8 117576507.440 8      -191.188          51.000    22374069.016 8  90091094.839 8      -146.503          51.000
> 2020 05 09 19 07  0.0000000  0 17        .000000000000
G03  22371055.727 7 117560708.422 7      2857.285          47.000    22371059.594 7  91605770.764 7      2226.459          47.000
G08  21387963.016 8 112394505.207 8     -2438.082          49.000    21387967.938 8  87580115.413 8     -1899.804          48.000
G11  19861043.312 8 104370496.131 8      -184.621          50.000    19861042.039 8  81327666.905 8      -143.861          49.000
G14  22029169.445 6 115764113.296 6       890.434          41.000    22029169.906 5  90205830.924 5       693.847          34.000
G22  21020211.141 8 110461978.135 8      1356.438          51.000    21020208.680 7  86074223.160 7      1056.964          47.000
G27  23783764.562 7 124984491.971 7     -3651.242          42.000    23783772.469 7  97390500.454 7     -2845.124          43.000
R06  20251491.789 6 108065830.608 6     -2524.547          40.000
R07  19481295.109 8 104284938.535 8      1552.656          51.000    19481297.195 7  81110550.448 7      1207.625          47.000
R08  22585374.039 6 120943644.317 6      4186.977          37.000
R21  20636080.477 8 110427831.790 8     -2426.523          51.000    20636082.641 7  85888299.772 7     -1887.296          46.000
R22  19516597.883 6 104180923.005 6      1347.570          39.000    19516603.242 5  81029610.461 5      1048.107          33.000
C19  21612331.859 8 112541208.340 8      -438.387          51.000
C22  23374328.430 8 121716219.445 8      2521.730          51.000
C29  24376668.789 7 126935668.185 7     -2940.113          46.000
E07  24020416.891 8 126228231.078 8       527.723          51.000    24020421.672 8  96720285.497 8       404.335          51.000
E13                                                                  26023565.359 5 104786138.226 5     -1669.650          35.000
E26  22375176.406 8 117582346.716 8      -198.023          51.000    22375180.398 8  90095569.075 8      -151.708          51.000
> 2020 05 09 19 07 30.0000000  0 17        .000000000000
G03  22354774.133 7 117475148.054 7      2847.328          46.000    22354776.305 7  91539100.399 7      2218.697          47.000
G08  21401924.227 8 112467870.983 8     -2452.473          49.000    21401928.258 8  87637283.526 8     -1911.018          49.000
G11  19862150.156 8 104376311.926 8      -202.582          51.000    19862148.570 8  81332198.691 8      -157.856          48.000
G14  22024139.445 6 115737680.932 6       872.434          41.000    22024138.914 5  90185234.319 5       679.824          31.000
G22  21012507.312 8 110421494.007 8      1342.977          51.000    21012503.562 7  86042677.133 7      1046.478          46.000
G27  23804626.641 7 125094115.408 7     -3656.633          42.000    23804633.672 6  97475921.282 6     -2849.324          41.000
R06  20265739.000 6 108141856.872 6     -2543.605          39.000
R07  19472663.250 8 104238732.264 8      1528.230          51.000    19472665.711 8  81074612.255 8      1188.624          48.000
R08  22561945.344 6 120818185.152 6      4177.832          38.000
R21  20649730.141 8 110500873.181 8     -2442.371          51.000    20649732.438 7  85945109.705 7     -1899.622          47.000
R22  19509070.250 6 104140740.402 6      1331.570          40.000    19509074.961 5  80998357.279 5      1035.666          34.000
C19  21614902.070 8 112554591.221 8      -453.383          51.000
C22  23359831.750 8 121640730.611 8      2511.273          50.000
C29  24393627.547 7 127023983.045 7     -2947.270          45.000
E07  24017446.758 8 126212623.320 8       513.266          51.000    24017451.492 8  96708326.304 8       393.272          51.000
E13  26036016.828 5 136820184.235 5     -2184.656          35.000    26036023.023 5 104836290.272 5     -1673.493          35.000
E26  22376331.703 8 117588417.875 8      -206.277          51.000    22376335.742 8  90100220.993 8      -158.048          51.000
> 2020 05 09 19 08  0.0000000  0 17        .000000000000
G03  22338549.992 8 117389889.299 8      2836.988          48.000    22338550.461 8  91472665.053 8      2210.643          48.000
G08  21415967.648 8 112541668.162 8     -2467.145          51.000    21415970.766 8  87694787.743 8     -1922.453          51.000
G11  19863359.203 8 104382665.200 8      -220.738          50.000    19863357.594 8  81337149.290 8      -172.004          48.000
G14  22019212.352 7 115711788.746 7       854.105          42.000    22019211.062 5  90165058.658 5       665.543          30.000
G22  21004879.398 8 110381410.654 8      1329.523          51.000    21004875.727 8  86011443.402 8      1035.995          48.000
G27  23825519.969 6 125203903.535 6     -3662.234          41.000    23825526.602 6  97561470.488 6     -2853.689          41.000
R06  20280092.430 6 108218450.521 6     -2562.453          37.000
R07  19464167.930 8 104193257.051 8      1503.758          51.000    19464170.438 7  81039242.665 7      1169.589          47.000
R08  22538566.898 6 120692995.444 6      4168.750          36.000    22538577.172 4  93872364.714 4      3242.367          29.000
R21  20663468.555 8 110574388.657 8     -2458.352          51.000    20663470.617 7  86002288.366 7     -1912.054          45.000
R22  19501635.234 6 104101050.313 6      1314.875          40.000    19501638.906 5  80967487.210 5      1022.681          34.000
C19  21617557.477 8 112568419.340 8      -468.258          51.000
C22  23345395.352 8 121565558.202 8      2500.465          49.000
C29  24410628.148 8 127112509.039 8     -2954.340          48.000
E07  24014558.445 8 126197445.115 8       498.766          51.000    24014563.078 8  96696696.252 8       382.243          51.000
E13  26048499.758 5 136885789.861 5     -2189.953          34.000
E26  22377533.891 8 117594735.718 8      -214.660          51.000    22377538.062 8  90105061.938 8      -164.513          51.000
> 2020 05 09 19 08 30.0000000  0 17        .000000000000
G03  22322384.234 8 117304936.626 8      2828.066          48.000    22322385.141 8  91406468.254 8      2203.688          48.000
G08  21430093.820 8 112615898.461 8     -2480.117          51.000    21430095.812 8  87752629.491 8     -1932.559          51.000
G11  19864671.211 8 104389559.975 8      -237.438          50.000    19864669.812 8  81342521.836 8      -185.019          49.000
G14  22014388.945 6 115686441.452 6       837.531          40.000    22014387.938 5  90145307.572 5       652.625          31.000
G22  20997328.477 8 110341731.559 8      1317.414          51.000    20997325.617 8  85980524.641 8      1026.556          50.000
G27  23846444.461 6 125313857.778 6     -3666.406          36.000    23846451.422 6  97647149.124 6     -2856.940          36.000
R06  20294552.328 6 108295611.391 6     -2580.328          39.000
R07  19455810.156 8 104148516.963 8      1480.535          51.000    19455812.703 8  81004444.842 8      1151.527          48.000
R08  22515240.172 5 120568081.937 5      4160.242          35.000    22515250.094 4  93775209.823 4      3235.744          29.000
R21  20677295.945 8 110648380.961 8     -2472.957          51.000    20677297.898 7  86059837.917 7     -1923.411          46.000
R22  19494293.586 6 104061858.889 6      1299.531          40.000    19494295.648 5  80937004.968 5      1010.747          33.000
C19  21620298.906 8 112582695.169 8      -481.887          51.000
C22  23331020.500 8 121490706.777 8      2491.059          49.000
C29  24427670.367 8 127201248.431 8     -2960.156          50.000
E07  24011752.578 8 126182700.001 8       485.629          51.000    24011757.102 8  96685398.072 8       372.099          51.000
E13                                                                  26061016.742 5 104936907.911 5     -1680.991          35.000
E26  22378783.883 8 117601304.331 8      -221.742          51.000    22378788.031 8  90110095.016 8      -169.915          51.000
> 2020 05 09 19 09  0.0000000  0 17        .000000000000
G03  22306269.000 7 117220249.957 7      2817.902          47.000    22306271.109 7  91340478.689 7      2195.768          47.000
G08  21444294.203 8 112690519.228 8     -2494.281          51.000    21444295.242 8  87810775.505 8     -1943.596          51.000
G11  19866078.422 8 104396955.440 8      -255.219          49.000    19866077.203 8  81348284.536 8      -198.872          49.000
G14  22009661.398 6 115661598.970 6       819.219          38.000    22009660.492 5  90125949.851 5       638.349          30.000
G22  20989846.984 8 110302416.068 8      1303.961          51.000    20989844.602 8  85949889.195 8      1016.073          50.000
G27  23867392.312 6 125423934.741 6     -3671.844          37.000    23867401.648 6  97732923.610 6     -2861.171          37.000
R06  20309110.047 6 108373294.394 6     -2598.340          37.000
R07  19447582.000 8 104104471.435 8      1456.188          51.000    19447584.898 8  80970187.250 8      1132.590          48.000
R08  22491958.539 5 120443405.777 5      4151.672          34.000    22491968.234 5  93678239.548 5      3229.078          30.000
R21  20691204.141 8 110722807.302 8     -2488.496          51.000    20691206.758 7  86117725.041 7     -1935.497          47.000
R22  19487037.914 6 104023126.327 6      1283.102          41.000    19487038.453 5  80906879.681 5       997.968          33.000
C19  21623118.266 8 112597376.819 8      -496.562          51.000
C22  23316699.852 8 121416136.608 8      2480.582          50.000
C29  24444745.578 8 127290159.187 8     -2966.938          51.000
E07  24009021.430 8 126168346.854 8       471.555          51.000    24009025.758 8  96674400.214 8       361.297          51.000
E13                                                                  26073559.664 6 104987398.552 6     -1685.050          37.000
E26  22380073.977 8 117608082.993 8      -229.879          51.000    22380077.953 8  90115289.056 8      -176.138          51.000
> 2020 05 09 19 09 30.0000000  0 18        .000000000000
G03  22290208.312 7 117135850.633 7      2808.203          47.000    22290211.750 7  91274712.976 7      2188.210          47.000
G08  21458572.008 8 112765548.846 8     -2508.133          51.000    21458572.570 8  87869240.105 8     -1954.392          51.000
G11  19867584.898 8 104404872.543 8      -272.922          49.000    19867583.773 8  81354453.703 8      -212.666          49.000
G14  22005033.273 5 115637282.358 5       802.078          31.000    22005032.789 5  90107001.792 5       624.984          31.000
G22  20982438.680 8 110263483.771 8      1291.039          51.000    20982435.906 8  85919552.350 8      1006.004          49.000
G27  23888367.547 6 125534152.495 6     -3676.598          38.000    23888376.562 6  97818807.630 6     -2864.878          37.000
G32  22090712.078 5 116087480.867 5      -747.930          34.000    22090727.031 5  90457787.674 5      -582.796          31.000
R06  20323768.883 6 108451515.986 6     -2617.203          37.000
R07  19439487.836 8 104061141.923 8      1432.090          51.000    19439490.648 8  80936486.514 8      1113.848          48.000
R08  22468727.219 5 120318990.328 5      4142.125          33.000    22468733.688 4  93581471.997 4      3221.650          29.000
R21  20705197.016 8 110797687.361 8     -2503.926          50.000    20705200.211 7  86175965.083 7     -1947.498          46.000
R22  19479871.945 6 103984875.741 6      1266.668          39.000    19479871.508 5  80877129.189 5       985.180          32.000
C19  21626018.938 8 112612483.294 8      -510.930          51.000
C22  23302437.438 8 121341868.879 8      2470.180          51.000
C29  24461857.633 8 127379260.233 8     -2973.621          50.000
E07  24006368.461 8 126154405.994 8       457.547          50.000    24006372.766 8  96663718.263 8       350.603          51.000
E13                                                                  26086126.930 6 105037997.248 6     -1688.803          37.000
E26  22381408.062 8 117615092.548 8      -237.875          51.000    22381411.961 8  90120660.010 8      -182.262          51.000
> 2020 05 09 19 10  0.0000000  0 18        .000000000000
G03  22274206.797 8 117051761.411 8      2798.238          50.000    22274210.633 8  91209188.957 8      2180.445          50.000
G08  21472930.797 8 112841007.022 8     -2521.883          48.000    21472931.391 8  87928038.665 8     -1965.103          48.000
G11  19869194.867 8 104413333.597 8      -290.562          49.000    19869193.945 8  81361046.736 8      -226.412          49.000
G14  22000509.094 5 115613514.736 5       783.398          35.000    22000509.258 5  90088408.636 5       610.428          31.000
G22  20975107.375 8 110224956.665 8      1277.906          51.000    20975104.148 8  85889531.263 8       995.771          49.000
G27  23909373.430 6 125644530.789 6     -3681.359          38.000    23909380.539 6  97904816.762 6     -2868.589          38.000
G32  22095037.688 6 116110214.497 6      -767.289          39.000    22095066.172 6  90475502.463 6      -597.875          37.000
R06  20338532.109 6 108530294.662 6     -2634.820          36.000
R07  19431531.328 8 104018551.361 8      1407.789          50.000    19431534.656 8  80903360.572 8      1094.947          49.000
R08  22445549.477 5 120194860.682 5      4133.293          33.000    22445553.594 4  93484926.802 4      3214.780          28.000
R21  20719278.906 8 110873042.306 8     -2519.316          50.000    20719282.297 7  86234574.474 7     -1959.465          47.000
R22  19472800.836 6 103947131.898 6      1250.152          41.000    19472800.508 5  80847772.862 5       972.338          33.000
C19  21629005.477 8 112628035.269 8      -525.367          51.000
C22  23288237.742 8 121267926.305 8      2459.738          51.000
C29  24479009.680 7 127468571.920 7     -2979.945          46.000
E07  24003797.812 8 126140899.280 8       443.551          50.000    24003802.148 8  96653368.978 8       339.801          51.000
E13  26098717.805 5 137149692.297 5     -2209.195          34.000    26098722.945 5 105088720.558 5     -1692.595          33.000
E26  22382790.266 8 117622355.392 8      -245.855          51.000    22382794.281 8  90126225.043 8      -188.341          51.000
> 2020 05 09 19 10 30.0000000  0 19        .000000000000
G03  22258258.727 8 116967953.143 8      2788.660          49.000    22258262.609 8  91143883.883 8      2172.985          49.000
G08  21487364.062 7 112916861.927 7     -2535.207          45.000    21487366.000 7  87987146.413 7     -1975.483          45.000
G11  19870902.641 8 104422308.751 8      -307.930          49.000    19870901.812 8  81368040.371 8      -239.942          49.000
G14  21996085.211 6 115590266.752 6       766.340          37.000
G22  20967847.375 8 110186804.602 8      1265.273          51.000    20967844.117 8  85859802.391 8       985.927          50.000
G27  23930403.266 6 125755037.198 6     -3685.809          38.000    23930408.211 6  97990925.584 6     -2872.062          39.000
G32  22099470.164 6 116133505.840 6      -785.910          40.000    22099501.383 5  90493651.704 5      -612.394          31.000
R06  20353393.391 6 108609596.806 6     -2652.301          36.000
R07  19423707.406 8 103976670.003 8      1383.988          51.000    19423710.898 8  80870786.192 8      1076.435          48.000
R08  22422419.516 5 120070989.506 5      4124.391          33.000    22422422.133 4  93388582.603 4      3207.862          29.000
R21  20733443.594 8 110948840.935 8     -2534.219          50.000    20733447.000 7  86293528.939 7     -1971.059          46.000
R22  19465819.898 7 103909865.946 7      1233.938          43.000    19465819.586 5  80818788.278 5       959.729          34.000
C19  21632071.555 8 112644001.661 8      -539.254          51.000
C20  25034114.336 5 130359167.029 5     -2885.988          32.000
C22  23274094.875 8 121194280.018 8      2449.664          51.000
C29  24496192.773 6 127558063.210 6     -2985.969          37.000
E07  24001304.500 8 126127796.529 8       429.961          51.000    24001308.555 8  96643329.194 8       329.400          51.000
E13  26111340.914 5 137216018.689 5     -2213.492          35.000    26111343.578 5 105139545.187 5     -1695.714          32.000
E26  22384214.812 8 117629841.821 8      -253.445          51.000    22384219.016 8  90131961.392 8      -194.171          51.000
> 2020 05 09 19 11  0.0000000  0 18        .000000000000
G03  22242371.242 7 116884465.289 7      2776.898          47.000    22242374.742 7  91078828.458 7      2163.820          47.000
G08  21501880.508 7 112993149.957 7     -2550.902          47.000    21501883.477 7  88046591.677 7     -1987.716          47.000
G11  19872715.586 8 104431836.759 8      -327.391          48.000    19872714.812 8  81375464.805 8      -255.110          49.000
G14  21991767.867 6 115567577.684 6       745.891          36.000
G22  20960665.922 8 110149065.860 8      1250.363          51.000    20960662.688 8  85830395.597 8       974.309          49.000
G27  23951463.680 6 125865707.858 6     -3692.434          38.000    23951466.953 6  98077162.430 6     -2877.218          38.000
G32  22104015.219 6 116157391.978 6      -807.098          36.000    22104054.438 5  90512264.744 5      -628.889          33.000
R06  20368359.180 6 108689457.411 6     -2672.133          37.000
R07  19416023.422 8 103935538.000 8      1357.891          51.000    19416027.078 8  80838794.661 8      1056.137          48.000
R21  20747698.281 8 111025121.084 8     -2551.406          51.000    20747701.328 7  86352857.972 7     -1984.427          46.000
R22  19458936.031 7 103873119.862 7      1215.371          42.000    19458935.789 5  80790207.997 5       945.286          34.000
C19  21635224.320 8 112660419.414 8      -555.414          51.000
C20  25050765.273 5 130445854.025 5     -2893.410          32.000
C22  23260016.203 8 121120969.096 8      2437.449          50.000
C29  24513413.469 5 127647770.787 5     -2994.520          32.000
E07  23998895.500 8 126115136.112 8       413.918          50.000    23998899.555 8  96633628.343 8       317.176          51.000
E13  26123997.461 5 137282526.446 5     -2220.109          33.000    26123998.102 5 105190513.395 5     -1701.443          31.000
E26  22385689.211 8 117637590.764 8      -263.406          51.000    22385693.430 8  90137898.889 8      -201.858          51.000
> 2020 05 09 19 11 30.0000000  0 18        .000000000000
G03  22226539.484 8 116801269.438 8      2768.578          49.000    22226541.648 8  91014000.552 8      2157.334          48.000
G08  21516474.898 8 113069840.005 8     -2562.695          50.000    21516477.742 8  88106350.130 8     -1996.905          50.000
G11  19874628.383 8 104441888.993 8      -343.375          49.000    19874627.633 8  81383297.718 8      -267.565          49.000
G14  21987551.141 6 115545418.957 6       730.273          37.000
G22  20953557.047 8 110111711.110 8      1239.043          50.000    20953554.016 8  85801288.042 8       965.491          49.000
G27  23972548.938 6 125976511.320 6     -3695.570          37.000    23972551.977 6  98163502.748 6     -2879.668          36.000
G32  22108668.047 6 116181843.091 6      -824.047          40.000    22108704.781 5  90531318.011 5      -642.105          32.000
R06  20383423.750 5 108769842.846 5     -2688.566          34.000
R07  19408474.195 8 103895125.625 8      1335.320          51.000    19408477.789 8  80807362.830 8      1038.582          48.000
R21  20762037.219 8 111101851.964 8     -2564.910          51.000    20762040.328 7  86412537.525 7     -1994.930          46.000
R22  19452143.430 6 103836865.613 6      1200.715          40.000    19452144.398 5  80762010.273 5       933.892          35.000
C19  21638458.172 8 112677258.300 8      -567.926          51.000
C20  25067441.148 5 130532685.897 5     -2896.383          32.000
C22  23245996.375 8 121047965.473 8      2428.621          50.000
C29  24530677.734 6 127737664.511 6     -2999.250          40.000
E07  23996564.867 8 126102888.539 8       401.797          51.000    23996569.055 8  96624243.864 8       307.807          51.000
E13                                                                  26136681.164 5 105241583.489 5     -1703.664          30.000
E26  22387208.211 8 117645573.322 8      -269.602          51.000    22387212.227 8  90144015.391 8      -206.596          51.000
> 2020 05 09 19 12  0.0000000  0 18        .000000000000
G03  22210762.867 8 116718362.170 8      2759.148          50.000    22210764.070 8  90949397.558 8      2149.989          50.000
G08  21531144.719 8 113146925.838 8     -2575.809          51.000    21531147.375 8  88166416.967 8     -2007.124          51.000
G11  19876640.156 8 104452460.972 8      -360.773          49.000    19876639.602 8  81391535.628 8      -281.122          49.000
G14  21983434.875 6 115523787.156 6       712.723          37.000
G22  20946520.539 8 110074736.029 8      1226.562          51.000    20946517.641 8  85772476.292 8       955.763          49.000
G27  23993658.633 5 126087441.016 5     -3698.961          33.000    23993661.164 5  98249941.350 5     -2882.310          32.000
G32  22113427.617 6 116206853.770 6      -842.691          38.000    22113463.906 5  90550937.311 5      -656.627          31.000
R06  20398584.258 5 108850754.920 5     -2705.113          31.000
R07  19401058.617 8 103855429.371 8      1311.559          51.000    19401062.070 8  80776487.968 8      1020.101          48.000
R21  20776459.484 8 111179028.133 8     -2579.633          51.000    20776462.383 7  86472563.386 7     -2006.381          45.000
R22  19445442.969 6 103801101.444 6      1184.164          40.000    19445445.180 6  80734193.665 6       921.016          37.000
C19  21641771.844 8 112694512.907 8      -581.781          51.000
C20  25084142.414 5 130619656.546 5     -2901.258          33.000
C22  23232034.703 8 120975265.886 8      2418.555          49.000
C29  24547977.445 7 127827738.849 7     -3005.188          44.000
E07  23994312.250 8 126091049.532 8       388.188          51.000    23994315.828 8  96615172.421 8       297.397          51.000
E13                                                                  26149392.156 5 105292764.963 5     -1707.151          32.000
E26  22388771.023 8 117653785.703 8      -277.277          51.000    22388774.859 8  90150307.990 8      -212.420          51.000
> 2020 05 09 19 12 30.0000000  0 17        .000000000000
G03  22195042.117 7 116635748.766 7      2747.977          47.000    22195043.531 8  90885023.515 8      2141.280          48.000
G08  21545890.008 8 113224409.652 8     -2590.324          51.000    21545892.570 8  88226793.944 8     -2018.434          51.000
G11  19878751.805 8 104463557.495 8      -379.504          49.000    19878751.375 8  81400182.271 8      -295.717          49.000
G14  21979420.383 5 115502687.300 5       694.328          32.000
G22  20939557.492 8 110038144.730 8      1212.398          51.000    20939554.570 8  85743963.577 8       944.726          50.000
G27  24014793.047 5 126198498.995 5     -3704.680          34.000    24014793.648 5  98336479.877 5     -2886.769          32.000
G32  22118294.484 6 116232427.416 6      -862.621          41.000    22118302.094 6  90570720.416 6      -672.172          40.000
R06  20413842.102 5 108932174.500 5     -2723.465          32.000
R07  19393777.953 8 103816454.442 8      1286.262          51.000    19393781.023 7  80746174.138 7      1000.426          47.000
R21  20790965.719 8 111256653.087 8     -2595.926          50.000    20790968.445 7  86532938.326 7     -2019.053          46.000
R22  19438836.078 7 103765833.585 7      1166.293          44.000    19438838.391 6  80706763.112 6       907.117          37.000
C19  21645165.773 8 112712186.272 8      -596.988          51.000
C20  25100871.688 6 130706768.099 6     -2907.477          36.000
C22  23218132.352 8 120902875.531 8      2406.988          49.000
C29  24565312.469 7 127917996.661 7     -3012.375          47.000
E07  23992138.164 8 126079623.216 8       373.066          51.000    23992141.047 8  96606417.205 8       285.931          50.000
E26  22390378.523 8 117662232.608 8      -286.406          51.000    22390382.203 8  90156780.298 8      -219.385          51.000
> 2020 05 09 19 13  0.0000000  0 18        .000000000000
G03  22179384.023 8 116553465.741 8      2738.113          48.000    22179386.375 7  90820906.881 7      2133.595          47.000
G08  21560716.945 8 113302325.191 8     -2603.551          51.000    21560719.766 8  88287507.332 8     -2028.741          51.000
G11  19880970.164 8 104475214.454 8      -397.168          50.000    19880969.648 8  81409265.612 8      -309.482          50.000
G14  21975513.516 6 115482155.972 6       675.832          38.000
G22  20932674.328 8 110001972.573 8      1199.473          51.000    20932671.375 8  85715777.497 8       934.654          50.000
G27  24035954.742 5 126309793.072 5     -3709.129          33.000    24035957.648 4  98423234.953 4     -2890.221          29.000
G32  22123274.789 6 116258598.681 6      -881.457          41.000    22123285.359 6  90591113.670 6      -686.850          39.000
R06  20429202.828 5 109014138.794 5     -2740.754          30.000
R07  19386638.828 8 103778237.543 8      1262.059          51.000    19386641.336 7  80716449.920 7       981.601          46.000
R08  22307550.227 4 119455912.111 4      4076.680          29.000    22307553.992 5  92910163.139 5      3170.757          33.000
R21  20805562.055 8 111334761.923 8     -2610.977          51.000    20805564.891 7  86593689.604 7     -2030.760          46.000
R22  19432329.281 7 103731100.688 7      1149.656          43.000    19432332.727 6  80679748.669 6       894.174          40.000
C19  21648646.828 8 112730312.501 8      -610.938          51.000
C20  25117634.469 6 130794053.890 6     -2911.277          36.000
C22  23204296.719 8 120830830.665 8      2396.535          49.000
C29  24582689.562 8 128008471.915 8     -3018.590          49.000
E07  23990049.250 8 126068645.086 8       359.254          51.000    23990051.727 8  96598005.435 8       275.287          50.000
E26  22392037.562 8 117670950.121 8      -294.289          51.000    22392041.031 8  90163459.955 8      -225.494          51.000
> 2020 05 09 19 13 30.0000000  0 18        .000000000000
G03  22163778.539 8 116471458.606 8      2726.949          48.000    22163781.125 8  90757005.259 8      2124.899          48.000
G08  21575614.258 8 113380615.038 8     -2617.973          48.000    21575617.906 8  88348512.380 8     -2039.979          48.000
G11  19883284.625 8 104487376.595 8      -415.863          50.000    19883283.750 8  81418742.603 8      -324.049          50.000
G14  21971705.148 6 115462138.631 6       657.074          36.000
G22  20925860.320 8 109966164.025 8      1185.496          51.000    20925857.344 8  85687874.762 8       923.763          50.000
G27  24057137.125 5 126421108.661 5     -3714.945          33.000
G32  22128357.938 6 116285311.116 6      -901.238          38.000    22128360.164 6  90611928.517 6      -702.264          39.000
R06  20444655.727 5 109096597.762 5     -2760.023          31.000
R07  19379630.758 8 103740722.836 8      1236.727          50.000    19379632.812 7  80687271.825 7       961.898          46.000
R08  22284729.312 4 119333742.006 4      4065.449          28.000    22284739.141 5  92815143.033 5      3162.016          35.000
R21  20820238.039 8 111413297.185 8     -2626.965          51.000    20820241.164 7  86654772.557 7     -2043.198          47.000
R22  19425912.961 7 103696848.803 7      1131.566          45.000    19425917.438 6  80653108.276 6       880.107          41.000
C19  21652203.758 8 112748835.544 8      -626.055          51.000
C20  25134419.805 5 130881457.337 5     -2917.402          35.000
C22  23190517.656 8 120759077.388 8      2384.934          50.000
C29  24600097.594 8 128099108.520 8     -3025.938          49.000
E07  23988035.141 8 126058059.699 8       344.164          51.000    23988037.297 8  96589894.584 8       263.695          50.000
E26  22393737.586 8 117679883.384 8      -303.527          51.000    22393740.914 8  90170304.919 8      -232.531          51.000
> 2020 05 09 19 14  0.0000000  0 18        .000000000000
G03  22148229.836 7 116389749.396 7      2719.219          47.000    22148232.203 8  90693335.817 8      2118.875          48.000
G08  21590586.406 8 113459298.230 8     -2628.781          48.000    21590590.625 8  88409823.944 8     -2048.401          48.000
G11  19885699.422 8 104500065.671 8      -431.223          50.000    19885698.062 8  81428630.195 8      -336.018          50.000
G14  21967997.906 5 115442656.993 5       641.289          34.000
G22  20919119.438 8 109930740.110 8      1174.953          51.000    20919116.430 8  85660271.710 8       915.548          50.000
G32  22133548.234 6 116312584.909 6      -917.977          39.000    22133552.578 6  90633180.867 6      -715.300          38.000
R06  20460203.906 5 109179564.145 5     -2773.656          33.000
R07  19372757.500 8 103703932.430 8      1214.824          49.000    19372760.125 7  80658657.110 7       944.866          47.000
R08  22261977.898 5 119211867.923 5      4058.375          35.000    22261984.031 6  92720351.695 6      3156.517          36.000
R21  20834998.164 8 111492279.304 8     -2639.609          51.000    20835001.086 7  86716203.086 7     -2053.030          47.000
R22  19419591.320 7 103663101.611 7      1116.969          44.000    19419595.391 6  80626860.468 6       868.753          41.000
C19  21655840.766 8 112767775.113 8      -637.672          51.000
C20  25151231.273 5 130968997.347 5     -2919.629          32.000
C22  23176799.133 8 120687637.554 8      2376.629          50.000
C29  24617539.531 8 128189926.073 8     -3029.688          49.000
E07  23986099.578 8 126047887.965 8       332.773          51.000    23986101.469 8  96582100.682 8       254.907          49.000
E13  26200499.273 5 137684550.300 5     -2246.801          35.000
E26  22395482.594 8 117689053.908 8      -309.102          51.000    22395486.070 8  90177331.678 8      -236.796          51.000
> 2020 05 09 19 14 30.0000000  0 18        .000000000000
G03  22132736.352 7 116308331.140 7      2708.355          47.000    22132738.766 8  90629893.064 8      2110.407          48.000
G08  21605632.125 8 113538365.303 8     -2642.723          48.000    21605636.000 8  88471434.639 8     -2059.264          48.000
G11  19888212.945 8 104513273.807 8      -449.602          49.000    19888211.469 8  81438922.241 8      -350.339          49.000
G14  21964391.242 5 115423703.994 5       622.324          35.000
G22  20912450.211 8 109895692.993 8      1161.297          51.000    20912447.008 8  85632962.264 8       904.907          50.000
G32  22138843.680 6 116340411.138 6      -937.359          41.000    22138848.109 6  90654863.629 6      -730.413          40.000
R06  20475846.039 5 109263026.606 5     -2791.215          33.000
R07  19366018.133 8 103667858.849 8      1189.867          49.000    19366021.375 7  80630599.908 7       925.452          46.000
R08  22239274.383 5 119090277.866 5      4047.820          34.000    22239278.312 6  92625781.793 6      3148.311          36.000
R21  20849839.828 8 111571699.116 8     -2655.305          51.000    20849843.008 8  86777974.000 8     -2065.237          48.000
R22  19413362.945 7 103629853.270 7      1099.238          46.000    19413366.531 6  80601000.629 6       854.963          40.000
C19  21659556.250 8 112787122.175 8      -652.352          51.000
C20  25168066.766 5 131056664.270 5     -2925.543          33.000
C22  23163139.273 8 120616504.298 8      2365.246          51.000
C29  24635012.656 7 128280915.463 7     -3036.418          45.000
E07  23984241.031 8 126038121.882 8       318.051          51.000    23984243.102 8  96574617.612 8       243.773          50.000
E13  26213347.266 5 137752067.558 5     -2252.324          34.000
E26  22397271.344 8 117698454.318 8      -317.879          51.000    22397274.844 8  90184534.578 8      -243.531          51.000
> 2020 05 09 19 15  0.0000000  0 18        .000000000000
G03  22117304.914 8 116227238.420 8      2696.617          48.000    22117307.773 8  90566703.947 8      2101.260          48.000
G08  21620757.461 8 113617847.887 8     -2657.203          50.000    21620759.945 8  88533369.101 8     -2070.548          50.000
G11  19890831.656 8 104527034.942 8      -468.941          49.000    19890830.148 8  81449645.195 8      -365.409          49.000
G14  21960892.133 5 115405313.838 5       602.305          34.000
G22  20905859.141 8 109861056.318 8      1146.773          51.000    20905855.875 8  85605972.661 8       893.590          50.000
G27  24120830.945 5 126755821.595 5     -3727.066          31.000    24120833.539 5  98770772.025 5     -2904.208          33.000
G32  22144250.531 5 116368822.421 5      -957.113          30.000    22144252.133 5  90677002.218 5      -745.800          30.000
R07  19359419.055 8 103632536.671 8      1163.914          48.000    19359422.727 7  80603127.091 7       905.270          46.000
R08  22216627.812 5 118969009.039 5      4036.141          33.000    22216632.133 5  92531461.696 5      3139.224          35.000
R21  20864769.398 8 111651589.891 8     -2671.734          51.000    20864772.156 7  86840111.249 7     -2078.016          45.000
R22  19407234.883 7 103597140.195 7      1080.387          47.000    19407237.234 6  80575557.161 6       840.301          41.000
C19  21663356.008 8 112806908.819 8      -667.789          51.000
C20  25184933.109 5 131144489.360 5     -2931.391          34.000
C22  23149544.312 8 120545711.913 8      2353.059          50.000
C29  24652522.719 7 128372108.747 7     -3043.969          43.000
E07  23982466.180 8 126028794.948 8       302.703          51.000    23982468.633 8  96567471.036 8       231.923          50.000
E13  26226216.109 5 137819694.922 5     -2259.152          33.000
E26  22399110.461 8 117708118.674 8      -327.438          51.000    22399113.688 8  90191939.738 8      -250.885          51.000
> 2020 05 09 19 15 30.0000000  0 19        .000000000000
G03  22101923.047 8 116146406.496 8      2687.656          48.000    22101926.648 8  90503718.046 8      2094.278          48.000
G08  21635949.227 8 113697677.962 8     -2669.285          51.000    21635950.023 8  88595574.326 8     -2079.966          51.000
G11  19893543.219 8 104541283.757 8      -485.512          50.000    19893541.688 8  81460748.160 8      -378.321          49.000
G14  21957487.328 5 115387421.728 5       585.152          35.000
G22  20899333.516 8 109826763.889 8      1134.879          51.000    20899330.508 8  85579251.318 8       884.321          51.000
G27  24142102.742 5 126867607.294 5     -3729.152          30.000    24142103.391 5  98857872.961 5     -2905.839          30.000
G32  22149759.516 6 116397799.792 6      -975.668          40.000    22149766.289 6  90699581.760 6      -760.261          40.000
R06  20507414.594 5 109431493.643 5     -2824.867          32.000
R07  19352948.312 8 103597899.583 8      1140.832          50.000    19352952.492 7  80576187.179 7       887.314          47.000
R08  22194028.320 4 118847997.438 4      4027.367          29.000    22194033.594 5  92437341.669 5      3132.406          34.000
R21  20879773.547 8 111731883.509 8     -2685.602          49.000    20879776.422 7  86902561.855 7     -2088.801          45.000
R22  19401195.188 8 103564897.851 8      1064.426          48.000    19401197.039 6  80550479.810 6       827.890          41.000
C19  21667227.578 8 112827068.860 8      -680.613          51.000
C20  25201817.656 5 131232405.822 5     -2934.672          33.000
C22  23136002.000 8 120475196.318 8      2343.609          49.000
C29  24670060.148 7 128463439.581 7     -3049.055          45.000
E07  23980762.469 8 126019841.422 8       289.766          51.000    23980765.203 8  96560610.556 8       221.992          50.000
E13  26239105.234 5 137887431.393 5     -2262.426          34.000
E26  22400987.422 8 117717981.893 8      -334.445          51.000    22400990.414 8  90199497.266 8      -256.251          51.000
> 2020 05 09 19 16  0.0000000  0 17        .000000000000
G03  22086617.703 8 116065976.836 8      2677.121          48.000    22086621.281 8  90441045.604 8      2086.068          48.000
G08  21651233.484 8 113777994.161 8     -2682.383          51.000    21651233.539 8  88658158.374 8     -2090.168          50.000
G11  19896374.352 8 104556161.248 8      -503.551          49.000    19896372.609 8  81472341.004 8      -392.377          49.000
G14  21954204.398 6 115370168.949 6       567.066          36.000
G22  20892900.188 8 109792956.519 8      1121.660          51.000    20892897.383 8  85552907.934 8       874.021          51.000
G27  24163414.109 5 126979598.246 5     -3734.605          30.000    24163414.250 4  98945142.744 4     -2910.085          28.000
G32  22155387.891 6 116427387.243 6      -994.328          40.000    22155393.945 6  90722636.863 6      -774.807          38.000
R07  19346632.812 8 103564091.099 8      1116.055          49.000    19346636.648 7  80549891.690 7       868.043          46.000
R08  22171507.453 4 118727389.390 4      4016.555          29.000    22171510.133 4  92343535.453 4      3123.993          29.000
R21  20894879.461 8 111812722.213 8     -2700.766          50.000    20894882.727 7  86965436.360 7     -2100.599          45.000
R22  19395270.711 7 103533271.615 7      1046.734          47.000    19395272.578 7  80525881.616 7       814.127          42.000
C19  21671197.438 8 112847740.285 8      -694.625          51.000
C20  25218744.758 5 131320551.019 5     -2938.535          33.000
C22  23122539.500 8 120405097.699 8      2332.508          49.000
C29  24687652.180 7 128555045.945 7     -3055.203          45.000
E07  23979156.375 8 126011401.604 8       275.699          51.000    23979159.414 8  96554143.706 8       211.184          51.000
E26  22402928.945 8 117728184.935 8      -342.828          51.000    22402931.836 8  90207315.180 8      -262.722          51.000
> 2020 05 09 19 16 30.0000000  0 16        .000000000000
G03  22071364.570 8 115985821.015 8      2667.508          49.000    22071367.148 8  90378586.585 8      2078.578          49.000
G08  21666585.109 8 113858665.412 8     -2694.707          50.000    21666585.609 8  88721019.072 8     -2099.772          50.000
G11  19899300.508 8 104571537.928 8      -520.680          50.000    19899298.414 8  81484322.818 8      -405.724          49.000
G14  21951017.930 5 115353426.593 5       550.277          35.000
G22  20886534.562 8 109759504.431 8      1109.367          51.000    20886531.625 8  85526841.386 8       864.442          50.000
G27  24184739.516 5 127091638.314 5     -3737.078          34.000    24184741.438 5  99032469.261 5     -2912.012          32.000
R07  19340447.250 8 103530980.028 8      1092.277          50.000    19340451.219 8  80524138.653 8       849.552          48.000
R08  22149039.852 5 118607055.641 5      4006.758          32.000    22149038.906 4  92249942.738 4      3116.376          29.000
R21  20910063.547 8 111893973.336 8     -2715.070          51.000    20910065.852 7  87028631.649 7     -2111.721          45.000
R22  19389437.281 8 103502131.964 8      1029.992          48.000    19389439.562 7  80501661.898 7       801.108          42.000
C19  21675240.578 8 112868793.797 8      -707.922          51.000
C20  25235689.266 5 131408795.136 5     -2942.992          34.000
C22  23109133.070 8 120335288.885 8      2322.383          49.000
C29  24705272.977 7 128646798.560 7     -3060.637          47.000
E07  23977623.422 8 126003346.133 8       262.234          51.000    23977626.586 8  96547971.346 8       200.975          51.000
E26  22404910.633 8 117738599.042 8      -350.465          51.000    22404913.578 8  90215294.809 8      -268.568          51.000
> 2020 05 09 19 17  0.0000000  0 16        .000000000000
G03  22056164.102 8 115905941.910 8      2657.199          48.000    22056165.961 8  90316343.195 8      2070.548          49.000
G08  21682003.742 8 113939691.544 8     -2707.648          48.000    21682005.320 8  88784156.282 8     -2109.856          48.000
G11  19902322.094 8 104587416.071 8      -538.426          50.000    19902320.016 8  81496695.394 8      -419.553          50.000
G14  21947929.828 5 115337197.745 5       531.480          33.000
G22  20880236.648 8 109726409.308 8      1096.352          51.000    20880233.703 8  85501053.009 8       854.300          50.000
G27  24206083.914 6 127203798.678 6     -3740.844          38.000    24206085.562 6  99119866.889 6     -2914.946          37.000
R07  19334393.102 8 103498568.699 8      1067.887          50.000    19334396.727 7  80498929.857 7       830.579          47.000
R08  22126623.266 5 118487001.282 5      3996.141          32.000    22126621.992 5  92156567.364 5      3108.118          30.000
R21  20925325.062 8 111975637.431 8     -2729.938          51.000    20925326.555 7  87092148.127 7     -2123.288          46.000
R22  19383695.656 7 103471483.130 7      1012.590          47.000    19383697.617 7  80477823.916 7       787.570          42.000
C19  21679357.125 8 112890230.105 8      -721.785          51.000
C20  25252652.727 5 131497138.128 5     -2947.219          34.000
C22  23095783.602 8 120265772.725 8      2311.535          50.000
C29  24722922.312 8 128738697.944 8     -3066.590          48.000
E07  23976164.086 8 125995676.760 8       248.359          51.000    23976167.242 8  96542094.821 8       190.313          51.000
E26  22406933.047 8 117749226.631 8      -358.707          51.000    22406935.969 8  90223438.020 8      -274.791          51.000
> 2020 05 09 19 17 30.0000000  0 17        .000000000000
G03  22041001.586 7 115826264.483 7      2651.797          46.000    22041004.148 7  90254256.921 7      2066.335          46.000
G08  21697474.656 8 114020994.681 8     -2715.348          48.000    21697477.273 8  88847509.346 8     -2115.855          48.000
G11  19905424.586 8 104603719.893 8      -551.238          51.000    19905422.836 8  81509399.665 8      -429.536          50.000
G14  21944924.766 5 115321406.957 5       517.875          32.000
G22  20873991.977 8 109693595.383 8      1088.445          51.000    20873989.398 8  85475483.743 8       848.139          50.000
G27  24227429.078 6 127315963.723 6     -3739.059          37.000    24227429.727 6  99207268.165 6     -2913.555          37.000
G32  22172886.930 5 116519306.938 5     -1045.141          34.000
R07  19328455.148 8 103466780.259 8      1048.551          50.000    19328457.617 7  80474205.518 7       815.539          46.000
R08  22104241.453 4 118367151.732 4      3990.805          28.000    22104240.297 5  92063351.346 5      3103.965          31.000
R21  20940648.977 8 112057636.071 8     -2739.602          51.000    20940650.266 7  87155924.820 7     -2130.801          47.000
R22  19378032.133 8 103441250.482 8      1000.164          48.000    19378033.836 7  80454309.650 7       777.905          43.000
C19  21683532.594 8 112911972.691 8      -730.523          51.000
C20  25269620.562 5 131585502.915 5     -2946.383          34.000
C22  23082476.734 8 120196474.919 8      2305.629          51.000
C29  24740585.180 8 128830667.601 8     -3067.461          48.000
E07  23974763.695 8 125988317.365 8       239.461          51.000    23974767.023 8  96536455.816 8       183.483          51.000
E26  22408981.836 8 117759992.258 8      -361.789          51.000    22408984.625 8  90231687.010 8      -277.197          51.000
> 2020 05 09 19 18  0.0000000  0 16        .000000000000
G03  22025921.992 7 115747023.867 7      2636.828          47.000    22025925.062 7  90192510.983 7      2054.671          47.000
G08  21713042.867 8 114102806.895 8     -2732.816          49.000    21713045.734 8  88911259.122 8     -2129.467          49.000
G11  19908652.812 8 104620684.102 8      -573.727          51.000    19908651.289 8  81522618.515 8      -447.060          50.000
G22  20867845.492 8 109661296.835 8      1070.746          51.000    20867843.078 8  85450316.055 8       834.348          49.000
G27  24248818.453 5 127428365.645 5     -3747.750          34.000    24248818.922 5  99294853.978 5     -2920.325          34.000
G32  22178946.719 5 116551128.708 5     -1068.098          33.000
R07  19322678.133 8 103435853.294 8      1019.297          50.000    19322679.977 7  80450151.228 7       792.786          47.000
R21  20956079.469 8 112140206.591 8     -2759.051          50.000    20956081.055 7  87220146.290 7     -2145.928          46.000
R22  19372491.484 8 103411673.790 8       977.723          49.000    19372493.500 7  80431305.543 7       760.451          44.000
C19  21687811.023 8 112934252.375 8      -748.805          51.000
C20  25286637.062 5 131674119.736 5     -2955.008          35.000
C22  23069256.273 8 120127628.470 8      2290.148          51.000
C29  24758305.508 7 128922938.325 7     -3077.887          47.000
E07  23973466.664 8 125981501.920 8       220.816          51.000    23973470.250 8  96531233.614 8       169.242          51.000
E08  24605264.711 5 129301539.575 5     -2283.480          34.000
E26  22411101.484 8 117771130.599 8      -374.664          51.000    22411104.281 8  90240221.582 8      -287.116          51.000
> 2020 05 09 19 18 30.0000000  0 16        .000000000000
G03  22010899.523 8 115668080.140 8      2623.531          49.000    22010901.883 8  90130996.447 8      2044.313          49.000
G08  21728681.109 8 114184985.276 8     -2748.266          50.000    21728683.695 8  88975294.201 8     -2141.509          50.000
G11  19911979.945 8 104638167.972 8      -594.172          51.000    19911978.305 8  81536242.309 8      -462.988          50.000
G22  20861770.453 8 109629372.296 8      1055.074          51.000    20861767.695 8  85425439.813 8       822.136          49.000
G27  24270225.617 5 127540895.743 5     -3753.613          32.000    24270226.266 5  99382513.330 5     -2924.897          32.000
R07  19317035.578 8 103405644.678 8       992.102          49.000    19317036.914 7  80426655.657 7       771.635          46.000
R21  20971589.562 8 112223204.518 8     -2776.613          50.000    20971591.406 7  87284700.243 7     -2159.588          46.000
R22  19367047.500 8 103382612.634 8       957.238          50.000    19367049.336 7  80408702.448 7       744.522          44.000
C19  21692165.742 8 112956928.518 8      -765.242          51.000
C20  25303675.805 5 131762847.285 5     -2961.609          35.000
C22  23056095.141 8 120059094.883 8      2276.395          50.000
C29  24776055.836 7 129015369.412 7     -3086.609          46.000
E07  23972246.406 8 125975089.538 8       204.152          51.000    23972249.844 8  96526320.230 8       156.425          51.000
E08  24618323.453 6 129370167.293 6     -2294.297          36.000
E13  26317080.484 6 138297188.839 6     -2293.391          36.000
E26  22413265.312 8 117782501.410 8      -385.812          51.000    22413268.039 8  90248934.274 8      -295.590          51.000
> 2020 05 09 19 19  0.0000000  0 17        .000000000000
G03  21995942.070 8 115589475.879 8      2615.594          50.000    21995944.328 8  90069746.443 8      2038.128          50.000
G08  21744396.914 8 114267569.731 8     -2758.461          51.000    21744398.953 8  89039645.689 8     -2149.450          51.000
G11  19915413.898 8 104656213.310 8      -609.730          51.000    19915412.109 8  81550303.616 8      -475.115          50.000
G14  21936607.805 5 115277664.657 5       458.855          34.000
G22  20855774.828 8 109597863.360 8      1044.504          51.000    20855771.656 8  85400887.417 8       813.899          49.000
R07  19311534.266 8 103376197.449 8       970.043          49.000    19311535.578 7  80403752.273 7       754.478          47.000
R08  22037530.211 5 118010005.805 5      3953.664          34.000    22037522.914 6  91785504.398 6      3075.075          38.000
R21  20987186.828 8 112306671.234 8     -2788.918          48.000    20987189.789 8  87349618.786 8     -2169.158          48.000
R22  19361708.047 8 103354111.332 8       941.848          49.000    19361710.156 7  80386534.754 7       732.548          45.000
C19  21696604.367 8 112980041.148 8      -776.535          51.000
C20  25320744.211 5 131851725.142 5     -2964.430          34.000
C22  23043001.102 8 119990916.341 8      2267.695          48.000
C29  24793844.141 7 129108000.821 7     -3089.754          47.000
E07  23971110.781 8 125969121.696 8       192.562          51.000    23971114.102 8  96521747.468 8       147.581          51.000
E08  24631433.586 6 129439064.354 6     -2300.168          37.000
E13  26330175.039 5 138366004.150 5     -2295.336          31.000    26330180.688 5 106020722.213 5     -1759.336          33.000
E26  22415481.461 8 117794146.889 8      -391.625          51.000    22415483.656 8  90257857.436 8      -300.106          51.000
> 2020 05 09 19 19 30.0000000  0 18        .000000000000
G03  21981040.070 8 115511163.000 8      2605.242          49.000    21981043.016 8  90008723.451 8      2030.059          49.000
G08  21760180.398 8 114350508.876 8     -2770.836          51.000    21760182.164 8  89104273.558 8     -2159.096          51.000
G11  19918945.312 8 104674771.404 8      -627.457          51.000    19918943.719 8  81564764.462 8      -488.928          50.000
G14  21934040.047 6 115264180.852 6       440.559          36.000
G22  20849848.984 8 109566720.940 8      1031.680          51.000    20849845.531 8  85376620.632 8       803.909          49.000
G32  22197714.891 5 116649798.018 5     -1123.414          31.000
R07  19306165.945 8 103347461.600 8       945.656          50.000    19306167.789 7  80381402.178 7       735.513          47.000
R08  22015407.727 6 117891564.069 6      3942.590          38.000    22015405.367 6  91693383.160 6      3066.462          36.000
R21  21002862.148 8 112390555.532 8     -2803.375          49.000    21002866.008 7  87414862.118 7     -2180.403          47.000
R22  19356464.594 8 103326122.351 8       924.062          50.000    19356466.883 7  80364765.548 7       718.715          45.000
C19  21701116.977 8 113003540.405 8      -790.047          51.000
C20  25337832.047 5 131940702.817 5     -2968.273          34.000
C22  23029966.227 8 119923045.132 8      2256.859          49.000
C29  24811661.859 8 129200782.689 8     -3095.625          48.000
E07  23970050.344 8 125963549.110 8       178.734          51.000    23970053.695 8  96517477.578 8       136.991          51.000
E08  24644585.633 6 129508179.961 6     -2308.027          36.000
E13  26343292.367 5 138434937.031 5     -2300.758          33.000    26343300.164 5 106073550.855 5     -1762.900          34.000
E26  22417740.516 8 117806018.494 8      -399.820          51.000    22417742.266 8  90266953.862 8      -306.413          51.000
> 2020 05 09 19 20  0.0000000  0 18        .000000000000
G03  21966193.789 8 115433145.027 8      2595.699          48.000    21966197.297 7  89947930.215 7      2022.623          47.000
G08  21776031.422 8 114433803.710 8     -2782.176          51.000    21776033.047 8  89169178.590 8     -2167.932          51.000
G11  19922574.727 8 104693844.647 8      -644.102          50.000    19922573.430 8  81579626.725 8      -501.897          50.000
G14  21931574.656 6 115251226.676 6       423.172          38.000    21931580.086 4  89806149.591 4       329.747          29.000
G22  20843993.172 8 109535947.645 8      1019.773          51.000    20843989.383 8  85352641.481 8       794.629          49.000
G32  22204178.008 6 116683711.387 6     -1141.008          38.000
R07  19300930.883 8 103319439.989 8       922.281          50.000    19300932.969 7  80359607.610 7       717.330          46.000
R08  21993345.609 6 117773431.985 6      3932.793          36.000    21993344.773 5  91601502.685 5      3058.842          35.000
R21  21018616.445 8 112474858.899 8     -2816.914          50.000    21018619.773 7  87480431.420 7     -2190.933          46.000
R22  19351317.969 8 103298650.448 8       907.297          50.000    19351320.258 7  80343398.511 7       705.675          45.000
C19  21705704.227 8 113027427.630 8      -802.559          51.000
C20  25354939.070 5 132029781.160 5     -2970.754          33.000
C22  23016991.773 8 119855484.744 8      2247.039          50.000
C29  24829509.305 8 129293716.297 8     -3100.059          49.000
E07  23969065.711 8 125958374.214 8       165.996          51.000    23969068.773 8  96513512.396 8       127.213          51.000
E08  24657779.750 6 129577515.107 6     -2314.848          37.000
E13                                                                  26356441.438 5 106126474.501 5     -1765.672          34.000
E26  22420043.266 8 117818119.332 8      -406.996          51.000    22420044.930 8  90276225.929 8      -311.860          51.000
> 2020 05 09 19 20 30.0000000  0 18        .000000000000
G03  21951417.062 8 115355492.515 8      2584.402          49.000    21951419.914 8  89887421.780 8      2013.823          49.000
G08  21791962.688 8 114517521.980 8     -2795.617          51.000    21791964.312 8  89234413.587 8     -2178.403          51.000
G11  19926315.523 8 104713503.283 8      -663.012          49.000    19926314.250 8  81594945.143 8      -516.633          49.000
G14  21929224.047 6 115238872.701 6       403.574          38.000    21929222.742 5  89796523.103 5       314.476          32.000
G22  20838220.703 8 109505613.029 8      1005.910          51.000    20838216.711 8  85329004.135 8       783.826          49.000
G32  22210759.797 6 116718284.833 6     -1160.469          39.000    22210729.492 6  90949243.526 6      -904.267          36.000
R07  19295842.914 8 103292204.073 8       896.887          51.000    19295845.148 7  80338424.148 7       697.579          47.000
R08  21971355.508 5 117655683.452 5      3920.797          35.000    21971354.781 5  91509920.499 5      3049.509          33.000
R21  21034462.422 8 112559651.172 8     -2832.434          51.000    21034465.156 7  87546380.949 7     -2203.004          47.000
R22  19346281.977 8 103271768.593 8       888.266          51.000    19346284.219 7  80322490.407 7       690.873          46.000
C19  21710378.906 8 113051770.697 8      -816.992          51.000
C20  25372077.789 5 132119027.520 5     -2975.855          31.000
C22  23004091.055 8 119788305.213 8      2235.016          51.000
C29  24847399.172 8 129386869.493 8     -3106.828          50.000
E07  23968169.961 8 125953666.531 8       151.145          51.000    23968172.875 8  96509905.211 8       115.812          51.000
E08  24671029.172 6 129647137.943 6     -2323.488          37.000
E13                                                                  26369621.062 5 106179546.301 5     -1769.964          35.000
E26  22422403.055 8 117830519.671 8      -416.367          51.000    22422404.859 8  90285727.485 8      -319.041          51.000
> 2020 05 09 19 21  0.0000000  0 17        .000000000000
G03  21936692.039 8 115278111.828 8      2571.848          49.000    21936694.062 8  89827125.204 8      2004.037          49.000
G08  21807955.750 8 114601566.861 8     -2809.836          50.000    21807957.891 8  89299903.087 8     -2189.483          50.000
G11  19930149.641 8 104733652.583 8      -682.719          49.000    19930148.266 8  81610645.904 8      -531.986          48.000
G14  21926969.883 6 115227024.639 6       383.328          36.000    21926969.688 5  89787290.797 5       298.691          33.000
G22  20832513.539 8 109475622.052 8       991.055          51.000    20832509.961 8  85305634.540 8       772.250          51.000
G32  22217406.477 6 116753290.230 6     -1180.816          39.000    22217407.078 6  90976577.887 6      -920.117          38.000
R07  19290883.984 8 103265657.373 8       870.457          51.000    19290886.258 7  80317776.739 7       677.022          47.000
R21  21050381.555 8 112644834.832 8     -2848.988          51.000    21050383.531 7  87612634.860 7     -2215.883          46.000
R22  19341338.805 8 103245383.115 8       868.270          50.000    19341341.477 7  80301968.363 7       675.321          46.000
C19  21715122.703 8 113076474.672 8      -832.344          51.000
C20  25389229.812 4 132208346.477 4     -2981.809          29.000
C22  22991245.906 8 119721413.808 8      2221.992          51.000
C29  24865312.844 8 129480147.372 8     -3114.215          51.000
E07  23967344.906 8 125949331.286 8       135.434          51.000    23967348.117 8  96506583.423 8       103.759          51.000
E08  24684315.000 6 129716952.172 6     -2332.992          36.000
E13                                                                  26382819.961 5 106232693.604 5     -1774.855          35.000
E26  22424801.773 8 117843125.490 8      -426.562          51.000    22424804.141 8  90295386.472 8      -326.784          51.000
> 2020 05 09 19 21 30.0000000  0 16        .000000000000
G03  21922038.766 8 115201109.816 8      2564.906          48.000    21922041.398 8  89767123.667 8      1998.631          48.000
G08  21824030.312 8 114686042.287 8     -2818.543          48.000    21824033.203 8  89365728.112 8     -2196.264          48.000
G11  19934097.320 8 104754398.636 8      -697.047          49.000    19934095.898 8  81626811.660 8      -543.150          49.000
G14  21924832.227 5 115215788.916 5       368.984          33.000
G22  20826891.758 8 109446080.578 8       981.715          51.000    20826889.039 8  85282615.217 8       764.973          51.000
R06  20704507.570 4 110483247.706 4     -3013.621          27.000
R07  19286074.023 8 103239908.037 8       849.551          51.000    19286076.445 8  80297749.510 8       660.765          48.000
R21  21066393.500 8 112730516.522 8     -2859.828          51.000    21066394.852 7  87679276.104 7     -2224.314          45.000
R22  19336509.141 8 103219603.653 8       853.805          51.000    19336512.156 7  80281917.662 7       664.070          47.000
C19  21719955.945 8 113101643.263 8      -842.277          51.000
C22  22978476.258 8 119654916.366 8      2214.473          51.000
C29  24883270.188 8 129573653.581 8     -3116.227          51.000
E07  23966610.930 8 125945474.182 8       125.047          51.000    23966613.984 8  96503627.980 8        95.806          51.000
E08  24697657.133 6 129787062.135 6     -2337.508          36.000
E13                                                                  26396057.383 5 106285984.519 5     -1776.151          33.000
E26  22427259.789 8 117856043.224 8      -431.316          51.000    22427262.602 8  90305284.466 8      -330.537          51.000
> 2020 05 09 19 22  0.0000000  0 18        .000000000000
G03  21907427.234 8 115124326.597 8      2554.715          50.000    21907430.570 8  89707292.599 8      1990.687          50.000
G08  21840155.086 7 114770785.143 7     -2830.152          47.000    21840159.281 7  89431761.529 7     -2205.314          47.000
G11  19938128.062 8 104775581.115 8      -714.367          49.000    19938126.758 8  81643317.483 8      -556.650          49.000
G14  21922791.453 5 115205008.357 5       350.684          32.000
G22  20821325.000 8 109416827.722 8       969.203          51.000    20821322.742 8  85259820.792 8       755.223          51.000
G27  24420626.023 5 128331246.388 5     -3772.082          31.000
G32  22231105.742 6 116825229.408 6     -1213.266          40.000    22231099.320 6  91032677.745 6      -945.396          37.000
R07  19281382.352 8 103214792.614 8       825.594          50.000    19281384.828 8  80278215.301 8       642.128          48.000
R08  21905730.086 5 117304199.225 5      3888.711          31.000
R21  21082467.664 8 112816531.555 8     -2873.758          51.000    21082468.648 7  87746176.669 7     -2235.145          46.000
R22  19331763.055 8 103194269.003 8       835.977          51.000    19331766.320 8  80262212.928 8       650.204          48.000
C19  21724847.273 8 113127115.874 8      -855.211          50.000
C22  22965751.516 8 119588654.549 8      2203.602          51.000
C29  24901240.133 8 129667227.576 8     -3121.348          49.000
E07  23965937.328 8 125941934.228 8       111.598          51.000    23965940.078 8  96500915.546 8        85.477          51.000
E08  24711024.492 6 129857305.363 6     -2344.688          36.000
E13                                                                  26409302.781 5 106339318.594 5     -1779.219          31.000
E26  22429746.641 8 117869112.667 8      -439.320          51.000    22429749.461 8  90315298.708 8      -336.607          51.000
> 2020 05 09 19 22 30.0000000  0 16        .000000000000
G03  21892892.516 8 115047946.003 8      2534.211          50.000    21892895.273 8  89647775.299 8      1974.713          50.000
G08  21856366.039 8 114855976.776 8     -2852.070          48.000    21856370.367 8  89498144.615 8     -2222.392          48.000
G11  19942276.711 8 104797382.876 8      -741.914          49.000    19942275.445 8  81660305.847 8      -578.115          49.000
G22  20815848.172 8 109388046.257 8       946.508          51.000    20815845.609 8  85237393.681 8       737.539          50.000
G27  24442193.508 5 128444569.581 5     -3784.844          32.000    24442189.141 5 100086685.559 5     -2949.232          32.000
G32  22238073.086 6 116861870.294 6     -1241.676          36.000    22238076.086 5  91061208.069 5      -967.537          35.000
R07  19276843.516 8 103190497.135 8       791.172          50.000    19276846.711 8  80259318.843 8       615.356          48.000
R08  21883994.109 5 117187811.149 5      3867.273          35.000
R21  21098638.359 8 112903064.732 8     -2898.156          51.000    21098640.000 7  87813480.210 7     -2254.122          47.000
R22  19327135.531 8 103169567.404 8       807.852          51.000    19327139.328 8  80243000.561 8       628.329          48.000
C19  21729831.914 8 113153072.653 8      -878.129          51.000
C22  22953106.773 8 119522810.521 8      2182.977          51.000
C29  24919256.984 7 129761049.363 7     -3136.398          47.000
E07  23965358.789 8 125938894.195 8        87.988          51.000    23965361.750 8  96498586.178 8        67.426          51.000
E08  24724451.625 5 129927863.264 5     -2362.543          34.000
E26  22432297.336 8 117882517.303 8      -457.371          51.000    22432299.820 8  90325569.801 8      -350.492          51.000
> 2020 05 09 19 23  0.0000000  0 17        .000000000000
G03  21878429.328 8 114971941.915 8      2534.777          48.000    21878431.039 8  89588551.380 8      1975.151          48.000
G08  21872657.641 8 114941587.978 8     -2853.008          50.000    21872660.953 8  89564854.626 8     -2223.126          50.000
G11  19946538.258 8 104819776.948 8      -748.707          50.000    19946536.742 8  81677755.765 8      -583.408          49.000
G14  21919031.562 5 115185303.124 5       315.996          33.000
G22  20810455.820 8 109359709.081 8       944.801          51.000    20810452.852 8  85215312.797 8       736.208          51.000
G27  24463786.688 5 128558064.637 5     -3776.988          31.000    24463781.180 5 100175102.983 5     -2943.105          32.000
G32  22245184.797 6 116899246.031 6     -1248.012          38.000    22245182.195 5  91090332.051 5      -972.480          35.000
R07  19272452.680 8 103166994.351 8       778.043          48.000    19272456.336 7  80241038.908 7       605.145          47.000
R08  21862337.695 5 117071827.876 5      3867.105          33.000    21862335.070 4  91055853.377 4      3007.752          27.000
R21  21114900.219 8 112990087.236 8     -2901.113          49.000    21114902.516 7  87881164.362 7     -2256.421          46.000
R22  19322621.836 8 103145473.219 8       800.758          51.000    19322625.352 8  80224260.650 8       622.812          48.000
C19  21734904.102 8 113179485.472 8      -880.441          50.000
C22  22940537.352 8 119457358.380 8      2182.777          51.000
C29  24937315.305 7 129855090.882 7     -3130.816          45.000
E07  23964870.234 8 125936326.744 8        85.242          51.000    23964873.219 8  96496618.925 8        65.339          51.000
E08  24737933.125 5 129998715.075 5     -2358.949          32.000
E26  22434906.867 8 117896230.621 8      -454.625          51.000    22434909.438 8  90336077.410 8      -348.403          51.000
> 2020 05 09 19 23 30.0000000  0 16        .000000000000
G03  21864011.906 8 114896178.293 8      2520.719          49.000    21864013.797 8  89529514.816 8      1964.199          49.000
G08  21889002.891 8 115027479.806 8     -2868.422          51.000    21889004.992 8  89631783.278 8     -2235.137          51.000
G11  19950886.484 8 104842626.433 8      -770.051          50.000    19950884.750 8  81695560.552 8      -600.040          50.000
G14  21917307.297 6 115176221.532 6       294.238          36.000
G22  20805121.828 8 109331679.105 8       928.496          51.000    20805119.031 8  85193471.296 8       723.506          51.000
G27  24485380.156 5 128671540.497 5     -3783.754          31.000    24485375.258 4 100263525.665 4     -2948.377          28.000
G32  22252386.430 5 116937086.622 5     -1269.605          33.000    22252385.820 5  91119818.237 5      -989.297          32.000
R07  19268183.539 8 103144144.812 8       749.996          49.000    19268187.719 7  80223267.069 7       583.330          47.000
R08  21840731.875 6 116956112.126 6      3852.234          40.000    21840727.844 5  90965852.309 5      2996.185          30.000
R21  21131227.344 8 113077458.406 8     -2918.945          50.000    21131229.727 7  87949119.783 7     -2270.288          46.000
R22  19318196.414 8 103121849.870 8       778.887          51.000    19318200.023 8  80205886.922 8       605.801          49.000
C19  21740037.516 8 113206217.396 8      -897.105          50.000
C22  22928017.211 8 119392163.355 8      2168.160          51.000
C29  24955390.047 7 129949215.178 7     -3139.590          46.000
E07  23964445.516 8 125934094.703 8        68.137          51.000    23964448.250 8  96494908.668 8        52.170          51.000
E26  22437549.211 8 117910116.221 8      -466.473          51.000    22437552.234 8  90346717.031 8      -357.448          51.000
> 2020 05 09 19 24  0.0000000  0 17        .000000000000
G03  21849650.586 8 114820708.627 8      2504.285          50.000    21849653.562 8  89470707.300 8      1951.391          50.000
G08  21905410.711 8 115113702.567 8     -2885.977          50.000    21905411.469 8  89698969.781 8     -2248.816          50.000
G11  19955331.383 8 104865984.231 8      -793.621          50.000    19955329.562 8  81713761.424 8      -618.403          50.000
G14  21915681.961 6 115167680.819 6       269.781          36.000    21915683.648 5  89741039.978 5       210.210          34.000
G22  20799856.312 8 109304008.702 8       909.812          51.000    20799853.727 8  85171909.966 8       708.945          51.000
G27  24506984.602 4 128785073.255 4     -3792.082          29.000    24506987.297 4 100351994.541 4     -2954.869          24.000
G32  22259684.789 5 116975434.161 5     -1293.238          35.000    22259690.992 5  91149706.645 5     -1007.706          35.000
R07  19264047.016 8 103122001.931 8       719.723          51.000    19264050.984 7  80206044.843 7       559.784          46.000
R08  21819186.711 7 116840721.065 7      3834.441          42.000    21819180.570 5  90876103.777 5      2982.346          33.000
R21  21147629.992 8 113165230.705 8     -2938.992          51.000    21147632.359 7  88017387.121 7     -2285.883          47.000
R22  19313869.625 8 103098752.715 8       754.527          51.000    19313873.227 8  80187922.470 8       586.855          49.000
C19  21745242.500 8 113233319.359 8      -915.898          51.000
C20  25492633.969 5 132746834.391 5     -3007.062          30.000
C22  22915556.734 8 119327278.455 8      2151.273          51.000
C29  24973491.359 7 130043473.206 7     -3150.543          47.000
E07  23964094.594 8 125932250.473 8        48.539          51.000    23964097.328 8  96493495.578 8        37.213          51.000
E26  22440234.523 8 117924227.279 8      -480.574          51.000    22440237.812 8  90357529.395 8      -368.217          51.000
> 2020 05 09 19 24 30.0000000  0 16        .000000000000
G03  21835359.531 8 114745608.420 8      2499.633          50.000    21835363.234 8  89412187.672 8      1947.766          50.000
G08  21921894.906 8 115200329.133 8     -2891.688          48.000    21921896.156 8  89766470.931 8     -2253.266          48.000
G11  19959887.188 8 104889924.926 8      -805.293          50.000    19959885.414 8  81732416.503 8      -627.501          50.000
G14  21914171.523 6 115159740.768 6       257.297          36.000    21914173.016 5  89734853.001 5       200.494          34.000
G22  20794673.164 8 109276772.049 8       903.207          51.000    20794670.453 8  85150686.615 8       703.801          51.000
G32  22267095.648 6 117014380.471 6     -1305.191          38.000    22267098.812 4  91180054.225 4     -1017.035          29.000
R07  19260056.898 8 103100641.696 8       701.547          51.000    19260060.453 7  80189431.359 7       545.651          46.000
R08  21797715.352 7 116725733.265 7      3828.660          42.000    21797709.023 5  90786668.889 5      2977.850          35.000
R21  21164121.336 8 113253478.809 8     -2946.949          51.000    21164123.836 7  88086024.503 7     -2292.072          46.000
R22  19309656.094 8 103076259.838 8       742.215          51.000    19309659.594 8  80170428.000 8       577.278          49.000
C19  21750532.188 8 113260863.995 8      -923.008          50.000
C20  25509943.078 4 132836962.930 4     -3004.410          29.000
C22  22903170.008 8 119262778.531 8      2146.105          51.000
C29  24991632.555 7 130137937.592 7     -3149.750          46.000
E07  23963831.680 8 125930868.412 8        40.859          51.000    23963834.352 8  96492436.624 8        31.329          51.000
E26  22442977.109 8 117938638.975 8      -482.930          51.000    22442980.289 8  90368572.125 8      -370.013          51.000
> 2020 05 09 19 25  0.0000000  0 16        .000000000000
G03  21821123.172 8 114670796.090 8      2487.844          50.000    21821126.906 8  89353892.354 8      1938.580          50.000
G08  21938439.930 8 115287274.575 8     -2904.715          48.000    21938441.867 8  89834220.596 8     -2263.414          48.000
G11  19964538.234 8 104914365.965 8      -824.215          50.000    19964536.625 8  81751461.469 8      -642.245          50.000
G14  21912759.055 5 115152319.578 5       236.801          30.000    21912760.414 4  89729070.255 4       184.520          29.000
G22  20789556.852 8 109249886.397 8       888.957          51.000    20789553.812 8  85129736.757 8       692.694          51.000
G32  22274603.336 4 117053832.395 4     -1325.781          27.000    22274600.133 4  91210795.989 4     -1033.067          28.000
R07  19256197.570 8 103079980.178 8       675.766          51.000    19256200.297 7  80173361.318 7       525.595          46.000
R08  21776302.141 6 116611067.708 6      3815.707          38.000    21776297.359 5  90697484.628 5      2967.775          34.000
R21  21180685.539 8 113342117.543 8     -2962.352          51.000    21180688.438 7  88154965.712 7     -2304.054          45.000
R22  19305540.352 8 103054289.450 8       722.293          51.000    19305543.617 8  80153339.921 8       561.783          49.000
C19  21755891.078 8 113288768.316 8      -937.434          51.000
C20  25527265.148 4 132927167.355 4     -3008.527          29.000
C22  22890841.484 8 119198582.777 8      2133.508          50.000
C29  25009796.961 7 130232525.451 7     -3156.133          44.000
E07  23963640.789 8 125929865.816 8        25.875          51.000    23963643.203 8  96491668.427 8        19.829          51.000
E26  22445761.281 8 117953269.420 8      -492.621          51.000    22445764.234 8  90379782.468 8      -377.502          51.000
> 2020 05 09 19 25 30.0000000  0 16        .000000000000
G01  20480401.828 5 107625251.376 5       947.195          35.000    20480402.727 5  83863827.446 5       738.074          35.000
G03  21806922.164 8 114596168.354 8      2477.766          51.000    21806925.281 8  89295740.885 8      1930.730          51.000
G08  21955025.570 8 115374432.905 8     -2915.359          48.000    21955028.008 8  89902136.190 8     -2271.709          49.000
G11  19969264.664 8 104939203.400 8      -841.188          50.000    19969263.188 8  81770815.314 8      -655.471          50.000
G22  20784487.773 8 109223247.886 8       877.172          51.000    20784484.562 8  85108979.481 8       683.511          51.000
G32  22282198.148 6 117093758.223 6     -1341.457          36.000
R07  19252448.930 8 103059911.006 8       652.316          51.000    19252450.906 7  80157751.985 7       507.360          46.000
R08  21754927.828 6 116496621.250 6      3804.684          39.000    21754924.172 5  90608470.779 5      2959.201          32.000
R21  21197302.562 8 113431039.491 8     -2975.574          51.000    21197305.414 7  88224127.154 7     -2314.339          45.000
R22  19301503.148 8 103032737.924 8       704.598          51.000    19301506.086 8  80136577.626 8       548.020          49.000
C19  21761299.031 8 113316927.856 8      -949.484          51.000
C20  25544579.461 4 133017327.819 4     -3011.047          28.000
C22  22878551.297 8 119134588.853 8      2123.148          49.000
C29  25027964.602 7 130327132.218 7     -3160.371          44.000
E07  23963502.242 8 125929138.204 8        12.969          51.000    23963504.438 8  96491110.931 8         9.958          51.000
E26  22448567.445 8 117968014.926 8      -500.066          51.000    22448569.969 8  90391080.980 8      -383.153          51.000
> 2020 05 09 19 26  0.0000000  0 17        .000000000000
G01  20475061.055 5 107597180.257 5       934.762          34.000    20475062.352 5  83841953.793 5       728.380          32.000
G03  21792842.266 8 114522176.939 8      2466.027          51.000    21792844.875 8  89238085.293 8      1921.583          51.000
G08  21971737.195 8 115462253.218 8     -2928.039          49.000    21971739.891 8  89970567.600 8     -2281.589          49.000
G11  19974152.281 8 104964888.181 8      -859.969          50.000    19974151.102 8  81790829.429 8      -670.106          50.000
G22  20779551.656 8 109197307.586 8       863.297          51.000    20779548.508 8  85088766.267 8       672.699          51.000
G32  22289932.062 5 117134460.099 5     -1361.352          31.000    22289938.031 5  91273563.152 5     -1060.800          33.000
R07  19248896.688 8 103040893.169 8       626.898          51.000    19248898.156 7  80142960.355 7       487.585          47.000
R08  21733681.680 6 116382855.784 6      3791.223          41.000    21733677.992 5  90519986.694 5      2948.735          32.000
R21  21214058.273 8 113520702.486 8     -2990.594          51.000    21214060.859 7  88293864.992 7     -2326.017          44.000
R22  19297630.750 8 103012065.380 8       684.910          51.000    19297633.500 8  80120498.989 8       532.708          49.000
C19  21766841.406 8 113345788.160 8      -963.434          51.000
C20  25561972.039 4 133107895.428 4     -3014.438          29.000
C22  22866385.797 8 119071244.474 8      2110.855          49.000
C29  25046220.953 7 130422203.443 7     -3166.629          45.000
E07  23963501.797 8 125929136.218 8        -1.613          51.000    23963504.242 8  96491109.431 8        -1.314          51.000
E13                                                                  26516353.984 5 106770369.004 5     -1810.371          30.000
E26  22451481.445 8 117983327.009 8      -509.590          51.000    22451483.617 8  90402813.611 8      -390.456          51.000
> 2020 05 09 19 26 30.0000000  0 17        .000000000000
G01  20469712.781 5 107569075.403 5       926.066          31.000    20469714.844 5  83820053.885 5       721.613          32.000
G03  21778753.062 8 114448137.753 8      2457.508          49.000    21778755.656 8  89180392.471 8      1914.941          49.000
G08  21988444.156 8 115550048.297 8     -2937.344          50.000    21988447.078 8  90038979.333 8     -2288.839          50.000
G11  19979070.742 8 104990735.392 8      -875.582          50.000    19979069.711 8  81810970.105 8      -682.272          50.000
G22  20774617.773 8 109171379.618 8       852.738          51.000    20774614.867 8  85068562.659 8       664.471          51.000
G27  24615222.688 5 129353868.477 5     -3797.742          33.000    24615228.195 5 100795243.498 5     -2959.280          31.000
G32  22297718.805 4 117175302.563 4     -1376.629          29.000    22297728.859 4  91305471.581 4     -1072.698          27.000
R07  19245410.508 8 103022228.963 8       604.633          51.000    19245411.539 7  80128443.741 7       470.270          47.000
R08  21712434.039 6 116269076.428 6      3781.453          41.000    21712431.281 5  90431491.804 5      2941.136          34.000
R21  21230821.305 8 113610407.693 8     -3002.430          48.000    21230823.789 7  88363635.725 7     -2335.220          44.000
R22  19293792.758 8 102991578.006 8       668.289          51.000    19293795.703 8  80104564.371 8       519.780          50.000
C19  21772387.734 8 113374669.165 8      -974.180          51.000
C20  25579312.820 5 133198190.846 5     -3015.969          32.000
C22  22854215.812 8 119007871.658 8      2101.680          51.000
C29  25064436.930 7 130517059.103 7     -3169.457          45.000
E07  23963508.906 8 125929174.607 8       -13.262          51.000    23963511.648 8  96491138.868 8       -10.215          51.000
E26  22454372.773 8 117998521.192 8      -515.867          51.000    22454375.000 8  90414455.902 8      -395.251          51.000
> 2020 05 09 19 27  0.0000000  0 19        .000000000000
G01  20464495.594 5 107541661.695 5       903.457          32.000    20464498.164 5  83798692.604 5       703.996          31.000
G03  21764792.508 8 114374775.649 8      2435.648          50.000    21764795.172 8  89123227.193 8      1897.908          50.000
G08  22005283.789 8 115638539.530 8     -2959.727          51.000    22005286.492 8  90107933.508 8     -2306.280          51.000
G11  19984157.867 8 105017468.596 8      -904.191          50.000    19984156.672 8  81831801.155 8      -704.565          50.000
G14  21908163.516 6 115128193.482 6       155.164          36.000
G22  20769824.070 8 109146187.407 8       829.105          51.000    20769821.180 8  85048932.367 8       646.056          51.000
G27  24636946.352 5 129468026.381 5     -3811.094          31.000    24636952.719 4 100884197.647 4     -2969.683          29.000
G32  22305654.859 5 117217002.001 5     -1404.605          32.000    22305658.891 5  91337926.310 5     -1094.498          31.000
R07  19242127.977 8 103004655.790 8       569.281          50.000    19242129.023 8  80114775.719 8       442.774          48.000
R08  21691322.164 5 116156044.682 5      3757.891          33.000    21691324.562 5  90343600.487 5      2922.804          35.000
R21  21247729.539 8 113700891.045 8     -3027.363          49.000    21247732.414 7  88434011.634 7     -2354.616          45.000
R22  19290127.617 8 102972013.366 8       638.391          51.000    19290130.703 8  80089347.427 8       496.526          50.000
C19  21778075.547 8 113404286.929 8      -997.926          51.000
C20  25596739.281 5 133288929.842 5     -3030.941          35.000
C22  22842178.906 8 118945188.616 8      2079.586          51.000
C29  25082749.688 7 130612415.331 7     -3185.250          47.000
E07  23963661.570 8 125929976.911 8       -37.934          51.000    23963664.156 8  96491753.636 8       -29.000          51.000
E13  26543357.461 5 139486305.812 5     -2380.301          34.000
E26  22457379.367 8 118014321.965 8      -535.160          51.000    22457381.828 8  90426562.974 8      -410.046          51.000
> 2020 05 09 19 27 30.0000000  0 17        .000000000000
G03  21750875.102 8 114301638.090 8      2436.512          51.000    21750877.461 8  89066236.904 8      1898.584          51.000
G08  22022169.391 8 115727272.095 8     -2959.410          50.000    22022171.977 8  90177075.737 8     -2306.034          50.000
G11  19989327.422 8 105044634.671 8      -910.402          50.000    19989326.133 8  81852969.509 8      -709.407          50.000
G14  21907286.336 6 115123593.196 6       147.648          38.000    21907286.758 4  89706676.354 4       115.051          29.000
G22  20765084.031 8 109121277.861 8       827.879          51.000    20765080.922 8  85029522.367 8       645.103          51.000
G32  22313680.688 5 117259184.137 5     -1410.922          33.000    22313688.430 4  91370795.564 4     -1099.426          27.000
R07  19238962.586 8 102987711.055 8       556.746          50.000    19238963.773 7  80101596.477 7       433.028          47.000
R08  21670255.844 5 116043204.671 5      3757.066          33.000    21670260.828 5  90255879.221 5      2922.160          35.000
R21  21264697.812 8 113791689.485 8     -3029.438          51.000    21264700.469 7  88504632.644 7     -2356.229          45.000
R22  19286549.438 8 102952912.957 8       631.320          51.000    19286552.383 8  80074491.567 8       491.027          50.000
C19  21783818.320 8 113434190.989 8      -999.223          51.000
C20  25614164.000 5 133379661.447 5     -3022.008          35.000
C22  22830187.812 8 118882747.051 8      2079.711          50.000
C29  25101072.516 8 130707821.632 8     -3178.715          48.000
E07  23963873.383 8 125931089.580 8       -39.816          51.000    23963876.023 8  96492606.210 8       -30.512          51.000
E13  26556919.773 6 139557540.632 6     -2373.273          37.000
E26  22460415.227 8 118030276.558 8      -532.004          51.000    22460417.945 8  90438787.900 8      -407.606          51.000
> 2020 05 09 19 28  0.0000000  0 17        .000000000000
G03  21737005.555 8 114228751.654 8      2423.328          51.000    21737007.578 8  89009442.332 8      1888.308          51.000
G08  22039104.938 8 115816269.092 8     -2972.855          48.000    22039107.617 7  90246424.026 7     -2316.514          47.000
G11  19994584.125 8 105072259.235 8      -930.535          49.000    19994583.039 8  81874495.128 8      -725.092          49.000
G14  21906501.828 6 115119471.562 6       127.230          38.000    21906501.672 5  89703455.588 5        99.135          30.000
G22  20760402.344 8 109096676.569 8       812.926          51.000    20760399.125 8  85010352.559 8       633.449          51.000
G32  22321794.078 5 117301821.802 5     -1430.887          35.000    22321791.883 5  91404034.621 5     -1114.971          30.000
R07  19235919.383 8 102971421.141 8       530.105          50.000    19235920.883 7  80088926.556 7       412.304          47.000
R08  21649255.641 6 115930715.971 6      3742.629          40.000    21649254.172 6  90168388.118 6      2910.937          37.000
R21  21281729.617 8 113882827.829 8     -3045.598          50.000    21281732.039 7  88575518.006 7     -2368.798          45.000
R22  19283063.414 8 102934305.226 8       610.078          51.000    19283066.570 8  80060018.882 8       474.505          50.000
C19  21789620.719 8 113464405.547 8     -1014.207          51.000
C20  25631591.656 6 133470409.698 6     -3027.332          36.000
C22  22818247.789 8 118820573.304 8      2066.043          50.000
C29  25119409.305 8 130803302.255 8     -3185.941          48.000
E07  23964148.961 8 125932538.007 8       -55.840          51.000    23964151.844 8  96493716.060 8       -42.780          51.000
E13  26570491.984 6 139628856.111 6     -2380.203          37.000    26570504.102 5 106988401.840 5     -1823.654          34.000
E26  22463485.430 8 118046411.249 8      -542.797          51.000    22463488.383 8  90451150.825 8      -415.897          51.000
> 2020 05 09 19 28 30.0000000  0 18        .000000000000
G03  21723203.695 8 114156222.886 8      2412.250          49.000    21723205.828 8  88952926.453 8      1879.678          50.000
G08  22056110.141 7 115905635.009 7     -2984.219          46.000    22056113.539 7  90316059.789 7     -2325.368          46.000
G11  19999947.969 8 105100447.921 8      -948.477          48.000    19999947.281 7  81896460.317 7      -739.073          47.000
G14  21905828.938 6 115115934.705 6       108.980          39.000    21905827.844 5  89700699.638 5        84.917          33.000
G22  20755799.438 8 109072488.893 8       799.980          51.000    20755796.383 8  84991505.037 8       623.361          51.000
G27  24702112.867 5 129810454.384 5     -3807.633          30.000
G32  22330014.070 5 117345019.250 5     -1448.574          34.000    22330012.375 5  91437663.932 5     -1128.765          32.000
R07  19233018.484 8 102955893.073 8       505.594          50.000    19233020.078 7  80076849.180 7       393.240          47.000
R08  21628328.125 7 115818634.042 7      3729.914          42.000    21628325.844 6  90081213.361 6      2901.047          40.000
R21  21298844.469 8 113974412.509 8     -3059.543          51.000    21298847.281 7  88646750.474 7     -2379.648          45.000
R22  19279690.227 8 102916299.331 8       590.758          51.000    19279693.273 8  80046014.303 8       459.478          50.000
C19  21795502.680 8 113495034.029 8     -1027.270          51.000
C20  25649042.156 6 133561277.643 6     -3030.320          36.000
C22  22806379.695 8 118758772.883 8      2054.441          51.000
C29  25137779.664 7 130898960.606 7     -3190.805          47.000
E07  23964508.391 8 125934427.469 8       -69.715          51.000    23964511.391 8  96495163.841 8       -53.373          51.000
E13  26584094.969 6 139700339.693 6     -2384.887          39.000    26584102.289 5 107043175.076 5     -1827.581          34.000
E26  22466610.125 8 118062832.226 8      -551.434          51.000    22466613.227 8  90463733.111 8      -422.569          51.000
> 2020 05 09 19 29  0.0000000  0 18        .000000000000
G01  20444140.211 6 107434677.219 6       870.676          36.000    20444143.727 6  83715338.345 6       678.446          36.000
G03  21709435.117 8 114083869.877 8      2404.559          50.000    21709437.297 8  88896547.509 8      1873.685          50.000
G08  22073150.398 7 115995184.277 7     -2992.191          47.000    22073154.250 7  90385838.430 7     -2331.578          47.000
G11  20005384.453 7 105129018.250 7      -963.074          47.000    20005384.195 7  81918722.905 7      -750.447          47.000
G14  21905232.727 6 115112799.997 6        93.730          36.000    21905232.078 5  89698257.070 5        73.043          33.000
G22  20751240.609 8 109048531.771 8       790.469          51.000    20751237.703 8  84972837.162 8       615.953          51.000
G27  24723829.141 5 129924573.039 5     -3805.766          31.000    24723835.586 5 101239959.207 5     -2965.538          32.000
R07  19230224.773 8 102940940.603 8       484.469          50.000    19230226.922 7  80065219.514 7       376.812          46.000
R08  21607440.828 7 115706775.577 7      3720.570          45.000    21607438.523 7  89994212.386 7      2893.780          43.000
R21  21316008.086 8 114066255.881 8     -3070.090          51.000    21316010.680 7  88718184.187 7     -2387.848          45.000
R22  19276395.461 8 102898711.505 8       574.965          51.000    19276398.406 8  80032334.891 8       447.195          50.000
C19  21801428.969 8 113525893.967 8     -1036.742          51.000
C20  25666479.781 5 133652082.624 5     -3030.336          35.000
C22  22794548.992 8 118697165.545 8      2046.195          51.000
C29  25156148.547 7 130994614.365 7     -3192.598          46.000
E07  23964917.086 8 125936574.975 8       -80.195          51.000    23964920.148 8  96496809.337 8       -61.472          51.000
E13  26597694.781 6 139771808.317 6     -2386.090          37.000    26597697.750 5 107097936.886 5     -1828.629          35.000
E26  22469754.539 8 118079357.324 8      -556.828          51.000    22469757.797 8  90476395.181 8      -426.690          51.000
> 2020 05 09 19 29 30.0000000  0 18        .000000000000
G01  20439227.195 6 107408855.109 6       854.371          37.000    20439230.188 6  83695217.238 6       665.744          37.000
G03  21695763.781 8 114012027.168 8      2388.953          50.000    21695766.242 8  88840566.233 8      1861.522          50.000
G08  22090289.109 8 116085248.575 8     -3007.988          48.000    22090293.055 7  90456018.402 7     -2343.887          47.000
G11  20010957.016 7 105158303.742 7      -985.414          46.000    20010956.844 7  81941542.785 7      -767.855          46.000
G14  21904776.750 4 115110401.456 4        70.789          29.000    21904776.172 4  89696388.109 4        55.169          29.000
G22  20746789.039 8 109025138.822 8       773.098          51.000    20746786.227 8  84954608.898 8       602.414          51.000
G27  24745593.086 5 130038933.362 5     -3813.785          30.000    24745597.219 4 101329071.093 4     -2971.781          27.000
R07  19227602.102 8 102926903.342 8       455.379          48.000    19227604.625 7  80054301.660 7       354.184          46.000
R08  21586658.773 7 115595483.595 7      3703.152          45.000    21586655.531 7  89907651.992 7      2880.230          44.000
R21  21333283.234 8 114158696.710 8     -3088.609          50.000    21333285.406 7  88790082.601 7     -2402.252          45.000
R22  19273242.961 8 102881882.983 8       550.945          51.000    19273245.789 8  80019246.044 8       428.513          50.000
C19  21807463.164 8 113557314.830 8     -1054.039          51.000
C20  25683968.594 6 133743153.739 6     -3037.270          36.000
C22  22782818.758 8 118636082.844 8      2030.027          51.000
C29  25174579.688 7 131090592.925 7     -3202.023          46.000
E07  23965438.219 8 125939313.880 8       -98.441          51.000    23965441.523 8  96498907.984 8       -75.408          51.000
E13  26611353.648 5 139843607.613 5     -2395.441          34.000    26611356.977 5 107152942.788 5     -1835.369          35.000
E26  22472982.461 8 118096320.812 8      -570.105          51.000    22472985.938 8  90489393.173 8      -436.807          51.000
> 2020 05 09 19 30  0.0000000  0 17        .000000000000
G01  20434378.141 5 107383376.932 5       844.602          35.000    20434382.875 5  83675364.195 5       658.137          34.000
G03  21682155.016 8 113940513.772 8      2379.176          49.000    21682158.141 8  88784841.551 8      1853.903          49.000
G08  22107490.953 8 116175643.840 8     -3017.688          48.000    22107494.773 8  90526456.243 8     -2351.448          48.000
G11  20016631.305 7 105188122.083 7     -1001.934          47.000    20016631.070 7  81964777.876 7      -780.727          47.000
G14  21904426.523 5 115108557.511 5        53.277          35.000    21904425.227 5  89694951.438 5        41.515          31.000
G22  20742410.086 8 109002127.822 8       761.672          51.000    20742407.211 8  84936678.255 8       593.511          51.000
R07  19225115.555 8 102913595.741 8       432.410          49.000    19225118.695 7  80043951.334 7       336.319          47.000
R08  21565946.484 7 115484575.402 7      3691.418          46.000    21565943.023 7  89821390.099 7      2871.103          43.000
R21  21350634.781 8 114251547.963 8     -3100.918          50.000    21350636.898 7  88862300.221 7     -2411.828          44.000
R22  19270198.555 8 102865630.943 8       533.051          51.000    19270200.977 8  80006605.585 8       414.595          50.000
C19  21813570.219 8 113589115.124 8     -1065.367          51.000
C20  25701473.766 5 133834309.285 5     -3039.078          35.000
C22  22771154.914 8 118575345.396 8      2019.707          51.000
C29  25193038.805 7 131186714.891 7     -3205.465          46.000
E07  23966037.227 8 125942461.982 8      -110.836          51.000    23966040.609 8  96501320.168 8       -84.953          51.000
E13                                                                  26625041.906 5 107208053.342 5     -1838.090          34.000
E26  22476259.453 8 118113541.407 8      -577.391          51.000    22476263.250 8  90502588.166 8      -442.416          51.000
> 2020 05 09 19 30 30.0000000  0 18        .000000000000
G01  20429590.969 5 107358224.769 5       832.289          34.000    20429597.133 5  83655765.083 5       648.537          34.000
G03  21668605.234 8 113869311.331 8      2367.727          48.000    21668608.891 8  88729359.129 8      1844.982          48.000
G08  22124751.430 8 116266348.765 8     -3029.000          48.000    22124755.219 8  90597135.379 8     -2360.260          48.000
G11  20022403.570 8 105218453.855 8     -1020.133          49.000    20022403.203 8  81988413.023 8      -794.909          49.000
G14  21904178.227 6 115107249.053 6        34.348          36.000    21904176.180 6  89693931.975 6        26.774          36.000
G22  20738100.344 8 108979479.543 8       748.477          51.000    20738097.188 8  84919030.251 8       583.232          51.000
G32  22363908.531 5 117523105.941 5     -1519.023          34.000
R07  19222761.578 8 102900997.580 8       407.770          48.000    19222765.055 7  80034152.775 7       317.154          46.000
R08  21545300.969 7 115374034.243 7      3678.195          47.000    21545298.914 7  89735413.674 7      2860.819          43.000
R21  21368059.172 8 114344789.060 8     -3114.906          50.000    21368060.930 7  88934821.084 7     -2422.705          44.000
R22  19267258.781 8 102849938.025 8       513.359          51.000    19267261.031 8  79994399.982 8       399.280          50.000
C19  21819746.211 8 113621274.536 8     -1078.344          51.000
C20  25718991.656 5 133925528.652 5     -3042.203          35.000
C22  22759554.133 8 118514934.981 8      2007.887          51.000
C29  25211521.719 7 131282959.980 7     -3210.633          46.000
E07  23966710.398 8 125945999.760 8      -124.746          51.000    23966713.867 8  96504030.922 8       -95.591          51.000
E13  26638746.578 5 139987557.609 5     -2403.859          35.000    26638749.336 5 107263253.667 5     -1841.993          33.000
E26  22479581.727 8 118131000.464 8      -586.316          51.000    22479586.016 8  90515965.881 8      -449.220          51.000
> 2020 05 09 19 31  0.0000000  0 19        .000000000000
G01  20424869.430 6 107333410.151 6       820.473          40.000    20424873.930 6  83636429.070 6       639.329          40.000
G03  21655117.320 8 113798431.659 8      2356.375          49.000    21655120.641 8  88674128.236 8      1836.139          49.000
G08  22142072.445 8 116357372.414 8     -3040.289          48.000    22142076.242 8  90668062.888 8     -2369.056          48.000
G11  20028275.836 8 105249310.248 8     -1038.176          51.000    20028275.172 8  82012456.954 8      -808.968          49.000
G14  21904033.602 6 115106487.373 6        15.055          37.000    21904031.305 5  89693338.370 5        11.725          32.000
G22  20733861.539 8 108957204.728 8       735.465          51.000    20733858.391 8  84901673.271 8       573.089          51.000
G32  22372630.094 5 117568953.506 5     -1536.883          35.000    22372616.195 5  91612155.112 5     -1197.571          33.000
R07  19220542.383 8 102889119.781 8       382.945          49.000    19220545.734 7  80024914.483 7       297.846          47.000
R08  21524727.633 8 115263874.573 8      3664.711          49.000    21524727.062 7  89649733.971 7      2850.331          44.000
R21  21385557.609 7 114438429.613 7     -3128.879          46.000    21385559.680 7  89007652.645 7     -2433.572          43.000
R22  19264426.266 8 102834817.324 8       493.566          51.000    19264428.477 8  79982639.445 8       383.888          50.000
C19  21825992.984 8 113653802.641 8     -1091.316          51.000
C20  25736523.688 5 134016821.219 5     -3045.297          33.000
C22  22748018.172 8 118454863.354 8      1995.844          51.000
C29  25230030.438 7 131379337.823 7     -3215.766          46.000
E07  23967459.656 8 125949937.806 8      -138.945          51.000    23967463.320 8  96507048.391 8      -106.432          51.000
E08  24959008.688 5 131160476.247 5     -2476.988          33.000
E13                                                                  26652481.375 5 107318497.997 5     -1845.477          31.000
E26  22482951.484 8 118148709.534 8      -595.379          51.000    22482956.102 8  90529535.158 8      -456.217          51.000
> 2020 05 09 19 31 30.0000000  0 20        .000000000000
G01  20420208.414 6 107308914.557 6       810.500          41.000    20420213.117 6  83617341.633 6       631.558          41.000
G03  21641687.445 8 113727855.822 8      2346.535          51.000    21641689.938 8  88619134.127 8      1828.469          50.000
G08  22159450.242 8 116448692.848 8     -3049.816          49.000    22159453.531 8  90739221.668 8     -2376.480          49.000
G11  20034244.141 8 105280671.351 8     -1054.527          51.000    20034243.008 8  82036894.149 8      -821.710          50.000
G14  21903988.641 6 115106252.918 6        -1.672          41.000    21903985.969 3  89693159.607 3        -1.327          20.000
G22  20729689.766 8 108935283.032 8       724.062          51.000    20729687.094 8  84884591.431 8       564.205          51.000
G32  22381440.766 5 117615289.268 5     -1552.684          30.000
R06  21059510.438 5 112377572.865 5     -3290.555          32.000
R07  19218454.102 8 102877941.521 8       360.000          50.000    19218457.312 7  80016220.291 7       280.000          47.000
R08  21504223.055 8 115154078.322 8      3652.941          49.000    21504223.469 7  89564336.940 7      2841.180          44.000
R21  21403125.398 7 114532448.202 7     -3141.195          44.000    21403128.945 7  89080778.237 7     -2443.155          42.000
R22  19261697.336 8 102820250.743 8       475.375          51.000    19261699.688 8  79971309.878 8       369.736          50.000
C19  21832306.234 8 113686678.568 8     -1102.453          51.000
C20  25754066.211 5 134108165.941 5     -3046.621          33.000
C22  22736542.562 8 118395111.772 8      1985.594          49.000
C29  25248560.945 7 131475827.595 7     -3218.957          47.000
E07  23968281.328 8 125954256.073 8      -151.273          51.000    23968284.984 8  96510357.193 8      -115.836          51.000
E08  24973156.906 5 131234824.737 5     -2481.727          34.000
E13  26666234.078 5 140132003.838 5     -2411.969          35.000
E26  22486365.391 8 118166649.460 8      -602.652          51.000    22486369.906 8  90543281.338 8      -461.800          51.000
> 2020 05 09 19 32  0.0000000  0 18        .000000000000
G01  20415617.000 6 107284785.138 6       797.766          41.000    20415620.789 6  83598539.492 6       621.636          41.000
G03  21628324.352 8 113657630.940 8      2334.516          50.000    21628326.406 8  88564413.502 8      1819.103          50.000
G08  22176893.250 8 116540354.220 8     -3061.379          50.000    22176895.727 8  90810646.123 8     -2385.490          50.000
G11  20040317.219 8 105312583.539 8     -1073.324          51.000    20040315.820 8  82061760.767 8      -836.357          50.000
G14  21904053.219 6 115106592.114 6       -21.004          39.000    21904053.781 3  89693423.844 3       -16.376          23.000
G22  20725594.180 8 108913760.698 8       710.379          51.000    20725591.523 8  84867820.774 8       553.542          51.000
R07  19216505.375 8 102867509.663 8       334.859          50.000    19216508.359 7  80008106.641 7       260.446          46.000
R08  21483795.688 8 115044695.690 8      3638.824          49.000    21483796.922 7  89479261.615 7      2830.197          43.000
R21  21420773.781 8 114626890.570 8     -3155.492          49.000    21420776.766 6  89154233.339 6     -2454.275          38.000
R22  19259081.562 8 102806287.251 8       454.980          51.000    19259083.758 8  79960449.390 8       353.874          49.000
C19  21838694.922 8 113719946.888 8     -1115.852          51.000
C20  25771627.508 5 134199607.152 5     -3050.480          32.000
C22  22725137.156 8 118335726.852 8      1972.961          49.000
C29  25267121.922 7 131572473.935 7     -3224.648          47.000
E07  23969184.172 8 125959000.441 8      -165.582          51.000    23969187.742 8  96513992.482 8      -126.869          51.000
E08  24987346.984 5 131309396.757 5     -2490.016          33.000
E13  26680017.781 5 140204435.016 5     -2417.195          34.000
E26  22489832.312 8 118184867.036 8      -612.223          51.000    22489836.453 8  90557240.266 8      -469.115          51.000
> 2020 05 09 19 32 30.0000000  0 18        .000000000000
G01  20411098.078 6 107261038.505 6       787.883          39.000    20411100.164 6  83580035.618 6       613.935          40.000
G03  21615031.031 8 113587773.432 8      2324.965          50.000    21615033.039 8  88509979.136 8      1811.661          50.000
G08  22194403.906 8 116632370.360 8     -3070.562          51.000    22194405.383 8  90882346.984 8     -2392.646          50.000
G11  20046497.914 8 105345062.057 8     -1089.496          51.000    20046496.320 8  82087068.681 8      -848.961          50.000
G14  21904229.750 7 115107520.565 7       -38.008          43.000    21904230.398 5  89694162.133 5       -29.620          34.000
G22  20721577.578 8 108892653.081 8       699.133          51.000    20721574.469 8  84851373.290 8       544.779          51.000
G32  22399386.367 6 117709567.388 6     -1586.523          36.000    22399368.734 5  91721703.489 5     -1236.252          34.000
R07  19214698.891 8 102857839.554 8       312.234          51.000    19214701.531 7  80000585.444 7       242.849          47.000
R08  21463448.727 8 114935745.601 8      3627.012          48.000    21463450.297 7  89394522.695 7      2821.012          43.000
R21  21438505.242 8 114721771.019 8     -3167.379          51.000    21438507.242 7  89228029.128 7     -2463.520          42.000
R22  19256581.930 8 102792944.532 8       436.957          50.000    19256584.266 8  79950071.711 8       339.855          49.000
C19  21845161.820 8 113753621.763 8     -1126.742          51.000
C20  25789208.484 4 134291179.651 4     -3049.984          29.000
C22  22713806.516 8 118276724.897 8      1962.887          51.000
C29  25285715.742 7 131669290.987 7     -3227.672          46.000
E07  23970170.922 8 125964186.140 8      -177.613          51.000    23970174.484 8  96517965.955 8      -136.108          51.000
E08  25001580.211 5 131384192.241 5     -2494.832          33.000
E26  22493355.188 8 118203378.509 8      -619.391          51.000    22493358.820 8  90571424.379 8      -474.556          51.000
> 2020 05 09 19 33  0.0000000  0 18        .000000000000
G01  20406643.906 6 107237630.930 6       770.602          40.000    20406644.633 6  83561795.919 6       600.469          41.000
G03  21601799.109 8 113518239.434 8      2308.371          49.000    21601801.055 8  88455796.834 8      1798.731          49.000
G08  22211972.945 8 116724693.941 8     -3086.414          50.000    22211973.312 8  90954287.393 8     -2405.001          51.000
G11  20052777.664 8 105378062.243 8     -1112.551          51.000    20052776.148 8  82112783.084 8      -866.923          51.000
G14  21904510.172 7 115108993.927 7       -62.359          42.000    21904511.922 5  89695310.246 5       -48.595          34.000
G22  20717631.258 8 108871915.302 8       681.207          51.000    20717627.859 8  84835214.014 8       530.814          51.000
G32  22408501.875 6 117757454.620 6     -1609.387          37.000    22408476.344 6  91759036.694 6     -1254.077          36.000
R07  19213026.195 8 102848885.015 8       282.559          50.000    19213028.695 7  79993620.822 7       219.768          47.000
R08  21443174.617 8 114827184.902 8      3608.199          49.000    21443176.367 7  89310086.639 7      2806.377          43.000
R21  21456309.602 8 114817042.688 8     -3186.152          49.000    21456312.344 7  89302129.276 7     -2478.118          45.000
R22  19254190.320 8 102780179.301 8       411.906          49.000    19254192.711 8  79940143.215 8       320.372          49.000
C19  21851697.875 8 113787657.503 8     -1144.441          51.000
C20  25806800.172 4 134382785.832 4     -3058.379          29.000
C22  22702541.875 8 118218062.365 8      1945.926          51.000
C29  25304333.133 7 131766233.205 7     -3237.484          45.000
E07  23971233.102 8 125969768.068 8      -196.590          51.000    23971236.688 8  96522243.023 8      -150.643          51.000
E13  26707672.578 5 140349766.932 5     -2430.301          32.000
E26  22496925.469 8 118222139.638 8      -633.445          51.000    22496928.609 8  90585799.795 8      -485.385          51.000
> 2020 05 09 19 33 30.0000000  0 17        .000000000000
G01  20402252.398 7 107214552.161 7       762.820          43.000    20402252.758 7  83543812.471 7       594.405          43.000
G03  21588626.594 8 113449018.634 8      2300.973          49.000    21588628.508 8  88401858.570 8      1792.966          49.000
G08  22229597.695 8 116817311.462 8     -3093.305          50.000    22229597.914 8  91026456.838 8     -2410.370          51.000
G11  20059154.414 8 105411572.662 8     -1126.578          51.000    20059152.938 8  82138895.093 8      -877.853          50.000
G14  21904892.281 6 115111000.720 6       -77.164          41.000    21904891.602 5  89696874.026 5       -60.128          35.000
G22  20713753.195 8 108851536.021 8       672.246          51.000    20713749.734 8  84819334.064 8       523.825          51.000
R07  19211484.891 8 102840633.927 8       262.148          50.000    19211486.898 7  79987203.310 7       203.893          47.000
R08  21422972.211 8 114719005.176 8      3598.520          50.000    21422974.086 7  89225946.913 7      2798.852          44.000
R21  21474184.078 8 114912692.743 8     -3195.715          51.000    21474188.266 8  89376523.729 8     -2485.556          48.000
R22  19251905.047 8 102767981.995 8       395.988          49.000    19251907.688 8  79930656.434 8       307.991          49.000
C19  21858301.031 8 113822041.820 8     -1153.070          51.000
C20  25824403.062 5 134474454.134 5     -3057.809          32.000
C22  22691340.023 8 118159729.056 8      1937.891          51.000
C29  25322971.250 6 131863288.268 6     -3238.371          41.000
E07  23972368.492 8 125975734.706 8      -206.363          51.000    23972372.148 8  96526814.875 8      -158.126          51.000
E08  25030151.078 5 131534331.248 5     -2508.777          34.000
E26  22500541.219 8 118241139.873 8      -638.402          51.000    22500544.078 8  90600358.413 8      -489.150          51.000
> 2020 05 09 19 34  0.0000000  0 18        .000000000000
G01  20397930.719 7 107191841.130 7       751.211          42.000    20397931.219 7  83526115.608 7       585.362          42.000
G03  21575521.148 8 113380149.682 8      2290.113          50.000    21575523.008 8  88348194.490 8      1784.507          50.000
G08  22247285.344 8 116910259.628 8     -3103.547          50.000    22247286.164 8  91098883.948 8     -2418.348          51.000
G11  20065635.336 8 105445630.783 8     -1144.113          50.000    20065633.820 8  82165433.900 8      -891.514          50.000
G14  21905383.219 6 115113579.356 6       -95.102          40.000    21905382.102 5  89698883.362 5       -74.099          35.000
G22  20709950.492 8 108831552.809 8       659.785          51.000    20709947.297 8  84803762.728 8       514.118          51.000
G32  22427017.773 6 117854781.780 6     -1639.953          36.000
R07  19210082.195 8 102833124.627 8       238.316          50.000    19210084.125 7  79981362.759 7       185.357          47.000
R08  21402848.812 8 114611247.637 8      3585.102          50.000    21402850.914 7  89142135.567 7      2788.415          44.000
R21  21492136.375 8 115008758.266 8     -3208.848          51.000    21492141.023 7  89451241.388 7     -2495.767          47.000
R22  19249733.633 7 102756392.800 7       376.484          47.000    19249736.828 8  79921642.641 8       292.821          48.000
C19  21864978.164 8 113856810.965 8     -1165.090          51.000
C20  25842023.750 5 134566210.502 5     -3059.965          34.000
C22  22680208.281 8 118101763.288 8      1926.340          51.000
C29  25341635.578 5 131960492.489 5     -3242.547          35.000
E07  23973584.281 8 125982123.539 8      -219.664          51.000    23973587.734 8  96531710.227 8      -168.329          51.000
E08  25044492.055 5 131609695.566 5     -2515.148          35.000
E26  22504209.773 8 118260417.693 8      -646.934          51.000    22504212.453 8  90615129.730 8      -495.696          51.000
> 2020 05 09 19 34 30.0000000  0 18        .000000000000
G01  20393677.500 7 107169490.617 7       738.031          42.000    20393678.477 7  83508699.636 7       575.089          42.000
G03  21562481.500 8 113311625.200 8      2277.355          49.000    21562483.391 8  88294798.834 8      1774.563          49.000
G08  22265033.734 8 117003527.060 8     -3115.234          50.000    22265035.117 8  91171559.841 8     -2427.458          50.000
G11  20072218.914 8 105480228.508 8     -1163.207          50.000    20072217.609 8  82192393.156 8      -906.395          50.000
G14  21905981.852 6 115116721.444 6      -114.969          36.000    21905980.148 5  89701331.734 5       -89.586          32.000
G22  20706221.586 8 108811957.682 8       645.699          51.000    20706218.789 8  84788493.809 8       503.142          51.000
G32  22436427.680 5 117904227.838 5     -1658.262          33.000    22436398.875 5  91873338.354 5     -1292.158          32.000
R07  19208816.133 8 102826347.750 8       212.645          50.000    19208818.234 7  79976091.869 7       165.387          47.000
R08  21382803.383 8 114503906.994 8      3569.980          50.000    21382805.930 7  89058648.461 7      2776.655          45.000
R21  21510164.906 8 115105229.586 8     -3223.465          50.000    21510169.305 7  89526274.648 7     -2507.139          47.000
R22  19247674.484 7 102745405.669 7       355.047          46.000    19247678.633 8  79913097.102 8       276.148          48.000
C19  21871727.422 8 113891955.471 8     -1178.770          51.000
C20  25859659.523 5 134658045.510 5     -3063.617          35.000
C22  22669145.828 8 118044157.660 8      1913.227          51.000
C29  25360327.234 6 132057836.407 6     -3248.332          38.000
E07  23974878.852 8 125988925.959 8      -234.598          51.000    23974882.008 8  96536922.479 8      -179.757          51.000
E08  25058870.742 5 131685254.111 5     -2522.945          34.000
E26  22507929.570 8 118279965.455 8      -657.105          51.000    22507932.000 8  90630107.879 8      -503.484          51.000
> 2020 05 09 19 35  0.0000000  0 17        .000000000000
G01  20389488.992 6 107147480.686 6       727.277          41.000    20389490.719 6  83491549.080 6       566.713          41.000
G03  21549503.562 8 113243425.129 8      2267.320          50.000    21549505.281 8  88241655.965 8      1766.743          50.000
G08  22282838.555 8 117097091.565 8     -3124.289          49.000    22282840.141 8  91244467.233 8     -2434.514          49.000
G11  20078901.070 8 105515344.492 8     -1179.730          50.000    20078900.078 8  82219756.251 8      -919.270          50.000
G22  20702562.422 8 108792728.453 8       634.211          51.000    20702559.742 8  84773509.997 8       494.190          51.000
R06  21190756.203 4 113077934.428 4     -3377.422          29.000
R07  19207683.055 8 102820281.343 8       189.953          50.000    19207684.867 7  79971373.544 7       147.741          47.000
R08  21362832.344 8 114396964.184 8      3557.527          50.000    21362835.594 7  88975470.771 7      2766.966          45.000
R21  21528264.992 8 115202083.879 8     -3235.270          49.000    21528269.320 7  89601605.754 7     -2516.321          47.000
R22  19245724.984 7 102735001.142 7       336.492          47.000    19245729.797 8  79905004.687 8       261.713          48.000
C19  21878544.461 8 113927453.315 8     -1189.625          51.000
C20  25877306.391 5 134749936.902 5     -3064.402          34.000
C22  22658148.914 8 117986892.314 8      1902.680          51.000
C29  25379044.742 6 132155298.264 6     -3251.312          40.000
E07  23976248.062 8 125996120.690 8      -246.684          51.000    23976251.016 8  96542435.335 8      -189.071          51.000
E08  25073282.852 5 131760991.514 5     -2528.199          35.000
E26  22511696.734 8 118299762.857 8      -664.520          51.000    22511699.062 8  90645277.313 8      -509.150          51.000
> 2020 05 09 19 35 30.0000000  0 19        .000000000000
G01  20385368.945 7 107125829.373 7       715.859          43.000    20385371.039 7  83474677.899 7       557.812          42.000
G03  21536590.461 8 113175567.182 8      2256.438          49.000    21536592.023 8  88188779.699 8      1758.263          49.000
G08  22300702.156 8 117190967.213 8     -3134.172          48.000    22300704.172 8  91317617.061 8     -2442.215          48.000
G11  20085685.203 8 105550995.771 8     -1197.070          50.000    20085684.109 8  82247536.462 8      -932.782          50.000
G22  20698976.141 8 108773882.318 8       621.980          51.000    20698973.461 8  84758824.703 8       484.660          51.000
G32  22455530.484 5 118004608.920 5     -1689.758          32.000
R06  21209767.547 5 113179417.990 5     -3388.902          31.000
R07  19206685.555 8 102814942.392 8       166.094          50.000    19206687.789 8  79967221.062 8       129.187          48.000
R08  21342939.492 8 114290439.566 8      3544.051          49.000    21342943.531 7  88892618.330 7      2756.484          45.000
R21  21546438.773 7 115299337.018 7     -3248.234          47.000    21546443.641 7  89677247.060 7     -2526.405          45.000
R22  19243888.547 8 102725198.205 8       316.867          49.000    19243893.266 8  79897380.191 8       246.452          48.000
C19  21885432.328 8 113963320.034 8     -1201.586          51.000
C20  25894967.711 5 134841900.124 5     -3066.457          33.000
C22  22647220.750 8 117929984.806 8      1891.168          51.000
C29  25397788.305 6 132252893.536 6     -3255.293          38.000
E07  23977695.039 8 126003724.277 8      -260.023          51.000    23977697.758 8  96548261.468 8      -199.233          51.000
E08  25087731.570 6 131836921.160 6     -2534.113          36.000    25087732.719 5 101017906.881 5     -1941.720          33.000
E13  26777248.961 6 140715391.370 6     -2448.344          36.000    26777253.031 6 107820898.445 6     -1875.923          36.000
E26  22515514.703 8 118319827.409 8      -673.102          51.000    22515517.039 8  90660651.446 8      -515.735          51.000
> 2020 05 09 19 36  0.0000000  0 17        .000000000000
G01  20381314.797 7 107104524.086 7       705.230          42.000    20381316.766 7  83458076.401 7       549.533          42.000
G03  21523739.852 8 113108038.822 8      2246.184          48.000    21523741.883 8  88136160.227 8      1750.276          48.000
G08  22318621.742 7 117285139.109 7     -3143.238          47.000    22318624.594 7  91390997.741 7     -2449.277          47.000
G11  20092568.594 8 105587168.520 8     -1213.734          50.000    20092567.406 8  82275723.018 8      -945.767          48.000
G22  20695460.164 8 108755405.526 8       610.445          51.000    20695457.391 8  84744427.219 8       475.672          51.000
G32  22465221.930 5 118055551.177 5     -1706.023          33.000    22465194.117 5  91991208.559 5     -1329.369          33.000
R07  19205821.625 8 102810316.415 8       143.047          50.000    19205823.602 7  79963623.082 7       111.259          47.000
R08  21323122.953 8 114184322.091 8      3531.113          48.000    21323127.070 7  88810082.549 7      2746.424          44.000
R21  21564684.391 8 115396973.618 8     -3260.129          49.000    21564689.047 7  89753186.632 7     -2535.656          43.000
R22  19242162.688 8 102715985.197 8       298.066          49.000    19242167.445 8  79890214.516 8       231.829          48.000
C19  21892388.430 8 113999540.993 8     -1212.492          51.000
C22  22636358.938 8 117873422.603 8      1880.309          51.000
C29  25416554.539 5 132350607.658 5     -3257.695          33.000
E07  23979217.039 8 126011722.852 8      -272.426          51.000    23979219.820 8  96554390.270 8      -208.730          51.000
E08  25102214.062 6 131913029.172 6     -2538.824          37.000    25102215.102 5 101076218.457 5     -1945.863          33.000
E13  26791236.383 6 140788907.510 6     -2451.934          36.000    26791243.836 6 107877229.033 6     -1878.706          36.000
E26  22519381.023 8 118340146.265 8      -680.812          51.000    22519383.633 8  90676220.436 8      -521.691          51.000
> 2020 05 09 19 36 30.0000000  0 17        .000000000000
G01  20377333.969 7 107083606.241 7       692.156          42.000    20377336.078 7  83441776.789 7       539.343          42.000
G03  21510959.969 8 113040881.128 8      2234.102          48.000    21510962.695 8  88083829.563 8      1740.861          48.000
G08  22336604.711 7 117379645.238 7     -3153.926          47.000    22336608.711 7  91464638.877 7     -2457.605          47.000
G11  20099558.641 8 105623902.727 8     -1232.105          50.000    20099557.625 8  82304347.081 8      -960.082          48.000
G14  21909424.195 5 115134798.984 5      -187.328          35.000    21909424.000 5  89715422.465 5      -145.979          35.000
G22  20692022.289 8 108737338.309 8       597.129          51.000    20692019.180 8  84730348.882 8       465.295          51.000
G32  22475020.125 6 118107036.338 6     -1723.332          36.000    22474990.406 5  92031326.590 5     -1342.856          35.000
R07  19205098.289 8 102806443.622 8       118.258          51.000    19205100.266 8  79960610.932 8        91.978          48.000
R08  21303390.883 8 114078655.415 8      3516.387          48.000    21303393.898 7  88727897.428 7      2734.970          42.000
R21  21583009.688 8 115495033.514 8     -3274.094          48.000    21583013.719 7  89829455.399 7     -2546.517          42.000
R22  19240555.375 8 102707405.022 8       277.176          50.000    19240560.312 7  79883541.028 7       215.581          47.000
C19  21899419.641 8 114036154.834 8     -1225.379          51.000
C22  22625571.133 8 117817246.364 8      1867.777          51.000
E07  23980821.844 8 126020156.345 8      -286.715          51.000    23980824.844 8  96560852.303 8      -219.640          51.000
E08  25116737.664 6 131989352.442 6     -2545.980          38.000    25116738.984 5 101134698.870 5     -1950.628          34.000
E13  26805255.961 5 140862588.329 5     -2457.035          35.000    26805265.344 5 107933685.794 5     -1882.400          35.000
E26  22523303.531 8 118360760.281 8      -690.379          51.000    22523306.422 8  90692015.583 8      -528.992          51.000
> 2020 05 09 19 37  0.0000000  0 18        .000000000000
G01  20373416.289 6 107063021.199 6       680.340          40.000    20373418.883 6  83425736.487 6       530.132          39.000
G03  21498240.523 8 112974039.194 8      2222.648          49.000    21498243.516 8  88031744.987 8      1731.934          49.000
G08  22354640.750 8 117474427.917 8     -3164.141          48.000    22354645.492 8  91538495.491 8     -2465.564          48.000
G11  20106644.867 8 105661142.741 8     -1249.875          49.000    20106644.367 8  82333365.264 8      -973.929          48.000
G14  21910548.000 5 115140707.315 5      -205.480          35.000    21910547.516 5  89720026.375 5      -160.106          35.000
G22  20688651.672 8 108719624.749 8       584.406          51.000    20688648.422 8  84716546.110 8       455.381          51.000
G32  22484908.367 5 118158999.391 5     -1740.949          33.000    22484884.609 5  92071817.050 5     -1356.587          32.000
R07  19204505.188 8 102803266.364 8        94.074          50.000    19204507.055 8  79958139.751 8        73.169          48.000
R08  21283733.281 8 113973385.597 8      3502.211          49.000    21283734.555 7  88646020.995 7      2723.945          42.000
R21  21601403.031 8 115593458.293 8     -3287.020          48.000    21601406.625 7  89906007.936 7     -2556.574          43.000
R22  19239056.727 8 102699402.787 8       256.918          51.000    19239061.320 7  79877317.053 7       199.825          47.000
C19  21906515.492 8 114073105.088 8     -1237.398          51.000
C22  22614846.586 8 117761401.805 8      1855.844          51.000
C29  25454167.570 6 132546520.896 6     -3268.172          37.000
E07  23982498.688 8 126028968.644 8      -300.164          51.000    23982501.883 8  96567604.596 8      -229.984          51.000
E08  25131291.414 6 132065833.713 6     -2552.289          38.000    25131293.219 5 101193301.400 5     -1955.459          34.000
E13  26819297.227 5 140936357.986 5     -2461.164          34.000    26819307.500 5 107990225.878 5     -1885.917          34.000
E26  22527271.891 8 118381614.407 8      -699.250          51.000    22527274.742 8  90707994.731 8      -535.759          51.000
> 2020 05 09 19 37 30.0000000  0 18        .000000000000
G01  20369571.977 6 107042819.888 6       668.406          41.000    20369574.742 6  83409995.212 6       520.836          41.000
G03  21485590.797 8 112907563.878 8      2210.938          48.000    21485593.352 8  87979946.104 8      1722.811          48.000
G08  22372739.055 8 117569534.706 8     -3174.316          49.000    22372744.094 8  91612604.656 8     -2473.496          49.000
G11  20113837.039 8 105698937.929 8     -1267.918          50.000    20113836.680 7  82362816.066 7      -987.985          47.000
G14  21911783.398 5 115147196.252 5      -224.562          34.000    21911780.641 5  89725082.640 5      -174.984          32.000
G22  20685357.562 8 108702314.503 8       571.453          51.000    20685354.453 8  84703057.623 8       445.291          50.000
G32  22494896.453 5 118211479.547 5     -1757.320          34.000    22494882.000 5  92112718.474 5     -1369.353          33.000
R07  19204051.086 8 102800834.819 8        69.828          49.000    19204052.719 7  79956248.550 7        54.311          47.000
R08  21264159.500 8 113868566.289 8      3487.602          48.000    21264160.203 7  88564494.951 7      2712.579          43.000
R21  21619873.500 7 115692297.580 7     -3300.281          46.000    21619876.078 7  89982882.921 7     -2566.885          42.000
R22  19237676.125 8 102692031.022 8       236.434          51.000    19237680.844 7  79871583.444 7       183.893          47.000
C19  21913685.422 8 114110440.013 8     -1249.738          51.000
C22  22604194.547 8 117705939.238 8      1843.516          50.000
C29  25473010.727 5 132644643.269 5     -3271.910          35.000
E07  23984257.008 8 126038209.308 8      -313.871          51.000    23984260.203 8  96574685.117 8      -240.541          51.000
E08  25145884.562 6 132142521.582 6     -2558.289          38.000    25145886.914 5 101252062.243 5     -1960.822          34.000
E13  26833369.727 5 141010308.387 5     -2466.301          35.000    26833379.078 5 108046897.650 5     -1889.963          30.000
E26  22531295.492 8 118402759.286 8      -708.500          50.000    22531298.352 8  90724196.661 8      -542.802          51.000
> 2020 05 09 19 38  0.0000000  0 18        .000000000000
G01  20365791.562 7 107022953.312 7       656.441          43.000    20365794.164 7  83394514.730 7       511.513          42.000
G03  21473001.078 7 112841405.886 7      2199.684          46.000    21473003.305 7  87928394.442 7      1714.039          46.000
G08  22390889.406 8 117664913.266 8     -3184.109          49.000    22390894.328 8  91686925.596 8     -2481.124          49.000
G11  20121125.492 8 105737238.249 8     -1285.344          50.000    20121124.750 8  82392660.465 8     -1001.567          48.000
G14  21913119.859 5 115154216.040 5      -243.453          35.000    21913116.977 5  89730552.561 5      -189.704          34.000
G22  20682130.734 8 108685357.450 8       559.062          51.000    20682127.273 8  84689844.365 8       435.633          50.000
G32  22504975.859 5 118264443.202 5     -1773.621          34.000    22504965.328 4  92153988.799 4     -1382.045          29.000
R07  19203726.445 8 102799097.066 8        46.055          49.000    19203728.062 7  79954896.962 7        35.820          47.000
R08  21244659.039 7 113764149.480 7      3473.598          44.000    21244661.586 7  88483281.933 7      2701.687          43.000
R21  21638409.359 6 115791498.612 6     -3313.395          38.000    21638412.180 6  90060039.328 6     -2577.079          40.000
R22  19236404.273 8 102685240.598 8       216.293          51.000    19236408.734 7  79866301.971 7       168.225          47.000
C19  21920919.086 8 114148108.681 8     -1261.492          51.000
C22  22593606.469 8 117650809.697 8      1831.750          51.000
C29  25491870.953 5 132742864.392 5     -3276.352          34.000
E07  23986087.375 8 126047827.819 8      -327.230          51.000    23986090.523 8  96582055.148 8      -250.762          51.000
E08  25160507.336 6 132219364.444 6     -2564.254          40.000    25160510.164 5 101310941.809 5     -1965.231          33.000
E13  26847463.633 5 141084366.991 5     -2470.730          33.000    26847470.320 5 108103637.271 5     -1892.978          31.000
E26  22535365.094 8 118424145.349 8      -717.145          51.000    22535368.055 8  90740583.398 8      -549.569          51.000
> 2020 05 09 19 38 30.0000000  0 18        .000000000000
G01  20362080.945 7 107003453.779 7       643.504          42.000    20362083.414 7  83379320.291 7       501.432          42.000
G03  21460478.055 7 112775597.323 7      2187.648          47.000    21460480.062 7  87877115.058 7      1704.664          46.000
G08  22409097.148 8 117760593.285 8     -3194.582          49.000    22409101.844 8  91761481.445 8     -2489.285          49.000
G11  20128515.992 8 105776074.616 8     -1303.715          50.000    20128514.961 8  82422922.553 8     -1015.882          49.000
G14  21914563.234 5 115161797.704 5      -262.395          34.000
G22  20678976.906 8 108668784.393 8       545.809          51.000    20678973.375 8  84676930.314 8       425.305          51.000
G32  22515147.391 5 118317898.049 5     -1790.328          30.000
R07  19203537.672 8 102798084.485 8        21.559          50.000    19203538.922 7  79954109.403 7        16.768          46.000
R08  21225238.281 7 113660169.152 7      3458.465          43.000    21225243.930 7  88402408.369 7      2689.920          42.000
R21  21657018.898 7 115891091.889 7     -3326.402          46.000    21657021.648 6  90137500.749 6     -2587.205          38.000
R22  19235247.867 8 102679065.412 8       195.406          51.000    19235251.469 7  79861499.051 7       151.983          47.000
C19  21928222.492 8 114186140.768 8     -1273.969          50.000
C22  22583089.625 8 117596045.027 8      1819.145          51.000
C29  25510754.602 5 132841213.922 5     -3280.711          33.000
E07  23987995.445 8 126057855.097 8      -341.141          51.000    23987998.953 8  96589738.399 8      -261.423          51.000
E08  25175165.500 6 132296392.179 6     -2570.820          40.000    25175168.492 5 101369963.065 5     -1970.134          33.000
E13  26861588.961 5 141158601.282 5     -2475.500          33.000    26861586.664 5 108160484.864 5     -1896.866          33.000
E26  22539486.812 8 118445804.539 8      -726.711          51.000    22539490.039 8  90757179.395 8      -556.815          51.000
> 2020 05 09 19 39  0.0000000  0 16        .000000000000
G01  20358438.148 7 106984311.576 7       632.441          42.000    20358440.508 7  83364404.285 7       492.815          42.000
G03  21448019.664 7 112710128.213 7      2177.098          46.000    21448021.633 7  87826100.205 7      1696.443          46.000
G08  22427359.602 8 117856561.633 8     -3203.266          48.000    22427364.281 8  91836261.974 8     -2496.051          48.000
G11  20136006.305 8 105815436.071 8     -1320.305          51.000    20136005.102 8  82453593.797 8     -1028.809          49.000
G22  20675893.875 8 108652584.178 8       534.234          51.000    20675890.805 8  84664306.772 8       416.287          51.000
R07  19203481.719 8 102797785.052 8        -1.445          50.000    19203482.883 7  79953876.525 7        -1.124          46.000
R08  21205900.992 7 113556617.373 7      3444.965          45.000    21205905.367 6  88321868.139 6      2679.420          41.000
R21  21675702.422 8 115991065.028 8     -3338.301          49.000    21675703.328 6  90215257.580 6     -2596.459          38.000
R22  19234204.727 8 102673496.244 8       175.988          51.000    19234208.336 8  79857167.461 8       136.880          48.000
C19  21935593.648 8 114224524.389 8     -1284.871          51.000
C22  22572641.617 8 117541635.283 8      1808.191          51.000
C29  25529661.094 6 132939679.987 6     -3283.793          37.000
E07  23989979.148 8 126068279.897 8      -353.613          51.000    23989982.844 8  96597726.240 8      -270.932          51.000
E08  25189856.586 6 132373592.579 6     -2575.570          40.000    25189859.711 5 101429116.562 5     -1973.166          33.000
E13  26875730.570 5 141232923.105 5     -2479.230          35.000    26875729.008 5 108217435.022 5     -1899.583          35.000
E26  22543658.711 8 118467726.661 8      -734.625          51.000    22543662.133 8  90773976.875 8      -562.888          51.000
> 2020 05 09 19 39 30.0000000  0 17        .000000000000
G01  20354862.969 7 106965524.285 7       620.793          43.000    20354865.367 7  83349764.856 7       483.735          43.000
G03  21435625.242 7 112644995.980 7      2165.766          44.000    21435627.594 7  87775347.839 7      1687.613          44.000
G08  22445675.805 8 117952812.637 8     -3212.602          49.000    22445680.211 8  91911262.754 8     -2503.326          49.000
G11  20143595.773 8 105855318.632 8     -1337.688          51.000    20143594.344 8  82484671.103 8     -1042.354          50.000
G14  21917764.703 5 115178630.306 5      -298.246          30.000
G22  20672881.352 8 108636753.378 8       521.973          51.000    20672878.500 8  84651971.078 8       406.732          51.000
R07  19203558.305 8 102798194.510 8       -25.078          51.000    19203559.523 7  79954195.007 7       -19.502          46.000
R08  21186645.078 7 113453493.398 7      3430.816          47.000    21186647.359 7  88241660.662 7      2668.416          42.000
R21  21694456.320 8 116091412.929 8     -3350.801          51.000    21694456.656 6  90293305.923 6     -2606.178          41.000
R22  19233274.930 8 102668531.413 8       155.836          51.000    19233278.500 8  79853305.920 8       121.206          49.000
C19  21943031.391 8 114263254.856 8     -1296.348          50.000
C22  22562261.117 8 117487577.868 8      1796.527          51.000
C29  25548591.461 6 133038258.011 6     -3287.355          38.000
E07  23992038.062 8 126079098.475 8      -366.773          51.000    23992041.359 8  96606015.792 8      -281.013          51.000
E08  25204579.578 6 132450960.859 6     -2581.352          40.000    25204582.727 5 101488398.783 5     -1977.970          32.000
E13  26889897.031 5 141307362.943 5     -2483.273          35.000    26889895.555 5 108274480.958 5     -1902.654          35.000
E26  22547880.102 8 118489908.979 8      -743.320          51.000    22547883.352 8  90790973.707 8      -569.557          51.000
> 2020 05 09 19 40  0.0000000  0 17        .000000000000
G01  20351343.547 7 106947030.070 7       607.785          42.000    20351346.273 7  83335353.809 7       473.602          42.000
G03  21423283.211 7 112580138.529 7      2153.367          45.000    21423285.648 7  87724809.588 7      1677.948          45.000
G08  22464033.609 8 118049281.396 8     -3222.992          50.000    22464037.555 8  91986433.208 8     -2511.422          50.000
G11  20151272.430 8 105895659.343 8     -1356.117          50.000    20151270.930 8  82516105.427 8     -1056.715          50.000
G22  20669927.133 8 108621228.977 8       508.621          51.000    20669924.234 8  84639874.156 8       396.328          50.000
G32  22546223.062 6 118481177.502 6     -1839.645          36.000
R07  19203755.023 8 102799247.958 8       -49.598          51.000    19203756.281 7  79955014.378 7       -38.576          46.000
R08  21167457.562 7 113350735.792 7      3415.227          47.000    21167458.812 7  88161738.144 7      2656.290          43.000
R21  21713267.320 8 116192070.115 8     -3364.113          49.000    21713268.914 7  90371594.813 7     -2616.536          44.000
R22  19232446.406 8 102664108.660 8       134.527          51.000    19232450.047 8  79849865.978 8       104.632          49.000
C19  21950523.500 8 114302268.629 8     -1308.938          50.000
C22  22551936.055 8 117433811.266 8      1783.645          51.000
C29  25567532.523 6 133136884.540 6     -3292.152          40.000
E07  23994159.648 8 126090247.397 8      -380.922          51.000    23994163.039 8  96614558.491 8      -291.869          51.000
E08  25219322.250 6 132528432.630 6     -2587.969          40.000    25219325.297 5 101547771.227 5     -1982.947          32.000
E13  26904075.922 6 141381873.832 6     -2488.816          36.000    26904073.320 6 108331574.460 6     -1907.102          38.000
E26  22552139.125 8 118512289.177 8      -753.078          51.000    22552141.891 8  90808122.160 8      -577.082          51.000
> 2020 05 09 19 40 30.0000000  0 17        .000000000000
G01  20347908.133 7 106928977.166 7       596.094          43.000    20347911.312 7  83321286.597 7       464.489          43.000
G03  21411021.898 7 112515703.791 7      2142.582          46.000    21411024.305 7  87674600.745 7      1669.544          46.000
G08  22482460.492 8 118146112.781 8     -3232.012          50.000    22482463.414 8  92061886.201 8     -2518.454          50.000
G11  20159063.984 8 105936605.101 8     -1373.203          49.000    20159062.891 8  82548011.223 8     -1070.028          48.000
G22  20667058.914 8 108606157.523 8       496.535          51.000    20667055.938 8  84628130.196 8       386.911          50.000
G32  22556772.664 6 118536613.625 6     -1855.020          37.000    22556764.383 5  92366187.137 5     -1445.473          35.000
R07  19204099.906 8 102801094.258 8       -73.012          51.000    19204101.109 7  79956450.395 7       -56.787          46.000
R08  21148366.609 8 113248496.742 8      3401.070          49.000    21148367.109 7  88082218.942 7      2645.277          44.000
R21  21732163.000 7 116293184.787 7     -3376.340          47.000    21732166.633 7  90450239.529 7     -2626.042          45.000
R22  19231748.094 8 102660379.331 8       114.406          51.000    19231751.047 8  79846965.426 8        88.983          49.000
C19  21958097.867 8 114341710.171 8     -1320.105          50.000
C22  22541694.438 8 117380482.042 8      1772.016          51.000
C29  25586511.398 7 133235704.173 7     -3295.539          43.000
E07  23996371.992 8 126101873.447 8      -393.785          51.000    23996375.617 8  96623466.781 8      -301.743          51.000
E08  25234112.227 6 132606153.675 6     -2593.105          39.000    25234115.672 5 101607326.756 5     -1986.907          31.000
E13  26918293.070 6 141456594.599 6     -2492.270          36.000    26918291.320 6 108388828.007 6     -1909.688          39.000
E26  22556463.883 8 118535015.055 8      -761.582          51.000    22556466.234 8  90825535.482 8      -583.532          51.000
> 2020 05 09 19 41  0.0000000  0 19        .000000000000
G01  20344543.523 7 106911295.927 7       586.785          44.000    20344546.781 7  83307509.018 7       457.235          44.000
G03  21398827.867 7 112451621.982 7      2133.656          47.000    21398829.906 7  87624666.922 7      1662.592          47.000
G08  22500942.461 8 118243234.127 8     -3238.762          50.000    22500944.164 8  92137565.130 8     -2523.713          50.000
G11  20166957.172 8 105978084.841 8     -1388.098          50.000    20166956.492 8  82580333.092 8     -1081.635          50.000
G22  20664263.523 8 108591468.395 8       486.781          51.000    20664260.328 8  84616684.130 8       379.310          50.000
G32  22567417.578 6 118592545.111 6     -1868.773          36.000    22567406.469 6  92409770.132 6     -1456.184          36.000
R06  21423128.758 5 114317900.589 5     -3506.180          31.000
R07  19204579.266 8 102803660.137 8       -93.902          51.000    19204580.484 7  79958446.100 7       -73.035          46.000
R08  21129359.133 8 113146707.341 8      3389.055          48.000    21129359.055 7  88003049.463 7      2635.931          44.000
R21  21751129.992 7 116394683.316 7     -3386.098          47.000    21751135.445 7  90529182.893 7     -2633.632          45.000
R22  19231166.219 8 102657273.365 8        96.648          51.000    19231169.195 8  79844549.669 8        75.171          50.000
C19  21965740.734 8 114381508.218 8     -1329.113          50.000
C20  26090008.695 4 135857520.289 4     -3085.312          28.000
C22  22531522.883 8 117327520.872 8      1762.672          51.000
C29  25605514.211 7 133334645.634 7     -3296.539          45.000
E07  23998661.758 8 126113905.508 8      -404.395          51.000    23998665.016 8  96632686.160 8      -309.852          51.000
E08  25248935.766 6 132684051.894 6     -2595.949          37.000    25248940.156 5 101667019.004 5     -1989.251          31.000
E13  26932536.234 6 141531453.508 6     -2494.168          37.000    26932536.633 6 108446187.409 6     -1910.978          38.000
E26  22560840.969 8 118558016.520 8      -767.770          51.000    22560843.094 8  90843159.963 8      -588.282          51.000
> 2020 05 09 19 41 30.0000000  0 16        .000000000000
G01  20341244.875 7 106893960.476 7       568.520          46.000    20341247.805 7  83294000.846 7       443.002          46.000
G03  21386695.945 7 112387866.868 7      2116.320          47.000    21386697.281 7  87574987.635 7      1649.081          47.000
G08  22519473.812 8 118340616.534 8     -3253.781          48.000    22519475.234 8  92213447.491 8     -2535.414          48.000
G11  20174947.062 8 106020071.065 8     -1411.344          51.000    20174946.203 8  82613049.635 8     -1099.748          49.000
G22  20661535.766 8 108577134.357 8       468.418          51.000    20661532.461 8  84605514.748 8       365.001          50.000
R07  19205187.422 8 102806917.427 8      -123.602          51.000    19205189.031 7  79960979.589 7       -96.135          46.000
R08  21110429.602 8 113045342.587 8      3368.094          48.000    21110430.078 7  87924210.239 7      2619.628          44.000
R21  21770163.578 7 116496536.815 7     -3404.441          47.000    21770170.133 7  90608402.299 7     -2647.899          45.000
R22  19230696.578 8 102654765.143 8        70.102          51.000    19230699.312 8  79842598.846 8        54.523          49.000
C19  21973446.453 8 114421634.718 8     -1346.449          50.000
C22  22521416.906 8 117274901.778 8      1744.793          51.000
C29  25624535.125 7 133433681.045 7     -3306.102          46.000
E07  24001023.383 8 126126316.100 8      -423.402          51.000    24001026.383 8  96642195.594 8      -324.425          51.000
E08  25263787.625 6 132762098.949 6     -2607.352          36.000    25263792.898 5 101726824.280 5     -1997.512          30.000
E13  26946800.734 6 141606423.468 6     -2504.531          37.000    26946803.570 6 108503631.936 6     -1918.796          38.000
E26  22565265.414 8 118581267.207 8      -782.598          51.000    22565267.617 8  90860975.402 8      -599.671          51.000
> 2020 05 09 19 42  0.0000000  0 16        .000000000000
G01  20338019.422 7 106877009.538 7       560.055          47.000    20338021.938 7  83280792.325 7       436.406          47.000
G03  21374633.445 7 112324476.892 7      2108.570          47.000    21374634.812 7  87525592.882 7      1643.045          47.000
G08  22538060.906 7 118438295.173 7     -3259.328          46.000    22538062.789 7  92289560.714 7     -2539.736          46.000
G11  20183040.453 8 106062601.222 8     -1425.125          51.000    20183039.281 8  82646190.010 8     -1110.487          48.000
G22  20658882.703 8 108563192.686 8       459.691          51.000    20658879.453 8  84594651.116 8       358.201          51.000
R07  19205931.641 8 102810903.408 8      -143.305          51.000    19205933.648 7  79964079.799 7      -111.459          47.000
R08  21091586.297 7 112944443.662 7      3357.098          47.000    21091587.922 7  87845733.291 7      2611.079          44.000
R21  21789270.102 7 116598782.367 7     -3412.879          45.000    21789276.742 7  90687926.609 7     -2654.464          43.000
R22  19230346.062 8 102652894.356 8        53.297          50.000    19230348.727 8  79841143.816 8        41.453          50.000
C19  21981222.289 8 114462125.664 8     -1354.324          51.000
C22  22511384.922 8 117222662.763 8      1736.535          51.000
C29  25643580.438 7 133532846.534 7     -3306.043          47.000
E07  24003464.211 8 126139142.436 8      -432.863          51.000    24003467.219 8  96652023.581 8      -331.704          51.000
E08  25278674.594 5 132840331.081 5     -2609.027          35.000    25278680.773 4 101786771.412 4     -1999.598          29.000
E13  26961094.328 6 141681541.919 6     -2504.797          39.000    26961098.664 6 108561190.247 6     -1919.206          39.000
E26  22569744.586 8 118604805.352 8      -787.812          51.000    22569747.109 8  90879011.104 8      -603.661          51.000
> 2020 05 09 19 42 30.0000000  0 18        .000000000000
G01  20334861.531 7 106860413.507 7       547.207          47.000    20334863.555 7  83267860.357 7       426.395          47.000
G03  21362634.469 7 112261422.422 7      2096.031          46.000    21362636.570 7  87476459.550 7      1633.271          46.000
G08  22556697.914 7 118536237.893 7     -3269.383          46.000    22556700.664 7  92365879.727 7     -2547.571          46.000
G11  20191231.336 8 106105644.489 8     -1443.508          51.000    20191230.258 8  82679730.188 8     -1124.814          48.000
G22  20656298.617 8 108549612.638 8       446.426          51.000    20656295.352 8  84584069.275 8       347.864          51.000
G32  22599889.312 5 118763219.086 5     -1920.707          34.000
R06  21482569.867 5 114635094.423 5     -3539.906          30.000
R07  19206806.047 8 102815586.131 8      -167.816          50.000    19206808.398 7  79967721.941 7      -130.524          46.000
R08  21072824.828 8 112843981.890 8      3341.309          48.000    21072827.125 7  87767596.406 7      2598.796          43.000
R21  21808443.773 7 116701387.090 7     -3426.293          45.000    21808449.344 6  90767730.260 6     -2664.895          41.000
R22  19230109.680 8 102651631.961 8        31.750          50.000    19230112.281 8  79840161.979 8        24.697          50.000
C19  21989062.305 8 114502949.660 8     -1366.438          51.000
C22  22501421.227 8 117170774.386 8      1723.570          51.000
C29  25662643.984 7 133632110.739 7     -3310.742          46.000
E07  24005978.281 8 126152353.623 8      -446.973          51.000    24005981.312 8  96662146.447 8      -342.495          51.000
E08                                                                  25293597.438 5 101846834.853 5     -2004.297          30.000
E13  26975410.961 6 141756778.234 6     -2510.043          40.000    26975415.828 6 108618838.850 6     -1923.316          39.000
E26  22574272.875 8 118628601.133 8      -797.629          51.000    22574275.281 8  90897244.227 8      -611.143          51.000
> 2020 05 09 19 43  0.0000000  0 19        .000000000000
G01  20331772.773 7 106844180.767 7       532.102          47.000    20331774.570 8  83255211.490 8       414.625          48.000
G03  21350700.469 7 112198711.451 7      2081.848          45.000    21350703.148 7  87427593.825 7      1622.216          45.000
G08  22575386.359 7 118634449.423 7     -3280.949          46.000    22575389.906 7  92442408.201 7     -2556.584          46.000
G11  20199521.102 8 106149207.686 8     -1463.629          51.000    20199520.383 8  82713675.487 8     -1140.493          49.000
G14  21932270.695 6 115254867.320 6      -430.109          37.000    21932265.227 5  89808959.396 5      -335.153          35.000
G22  20653784.656 8 108536401.297 8       431.410          51.000    20653781.539 8  84573774.735 8       336.164          51.000
G32  22610900.367 5 118821084.686 5     -1938.676          35.000    22610901.602 5  92587889.512 5     -1510.653          35.000
R06  21502501.688 5 114741430.081 5     -3552.137          32.000
R07  19207811.789 8 102820971.597 8      -194.039          50.000    19207814.203 7  79971910.653 7      -150.919          46.000
R08  21054147.305 8 112743967.487 8      3323.438          48.000    21054149.570 7  87689807.493 7      2584.896          42.000
R21  21827685.203 7 116804356.714 7     -3441.227          44.000    21827690.727 7  90847817.752 7     -2676.510          42.000
R22  19229988.594 8 102650986.711 8         8.395          50.000    19229991.719 8  79839660.128 8         6.529          50.000
C19  21996967.164 8 114544112.569 8     -1380.609          51.000
C22  22491526.656 8 117119244.599 8      1708.875          51.000
C29  25681727.031 7 133731479.539 7     -3316.855          44.000
E07  24008566.680 8 126165956.360 8      -462.699          51.000    24008569.672 8  96672569.341 8      -354.578          51.000
E08                                                                  25308544.391 5 101907020.189 5     -2010.310          31.000
E13  26989751.398 6 141832139.514 6     -2516.992          40.000    26989756.398 6 108676583.172 6     -1928.562          37.000
E26  22578851.586 8 118652662.347 8      -809.293          51.000    22578853.719 8  90915680.754 8      -620.111          51.000
> 2020 05 09 19 43 30.0000000  0 17        .000000000000
G01  20328744.305 8 106828265.915 8       525.664          48.000    20328746.305 8  83242810.315 8       409.608          48.000
G03  21338823.820 7 112136298.167 7      2076.086          46.000    21338826.305 7  87378960.125 7      1617.732          46.000
G08  22594117.203 7 118732881.274 7     -3284.082          47.000    22594120.797 7  92519108.325 7     -2559.025          47.000
G11  20207900.906 8 106193243.885 8     -1475.164          50.000    20207900.156 8  82747989.368 8     -1149.482          48.000
G22  20651331.820 8 108523511.811 8       424.910          51.000    20651328.781 8  84563731.000 8       331.099          51.000
G32  22621988.953 5 118879359.573 5     -1948.992          35.000    22621990.969 5  92633298.455 5     -1518.692          34.000
R07  19208940.039 8 102827011.547 8      -211.652          50.000    19208942.617 7  79976608.408 7      -164.618          47.000
R08  21035544.812 8 112644355.414 8      3314.246          48.000    21035547.297 7  87612331.517 7      2577.750          44.000
R21  21846986.836 8 116907642.446 8     -3447.461          48.000    21846992.250 7  90928151.066 7     -2681.359          44.000
R22  19229974.414 8 102650913.141 8        -6.520          51.000    19229977.977 8  79839602.901 8        -5.071          49.000
C19  22004928.125 8 114585567.005 8     -1386.039          51.000
C22  22481691.430 8 117068028.007 8      1702.625          51.000
C29  25700820.141 6 133830905.681 6     -3314.387          40.000
E07  24011220.727 8 126179903.727 8      -470.133          51.000    24011223.695 8  96683256.298 8      -360.193          51.000
E08                                                                  25323512.562 5 101967289.722 5     -2009.804          31.000
E13  27004106.992 6 141907579.084 6     -2515.258          41.000    27004111.312 6 108734387.483 6     -1927.332          36.000
E26  22583471.930 8 118676943.197 8      -812.438          51.000    22583474.180 8  90934285.555 8      -622.550          51.000
> 2020 05 09 19 44  0.0000000  0 18        .000000000000
G01  20325809.734 8 106812845.154 8       511.809          48.000    20325812.086 8  83230794.128 8       398.812          48.000
G03  21327037.461 7 112074358.557 7      2062.594          46.000    21327039.859 7  87330695.544 7      1607.216          45.000
G08  22612923.242 8 118831706.411 8     -3294.801          49.000    22612926.297 8  92596114.902 8     -2567.377          49.000
G11  20216403.773 8 106237928.137 8     -1494.438          49.000    20216403.008 7  82782808.264 7     -1164.497          47.000
G14  21937365.828 6 115281643.576 6      -462.617          36.000    21937363.266 5  89829844.931 5      -360.484          32.000
G22  20648973.656 8 108511119.152 8       410.809          51.000    20648970.367 8  84554074.386 8       320.111          51.000
G32  22633180.305 5 118938164.991 5     -1965.820          32.000
R07  19210223.867 8 102833883.235 8      -236.922          50.000    19210226.508 7  79981953.076 7      -184.270          46.000
R08  21017051.836 8 112545326.735 8      3297.195          48.000    21017054.344 7  87535309.252 7      2564.488          45.000
R21  21866381.742 8 117011420.968 8     -3461.492          50.000    21866386.016 7  91008867.671 7     -2692.272          43.000
R22  19230101.398 8 102651590.969 8       -29.074          51.000    19230104.656 8  79840130.132 8       -22.613          49.000
C19  22012978.211 8 114627485.262 8     -1399.156          51.000
C22  22471948.773 8 117017298.890 8      1688.734          51.000
C29  25719956.703 6 133930561.598 6     -3319.742          38.000
E07  24013973.641 8 126194370.372 8      -485.180          51.000    24013976.797 8  96694341.140 8      -371.704          51.000
E08                                                                  25338534.844 5 102027779.592 5     -2015.581          31.000
E13  27018511.039 7 141983271.910 7     -2521.625          43.000    27018514.852 6 108792385.866 6     -1931.975          38.000
E26  22588167.680 8 118701619.361 8      -823.246          51.000    22588170.172 8  90953193.263 8      -630.850          51.000
> 2020 05 09 19 44 30.0000000  0 18        .000000000000
G01  20322927.266 8 106797697.676 8       498.996          49.000    20322929.727 8  83218990.895 8       388.828          49.000
G03  21315298.805 7 112012671.592 7      2050.734          44.000    21315301.641 7  87282627.785 7      1597.972          44.000
G08  22631761.641 8 118930700.782 8     -3303.977          49.000    22631764.148 8  92673253.329 8     -2574.530          49.000
G11  20224987.664 8 106283038.018 8     -1511.961          49.000    20224986.789 8  82817958.848 8     -1178.151          48.000
G14  21940063.672 6 115295825.965 6      -481.504          36.000    21940060.688 5  89840896.127 5      -375.198          34.000
G22  20646667.836 8 108499001.184 8       398.082          51.000    20646664.352 8  84544631.816 8       310.194          51.000
G32  22644443.539 4 118997353.384 4     -1982.734          29.000
R07  19211620.773 8 102841359.452 8      -260.488          50.000    19211622.859 7  79987767.916 7      -202.602          46.000
R08  20998625.680 7 112446658.177 7      3281.629          46.000    20998629.477 7  87458567.098 7      2552.381          46.000
R21  21885826.031 8 117115464.815 8     -3473.766          48.000    21885829.055 7  91089790.666 7     -2701.818          42.000
R22  19230326.938 8 102652796.269 8       -50.242          51.000    19230330.633 8  79841067.576 8       -39.077          49.000
C19  22021074.664 8 114669646.248 8     -1410.648          51.000
C22  22462257.461 8 116966838.099 8      1676.273          51.000
C29  25739094.820 6 134030226.134 6     -3323.176          39.000
E07  24016782.898 8 126209133.943 8      -498.316          51.000    24016786.258 8  96705653.504 8      -381.812          51.000
E08                                                                  25353568.719 5 102088314.688 5     -2019.256          31.000
E13  27032921.352 7 142058995.957 7     -2525.891          42.000    27032925.703 6 108850408.176 6     -1935.423          41.000
E26  22592896.555 8 118726469.612 8      -832.547          51.000    22592899.312 8  90972234.357 8      -637.899          51.000
> 2020 05 09 19 45  0.0000000  0 16        .000000000000
G01  20320138.039 8 106783039.871 8       481.035          49.000    20320140.469 8  83207569.244 8       374.833          49.000
G03  21303648.820 7 111951453.398 7      2033.332          44.000    21303652.094 7  87234925.258 7      1584.415          43.000
G08  22650672.789 8 119030078.165 8     -3318.332          48.000    22650674.992 8  92750690.186 8     -2585.713          48.000
G11  20233693.641 8 106328788.139 8     -1535.148          50.000    20233692.969 8  82853608.295 8     -1196.220          49.000
G14  21942889.641 6 115310677.403 6      -505.902          37.000    21942888.914 6  89852468.615 6      -394.216          36.000
G22  20644455.102 8 108487372.855 8       380.000          51.000    20644451.867 8  84535570.796 8       296.104          51.000
R07  19213171.375 8 102849658.566 8      -289.707          50.000    19213173.445 7  79994222.799 7      -225.328          47.000
R08  20980307.570 7 112348571.770 7      3260.340          45.000    20980313.055 7  87382277.679 7      2535.820          46.000
R21  21905359.625 7 117219991.680 7     -3491.691          47.000    21905362.375 6  91171089.321 6     -2715.760          41.000
R22  19230692.836 8 102654749.306 8       -77.074          51.000    19230696.484 8  79842586.601 8       -59.947          48.000
C19  22029258.531 8 114712262.062 8     -1427.523          51.000
C22  22452659.367 8 116916859.659 8      1658.457          51.000
C29  25758276.602 6 134130111.651 6     -3332.531          39.000
E07  24019689.648 8 126224409.322 8      -517.152          51.000    24019692.906 8  96717358.026 8      -396.278          51.000
E13  27047378.062 6 142134966.501 6     -2535.926          39.000    27047383.500 6 108908619.402 6     -1943.124          41.000
E26  22597699.547 8 118751709.997 8      -847.281          51.000    22597702.516 8  90991574.384 8      -649.227          51.000
> 2020 05 09 19 45 30.0000000  0 16        .000000000000
G01  20317401.281 8 106768658.035 8       474.109          50.000    20317403.656 8  83196362.620 8       369.439          50.000
G03  21292047.648 7 111890489.811 7      2027.102          45.000    21292050.633 7  87187421.182 7      1579.560          44.000
G08  22669615.070 7 119129620.956 7     -3321.668          46.000    22669617.492 7  92828255.952 7     -2588.313          47.000
G11  20242480.797 8 106374963.512 8     -1547.027          51.000    20242480.211 8  82889589.091 8     -1205.473          49.000
G14  21945800.023 5 115325960.414 5      -518.086          35.000    21945803.570 5  89864376.706 5      -403.688          32.000
G22  20642294.602 8 108476019.261 8       373.176          51.000    20642291.586 8  84526723.846 8       290.786          51.000
R07  19214834.445 8 102858560.356 8      -307.445          50.000    19214836.344 7  80001146.419 7      -239.124          47.000
R08  20962057.883 7 112250851.426 7      3250.434          45.000    20962064.438 7  87306272.994 7      2528.118          46.000
R21  21924942.500 8 117324781.154 8     -3498.109          48.000    21924944.211 6  91252592.195 6     -2720.755          38.000
R22  19231158.297 8 102657233.577 8       -92.461          51.000    19231161.430 7  79844518.814 7       -71.914          47.000
C19  22037488.641 8 114755118.602 8     -1433.285          51.000
C22  22443113.711 8 116867151.465 8      1651.707          51.000
C29  25777460.891 6 134230004.094 6     -3330.484          40.000
E07  24022652.812 8 126239981.181 8      -524.770          51.000    24022656.219 8  96729289.711 8      -402.114          51.000
E13  27061840.789 6 142210968.612 6     -2534.574          40.000    27061846.984 6 108966854.785 6     -1942.073          41.000
E26  22602535.906 8 118777126.227 8      -850.863          51.000    22602538.969 8  91011049.158 8      -651.972          51.000
> 2020 05 09 19 46  0.0000000  0 16        .000000000000
G01  20314731.438 8 106754628.180 8       461.461          49.000    20314733.523 8  83185430.279 8       359.580          49.000
G03  21280509.742 7 111829856.686 7      2015.402          45.000    21280511.625 7  87140174.637 7      1570.443          46.000
G08  22688602.305 7 119229402.017 7     -3330.027          45.000    22688605.508 7  92906007.414 7     -2594.827          45.000
G11  20251363.016 8 106421638.529 8     -1564.375          51.000    20251362.141 8  82925959.235 8     -1218.994          50.000
G14  21948815.273 6 115341789.181 6      -536.871          37.000    21948813.016 5  89876714.562 5      -418.341          35.000
G22  20640200.664 8 108465015.055 8       360.715          51.000    20640197.484 8  84518149.140 8       281.077          51.000
R07  19216624.102 8 102868140.254 8      -330.879          49.000    19216625.914 7  80008597.451 7      -257.350          47.000
R08  20943892.227 7 112153575.467 7      3234.938          47.000    20943898.648 7  87230613.962 7      2516.062          46.000
R21  21944587.773 7 117429907.974 7     -3510.156          46.000    21944588.258 6  91334357.403 6     -2730.125          39.000
R22  19231737.867 8 102660326.798 8      -113.594          51.000    19231741.008 8  79846924.629 8       -88.354          48.000
C19  22045778.992 8 114798288.816 8     -1444.449          51.000
C22  22433634.391 8 116817788.501 8      1639.395          51.000
C29  25796661.258 6 134329976.472 6     -3333.996          40.000
E07  24025686.602 8 126255923.973 8      -537.926          51.000    24025690.258 8  96741505.631 8      -412.180          51.000
E13  27076323.914 6 142287076.987 6     -2538.887          41.000    27076329.969 6 109025171.675 6     -1945.506          40.000
E26  22607420.227 8 118802793.891 8      -860.082          51.000    22607423.352 8  91030716.597 8      -659.021          51.000
> 2020 05 09 19 46 30.0000000  0 16        .000000000000
G01  20312133.750 8 106740977.931 8       448.547          50.000    20312135.586 8  83174793.746 8       349.517          50.000
G03  21269040.070 7 111769581.360 7      2003.172          47.000    21269041.070 7  87093206.863 7      1560.913          47.000
G08  22707639.898 7 119329446.153 7     -3339.348          47.000    22707643.711 7  92983963.859 7     -2602.092          47.000
G11  20260345.016 8 106468839.088 8     -1582.199          51.000    20260344.164 8  82962738.907 8     -1232.883          49.000
G14  21951934.547 5 115358177.861 5      -555.465          33.000
G22  20638178.008 8 108454386.235 8       347.832          51.000    20638174.828 8  84509866.953 8       271.038          51.000
R07  19218545.477 8 102878423.797 8      -354.633          48.000    19218546.992 7  80016595.773 7      -275.826          47.000
R08  20925816.188 8 112056773.765 8      3218.668          49.000    20925821.305 7  87155323.812 7      2503.411          45.000
R21  21964299.766 7 117535397.682 7     -3522.531          45.000    21964302.711 7  91416404.844 7     -2739.750          43.000
R22  19232437.000 8 102664057.435 8      -135.066          51.000    19232439.891 7  79849826.206 7      -105.052          47.000
C19  22054134.641 8 114841797.823 8     -1456.047          51.000
C22  22424225.992 8 116768797.819 8      1626.660          51.000
C29  25815881.711 6 134430054.017 6     -3337.535          39.000
E07  24028796.086 8 126272263.823 8      -551.457          51.000    24028799.562 8  96754025.782 8      -422.527          51.000
E13  27090832.352 6 142363318.186 6     -2543.637          41.000    27090837.625 6 109083590.285 6     -1949.191          41.000
E26  22612357.547 8 118828740.221 8      -869.688          51.000    22612360.922 8  91050597.537 8      -666.369          51.000
> 2020 05 09 19 47  0.0000000  0 16        .000000000000
G01  20309599.719 8 106727661.625 8       431.879          50.000    20309601.539 8  83164417.422 8       336.529          50.000
G03  21257629.719 7 111709617.730 7      1987.129          46.000    21257630.906 7  87046482.019 7      1548.415          45.000
G08  22726718.633 8 119429704.245 8     -3351.730          48.000    22726722.555 8  93062087.018 8     -2611.738          48.000
G11  20269417.805 8 106516518.431 8     -1603.539          50.000    20269417.164 8  82999891.665 8     -1249.508          49.000
G22  20636217.859 8 108444086.199 8       331.566          51.000    20636214.844 8  84501840.960 8       258.363          51.000
G32  22702211.750 5 119300900.693 5     -2065.750          34.000    22702214.945 5  92961761.528 5     -1609.678          34.000
R07  19220588.328 7 102889362.280 7      -382.184          47.000    19220590.039 7  80025103.487 7      -297.254          47.000
R08  20907820.898 8 111960401.607 8      3198.848          50.000    20907824.180 7  87080367.740 7      2487.996          45.000
R21  21984071.078 7 117641200.738 7     -3538.375          46.000    21984076.359 7  91498696.120 7     -2752.069          45.000
R22  19233246.852 8 102668379.338 8      -160.301          51.000    19233248.773 7  79853187.668 7      -124.678          46.000
C19  22062546.047 8 114885598.014 8     -1471.059          51.000
C22  22414879.711 8 116720133.762 8      1610.477          50.000
C29  25835112.641 6 134530189.180 6     -3345.414          36.000
E07  24031971.953 8 126288953.431 8      -568.445          51.000    24031975.305 8  96766813.923 8      -435.568          51.000
E13  27105357.352 7 142439645.185 7     -2551.910          43.000    27105361.125 6 109142074.546 6     -1955.333          40.000
E26  22617339.117 8 118854919.019 8      -882.785          51.000    22617342.727 8  91070656.608 8      -676.435          51.000
> 2020 05 09 19 47 30.0000000  0 15        .000000000000
G01  20307154.430 8 106714811.272 8       423.777          50.000    20307156.414 8  83154404.172 8       330.216          50.000
G03  21246303.047 7 111650097.592 7      1980.008          43.000    21246304.555 7  87000102.714 7      1542.863          43.000
G08  22745862.578 8 119530305.492 8     -3355.867          48.000    22745866.422 8  93140477.570 8     -2614.964          49.000
G11  20278606.586 8 106564806.928 8     -1616.387          50.000    20278606.266 8  83037519.092 8     -1259.522          50.000
G22  20634345.359 8 108434245.760 8       323.676          51.000    20634342.328 8  84494173.086 8       252.215          51.000
R07  19222778.891 7 102901087.698 7      -400.582          47.000    19222780.758 8  80034223.213 8      -311.564          48.000
R08  20889930.891 8 111864594.378 8      3187.535          49.000    20889932.203 7  87005851.067 7      2479.194          43.000
R21  22003926.086 7 117747449.024 7     -3545.637          47.000    22003932.156 7  91581333.680 7     -2757.717          45.000
R22  19234192.398 8 102673427.227 8      -177.016          51.000    19234193.859 7  79857113.802 7      -137.679          46.000
C19  22071037.766 8 114929817.827 8     -1477.730          51.000
C22  22405621.500 8 116671926.750 8      1602.523          51.000
C29  25854378.914 5 134630510.579 5     -3343.680          32.000
E07  24035239.242 8 126306123.251 8      -577.023          51.000    24035242.711 8  96779970.015 8      -442.105          51.000
E13  27119923.711 7 142516188.816 7     -2551.809          43.000    27119924.805 6 109200724.827 6     -1955.285          38.000
E26  22622390.109 8 118881461.870 8      -887.508          51.000    22622393.805 8  91090994.629 8      -680.101          51.000
> 2020 05 09 19 48  0.0000000  0 15        .000000000000
G01  20304773.320 8 106702298.263 8       410.887          50.000    20304775.344 8  83144653.783 8       320.171          50.000
G03  21235036.117 7 111590891.992 7      1967.770          43.000    21235037.711 7  86953968.504 7      1533.327          44.000
G08  22765046.547 8 119631117.684 8     -3364.469          48.000    22765050.297 8  93219032.513 8     -2621.664          48.000
G11  20287886.844 8 106613574.556 8     -1634.078          51.000    20287886.695 8  83075519.857 8     -1273.308          50.000
G22  20632535.555 8 108424734.659 8       310.953          51.000    20632532.430 8  84486761.859 8       242.301          51.000
R07  19225090.969 8 102913466.692 8      -424.148          48.000    19225093.383 8  80043851.337 8      -329.896          48.000
R08  20872121.516 8 111769222.689 8      3171.207          49.000    20872121.672 7  86931673.148 7      2466.497          43.000
R21  22023839.750 8 117854009.043 8     -3557.719          48.000    22023845.172 7  91664213.715 7     -2767.112          45.000
R22  19235249.656 8 102679070.748 8      -198.562          51.000    19235251.125 7  79861503.205 7      -154.438          47.000
C19  22079585.602 8 114974327.538 8     -1489.039          51.000
C22  22396427.438 8 116624048.860 8      1589.918          51.000
C29  25873654.180 5 134730912.528 5     -3347.676          31.000
E07  24038573.211 8 126323643.016 8      -590.262          50.000    24038576.727 8  96793394.252 8      -452.258          51.000
E13  27134506.289 7 142592819.234 7     -2556.297          42.000    27134505.906 6 109259441.633 6     -1958.607          39.000
E26  22627485.953 8 118908239.693 8      -896.969          51.000    22627489.484 8  91111512.695 8      -687.303          51.000
> 2020 05 09 19 48 30.0000000  0 15        .000000000000
G01  20302464.188 8 106690164.139 8       398.102          50.000    20302466.203 8  83135198.624 8       310.209          50.000
G03  21223837.266 7 111532042.104 7      1955.707          44.000    21223839.023 7  86908111.485 7      1523.928          44.000
G08  22784278.000 8 119732179.250 8     -3372.777          48.000    22784281.805 8  93297781.775 8     -2628.138          48.000
G11  20297265.930 8 106662860.974 8     -1651.480          51.000    20297265.383 8  83113924.850 8     -1286.871          49.000
G22  20630796.016 8 108415593.001 8       298.629          51.000    20630792.820 8  84479638.513 8       232.698          51.000
R07  19227533.320 8 102926539.045 8      -447.227          48.000    19227535.492 8  80054018.698 8      -347.843          49.000
R08  20854400.688 8 111674330.083 8      3155.039          48.000    20854401.477 7  86857867.851 7      2453.922          44.000
R21  22043818.781 7 117960920.133 7     -3569.594          46.000    22043823.242 7  91747366.816 7     -2776.351          44.000
R22  19236426.156 8 102685352.648 8      -220.012          50.000    19236428.039 8  79866389.105 8      -171.120          48.000
C19  22088196.422 8 115019165.981 8     -1500.062          50.000
C22  22387305.039 8 116576540.913 8      1577.465          51.000
C29  25892947.188 5 134831385.891 5     -3351.199          32.000
E07  24041981.211 8 126341552.654 8      -603.449          50.000    24041984.508 8  96807117.233 8      -462.329          51.000
E13  27149112.852 7 142669576.765 7     -2560.562          42.000    27149113.164 6 109318255.846 6     -1962.208          41.000
E26  22632634.258 8 118935293.599 8      -906.375          51.000    22632637.781 8  91132242.301 8      -694.474          51.000
> 2020 05 09 19 49  0.0000000  0 15        .000000000000
G01  20300226.727 8 106678406.495 8       385.680          50.000    20300228.516 8  83126036.832 8       300.530          50.000
G03  21212705.523 7 111473545.300 7      1943.691          42.000    21212707.922 7  86862529.609 7      1514.568          42.000
G08  22803555.891 7 119833484.661 7     -3381.051          47.000    22803559.969 7  93376721.038 7     -2634.585          47.000
G11  20306743.078 8 106712662.155 8     -1668.711          51.000    20306742.312 8  83152730.931 8     -1300.297          49.000
G22  20629126.016 8 108406817.269 8       286.301          51.000    20629122.883 8  84472800.300 8       223.092          51.000
R07  19230103.727 8 102940299.959 8      -470.168          50.000    19230106.336 8  80064721.660 8      -365.686          48.000
R08  20836768.125 7 111579915.856 7      3139.012          47.000    20836771.109 7  86784434.606 7      2441.454          45.000
R21  22063861.867 7 118068177.178 7     -3580.957          47.000    22063866.211 7  91830789.016 7     -2785.186          44.000
R22  19237721.930 8 102692270.724 8      -241.297          51.000    19237724.039 8  79871769.855 8      -187.675          48.000
C19  22096869.133 8 115064328.461 8     -1510.969          50.000
C22  22378252.906 8 116529400.181 8      1565.191          51.000
C29  25912257.016 5 134931950.193 5     -3353.777          34.000
E07  24045462.852 8 126359848.288 8      -616.293          51.000    24045465.664 8  96821135.980 8      -472.257          50.000
E13  27163742.641 6 142746457.783 6     -2564.543          41.000    27163744.117 7 109377164.697 7     -1965.243          42.000
E26  22637834.602 8 118962620.771 8      -915.547          51.000    22637838.258 8  91153181.290 8      -701.484          51.000
> 2020 05 09 19 49 30.0000000  0 15        .000000000000
G01  20298059.727 8 106667018.923 8       373.188          50.000    20298061.062 8  83117163.401 8       290.795          50.000
G03  21201639.445 7 111415394.756 7      1932.527          42.000    21201642.797 6  86817217.533 6      1505.865          41.000
G08  22822878.141 7 119935024.340 7     -3388.598          46.000    22822882.844 7  93455842.854 7     -2640.466          47.000
G11  20316316.625 8 106762969.862 8     -1685.492          51.000    20316315.531 7  83191931.685 7     -1313.374          46.000
G22  20627523.922 8 108398399.195 8       274.480          51.000    20627521.047 8  84466240.776 8       213.881          51.000
R07  19232801.273 8 102954740.421 8      -492.863          49.000    19232803.797 7  80075953.142 7      -383.335          47.000
R08  20819224.438 8 111485974.659 8      3123.273          48.000    20819228.695 7  86711369.242 7      2429.213          45.000
R21  22083968.625 8 118175770.862 8     -3592.184          48.000    22083972.922 7  91914473.013 7     -2793.924          43.000
R22  19239135.594 8 102699818.781 8      -262.262          51.000    19239138.211 8  79877640.555 8      -203.981          49.000
C19  22105602.758 8 115109806.260 8     -1521.371          50.000
C22  22369269.383 8 116482619.862 8      1553.129          51.000
C29  25931584.281 6 135032596.700 6     -3356.281          38.000
E07  24049016.508 8 126378521.808 8      -628.840          51.000    24049019.172 8  96835444.263 8      -481.832          51.000
E13  27178394.508 6 142823454.722 6     -2568.992          39.000    27178397.406 7 109436162.334 7     -1968.104          42.000
E26  22643085.727 8 118990214.251 8      -924.398          51.000    22643089.492 8  91174324.344 8      -708.281          51.000
> 2020 05 09 19 50  0.0000000  0 15        .000000000000
G01  20295962.688 8 106655998.975 8       361.539          50.000    20295963.617 8  83108576.430 8       281.719          50.000
G03  21190639.016 7 111357587.759 7      1921.375          43.000    21190642.625 7  86772173.168 7      1497.175          43.000
G08  22842243.562 7 120036792.785 7     -3395.801          45.000    22842248.805 7  93535142.947 7     -2646.079          46.000
G11  20325985.633 8 106813780.866 8     -1701.676          51.000    20325984.211 7  83231524.626 7     -1325.984          46.000
G22  20625989.453 8 108390336.026 8       263.176          51.000    20625986.734 8  84459957.797 8       205.075          51.000
R07  19235624.750 8 102969855.368 8      -514.688          49.000    19235627.492 8  80087709.216 8      -400.312          48.000
R08  20801770.461 8 111392505.498 8      3108.105          49.000    20801774.258 7  86638671.047 7      2417.418          46.000
R21  22104138.109 8 118283696.041 8     -3602.715          49.000    22104140.992 6  91998414.775 6     -2802.115          40.000
R22  19240666.984 8 102707994.686 8      -282.684          51.000    19240670.156 8  79883999.581 8      -219.865          49.000
C19  22114396.203 8 115155594.670 8     -1531.109          51.000
C22  22360354.000 8 116436197.130 8      1541.859          51.000
C29  25950927.734 6 135133320.866 6     -3358.754          38.000
E07  24052641.117 8 126397569.187 8      -640.730          51.000    24052643.938 8  96850039.018 8      -490.970          50.000
E13  27193067.883 6 142900563.874 6     -2571.895          39.000    27193071.367 6 109495245.991 6     -1970.526          41.000
E26  22648386.805 8 119018071.182 8      -932.555          51.000    22648390.797 8  91195669.261 8      -714.561          51.000
> 2020 05 09 19 50 30.0000000  0 15        .000000000000
G01  20293937.375 8 106645355.709 8       348.551          51.000    20293938.016 8  83100282.994 8       271.598          51.000
G03  21179706.039 7 111300132.935 7      1909.387          44.000    21179709.391 7  86727403.213 7      1487.834          43.000
G08  22861653.758 7 120138795.155 7     -3403.766          46.000    22861658.719 7  93614625.299 7     -2652.288          46.000
G11  20335751.289 8 106865102.010 8     -1719.109          49.000    20335750.047 7  83271515.081 7     -1339.569          46.000
G22  20624524.008 8 108382634.779 8       250.762          51.000    20624521.117 8  84453956.845 8       195.399          51.000
R07  19238575.328 8 102985651.758 8      -537.852          50.000    19238578.414 7  80099995.324 7      -418.329          47.000
R08  20784406.617 8 111299518.607 8      3091.539          49.000    20784409.664 7  86566347.956 7      2404.530          45.000
R21  22124370.156 8 118391959.054 8     -3614.332          48.000    22124370.406 6  92082619.235 6     -2811.150          37.000
R22  19242318.023 8 102716807.805 8      -304.410          51.000    19242321.078 8  79890854.239 8      -236.763          49.000
C19  22123250.258 8 115201700.328 8     -1542.176          50.000
C22  22351508.578 8 116390140.532 8      1529.066          51.000
C29  25970287.695 6 135234129.345 6     -3361.723          39.000
E07  24056338.344 8 126416997.856 8      -653.863          51.000    24056340.758 8  96864925.924 8      -501.033          49.000
E13  27207764.492 6 142977793.089 6     -2576.152          41.000    27207767.164 6 109554421.659 6     -1973.833          38.000
E26  22653739.516 8 119046200.160 8      -942.137          51.000    22653743.742 8  91217222.618 8      -721.885          51.000
> 2020 05 09 19 51  0.0000000  0 16        .000000000000
G01  20291984.133 8 106635091.504 8       335.730          51.000    20291984.773 8  83092284.924 8       261.608          51.000
G03  21168840.102 7 111243032.438 7      1897.406          42.000    21168843.625 7  86682909.287 7      1478.498          42.000
G08  22881108.992 7 120241031.409 7     -3411.668          46.000    22881112.727 7  93694289.862 7     -2658.443          46.000
G11  20345613.898 8 106916933.610 8     -1736.242          48.000    20345613.406 8  83311903.347 8     -1352.916          48.000
G14  21984683.836 6 115530301.919 6      -718.398          36.000
G22  20623127.594 8 108375296.545 8       238.582          51.000    20623124.445 8  84448238.759 8       185.908          51.000
R07  19241653.281 8 103002129.004 8      -560.512          50.000    19241656.602 7  80112810.970 7      -435.954          47.000
R08  20767133.398 8 111207017.950 8      3075.285          49.000    20767135.891 7  86494403.042 7      2391.891          45.000
R21  22144664.297 7 118500559.501 7     -3625.648          46.000    22144663.445 6  92167086.151 6     -2819.952          38.000
R22  19244089.000 8 102726260.973 8      -325.695          51.000    19244092.141 8  79898206.699 8      -253.319          49.000
C19  22132165.148 8 115248123.230 8     -1552.648          51.000
C22  22342734.305 8 116344451.922 8      1516.840          51.000
C29  25989664.328 6 135335022.347 6     -3364.750          37.000
E07  24060108.375 8 126436808.532 8      -666.598          51.000    24060110.086 8  96880105.531 8      -510.859          48.000
E13  27222484.359 7 143055143.452 7     -2580.406          42.000    27222485.664 6 109613690.188 6     -1977.185          38.000
E26  22659144.508 8 119074603.060 8      -951.250          51.000    22659148.758 8  91238985.885 8      -728.883          51.000
> 2020 05 09 19 51 30.0000000  0 16        .000000000000
G01  20290102.727 8 106625204.870 8       323.578          51.000    20290103.695 8  83084581.076 8       252.139          51.000
G03  21158041.164 7 111186284.367 7      1886.203          43.000    21158045.203 7  86638690.015 7      1469.769          44.000
G08  22900607.875 7 120343496.340 7     -3418.973          47.000    22900610.258 7  93774132.598 7     -2664.138          47.000
G11  20355573.312 8 106969272.947 8     -1752.734          49.000    20355573.578 8  83352687.263 8     -1365.767          49.000
G14  21988836.812 5 115552125.948 5      -735.793          34.000
G22  20621799.672 8 108368318.312 8       226.953          51.000    20621796.414 8  84442801.185 8       176.847          51.000
R07  19244857.844 8 103019283.573 8      -582.762          50.000    19244861.508 7  80126153.427 7      -453.259          47.000
R08  20749950.484 8 111115003.585 8      3059.258          49.000    20749952.555 7  86422836.362 7      2379.426          44.000
R21  22165019.953 7 118609492.993 7     -3636.242          43.000    22165021.031 6  92251812.227 6     -2828.185          41.000
R22  19245979.758 8 102736352.820 8      -346.695          51.000    19245982.820 8  79906055.897 8      -269.652          48.000
C19  22141140.344 8 115294859.697 8     -1562.781          50.000
C22  22334030.875 8 116299129.487 8      1504.977          51.000
C29  26009056.289 6 135435996.147 6     -3366.992          36.000
E07  24063950.195 8 126456998.119 8      -678.918          50.000    24063952.141 8  96895575.492 8      -520.294          48.000
E13  27237226.539 6 143132612.302 6     -2583.914          40.000    27237227.164 6 109673049.423 6     -1979.810          38.000
E26  22664601.562 8 119103277.982 8      -960.023          51.000    22664605.320 8  91260957.582 8      -735.608          51.000
> 2020 05 09 19 52  0.0000000  0 16        .000000000000
G01  20288296.281 8 106615712.360 8       310.543          51.000    20288297.734 8  83077184.316 8       241.982          51.000
G03  21147312.656 7 111129904.918 7      1873.711          45.000    21147316.148 7  86594757.996 7      1460.034          45.000
G08  22920152.680 7 120446203.805 7     -3427.121          45.000    22920155.070 7  93854164.331 7     -2670.487          45.000
G11  20365632.625 8 107022134.840 8     -1770.281          50.000    20365633.102 8  83393878.364 8     -1379.440          49.000
G14  21993094.109 5 115574488.151 5      -754.879          34.000    21993093.312 5  90058035.055 5      -588.217          32.000
G22  20620543.266 8 108361715.391 8       214.465          51.000    20620540.031 8  84437656.061 8       167.115          51.000
R07  19248191.469 8 103037129.348 8      -605.746          51.000    19248195.156 7  80140033.482 7      -471.136          46.000
R08  20732860.953 7 111023493.336 7      3042.488          47.000    20732862.250 7  86351661.797 7      2366.383          43.000
R21  22185440.484 7 118718773.604 7     -3647.883          45.000    22185443.945 7  92336808.335 7     -2837.239          43.000
R22  19247993.461 8 102747100.373 8      -368.562          51.000    19247996.039 8  79914415.103 8      -286.660          48.000
C19  22150178.211 8 115341923.662 8     -1573.746          50.000
C22  22325400.703 8 116254189.086 8      1492.188          51.000
C29  26028465.695 6 135537064.826 6     -3369.910          37.000
E07  24067866.828 8 126477581.510 8      -692.016          50.000    24067869.414 8  96911347.191 8      -530.294          48.000
E13  27251993.656 6 143210214.989 6     -2588.316          39.000    27251994.562 6 109732511.190 6     -1983.390          38.000
E26  22670113.227 8 119132240.946 8      -969.504          51.000    22670116.609 8  91283149.987 8      -742.926          51.000
> 2020 05 09 19 52 30.0000000  0 15        .000000000000
G01  20286565.352 8 106606616.537 8       297.941          51.000    20286567.227 8  83070096.671 8       232.162          51.000
G03  21136654.875 7 111073896.296 7      1862.008          44.000    21136656.398 7  86551114.945 7      1450.915          44.000
G08  22939743.047 7 120549152.993 7     -3434.305          44.000    22939746.594 7  93934384.449 7     -2676.082          44.000
G11  20375791.883 8 107075520.453 8     -1786.820          51.000    20375792.164 8  83435477.540 8     -1392.328          49.000
G14  21997457.328 6 115597425.408 6      -772.234          36.000
G22  20619358.516 8 108355489.234 8       202.676          51.000    20619355.227 8  84432804.534 8       157.929          51.000
R07  19251654.391 8 103055666.580 8      -627.953          51.000    19251658.039 7  80154451.329 7      -488.408          46.000
R08  20715865.477 7 110932491.026 7      3026.367          46.000    20715866.680 7  86280882.296 7      2353.844          43.000
R21  22205927.820 7 118828401.221 7     -3658.695          47.000    22205931.766 7  92422074.332 7     -2845.652          45.000
R22  19250130.391 8 102758506.422 8      -389.781          51.000    19250133.023 8  79923286.452 8      -303.163          48.000
C19  22159279.125 8 115389315.425 8     -1583.789          51.000
C22  22316844.375 8 116209632.901 8      1480.137          51.000
E07  24071858.797 8 126498559.663 8      -704.445          51.000    24071861.266 7  96927421.360 7      -539.698          47.000
E13  27266786.141 6 143287952.821 6     -2591.988          39.000    27266788.438 6 109792076.491 6     -1986.362          38.000
E26  22675679.922 8 119161494.122 8      -978.582          51.000    22675683.305 8  91305564.733 8      -749.850          51.000
> 2020 05 09 19 53  0.0000000  0 15        .000000000000
G01  20284902.508 8 106597877.932 8       284.660          51.000    20284904.539 8  83063287.385 8       221.816          51.000
G03  21126060.102 7 111018218.700 7      1849.793          45.000    21126059.977 7  86507729.840 7      1441.397          45.000
G08  22959370.938 7 120652301.035 7     -3442.371          43.000    22959375.883 7  94014759.573 7     -2682.367          42.000
G11  20386043.055 8 107129388.543 8     -1804.211          51.000    20386042.938 8  83477452.670 8     -1405.879          49.000
G14  22001918.352 5 115620860.770 5      -789.793          34.000
G22  20618237.656 8 108349598.868 8       190.090          51.000    20618234.180 8  84428214.650 8       148.122          51.000
R07  19255238.477 8 103074852.067 8      -650.965          51.000    19255242.281 7  80169373.410 7      -506.303          45.000
R08  20698958.703 8 110841958.168 8      3009.238          48.000    20698960.977 7  86210467.900 7      2340.519          45.000
R21  22226472.320 8 118938332.994 8     -3670.113          48.000    22226476.312 7  92507576.820 7     -2854.533          45.000
R22  19252383.391 8 102770531.220 8      -411.875          51.000    19252385.961 8  79932639.069 8      -320.347          49.000
C19  22168435.289 8 115436993.615 8     -1594.746          51.000
C22  22308354.180 8 116165421.392 8      1467.297          51.000
E07  24075918.023 8 126519891.486 8      -717.609          50.000    24075920.180 7  96943766.530 7      -549.886          47.000
E13  27281596.695 6 143365785.051 6     -2596.594          38.000    27281601.359 6 109851714.241 6     -1989.912          37.000
E26  22681294.297 8 119190997.564 8      -988.379          51.000    22681297.477 8  91328171.251 8      -757.293          51.000
> 2020 05 09 19 53 30.0000000  0 14        .000000000000
G01  20283311.828 8 106589518.576 8       272.984          51.000    20283313.898 8  83056773.604 8       212.715          51.000
G03  21115532.438 7 110962893.748 7      1838.930          46.000    21115531.820 7  86464619.511 7      1432.932          46.000
G08  22979040.727 7 120755667.106 7     -3448.656          44.000    22979046.094 7  94095304.585 7     -2687.265          44.000
G11  20396389.602 8 107183759.067 8     -1820.082          51.000    20396389.289 8  83519819.322 8     -1418.246          48.000
G22  20617184.633 8 108344064.928 8       179.148          51.000    20617181.141 8  84423902.494 8       139.596          51.000
R07  19258947.445 8 103094705.885 8      -672.332          50.000    19258950.484 7  80184815.276 7      -522.925          44.000
R08  20682145.055 8 110751917.596 8      2993.672          50.000    20682147.711 7  86140436.392 7      2328.414          45.000
R21  22247076.953 8 119048588.449 8     -3679.934          48.000    22247080.516 7  92593331.002 7     -2862.174          43.000
R22  19254756.188 8 102783197.048 8      -432.234          51.000    19254758.758 8  79942490.250 8      -336.182          48.000
C19  22177650.047 8 115484977.626 8     -1603.941          51.000
C22  22299934.070 8 116121575.792 8      1455.996          51.000
E07  24080048.430 8 126541597.287 8      -729.082          51.000    24080051.023 7  96960398.257 7      -558.680          46.000
E13  27296429.391 6 143443732.618 6     -2599.727          38.000    27296436.305 6 109911440.349 6     -1991.720          36.000
E26  22686960.312 8 119220772.762 8      -996.340          51.000    22686963.109 8  91350986.009 8      -763.411          51.000
> 2020 05 09 19 54  0.0000000  0 14        .000000000000
G01  20281795.133 8 106581548.532 8       259.598          51.000    20281797.188 8  83050563.188 8       202.284          51.000
G03  21105073.344 7 110907931.204 7      1826.398          45.000    21105073.688 7  86421791.563 7      1423.168          45.000
G08  22998753.812 7 120859257.860 7     -3456.328          44.000    22998758.336 7  94176024.655 7     -2693.243          44.000
G11  20406832.773 8 107238640.661 8     -1837.457          48.000    20406832.523 7  83562584.203 7     -1431.785          46.000
G22  20616201.047 8 108338896.159 8       166.633          51.000    20616197.586 8  84419874.898 8       129.844          51.000
R07  19262782.594 8 103115235.395 8      -695.082          51.000    19262785.578 7  80200782.689 7      -540.619          46.000
R08  20665425.961 8 110662381.976 8      2976.625          50.000    20665428.250 7  86070797.611 7      2315.153          46.000
R21  22267743.102 8 119159175.018 8     -3691.324          48.000    22267745.266 6  92679342.686 6     -2871.033          41.000
R22  19257251.031 8 102796514.471 8      -454.324          51.000    19257253.555 8  79952848.252 8      -353.363          49.000
C19  22186924.977 8 115533275.201 8     -1614.738          51.000
C22  22291586.086 8 116078105.665 8      1443.215          51.000
E07  24084251.852 8 126563685.543 8      -742.160          51.000    24084255.031 7  96977323.048 7      -568.638          45.000
E13  27311285.492 5 143521804.319 5     -2604.066          34.000    27311293.469 6 109971261.588 6     -1995.503          37.000
E26  22692679.648 8 119250829.378 8     -1006.133          51.000    22692682.242 8  91374016.393 8      -770.915          51.000
> 2020 05 09 19 54 30.0000000  0 14        .000000000000
G01  20280351.297 8 106573961.752 8       246.301          51.000    20280353.406 8  83044651.407 8       191.923          51.000
G03  21094681.297 7 110853324.545 7      1814.289          42.000    21094683.367 6  86379240.927 6      1413.735          41.000
G08  23018508.297 7 120963063.983 7     -3463.918          45.000    23018511.266 7  94256912.522 7     -2699.157          45.000
G11  20417371.445 7 107294025.292 7     -1854.664          47.000    20417371.148 7  83605741.054 7     -1445.193          46.000
G22  20615285.602 8 108334085.177 8       154.227          51.000    20615282.086 8  84416126.092 8       120.177          51.000
R07  19266742.477 8 103136432.051 8      -717.770          51.000    19266745.430 7  80217269.005 7      -558.265          45.000
R08  20648799.562 8 110573345.906 8      2959.316          49.000    20648801.688 7  86001547.402 7      2301.694          45.000
R21  22288469.406 8 119270083.612 8     -3702.527          48.000    22288469.844 6  92765604.856 6     -2879.747          39.000
R22  19259866.664 8 102810477.444 8      -476.332          51.000    19259869.750 8  79963708.332 8      -370.480          49.000
C19  22196258.875 8 115581878.034 8     -1625.367          51.000
C22  22283309.242 8 116035004.559 8      1430.387          51.000
E07  24088526.398 8 126586148.495 8      -755.172          51.000    24088529.773 7  96994534.936 7      -578.614          44.000
E13                                                                  27326172.102 6 110031172.271 6     -1998.739          38.000
E26  22698451.203 8 119281160.814 8     -1015.703          51.000    22698453.875 8  91397257.366 8      -778.281          51.000
> 2020 05 09 19 55  0.0000000  0 14        .000000000000
G01  20278982.047 8 106566766.962 8       233.535          51.000    20278984.242 8  83039045.079 8       181.975          51.000
G03  21084358.617 7 110799082.210 7      1802.508          42.000    21084362.086 7  86336974.189 7      1404.552          43.000
G08  23038304.930 7 121067091.059 7     -3470.859          46.000    23038305.836 7  94337972.523 7     -2704.566          46.000
G11  20428007.992 8 107349920.433 8     -1871.297          49.000    20428007.461 8  83649295.719 8     -1458.150          48.000
G22  20614439.609 8 108329639.476 8       142.387          51.000    20614436.172 8  84412661.920 8       110.951          51.000
R07  19270828.180 8 103158301.793 8      -739.941          51.000    19270830.305 7  80234278.799 7      -575.510          46.000
R08  20632267.266 8 110484819.125 8      2942.703          48.000    20632269.797 7  85932693.278 7      2288.769          45.000
R21  22309256.711 8 119381320.339 8     -3712.984          48.000    22309256.352 6  92852122.299 6     -2887.874          39.000
R22  19262604.805 8 102825094.873 8      -497.832          51.000    19262608.430 8  79975077.441 8      -387.203          50.000
C19  22205652.672 8 115630792.479 8     -1635.348          51.000
C22  22275104.531 8 115992280.669 8      1418.164          51.000
E07  24092873.453 8 126608993.207 8      -767.609          51.000    24092876.609 7  97012039.361 7      -588.189          42.000
E13                                                                  27341074.258 6 110091178.260 6     -2001.693          38.000
E26  22704276.469 8 119311775.373 8     -1024.859          51.000    22704279.500 8  91420715.276 8      -785.333          51.000
> 2020 05 09 19 55 30.0000000  0 15        .000000000000
G01  20277685.844 8 106559955.640 8       220.215          51.000    20277688.094 8  83033737.548 8       171.596          51.000
G03  21074104.109 7 110745195.339 7      1789.809          43.000    21074108.273 7  86294984.405 7      1394.653          42.000
G08  23058141.180 7 121171327.410 7     -3478.480          46.000    23058141.016 7  94419195.603 7     -2710.507          46.000
G11  20438739.953 8 107406315.436 8     -1888.621          50.000    20438739.453 8  83693239.855 8     -1471.653          49.000
G14  22025757.055 5 115746147.200 5      -881.168          33.000
G22  20613661.039 8 108325548.677 8       129.926          51.000    20613657.805 8  84409474.294 8       101.241          51.000
R07  19275037.539 8 103180833.433 8      -762.523          50.000    19275039.492 7  80251803.442 7      -593.071          45.000
R08  20615828.789 7 110396794.986 7      2925.250          47.000    20615831.391 7  85864230.050 7      2275.194          43.000
R21  22330103.164 8 119492873.698 8     -3724.219          49.000    22330101.898 6  92938886.040 6     -2896.615          38.000
R22  19265463.805 8 102840358.121 8      -520.078          51.000    19265468.008 8  79986948.847 8      -404.505          50.000
C19  22215103.977 8 115680007.768 8     -1646.074          51.000
C22  22266969.828 8 115949924.997 8      1405.176          51.000
E07  24097291.484 8 126632209.515 8      -780.582          51.000    24097294.305 6  97029828.517 6      -598.198          41.000
E13  27355989.703 5 143756705.102 5     -2616.770          34.000    27355997.555 6 110151272.003 6     -2004.869          39.000
E26  22710153.891 8 119342664.038 8     -1034.699          51.000    22710157.125 8  91444383.224 8      -792.804          51.000
> 2020 05 09 19 56  0.0000000  0 15        .000000000000
G01  20276462.086 8 106553524.665 8       209.188          51.000    20276464.320 8  83028726.406 8       163.003          51.000
G03  21063916.984 7 110691660.363 7      1779.863          43.000    21063920.758 7  86253268.858 7      1386.906          43.000
G08  23078016.133 7 121275766.849 7     -3483.422          45.000    23078016.328 7  94500576.939 7     -2714.358          45.000
G11  20449566.156 8 107463205.491 8     -1903.371          51.000    20449565.594 8  83737569.758 8     -1483.146          50.000
G14  22030831.273 5 115772793.329 5      -895.070          35.000
G22  20612949.227 8 108321808.611 8       120.066          51.000    20612946.117 8  84406559.957 8        93.558          51.000
R07  19279369.094 8 103204020.608 8      -782.547          49.000    19279370.672 7  80269837.919 7      -608.645          45.000
R08  20599484.336 8 110309270.750 8      2910.426          49.000    20599485.359 7  85796155.691 7      2263.664          42.000
R21  22351007.562 7 119604737.642 7     -3732.695          47.000    22351005.812 6  93025891.323 6     -2903.207          38.000
R22  19268443.445 8 102856264.055 8      -539.730          51.000    19268447.977 8  79999320.138 8      -419.787          50.000
C19  22224612.086 8 115729518.503 8     -1654.062          51.000
C22  22258905.359 8 115907934.009 8      1394.844          51.000
E07  24101779.227 8 126655792.631 8      -790.926          51.000    24101781.750 6  97047898.727 6      -605.893          40.000
E13                                                                  27370941.648 6 110211450.220 6     -2006.623          38.000
E26  22716082.883 8 119373823.240 8     -1041.809          51.000    22716086.133 8  91468258.478 8      -798.269          51.000
> 2020 05 09 19 56 30.0000000  0 16        .000000000000
G01  20275313.680 8 106547489.634 8       194.152          51.000    20275315.852 8  83024023.789 8       151.291          51.000
G03  21053799.898 6 110638492.460 6      1765.898          41.000    21053802.203 6  86211839.414 6      1376.028          41.000
G08  23097931.797 7 121380421.697 7     -3492.527          43.000    23097932.984 7  94582126.137 7     -2721.450          44.000
G11  20460489.203 8 107520604.542 8     -1922.094          51.000    20460488.703 8  83782296.297 8     -1497.735          50.000
G14  22036004.430 5 115799984.635 5      -916.094          34.000    22036003.984 5  90233752.072 5      -713.839          32.000
G22  20612306.977 8 108318433.785 8       105.961          51.000    20612304.008 8  84403930.228 8        82.567          51.000
R07  19283825.516 8 103227876.583 8      -806.785          49.000    19283826.969 7  80288392.563 7      -627.500          45.000
R08  20583236.594 8 110222263.947 8      2891.203          51.000    20583236.289 7  85728483.815 7      2248.717          43.000
R21  22371971.758 7 119716925.176 7     -3745.352          46.000    22371970.539 6  93113148.233 6     -2913.054          40.000
R22  19271546.414 8 102872828.749 8      -563.574          51.000    19271551.125 8  80012203.777 8      -438.336          50.000
C19  22234179.492 8 115779337.887 8     -1666.207          51.000
C21  25900620.492 6 134871325.830 6      3095.480          39.000
C22  22250914.359 8 115866322.681 8      1380.383          51.000
E07  24106339.406 8 126679756.470 8      -805.609          51.000    24106341.523 6  97066260.696 6      -617.091          39.000
E13                                                                  27385909.141 6 110271723.989 6     -2011.085          37.000
E26  22722066.469 8 119405268.127 8     -1053.332          51.000    22722069.500 8  91492352.627 8      -807.090          51.000
> 2020 05 09 19 57  0.0000000  0 16        .000000000000
G01  20274240.836 8 106541851.533 8       181.547          51.000    20274242.875 8  83019630.471 8       141.465          51.000
G03  21043752.344 6 110585692.329 6      1753.816          39.000    21043754.359 6  86170696.510 6      1366.610          39.000
G08  23117887.727 6 121485289.714 6     -3498.836          40.000    23117889.758 6  94663841.451 6     -2726.363          40.000
G11  20471508.695 8 107578511.507 8     -1938.516          51.000    20471508.609 8  83827418.622 8     -1510.529          50.000
G14  22041279.906 6 115827715.126 6      -933.117          41.000    22041279.781 5  90255356.326 5      -727.107          32.000
G22  20611734.102 8 108315423.530 8        94.430          51.000    20611731.359 8  84401584.579 8        73.582          51.000
R07  19288406.797 8 103252399.970 8      -828.309          48.000    19288408.344 7  80307466.331 7      -644.240          45.000
R08  20567085.750 8 110135776.193 8      2874.438          51.000    20567086.148 7  85661215.639 7      2235.674          45.000
R21  22392995.125 7 119829434.486 7     -3755.492          42.000    22392996.766 7  93200655.429 7     -2920.938          43.000
R22  19274773.172 8 102890053.042 8      -584.957          51.000    19274777.703 8  80025600.453 8      -454.967          49.000
C19  22243805.633 8 115829464.564 8     -1675.789          51.000
C21  25882796.977 6 134778521.257 6      3091.227          37.000
C22  22242996.305 8 115825091.425 8      1368.258          51.000
E07  24110971.984 8 126704100.343 8      -817.609          51.000    24110973.352 6  97084913.829 6      -626.453          40.000
E13                                                                  27400901.734 6 110332093.038 6     -2013.626          36.000
E26  22728104.836 8 119436999.186 8     -1062.258          51.000    22728107.711 8  91516666.008 8      -813.914          51.000
> 2020 05 09 19 57 30.0000000  0 16        .000000000000
G01  20273240.344 8 106536593.888 8       169.027          51.000    20273242.391 8  83015533.599 8       131.710          51.000
G03  21033771.023 6 110533243.098 6      1742.848          38.000    21033773.859 6  86129826.929 6      1358.063          38.000
G08  23137880.523 6 121590351.193 6     -3505.312          36.000    23137883.117 6  94745707.508 6     -2731.412          36.000
G11  20482621.156 8 107636908.178 8     -1954.543          51.000    20482621.516 8  83872922.538 8     -1523.020          49.000
G14  22046656.180 6 115855966.736 6      -950.266          37.000    22046652.578 5  90277370.529 5      -740.464          30.000
G22  20611227.148 8 108312760.096 8        83.215          51.000    20611224.555 8  84399509.183 8        64.843          51.000
R07  19293108.867 8 103277570.931 8      -849.559          48.000    19293110.445 7  80327043.741 7      -660.771          45.000
R08  20551029.227 8 110049792.691 8      2857.926          51.000    20551030.867 7  85594339.631 7      2222.831          47.000
R21  22414075.641 7 119942245.835 7     -3765.086          45.000    22414079.820 7  93288397.618 7     -2928.397          43.000
R22  19278120.367 8 102907920.212 8      -606.113          51.000    19278124.445 8  80039497.153 8      -471.421          49.000
C19  22253487.242 8 115879879.893 8     -1685.047          51.000
C21  25864996.516 6 134685831.589 6      3088.363          39.000
C22  22235148.148 8 115784223.454 8      1356.438          51.000
E07  24115673.289 8 126728806.081 8      -829.273          50.000    24115674.578 6  97103844.217 6      -635.480          41.000
E13                                                                  27415914.711 5 110392543.848 5     -2016.063          34.000
E26  22734194.680 8 119468999.455 8     -1070.867          51.000    22734197.586 8  91541185.657 8      -820.508          51.000
> 2020 05 09 19 58  0.0000000  0 16        .000000000000
G01  20272314.453 8 106531728.222 8       155.527          51.000    20272316.422 8  83011742.170 8       121.190          51.000
G03  21023859.305 6 110481155.830 6      1730.078          41.000    21023862.023 6  86089239.446 6      1348.113          41.000
G08  23157912.117 5 121695614.354 5     -3512.008          34.000    23157914.766 5  94827730.699 5     -2736.633          35.000
G11  20493828.516 8 107695804.260 8     -1971.543          51.000    20493829.039 7  83918815.583 7     -1536.267          47.000
G14  22052132.844 6 115884749.125 6      -968.258          38.000    22052131.758 5  90299798.386 5      -754.487          35.000
G22  20610788.211 8 108310453.608 8        70.910          51.000    20610785.555 8  84397711.917 8        55.255          51.000
R07  19297933.391 8 103303398.089 8      -871.875          48.000    19297935.250 7  80347131.540 7      -678.125          46.000
R08  20535068.406 7 109964325.788 7      2840.098          47.000    20535071.500 7  85527865.399 7      2208.965          46.000
R21  22435216.156 7 120055368.372 7     -3776.051          47.000    22435220.125 7  93376381.860 7     -2936.928          43.000
R22  19281590.430 8 102926441.931 8      -628.293          51.000    19281594.297 8  80053902.923 8      -488.672          49.000
C19  22263226.297 8 115930593.041 8     -1695.434          50.000
C21  25847219.375 5 134593268.691 5      3083.449          35.000
C22  22227371.711 8 115743729.684 8      1343.617          51.000
E07  24120445.375 8 126753883.516 8      -842.309          49.000    24120447.695 7  97123059.436 7      -645.390          43.000
E13  27430943.945 5 144150586.679 5     -2635.598          33.000    27430950.789 5 110453084.278 5     -2019.960          33.000
E26  22740337.766 8 119501279.994 8     -1080.781          51.000    22740340.812 8  91565920.063 8      -828.221          51.000
> 2020 05 09 19 58 30.0000000  0 16        .000000000000
G01  20271462.148 8 106527249.046 8       142.742          51.000    20271464.055 8  83008251.896 8       111.228          51.000
G03  21014015.555 6 110429424.656 6      1718.344          40.000    21014017.828 6  86048929.445 6      1338.969          39.000
G08  23177981.344 5 121801070.633 5     -3518.438          31.000    23177983.141 5  94909904.451 5     -2741.637          31.000
G11  20505129.812 8 107755192.656 8     -1988.004          51.000    20505129.859 7  83965092.238 7     -1549.094          45.000
G14  22057709.398 6 115914055.210 6      -985.270          36.000    22057710.992 5  90322634.357 5      -767.746          33.000
G22  20610415.953 8 108308497.452 8        59.211          51.000    20610413.234 8  84396187.661 8        46.141          51.000
R07  19302879.305 8 103329873.136 8      -893.426          48.000    19302881.344 7  80367723.225 7      -694.890          46.000
R08  20519201.836 7 109879371.332 7      2823.223          46.000    20519207.141 7  85461789.689 7      2195.840          44.000
R21  22456413.438 7 120168793.424 7     -3785.973          47.000    22456416.398 7  93464601.349 7     -2944.645          43.000
R22  19285181.891 8 102945612.482 8      -650.000          51.000    19285185.414 8  80068813.357 8      -505.556          49.000
C19  22273021.078 8 115981596.358 8     -1705.051          50.000
C21  25829465.703 6 134500827.360 6      3079.285          38.000
C22  22219665.383 8 115703604.157 8      1331.254          50.000
E07  24125287.000 8 126779325.506 8      -854.395          50.000    24125290.344 7  97142553.975 7      -654.600          43.000
E13  27446002.461 6 144229711.368 6     -2639.523          36.000    27446008.008 5 110513709.169 5     -2022.190          34.000
E26  22746533.039 8 119533834.831 8     -1089.938          51.000    22746536.336 8  91590864.644 8      -835.135          51.000
> 2020 05 09 19 59  0.0000000  0 15        .000000000000
G01  20270684.672 8 106523162.743 8       130.422          51.000    20270686.539 8  83005067.770 8       101.627          51.000
G03  21004240.180 6 110378055.516 6      1706.875          39.000    21004243.094 6  86008901.629 6      1330.036          39.000
G11  20516525.781 8 107815077.795 8     -2003.676          51.000    20516524.547 7  84011755.903 7     -1561.306          44.000
G14  22063386.492 6 115943889.740 6     -1002.320          39.000    22063388.438 5  90345882.069 5      -781.029          33.000
G22  20610111.086 8 108306896.280 8        48.188          51.000    20610108.414 8  84394940.009 8        37.552          51.000
R07  19307946.711 7 103356999.868 7      -914.277          47.000    19307948.852 7  80388821.790 7      -711.105          47.000
R08  20503434.055 8 109794936.262 8      2806.672          49.000    20503438.516 7  85396118.020 7      2182.970          42.000
R21  22477667.234 7 120282524.655 7     -3795.336          47.000    22477669.852 7  93553058.933 7     -2951.931          43.000
R22  19288896.273 8 102965438.452 8      -671.039          51.000    19288899.078 8  80084233.566 8      -521.916          49.000
C19  22282872.164 8 116032893.815 8     -1713.996          49.000
C21  25811737.258 6 134408514.273 6      3075.949          38.000
C22  22212031.016 8 115663852.635 8      1319.629          50.000
E07  24130198.828 8 126805136.713 8      -865.738          49.000    24130202.109 7  97162331.384 7      -663.355          43.000
E13  27461082.148 6 144308947.542 6     -2642.555          37.000    27461088.781 5 110574422.577 5     -2024.539          35.000
E26  22752781.555 8 119566669.858 8     -1098.438          51.000    22752785.000 8  91616023.947 8      -841.636          51.000
> 2020 05 09 19 59 30.0000000  0 16        .000000000000
G01  20269979.438 8 106519456.260 8       116.949          51.000    20269981.305 8  83002179.611 8        91.129          51.000
G03  20994531.453 7 110327035.085 7      1694.492          42.000    20994534.859 7  85969145.463 7      1320.387          42.000
G11  20528013.484 8 107875444.684 8     -2020.477          51.000    20528011.688 7  84058794.974 7     -1574.400          46.000
G14  22069161.695 6 115974237.662 6     -1020.152          37.000    22069161.586 5  90369529.831 5      -794.918          35.000
G22  20609871.227 8 108305635.854 8        36.113          51.000    20609868.406 8  84393957.859 8        28.140          51.000
G32  23022786.477 6 120985554.421 6     -2423.230          36.000
R07  19313132.820 8 103384762.113 8      -936.246          48.000    19313135.289 7  80410414.650 7      -728.191          47.000
R08  20487761.719 8 109711008.788 8      2788.734          50.000    20487764.211 7  85330841.182 7      2169.019          42.000
R21  22498975.336 7 120396545.963 7     -3805.750          47.000    22498977.602 7  93641742.148 7     -2960.028          43.000
R22  19292731.023 8 102985906.382 8      -693.273          51.000    19292733.320 8  80100153.081 8      -539.213          50.000
C19  22292776.836 8 116084470.218 8     -1724.117          49.000
C21  25794031.906 6 134316316.938 6      3071.098          39.000
C22  22204466.531 8 115624461.693 8      1306.746          51.000
E07  24135178.125 8 126831302.392 8      -878.398          49.000    24135181.000 7  97182380.438 7      -673.154          44.000
E13  27476180.766 6 144388284.907 6     -2646.234          37.000    27476188.531 5 110635213.600 5     -2027.802          35.000
E26  22759080.578 8 119599771.549 8     -1108.113          51.000    22759084.367 8  91641387.589 8      -849.113          51.000
