     3.02           OBSERVATION DATA    M (MIXED)           RINEX VERSION / TYPE
SAVERINEX           SC600               20200509 055931 LCL PGM / RUN BY / DATE
       G = GPS       R = GLONASS       C = COMPASS          COMMENT
       S = SBAS      J = QZSS          E = GALILEO          COMMENT
BEAN                                                        MARKER NAME
1                                                           MARKER NUMBER
GEODETIC                                                    MARKER TYPE
Unige DICCA         GTER                                    OBSERVER / AGENCY
SC60291900056       SC600               2.12(191226)        REC # / TYPE / VERS
                    HEMA45          NONE                    ANT # / TYPE
  4509407.8091   693652.4678  4442337.6214                  APPROX POSITION XYZ
        0.0000        0.0000        0.0000                  ANTENNA: DELTA H/E/N
G    8 C1C L1C D1C S1C C2Y L2Y D2Y S2Y                      SYS / # / OBS TYPES
R    8 C1C L1C D1C S1C C2P L2P D2P S2P                      SYS / # / OBS TYPES
C    8 C1I L1I D1I S1I C7I L7I D7I S7I                      SYS / # / OBS TYPES
E    8 C1C L1C D1C S1C C7Q L7Q D7Q S7Q                      SYS / # / OBS TYPES
DBHZ                                                        COMMENT
     30.000                                                 INTERVAL
  2020    05    09    03    00    0.0000000     GPS         TIME OF FIRST OBS
  2020    05    09    03    59   30.0000000     GPS         TIME OF LAST OBS
     0                                                      RCV CLOCK OFFS APPL
G L1C  0.00000                                              SYS / PHASE SHIFT
G L2Y  0.00000                                              SYS / PHASE SHIFT
R L1C  0.00000                                              SYS / PHASE SHIFT
R L2P  0.25000                                              SYS / PHASE SHIFT
C L1I  0.00000                                              SYS / PHASE SHIFT
C L7I  0.00000                                              SYS / PHASE SHIFT
E L1C  0.50000                                              SYS / PHASE SHIFT
E L7Q -0.25000                                              SYS / PHASE SHIFT
 12 R01  1 R02 -4 R07  5 R08  6 R09 -2 R10 -5 R11  0 R12 -1 GLONASS SLOT / FRQ #
    R13 -2 R21  4 R22 -3 R23  3                             GLONASS SLOT / FRQ #
 C1C   71.950 C2C   71.950 C2P   71.950                     GLONASS COD/PHS/BIS
    18                                                      LEAP SECONDS
*** Above antenna height is from mark to ANTENNA BOTTOM.    COMMENT
    17     4        0.0000        ANT MEASURE TYPE/HEIGT    COMMENT
    0.0000    0.0000    0.0458    0.0405    0.0000          COMMENT
                    BASE STATION                            COMMENT
                                                            END OF HEADER
> 2020 05 09 03 00  0.0000000  0 17        .000000000000
G02  24454379.133 4 128508629.238 4     -2731.453          29.000
G05  20574788.266 7 108121240.188 7       337.762          47.000    20574787.727 7  84250315.450 7       263.191          47.000
G07  21681191.125 8 113935427.991 8     -1955.695          51.000    21681188.961 8  88780832.734 8     -1523.918          51.000
G28  22719873.070 7 119393746.170 7      2984.703          47.000    22719871.719 7  93034095.518 7      2325.740          47.000
G30  20359608.195 8 106990505.035 8      -137.625          51.000    20359609.188 8  83369235.372 8      -107.240          51.000
R01  20902330.484 8 111734945.632 8     -2671.523          48.000    20902334.281 6  86904935.683 6     -2077.852          39.000
R02  19502481.977 4 104068992.266 4      1637.578          29.000    19502499.109 4  80942584.458 4      1273.669          29.000
R11  20175996.805 8 107814439.263 8     -2238.047          49.000    20175999.117 8  83855693.150 8     -1740.703          50.000
R12  19499055.102 8 104160471.403 8      1808.316          51.000    19499057.234 7  81013720.170 7      1406.465          47.000
C05  39794349.055 6 207219617.670 6        -2.031          37.000    39794346.844 6 160235345.832 6        -1.583          41.000
C14  23836803.883 7 124124472.734 7     -2689.688          44.000    23836798.812 8  95980913.567 8     -2079.816          48.000
C24  22728339.781 7 118352506.802 7     -1557.840          42.000
C25  22351632.734 8 116390881.087 8      1731.688          51.000
E05  23687270.422 8 124477433.922 8      -746.297          51.000    23687272.617 8  95378846.431 8      -571.853          51.000
E24  22435229.641 8 117897938.353 8        -7.512          48.000    22435241.016 8  90337429.336 8        -5.789          48.000
E25  25238031.398 8 132626813.257 8      2628.156          51.000    25238033.500 8 101623125.839 8      2013.806          51.000
E31  27090766.625 6 142362925.678 6     -2417.332          37.000    27090761.742 5 109083274.607 5     -1851.960          32.000
> 2020 05 09 03 00 30.0000000  0 15        .000000000000
G05  20572908.836 8 108111363.708 8       319.949          48.000    20572908.492 8  84242619.471 8       249.311          48.000
G07  21692376.914 8 113994209.781 8     -1963.828          50.000    21692374.977 8  88826636.728 8     -1530.256          50.000
G28  22702851.852 7 119304302.620 7      2977.566          46.000    22702851.734 7  92964399.234 7      2320.182          46.000
G30  20360430.719 8 106994827.628 8      -151.348          51.000    20360431.766 8  83372603.636 8      -117.933          51.000
R01  20917356.500 7 111815266.754 7     -2683.945          47.000    20917360.352 6  86967407.647 6     -2087.513          40.000
R11  20188612.391 7 107881852.817 7     -2256.906          47.000    20188614.469 8  83908125.901 8     -1755.372          50.000
R12  19488959.984 8 104106547.131 8      1785.789          51.000    19488962.539 7  80971779.065 7      1388.947          47.000
C05  39794355.406 6 207219650.223 6         -.910          36.000    39794353.078 6 160235371.004 6         -.628          41.000
C14  23852313.594 6 124205244.377 6     -2695.875          41.000    23852310.180 8  96043371.401 8     -2084.685          50.000
C24  22737344.234 6 118399400.224 6     -1568.887          36.000
C25  22341687.969 8 116339093.754 8      1719.914          51.000
E05  23691546.242 8 124499903.327 8      -752.398          51.000    23691548.523 8  95396063.248 8      -576.537          51.000
E24  22435308.172 8 117898351.256 8       -20.824          48.000    22435319.844 8  90337745.740 8       -15.941          49.000
E25  25223045.633 8 132548063.500 8      2620.988          51.000    25223048.211 8 101562785.112 8      2008.326          51.000
E31  27104582.977 6 142435526.905 6     -2423.715          38.000    27104577.070 5 109138900.116 5     -1857.488          31.000
> 2020 05 09 03 01  0.0000000  0 15        .000000000000
G05  20571139.562 8 108102064.566 8       300.363          49.000    20571139.000 8  84235373.369 8       234.049          49.000
G07  21703616.758 8 114053275.156 8     -1973.570          50.000    21703615.258 8  88872661.695 8     -1537.847          50.000
G28  22685880.305 7 119215119.732 7      2968.457          45.000    22685881.078 7  92894906.040 7      2313.083          45.000
G30  20361340.102 8 106999606.893 8      -166.910          51.000    20361340.984 8  83376327.742 8      -130.060          51.000
R01  20932460.078 7 111896005.779 7     -2698.227          44.000    20932464.367 6  87030204.657 6     -2098.621          39.000
R11  20201342.055 7 107949879.139 7     -2277.648          46.000    20201344.641 8  83961035.298 8     -1771.504          49.000
R12  19478999.961 8 104053343.081 8      1761.512          51.000    19479002.688 7  80930398.174 7      1370.068          47.000
C05  39794361.734 6 207219683.851 6        -1.129          36.000    39794359.398 6 160235396.235 6         -.677          41.000
C14  23867870.250 7 124286247.842 7     -2704.016          45.000    23867867.273 8  96106008.458 8     -2090.947          51.000
C24  22746422.984 6 118446671.203 6     -1582.016          39.000
C25  22331819.938 8 116287704.372 8      1706.363          51.000
E05  23695864.945 8 124522598.019 8      -760.277          51.000    23695867.125 8  95413452.697 8      -582.589          51.000
E24  22435470.859 8 117899206.592 8       -35.941          48.000    22435482.867 8  90338401.121 8       -27.504          50.000
E25  25208108.430 8 132469568.622 8      2612.219          51.000    25208111.242 8 101502639.706 8      2001.594          51.000
E31  27118444.727 6 142508368.604 6     -2432.250          38.000    27118438.617 5 109194713.823 5     -1863.585          32.000
> 2020 05 09 03 01 30.0000000  0 16        .000000000000
G05  20569480.578 8 108093344.532 8       282.215          49.000    20569479.023 8  84228578.542 8       219.908          49.000
G07  21714910.453 8 114112623.183 8     -1981.723          51.000    21714909.086 8  88918906.904 8     -1544.199          51.000
G28  22668958.945 7 119126201.547 7      2960.430          42.000    22668960.547 7  92825619.117 7      2306.828          42.000
G30  20362336.492 8 107004842.940 8      -180.949          51.000    20362337.547 8  83380407.797 8      -140.996          51.000
R01  20947641.438 7 111977162.577 7     -2710.949          44.000    20947646.336 6  87093326.639 6     -2108.516          38.000
R11  20214186.406 7 108018516.049 7     -2296.805          45.000    20214189.188 8  84014419.612 8     -1786.401          48.000
R12  19469175.422 8 104000861.834 8      1738.527          51.000    19469177.820 8  80889579.458 8      1352.188          48.000
C05  39794368.203 6 207219717.510 6         -.062          36.000    39794365.781 6 160235422.269 6         -.039          41.000
C14  23883472.352 7 124367483.233 7     -2710.449          47.000    23883469.211 8  96168824.772 8     -2095.958          51.000
C24  22755573.734 6 118494318.961 6     -1593.195          38.000
C25  22322028.742 8 116236714.652 8      1694.145          51.000
E05  23700226.727 8 124545519.314 8      -766.633          51.000    23700228.852 8  95431015.767 8      -587.432          51.000
E09                                                                  25204803.852 5 101489298.656 5     -1796.543          35.000
E24  22435717.914 8 117900504.994 8       -49.398          48.000    22435730.305 8  90339396.013 8       -37.941          51.000
E25  25193220.273 8 132391331.159 8      2604.758          51.000    25193223.078 8 101442691.547 8      1995.871          51.000
E31  27132351.539 6 142581449.910 6     -2438.703          37.000    27132346.344 5 109250711.126 5     -1868.518          33.000
> 2020 05 09 03 02  0.0000000  0 17        .000000000000
G05  20567926.508 8 108085177.227 8       263.273          50.000    20567924.523 8  84222214.398 8       205.148          50.000
G07  21726252.328 8 114172224.982 8     -1990.719          50.000    21726250.961 8  88965349.856 8     -1551.209          50.000
G09  23863159.383 5 125401739.114 5     -2927.285          32.000    23863153.148 5  97715622.251 5     -2281.001          31.000
G28  22652083.070 6 119037523.860 6      2952.082          39.000    22652085.133 6  92756519.657 6      2300.324          39.000
G30  20363414.523 8 107010507.645 8      -195.754          51.000    20363415.578 8  83384821.877 8      -152.536          51.000
R01  20962895.609 7 112058708.246 7     -2724.480          44.000    20962901.000 6  87156751.047 6     -2119.043          39.000
R11  20227139.125 7 108087732.421 7     -2316.621          46.000    20227142.070 7  84068254.598 7     -1801.819          47.000
R12  19459481.117 8 103949076.919 8      1714.801          51.000    19459483.555 8  80849302.298 8      1333.734          48.000
C05  39794369.609 6 207219725.219 6          .199          37.000    39794367.359 6 160235428.244 6          .157          41.000
C14  23899113.258 8 124448922.425 8     -2717.727          48.000    23899109.969 8  96231798.670 8     -2101.579          50.000
C24  22764789.711 5 118542314.764 5     -1605.406          34.000
C25  22312308.930 8 116186098.269 8      1681.203          51.000
E05  23704626.492 8 124568640.271 8      -773.777          51.000    23704628.469 8  95448731.820 8      -592.858          51.000
E09                                                                  25218201.500 5 101543240.016 5     -1798.806          34.000
E24  22436044.250 8 117902218.900 8       -63.781          48.000    22436056.859 8  90340709.261 8       -48.856          51.000
E25  25178376.211 8 132313325.410 8      2596.598          51.000    25178378.781 8 101382920.926 8      1989.604          51.000
E31  27146297.953 6 142654741.905 6     -2446.242          37.000    27146294.703 5 109306869.930 5     -1874.196          34.000
> 2020 05 09 03 02 30.0000000  0 16        .000000000000
G05  20566488.242 8 108077618.854 8       242.992          50.000    20566486.234 8  84216324.752 8       189.345          50.000
G07  21737652.672 8 114232134.473 8     -2000.848          49.000    21737651.453 8  89012032.588 8     -1559.102          49.000
G28  22635264.508 6 118949144.343 6      2942.383          41.000    22635264.727 5  92687652.530 5      2292.769          35.000
G30  20364584.508 8 107016655.554 8      -211.688          51.000    20364585.047 8  83389612.476 8      -164.951          51.000
R01  20978233.461 7 112140698.544 7     -2739.031          47.000    20978239.305 6  87220521.223 6     -2130.358          40.000
R11  20240210.766 7 108157581.221 7     -2337.613          44.000    20240213.055 7  84122581.453 7     -1818.141          46.000
R12  19449927.820 8 103898046.119 8      1689.793          51.000    19449930.508 8  80809611.682 8      1314.280          49.000
C05  39794376.609 6 207219761.835 6         -.527          36.000    39794374.383 6 160235456.561 6         -.432          41.000
C14  23914802.789 8 124530619.391 8     -2726.207          48.000    23914799.820 8  96294971.890 8     -2108.037          49.000
C24  22774083.477 6 118590711.872 6     -1618.609          37.000
C25  22302670.875 8 116135910.806 8      1667.020          50.000
E05  23709074.852 8 124592016.601 8      -782.207          51.000    23709076.516 8  95466643.563 8      -599.359          51.000
E09                                                                  25231623.258 4 101597295.687 4     -1801.760          29.000
E24  22436459.906 8 117904403.355 8       -79.320          49.000    22436472.867 8  90342383.071 8       -60.811          51.000
E25  25163586.984 8 132235608.272 8      2587.000          51.000    25163589.266 8 101323371.435 8      1982.289          51.000
E31  27160294.836 6 142728298.236 6     -2455.133          37.000    27160293.602 5 109363231.250 5     -1881.005          35.000
> 2020 05 09 03 03  0.0000000  0 15        .000000000000
G05  20565155.984 8 108070617.700 8       223.949          50.000    20565153.742 8  84210869.319 8       174.506          50.000
G07  21749101.297 8 114292297.701 8     -2009.797          49.000    21749100.195 8  89058913.033 8     -1566.075          48.000
G28  22618493.836 6 118861013.937 6      2933.012          41.000    22618491.453 5  92618979.544 5      2285.464          35.000
G30  20365836.211 8 107023233.399 8      -226.543          51.000    20365836.672 8  83394738.079 8      -176.527          51.000
R01  20993644.867 7 112223078.754 7     -2752.586          47.000    20993650.172 6  87284594.717 6     -2140.897          41.000
R11  20253389.867 7 108228005.796 7     -2357.281          46.000    20253392.008 7  84177356.150 7     -1833.441          46.000
R12  19440506.039 8 103847717.421 8      1665.789          51.000    19440508.930 8  80770467.136 8      1295.614          49.000
C05  39794379.219 6 207219774.462 6         -.211          36.000    39794376.883 6 160235467.102 6         -.142          40.000
C14  23930530.320 7 124612521.269 7     -2733.637          47.000    23930528.930 8  96358303.560 8     -2113.716          49.000
C24  22783443.906 5 118639456.837 5     -1630.547          32.000
C25  22293105.227 8 116086100.961 8      1653.992          51.000
E05  23713561.734 8 124615596.207 8      -789.469          51.000    23713563.469 8  95484711.059 8      -604.906          51.000
E24  22436955.367 8 117907005.619 8       -93.848          50.000    22436968.234 8  90344376.999 8       -71.873          51.000
E25  25148842.977 8 132158128.876 8      2578.609          50.000    25148845.117 8 101264004.097 8      1975.800          51.000
E31  27174331.750 6 142802064.705 6     -2462.547          37.000    27174332.547 6 109419753.639 6     -1886.896          36.000
> 2020 05 09 03 03 30.0000000  0 16        .000000000000
G05  20563937.070 8 108064212.889 8       203.887          50.000    20563935.125 8  84205878.560 8       158.873          50.000
G07  21760605.211 8 114352751.095 8     -2019.633          48.000    21760604.000 8  89106019.602 8     -1573.737          48.000
G28  22601778.289 6 118773173.648 6      2923.594          40.000    22601775.367 6  92550532.628 6      2278.131          37.000
G30  20367176.828 8 107030278.623 8      -242.355          51.000    20367177.805 8  83400227.882 8      -188.845          51.000
R01  21009136.039 7 112305887.149 7     -2767.062          46.000    21009141.328 7  87349001.231 7     -2152.160          42.000
R02  19440084.281 5 103736003.346 5      1532.496          32.000
R11  20266683.625 7 108299041.496 7     -2377.613          45.000    20266685.469 7  84232606.166 7     -1849.252          45.000
R12  19431222.945 8 103798131.062 8      1640.812          51.000    19431226.055 8  80731899.986 8      1276.188          48.000
C05  39794384.680 6 207219803.071 6         -.988          37.000    39794382.375 6 160235489.203 6         -.595          41.000
C14  23946304.227 8 124694665.045 8     -2741.793          48.000    23946303.812 8  96421822.319 8     -2120.122          49.000
C24  22792886.930 5 118688531.281 5     -1643.812          33.000
C25  22283619.703 8 116036707.397 8      1639.812          51.000
E05  23718094.547 8 124639417.755 8      -797.730          51.000    23718096.664 8  95502963.933 8      -611.245          51.000
E24  22437537.461 8 117910063.644 8      -109.168          50.000    22437550.047 8  90346720.154 8       -83.639          51.000
E25  25134151.719 8 132080926.996 8      2569.062          50.000    25134154.008 8 101204849.404 8      1968.520          51.000
E31  27188415.578 6 142876077.944 6     -2470.535          38.000    27188418.070 6 109476465.048 6     -1893.154          37.000
> 2020 05 09 03 04  0.0000000  0 16        .000000000000
G05  20562823.578 8 108058362.978 8       185.242          50.000    20562822.055 8  84201320.169 8       144.345          50.000
G07  21772156.289 8 114413451.687 8     -2028.039          48.000    21772154.789 8  89153318.772 8     -1580.290          48.000
G28  22585111.047 7 118685584.746 7      2914.898          43.000    22585108.516 6  92482281.542 6      2271.349          38.000
G30  20368598.430 8 107037748.872 8      -256.590          51.000    20368599.344 8  83406048.857 8      -199.940          51.000
R01  21024699.391 7 112389080.191 7     -2779.996          46.000    21024704.797 7  87413706.952 7     -2162.219          42.000
R02  19431503.086 5 103690225.454 5      1517.824          30.000    19431524.469 4  80648025.361 4      1180.530          26.000
R11  20280083.055 7 108370642.861 7     -2396.672          46.000    20280084.484 7  84288296.115 7     -1864.081          43.000
R12  19422071.281 8 103749246.354 8      1617.340          51.000    19422074.812 8  80693878.554 8      1257.934          48.000
C05  39794385.242 6 207219806.527 6         -.012          36.000    39794382.867 6 160235491.127 6         -.314          41.000
C14  23962117.492 8 124777008.612 8     -2748.625          48.000    23962115.938 8  96485495.608 8     -2125.444          51.000
C24  22802379.820 6 118738001.527 6     -1655.082          37.000
C25  22274206.398 8 115987689.661 8      1627.234          51.000
E05  23722665.781 8 124663440.057 8      -804.699          51.000    23722667.953 8  95521370.642 8      -616.582          51.000
E24  22438198.148 8 117913535.573 8      -123.215          50.000    22438210.602 8  90349380.468 8       -94.420          51.000
E25  25119505.703 8 132003962.713 8      2560.965          50.000    25119508.328 8 101145876.782 8      1962.274          51.000
E31  27202538.234 6 142950294.784 6     -2477.715          38.000    27202541.914 6 109533332.496 6     -1898.703          37.000
> 2020 05 09 03 04 30.0000000  0 17        .000000000000
G05  20561827.953 8 108053131.805 8       164.016          50.000    20561826.398 8  84197243.933 8       127.804          50.000
G07  21783765.961 7 114474460.449 7     -2038.641          47.000    21783764.055 7  89200858.082 7     -1588.551          47.000
G13  22030809.891 5 115772686.194 5      2408.551          32.000
G28  22568505.023 7 118598312.948 7      2903.656          46.000    22568502.352 6  92414277.510 6      2262.586          40.000
G30  20370112.766 8 107045705.960 8      -273.355          51.000    20370113.328 8  83412249.179 8      -213.004          51.000
R01  21040345.742 7 112472720.797 7     -2795.523          43.000    21040351.797 6  87478760.793 6     -2174.296          41.000
R02  19423020.844 5 103644962.480 5      1501.281          32.000    19423022.102 4  80612752.347 4      1167.663          25.000
R11  20293599.672 7 108442870.318 7     -2418.109          45.000    20293601.414 7  84344473.042 7     -1880.752          42.000
R12  19413063.078 8 103701128.020 8      1591.102          51.000    19413067.219 7  80656453.200 7      1237.523          47.000
C05  39794392.727 6 207219845.078 6        -1.734          36.000    39794390.273 6 160235520.924 6        -1.408          41.000
C14  23977981.242 8 124859613.226 8     -2757.906          48.000    23977978.539 8  96549370.736 8     -2132.648          51.000
C24  22811953.781 6 118787873.310 6     -1669.023          38.000
C25  22264877.383 8 115939110.609 8      1611.977          51.000
E05  23727287.266 8 124687726.206 8      -814.109          51.000    23727289.219 8  95539979.521 8      -623.819          51.000
E24  22438949.648 8 117917483.767 8      -139.680          51.000    22438961.953 8  90352405.702 8      -107.036          51.000
E25  25104917.414 8 131927300.231 8      2550.250          51.000    25104920.250 8 101087135.408 8      1954.079          51.000
E31  27216711.438 6 143024776.141 6     -2487.254          37.000    27216715.586 6 109590402.568 6     -1905.848          37.000
> 2020 05 09 03 05  0.0000000  0 16        .000000000000
G05  20560935.586 8 108048442.169 8       150.707          51.000    20560933.844 8  84193589.675 8       117.434          50.000
G07  21795419.148 7 114535698.324 7     -2041.500          47.000    21795416.844 7  89248575.913 7     -1590.779          47.000
G28  22551945.273 8 118511283.590 8      2900.461          48.000    22551942.219 6  92346462.411 6      2260.099          41.000
G30  20371704.805 8 107054071.533 8      -282.145          51.000    20371705.641 8  83418767.823 8      -219.853          51.000
R01  21056060.922 7 112556729.303 7     -2802.930          45.000    21056067.258 6  87544100.746 6     -2180.056          40.000
R02  19414616.578 5 103600106.109 5      1491.477          34.000    19414615.617 4  80577860.038 4      1160.037          25.000
R11  20307217.727 7 108515641.514 7     -2431.336          46.000    20307219.953 6  84401072.904 6     -1891.039          39.000
R12  19404183.719 8 103653698.656 8      1573.117          49.000    19404188.344 7  80619563.727 7      1223.539          46.000
C05  39794392.352 6 207219842.968 6         4.125          36.000    39794389.836 6 160235519.294 6         3.292          41.000
C14  23993880.070 8 124942401.099 8     -2759.109          48.000    23993876.859 8  96613387.578 8     -2133.509          51.000
C24  22821593.172 6 118838068.406 6     -1675.051          41.000
C25  22255617.781 8 115890894.069 8      1604.586          51.000
E05  23731944.180 8 124712199.039 8      -815.301          51.000    23731946.148 8  95558731.444 8      -624.738          51.000
E24  22439776.836 8 117921830.375 8      -147.957          51.000    22439789.070 8  90355736.221 8      -113.379          51.000
E25  25090372.398 8 131850863.613 8      2547.605          51.000    25090374.742 8 101028567.106 8      1952.049          51.000
E31  27230919.875 6 143099442.829 6     -2488.469          37.000    27230924.430 6 109647614.669 6     -1906.671          36.000
> 2020 05 09 03 05 30.0000000  0 17        .000000000000
G05  20560152.320 8 108044326.100 8       126.383          50.000    20560150.469 8  84190382.349 8        98.480          50.000
G07  21807121.641 7 114597195.305 7     -2055.516          47.000    21807119.086 7  89296495.622 7     -1601.704          47.000
G28  22535437.758 8 118424530.896 8      2885.676          49.000    22535434.016 7  92278862.907 7      2248.579          42.000
G30  20373380.375 8 107062876.278 8      -302.145          51.000    20373381.250 8  83425628.674 8      -235.434          51.000
R01  21071851.406 8 112641136.513 8     -2821.629          48.000    21071856.914 6  87609750.802 6     -2194.600          40.000
R02  19406295.484 5 103555706.170 5      1471.309          34.000    19406299.250 4  80543333.772 4      1144.354          29.000
R11  20320942.898 7 108588985.149 7     -2455.641          46.000    20320942.836 6  84458117.888 6     -1909.946          37.000
R12  19395439.820 8 103606991.449 8      1543.500          50.000    19395444.367 7  80583235.928 7      1200.500          47.000
C05  39794390.273 6 207219832.479 6         -.969          36.000    39794387.586 6 160235510.403 6         -.513          41.000
C14  24009819.609 7 125025402.568 7     -2771.555          45.000    24009816.797 8  96677569.611 8     -2143.160          51.000
C24  22831300.930 6 118888616.426 6     -1692.090          40.000
C25  22246434.273 8 115843072.016 8      1586.078          51.000
E05  23736642.727 8 124736890.509 8      -827.984          51.000    23736644.719 8  95577650.887 8      -634.463          51.000
E09  25312564.617 5 133018425.890 5     -2374.293          31.000
E24  22440685.812 8 117926606.591 8      -167.668          51.000    22440697.930 8  90359395.926 8      -128.497          50.000
E25  25075876.719 8 131774685.952 8      2533.680          51.000    25075878.273 8 100970197.205 8      1941.400          51.000
E31  27245169.367 6 143174324.767 6     -2500.918          36.000    27245174.156 5 109704991.692 5     -1916.087          34.000
> 2020 05 09 03 06  0.0000000  0 16        .000000000000
G05  20559484.484 8 108040816.573 8       107.629          51.000    20559482.539 8  84187647.650 8        83.867          51.000
G07  21818879.172 7 114658981.031 7     -2063.688          46.000    21818876.711 7  89344640.325 7     -1608.068          46.000
G28  22518988.914 7 118338089.475 7      2876.715          47.000    22518985.336 7  92211505.948 7      2241.596          43.000
G30  20375145.250 8 107072150.633 8      -316.312          51.000    20375146.031 8  83432855.450 8      -246.477          51.000
R01  21087722.414 8 112725973.368 8     -2834.336          48.000    21087726.961 6  87675734.962 6     -2204.487          39.000
R02  19398065.898 5 103511797.591 5      1456.371          33.000    19398069.680 5  80509194.626 5      1132.727          30.000
R11  20334780.547 7 108662929.482 7     -2473.887          43.000    20334780.500 6  84515630.178 6     -1924.131          37.000
R12  19386837.688 8 103561039.604 8      1519.930          50.000    19386842.000 7  80547495.573 7      1182.168          47.000
C05  39794392.273 6 207219842.708 6         -.191          36.000    39794389.625 6 160235518.323 6         -.145          41.000
C14  24025804.938 7 125108647.711 7     -2778.371          42.000    24025803.891 8  96741940.056 8     -2148.292          51.000
C24  22841081.297 6 118939546.664 6     -1703.352          39.000
C25  22237332.656 8 115795676.136 8      1573.402          51.000
E05  23741388.859 8 124761832.300 8      -834.898          51.000    23741391.016 8  95596762.115 8      -639.754          51.000
E24  22441682.375 8 117931843.342 8      -181.594          50.000    22441694.398 8  90363408.507 8      -139.164          49.000
E25  25061436.297 8 131698800.110 8      2525.281          51.000    25061437.070 8 100912050.914 8      1934.932          51.000
E31  27259465.312 5 143249457.495 5     -2507.605          35.000    27259470.344 5 109762590.320 5     -1921.439          33.000
> 2020 05 09 03 06 30.0000000  0 16        .000000000000
G05  20558930.031 8 108037903.395 8        89.543          50.000    20558928.227 8  84185377.647 8        69.774          50.000
G07  21830689.383 7 114721043.995 7     -2070.980          44.000    21830687.375 7  89393001.085 7     -1613.751          44.000
G28  22502596.867 7 118251951.790 7      2868.531          46.000    22502594.453 7  92144385.664 7      2235.222          45.000
G30  20376997.328 8 107081883.469 8      -329.715          51.000    20376998.188 8  83440439.488 8      -256.921          51.000
R01  21103671.836 8 112811228.501 8     -2846.398          49.000    21103675.234 6  87742044.506 6     -2213.865          40.000
R02  19389927.438 5 103468372.495 5      1442.195          32.000    19389934.836 5  80475419.547 5      1121.704          32.000
R11  20348727.891 7 108737461.017 7     -2491.754          46.000    20348729.703 6  84573599.184 6     -1938.034          36.000
R12  19378375.109 8 103515833.668 8      1496.785          50.000    19378379.352 8  80512335.407 8      1164.166          48.000
C05  39794396.359 6 207219864.580 6         1.340          36.000    39794393.898 6 160235535.221 6         1.136          41.000
C14  24041834.438 7 125192125.414 7     -2784.082          42.000    24041835.797 8  96806490.437 8     -2152.892          51.000
C24  22850932.711 6 118990847.429 6     -1713.754          36.000
C25  22228310.953 8 115748696.909 8      1561.344          51.000
E05  23746180.945 8 124787014.481 8      -841.066          51.000    23746183.133 8  95616057.550 8      -644.439          51.000
E24  22442764.484 8 117937530.034 8      -194.695          50.000    22442776.297 7  90367765.829 7      -149.146          46.000
E25  25047049.203 8 131623197.364 8      2517.836          50.000    25047050.133 8 100854121.532 8      1929.272          51.000
E31  27273805.336 5 143324814.203 5     -2513.719          34.000
> 2020 05 09 03 07  0.0000000  0 15        .000000000000
G05  20558482.180 8 108035550.497 8        69.141          50.000    20558480.664 8  84183544.212 8        53.876          51.000
G07  21842544.984 7 114783346.043 7     -2080.453          43.000    21842543.555 7  89441548.179 7     -1621.129          43.000
G28  22486256.219 7 118166084.382 7      2857.711          47.000    22486255.000 7  92077475.991 7      2226.788          46.000
G30  20378929.672 8 107092037.663 8      -345.461          51.000    20378930.664 8  83448351.847 8      -269.190          51.000
R01  21119691.938 8 112896863.938 8     -2860.781          48.000    21119695.398 6  87808649.852 6     -2225.052          41.000
R02  19381873.125 5 103425396.293 5      1424.848          35.000    19381882.297 5  80441993.626 5      1108.218          32.000
R11  20362777.836 7 108812539.266 7     -2511.504          44.000    20362779.070 5  84631993.334 5     -1953.395          33.000
R12  19370046.180 8 103471338.036 8      1471.391          51.000    19370049.680 8  80477727.692 8      1144.415          48.000
C05  39794395.906 6 207219862.322 6          .273          36.000    39794393.391 6 160235533.473 6          .326          41.000
C14  24057901.594 7 125275798.969 7     -2792.262          42.000    24057905.320 8  96871192.156 8     -2159.148          51.000
C24  22860849.680 6 119042481.005 6     -1726.578          37.000
C25  22219362.523 8 115702099.075 8      1546.953          51.000
E05  23751012.000 8 124812401.219 8      -849.496          51.000    23751014.234 8  95635509.712 8      -650.904          51.000
E24  22443925.047 8 117943630.009 8      -210.062          48.000    22443936.617 7  90372439.818 7      -160.939          44.000
E25  25032708.992 8 131547843.001 8      2507.738          49.000    25032710.844 8 100796382.479 8      1921.529          51.000
> 2020 05 09 03 07 30.0000000  0 15        .000000000000
G05  20558180.562 8 108033965.752 8        47.734          51.000    20558179.383 8  84182309.350 8        37.196          51.000
G07  21854485.078 7 114846092.588 7     -2091.105          44.000    21854483.945 7  89490441.595 7     -1629.430          44.000
G28  22470007.250 8 118080697.266 8      2845.945          48.000    22470006.875 7  92010940.564 7      2217.620          45.000
G30  20380981.312 8 107102819.376 8      -362.117          51.000    20380982.438 8  83456753.196 8      -282.169          51.000
R01  21135821.867 7 112983089.016 7     -2876.027          46.000    21135826.102 7  87875713.763 7     -2236.910          42.000
R02  19373943.789 6 103383082.029 6      1407.648          36.000    19373952.148 5  80409082.509 5      1094.841          31.000
R11  20376968.406 7 108888371.304 7     -2532.387          45.000    20376970.219 5  84690973.849 5     -1969.631          33.000
R12  19361889.250 8 103427764.068 8      1444.922          51.000    19361892.148 7  80443836.828 7      1123.828          47.000
C05  39794430.180 6 207220040.055 6         -.965          36.000    39794427.742 6 160235671.701 6        -1.024          41.000
C14  24074046.539 7 125359872.590 7     -2801.438          45.000    24074051.195 8  96936203.190 8     -2166.180          51.000
C24  22870869.281 6 119094651.151 6     -1740.293          39.000
C25  22210526.844 8 115656088.449 8      1531.562          51.000
E05  23755921.297 8 124838199.951 8      -859.074          51.000    23755923.602 8  95655277.564 8      -658.264          51.000
E24  22445203.617 7 117950349.940 7      -226.582          47.000    22445214.891 6  90377588.820 6      -173.735          39.000
E25  25018455.930 8 131472945.634 8      2496.789          50.000    25018458.766 8 100738993.571 8      1913.166          51.000
> 2020 05 09 03 08  0.0000000  0 16        .000000000000
G05  20557950.656 8 108032758.338 8        29.992          51.000    20557949.820 8  84181368.510 8        23.371          51.000
G07  21866435.148 7 114908890.693 7     -2098.188          44.000    21866433.695 7  89539375.185 7     -1634.951          43.000
G28  22453775.391 7 117995401.821 7      2837.754          47.000    22453776.406 7  91944476.593 7      2211.237          45.000
G30  20383077.773 8 107113836.217 8      -375.172          51.000    20383078.648 8  83465337.737 8      -292.342          51.000
R01  21151987.469 7 113069504.410 7     -2887.754          47.000    21151992.070 6  87942925.781 6     -2246.028          40.000
R02  19366064.211 5 103341035.075 5      1393.086          31.000    19366071.125 5  80376379.304 5      1083.508          32.000
R11  20391225.375 7 108964555.534 7     -2549.281          45.000    20391228.672 5  84750228.270 5     -1982.771          30.000
R12  19353830.422 8 103384715.106 8      1422.137          51.000    19353833.195 8  80410354.286 8      1106.106          49.000
C05  39794424.695 6 207220012.026 6          .633          36.000    39794422.312 6 160235650.009 6          .378          41.000
C14  24090194.719 7 125443957.229 7     -2806.973          46.000    24090198.406 8  97001222.788 8     -2170.550          50.000
C23  25839676.867 6 134554002.047 6      3270.305          36.000
C24  22880916.438 6 119146968.128 6     -1750.594          39.000
C25  22201729.070 8 115610277.701 8      1519.680          51.000
E05  23760834.570 8 124864019.526 8      -865.035          51.000    23760836.797 8  95675061.396 8      -662.831          51.000
E24  22446525.445 7 117957297.941 7      -239.277          45.000    22446538.805 6  90382912.481 6      -183.486          37.000
E25  25004216.102 8 131398115.242 8      2489.086          51.000    25004219.820 8 100681656.020 8      1907.240          51.000
> 2020 05 09 03 08 30.0000000  0 16        .000000000000
G05  20557836.477 8 108032158.984 8         9.785          51.000    20557835.734 8  84180901.479 8         7.625          51.000
G07  21878438.656 7 114971969.591 7     -2107.246          44.000    21878436.992 7  89588527.567 7     -1642.010          44.000
G28  22437605.812 8 117910431.538 8      2826.762          48.000    22437607.859 7  91878265.981 7      2202.671          44.000
G30  20385262.656 8 107125317.828 8      -390.520          51.000    20385263.578 8  83474284.445 8      -304.298          51.000
R01  21168231.844 7 113156343.712 7     -2901.812          43.000    21168237.094 6  88010467.507 6     -2256.965          40.000
R02  19358278.273 6 103299481.668 6      1376.086          36.000    19358285.125 5  80344067.685 5      1070.292          32.000
R11  20405591.406 7 109041323.014 7     -2568.789          45.000    20405592.172 4  84809903.185 4     -1997.953          27.000
R12  19345913.875 8 103342426.490 8      1396.840          51.000    19345917.070 8  80377463.155 8      1086.431          49.000
C05  39794423.500 6 207220005.766 6         -.406          36.000    39794421.117 6 160235645.154 6         -.033          41.000
C14  24106388.805 7 125528280.578 7     -2814.836          46.000    24106388.664 7  97066426.911 7     -2176.570          42.000
C23  25820847.758 6 134455964.973 6      3265.512          36.000
C24  22891035.570 6 119199658.827 6     -1762.719          39.000
C25  22193013.203 8 115564895.943 8      1505.391          51.000
E05  23765795.594 8 124890090.912 8      -873.379          51.000    23765798.039 8  95695038.164 8      -669.194          51.000
E24  22447934.469 7 117964704.174 7      -254.781          44.000    22447952.375 6  90388587.268 6      -195.312          37.000
E25  24990033.711 8 131323583.931 8      2479.277          51.000    24990037.359 8 100624547.646 8      1899.661          51.000
> 2020 05 09 03 09  0.0000000  0 16        .000000000000
G05  20557831.602 8 108032132.981 8        -9.977          51.000    20557830.914 8  84180881.219 8        -7.774          51.000
G07  21890488.555 7 115035292.070 7     -2115.707          44.000    21890486.852 7  89637869.729 7     -1648.603          43.000
G28  22421492.320 8 117825753.495 8      2816.383          49.000    22421494.602 6  91812283.103 6      2194.587          41.000
G30  20387529.039 8 107137227.817 8      -405.480          51.000    20387530.281 8  83483564.974 8      -315.959          51.000
R01  21184548.781 7 113243569.966 7     -2915.434          45.000    21184554.234 6  88078310.106 6     -2267.559          39.000
R02  19350581.859 5 103258408.478 5      1359.770          35.000    19350587.594 5  80312121.909 5      1057.599          31.000
R11  20420059.758 7 109118634.284 7     -2587.355          45.000    20420062.398 4  84870034.170 4     -2012.385          29.000
R12  19338133.078 8 103300863.099 8      1371.930          51.000    19338136.219 8  80345136.041 8      1067.056          49.000
C05  39794419.758 6 207219986.177 6         -.258          36.000    39794417.336 6 160235630.007 6         -.341          41.000
C14  24122621.938 7 125612806.417 7     -2822.191          47.000    24122614.633 6  97131787.528 6     -2182.554          39.000
C23  25802039.516 5 134358034.341 5      3261.078          34.000
C24  22901219.164 6 119252686.351 6     -1774.602          40.000
C25  22184373.352 8 115519908.644 8      1491.691          51.000
E05  23770797.984 8 124916378.978 8      -881.266          51.000    23770800.711 8  95715180.978 8      -675.288          51.000
E24  22449423.664 7 117972532.709 7      -269.418          42.000    22449442.312 6  90394585.571 6      -206.240          38.000
E25  24975901.828 8 131249317.733 8      2469.660          51.000    24975905.195 8 100567642.411 8      1892.328          51.000
> 2020 05 09 03 09 30.0000000  0 16        .000000000000
G05  20557943.297 8 108032718.823 8       -28.949          51.000    20557942.523 8  84181337.707 8       -22.558          51.000
G07  21902591.727 6 115098894.268 6     -2123.840          41.000    21902590.320 6  89687429.882 6     -1654.940          41.000
G28  22405442.195 8 117741408.572 8      2806.633          48.000    22405443.586 6  91746559.886 6      2186.990          37.000
G30  20389883.984 8 107149602.979 8      -419.484          51.000    20389885.062 8  83493207.949 8      -326.871          51.000
R01  21200946.070 7 113331220.088 7     -2927.789          47.000    21200949.906 6  88146482.411 6     -2277.169          37.000
R02  19342981.109 5 103217846.556 5      1344.359          35.000    19342985.852 5  80280573.745 5      1045.607          34.000
R11  20434635.719 7 109196524.009 7     -2605.379          42.000
R12  19330495.516 8 103260064.154 8      1347.961          51.000    19330498.633 8  80313403.530 8      1048.414          49.000
C05  39794420.664 6 207219990.650 6          .465          36.000    39794418.211 6 160235633.485 6          .121          40.000
C14  24138900.930 8 125697571.186 8     -2828.664          48.000    24138893.648 7  97197332.908 7     -2187.309          45.000
C23  25783258.961 5 134260249.064 5      3257.723          33.000
C24  22911473.570 6 119306086.451 6     -1785.387          40.000
C25  22175816.969 8 115475353.712 8      1478.734          51.000
E05  23775848.836 8 124942921.785 8      -888.211          51.000    23775851.625 8  95735518.990 8      -680.547          51.000
E24  22451000.211 7 117980820.768 7      -283.148          43.000    22451018.477 7  90400936.114 7      -216.805          42.000
E25  24961827.773 8 131175355.864 8      2461.176          51.000    24961830.859 8 100510970.359 8      1885.833          51.000
> 2020 05 09 03 10  0.0000000  0 16        .000000000000
G05  20558166.570 8 108033891.311 8       -49.199          51.000    20558165.484 8  84182251.338 8       -38.337          51.000
G07  21914742.891 7 115162749.707 7     -2133.090          43.000    21914741.922 7  89737187.392 7     -1662.148          42.000
G28  22389451.109 7 117657374.217 7      2795.609          46.000    22389450.594 6  91681078.678 6      2178.400          39.000
G30  20392322.398 8 107162417.275 8      -434.824          51.000    20392323.398 8  83503193.115 8      -338.824          51.000
R01  21217417.234 7 113419267.610 7     -2942.004          44.000    21217420.234 6  88214963.781 6     -2288.228          36.000
R02  19335471.227 6 103177772.487 6      1327.172          36.000    19335477.367 5  80249405.031 5      1032.242          35.000
R11  20449314.352 7 109274963.356 7     -2624.117          42.000    20449346.609 4  84991665.336 4     -2040.977          28.000
R12  19322996.844 8 103220005.237 8      1322.551          51.000    19322999.258 8  80282246.587 8      1028.651          48.000
C05  39794421.531 6 207219994.507 6         -.086          36.000    39794418.984 6 160235636.448 6         -.432          41.000
C14  24155220.953 8 125782549.033 8     -2836.594          48.000    24155215.109 8  97263043.174 8     -2193.371          48.000
C23  25764502.219 5 134162585.749 5      3253.086          32.000
C24  22921794.969 6 119359832.577 6     -1797.625          41.000
C25  22167339.398 8 115431206.895 8      1464.312          51.000
E05  23780943.414 8 124969694.659 8      -896.609          51.000    23780946.211 8  95756033.278 8      -687.030          51.000
E24  22452659.898 7 117989542.936 7      -298.422          45.000    22452676.633 7  90407619.229 7      -228.517          44.000
E25  24947807.094 8 131101674.786 8      2450.898          51.000    24947809.750 8 100454513.435 8      1877.943          51.000
> 2020 05 09 03 10 30.0000000  0 16        .000000000000
G05  20558498.961 8 108035637.785 8       -67.922          51.000    20558497.586 8  84183612.231 8       -52.926          51.000
G07  21926939.375 7 115226843.284 7     -2140.285          43.000    21926938.414 7  89787130.420 7     -1667.755          44.000
G28  22373516.430 7 117573640.192 7      2786.035          42.000    22373515.805 6  91615831.428 6      2170.936          41.000
G30  20394841.688 8 107175656.385 8      -448.430          51.000    20394842.836 8  83513509.313 8      -349.426          51.000
R01  21233960.023 7 113507697.847 7     -2954.062          44.000    21233962.758 6  88283742.833 6     -2297.604          38.000
R02  19328050.414 5 103138175.767 5      1311.645          35.000    19328056.086 5  80218607.568 5      1020.165          33.000
R11  20464092.359 6 109353934.866 6     -2641.195          40.000    20464124.273 4  85053087.897 4     -2054.254          29.000
R12  19315634.344 8 103180673.306 8      1298.934          51.000    19315635.930 7  80251655.113 7      1010.285          47.000
C05                                                                  39794417.070 6 160235628.710 6          .296          41.000
C14  24171578.648 7 125867725.704 7     -2842.551          47.000    24171574.422 8  97328907.216 8     -2198.104          49.000
C23  25745768.219 5 134065032.531 5      3250.367          34.000
C24  22932180.148 7 119413909.832 7     -1808.172          42.000
C25  22158937.758 8 115387455.479 8      1451.734          51.000
E05  23786079.469 8 124996684.575 8      -903.387          51.000    23786082.148 8  95776713.859 8      -692.166          51.000
E24  22454399.930 7 117998685.168 7      -311.676          44.000    22454415.461 7  90414624.309 7      -239.008          46.000
E25  24933837.250 8 131028262.582 8      2442.539          51.000    24933839.992 8 100398262.527 8      1871.571          51.000
> 2020 05 09 03 11  0.0000000  0 16        .000000000000
G05  20558941.258 8 108037962.086 8       -86.906          51.000    20558939.750 8  84185423.362 8       -67.719          51.000
G07  21939181.695 7 115291176.767 7     -2148.160          44.000    21939179.930 7  89837260.374 7     -1673.891          44.000
G28  22357638.734 6 117490212.714 6      2775.852          37.000    22357640.141 6  91550822.974 6      2162.998          37.000
G30  20397442.367 8 107189322.664 8      -462.391          51.000    20397443.383 8  83524158.367 8      -360.301          51.000
R01  21250574.648 7 113596512.722 7     -2966.590          45.000    21250578.102 6  88352821.074 6     -2307.348          40.000
R02  19320720.266 6 103099061.925 6      1295.633          38.000    19320725.312 6  80188185.677 6      1007.717          36.000
R11  20478970.305 6 109433438.831 6     -2658.398          41.000
R12  19308408.648 8 103142072.907 8      1274.676          51.000    19308409.586 7  80221632.637 7       991.414          47.000
C05  39794415.602 6 207219965.023 6         1.008          36.000    39794413.203 6 160235612.837 6         1.115          41.000
C14  24187974.617 7 125953103.485 7     -2848.969          47.000    24187971.812 8  97394926.770 8     -2203.091          49.000
C23  25727057.805 6 133967594.275 6      3246.246          36.000
C24  22942628.461 6 119468319.746 6     -1818.887          41.000
C25  22150612.727 8 115344103.336 8      1438.656          51.000
E05  23791257.875 8 125023895.171 8      -910.512          51.000    23791260.062 8  95797563.547 8      -697.620          51.000
E24  22456220.664 7 118008250.382 7      -325.590          46.000    22456236.000 7  90421953.501 7      -249.562          47.000
E25  24919918.633 8 130955124.045 8      2433.707          49.000    24919922.023 8 100342221.289 8      1864.726          51.000
> 2020 05 09 03 11 30.0000000  0 16        .000000000000
G05  20559493.609 8 108040864.269 8      -105.582          51.000    20559491.820 8  84187684.812 8       -82.272          51.000
G07  21951469.477 7 115355748.472 7     -2155.566          44.000    21951466.891 7  89887575.978 7     -1679.662          43.000
G28  22341822.156 6 117407093.926 6      2766.047          41.000    22341823.805 7  91486055.029 7      2155.361          42.000
G30  20400123.977 8 107203414.937 8      -475.949          51.000    20400124.977 8  83535139.369 8      -370.870          51.000
R01  21267261.258 7 113685711.001 7     -2978.895          45.000    21267265.094 6  88422197.499 6     -2316.918          39.000
R02  19313481.891 6 103060433.354 6      1280.391          38.000    19313487.172 6  80158141.200 6       995.859          37.000
R11  20493947.891 6 109513471.303 6     -2675.543          40.000
R12  19301319.734 8 103104204.412 8      1250.898          51.000    19301319.812 7  80192179.347 7       972.921          46.000
C05  39794409.586 6 207219933.891 6         2.102          36.000    39794407.172 6 160235588.770 6         1.827          41.000
C14  24204408.984 7 126038681.243 7     -2855.047          47.000    24204406.812 8  97461100.956 8     -2207.673          48.000
C23  25708370.789 6 133870272.137 6      3243.215          38.000
C24  22953140.961 7 119523060.548 7     -1829.398          43.000
C25  22142364.039 8 115301150.868 8      1425.902          50.000
E05  23796478.383 8 125051326.659 8      -917.180          51.000    23796480.102 8  95818582.489 8      -702.744          51.000
E24  22458121.648 7 118018237.880 7      -339.047          47.000    22458136.047 7  90429606.270 7      -259.906          47.000
E25  24906051.992 8 130882260.487 8      2425.035          49.000    24906056.398 8 100286390.731 8      1858.210          51.000
> 2020 05 09 03 12  0.0000000  0 16        .000000000000
G05  20560155.438 8 108044342.315 8      -126.375          51.000    20560153.703 8  84190394.983 8       -98.474          51.000
G07  21963801.812 7 115420554.678 7     -2164.777          43.000    21963798.641 7  89938074.292 7     -1686.839          44.000
G28  22326065.305 7 117324284.854 7      2754.141          46.000    22326066.578 7  91421528.495 7      2146.087          46.000
G30  20402886.016 8 107217930.094 8      -491.746          51.000    20402887.086 8  83546449.898 8      -383.179          51.000
R01  21284019.328 7 113775289.609 7     -2993.234          47.000    21284023.086 6  88491869.780 6     -2328.071          41.000
R02  19306333.109 6 103022290.379 6      1262.875          39.000    19306339.266 5  80128474.375 5       982.233          35.000
R11  20509023.086 6 109594026.428 6     -2694.797          39.000
R12  19294367.156 8 103067066.436 8      1224.891          51.000    19294368.164 8  80163294.283 8       952.693          49.000
C05  39794401.148 6 207219889.121 6         1.000          36.000    39794398.836 6 160235554.939 6          .577          41.000
C14  24220880.750 7 126124455.872 7     -2863.215          46.000    24220878.586 7  97527427.305 7     -2214.071          47.000
C23  25689706.047 6 133773065.602 6      3237.258          39.000
C24  22963716.398 7 119578128.409 7     -1841.773          43.000
C25  22134191.219 8 115258596.380 8      1411.059          49.000
E05  23801740.406 8 125078977.206 8      -926.188          51.000    23801741.852 8  95839769.268 8      -709.676          51.000
E24  22460102.375 8 118028645.039 8      -354.855          48.000    22460115.203 8  90437580.569 8      -271.911          48.000
E25  24892238.461 8 130809671.127 8      2414.246          49.000    24892242.680 8 100230770.307 8      1849.826          51.000
> 2020 05 09 03 12 30.0000000  0 16        .000000000000
G05  20560931.383 8 108048420.669 8      -145.492          51.000    20560929.898 8  84193572.911 8      -113.371          51.000
G07  21976182.867 6 115485617.708 6     -2172.562          41.000    21976179.516 6  89988772.723 6     -1692.906          41.000
G28  22310372.281 8 117241811.911 8      2743.875          50.000    22310373.055 8  91357263.861 8      2138.084          48.000
G30  20405732.914 8 107232890.921 8      -505.621          51.000    20405733.852 8  83558107.685 8      -393.990          51.000
R01  21300852.898 7 113865271.211 7     -3005.516          46.000    21300856.508 7  88561855.480 7     -2337.623          42.000
R02  19299281.484 7 102984659.342 7      1246.344          42.000    19299285.219 6  80099205.851 6       969.382          36.000
R11  20524200.836 5 109675125.116 5     -2711.492          35.000    20524214.008 4  85302912.189 4     -2108.935          25.000
R12  19287555.727 8 103030684.006 8      1200.582          51.000    19287557.586 7  80134996.866 7       933.786          47.000
C05  39794394.859 6 207219856.339 6         1.434          36.000    39794392.547 6 160235529.581 6         1.133          41.000
C14  24237394.812 7 126210449.898 7     -2869.660          47.000    24237390.875 7  97593923.268 7     -2218.976          44.000
C23  25671067.828 6 133675999.522 6      3233.441          41.000
C24  22974357.898 6 119633545.148 6     -1852.488          41.000
C25  22126099.656 8 115216463.949 8      1397.703          49.000
E05  23807048.492 8 125106870.973 8      -933.410          51.000    23807049.930 8  95861142.400 8      -715.219          51.000
E24  22462167.547 8 118039495.112 8      -368.633          49.000    22462179.633 8  90445894.230 8      -282.288          48.000
E25  24878482.570 8 130737381.297 8      2405.156          51.000    24878486.141 8 100175379.398 8      1842.861          51.000
> 2020 05 09 03 13  0.0000000  0 17        .000000000000
G05  20561818.125 8 108053080.943 8      -164.953          51.000    20561816.922 8  84197204.280 8      -128.535          51.000
G07  21988608.961 6 115550917.231 6     -2180.578          41.000    21988606.164 6  90039655.476 6     -1699.155          41.000
G28  22294740.328 8 117159659.503 8      2733.098          51.000    22294740.273 8  91293248.985 8      2129.686          48.000
G30  20408660.867 8 107248277.911 8      -520.000          51.000    20408661.719 8  83570097.551 8      -405.192          51.000
R01  21317757.461 7 113955635.895 7     -3018.457          43.000    21317761.406 6  88632139.050 6     -2347.692          41.000
R02  19292322.883 6 102947524.800 6      1229.508          40.000    19292326.047 6  80070323.456 6       956.284          37.000
R11  20539472.633 6 109756744.704 6     -2729.262          37.000    20539482.289 4  85366382.209 4     -2122.768          25.000
R12  19280882.133 8 102995038.914 8      1175.930          51.000    19280884.797 8  80107272.871 8       914.612          49.000
C05  39794387.109 6 207219816.306 6         1.770          36.000    39794384.844 6 160235498.634 6          .967          41.000
C14  24253947.250 7 126296644.017 7     -2876.375          47.000    24253942.500 7  97660574.013 7     -2224.244          45.000
C23  25652452.547 6 133579057.192 6      3229.355          41.000
C24  22985063.523 7 119689290.799 7     -1863.625          45.000
C25  22118086.375 8 115174735.747 8      1384.242          51.000
E05  23812399.398 8 125134989.798 8      -940.992          51.000    23812400.633 8  95882687.980 8      -721.035          51.000
E09  25518108.172 5 134098557.817 5     -2425.141          35.000
E24  22464313.203 8 118050769.023 8      -382.773          49.000    22464325.078 8  90454532.695 8      -293.306          48.000
E25  24864780.641 8 130665373.893 8      2395.562          51.000    24864783.453 8 100120204.904 8      1835.573          51.000
> 2020 05 09 03 13 30.0000000  0 18        .000000000000
G05  20562814.758 8 108058317.535 8      -184.129          51.000    20562813.539 8  84201284.747 8      -143.477          51.000
G07  22001078.531 6 115616446.266 6     -2188.031          41.000    22001076.227 6  90090717.032 6     -1704.962          41.000
G13  21788836.375 5 114501122.523 5      2298.504          34.000
G28  22279168.516 8 117077824.509 8      2722.441          51.000    22279167.789 8  91229481.445 8      2121.383          48.000
G30  20411668.656 8 107264084.219 8      -533.859          51.000    20411669.586 8  83582414.165 8      -415.994          51.000
R01  21334731.141 6 114046376.456 6     -3031.012          39.000    21334735.531 6  88702715.046 6     -2357.454          38.000
R02  19285456.273 7 102910882.522 7      1213.051          42.000    19285459.969 6  80041823.901 6       943.484          39.000
R11  20554843.094 6 109838876.121 6     -2746.312          39.000    20554848.734 4  85430262.050 4     -2136.021          29.000
R12  19274345.984 8 102960125.902 8      1151.457          51.000    19274350.094 8  80080118.336 8       895.581          50.000
C05  39794377.008 6 207219763.315 6         1.828          36.000    39794374.680 6 160235457.619 6         1.688          41.000
C14  24270536.820 8 126383031.414 8     -2882.801          48.000    24270532.602 8  97727374.226 8     -2229.035          48.000
C23  25633859.492 7 133482234.170 7      3225.336          42.000
C24  22995831.273 7 119745357.902 7     -1874.375          46.000
C25  22110149.945 8 115133406.537 8      1370.980          51.000
E05  23817792.070 8 125163328.133 8      -948.219          51.000    23817793.086 8  95904401.761 8      -726.491          51.000
E09  25531963.117 5 134171369.018 5     -2428.258          33.000
E24  22466537.961 8 118062460.427 8      -396.594          48.000    22466549.883 8  90463491.032 8      -303.854          49.000
E25  24851131.484 8 130593644.545 8      2386.320          51.000    24851133.898 8 100065243.477 8      1828.515          51.000
> 2020 05 09 03 14  0.0000000  0 16        .000000000000
G05  20563934.172 8 108064199.462 8      -206.418          51.000    20563932.797 8  84205868.077 8      -160.845          51.000
G07  22013604.570 6 115682271.936 6     -2198.414          38.000    22013601.898 6  90142009.726 6     -1713.050          38.000
G28  22263670.273 8 116996378.631 8      2708.777          51.000    22263669.102 7  91166017.132 7      2110.739          47.000
G30  20414769.148 8 107280377.711 8      -550.828          51.000    20414770.227 8  83595110.400 8      -429.217          51.000
R01  21351787.352 7 114137561.523 7     -3046.500          42.000    21351792.680 6  88773636.910 6     -2369.497          39.000
R02  19278695.492 7 102874805.273 7      1193.531          42.000    19278699.789 6  80013763.802 6       928.305          39.000
R11  20570321.125 6 109921585.349 6     -2766.242          37.000    20570330.938 4  85494591.628 4     -2151.513          28.000
R12  19267960.312 8 102926015.647 8      1124.070          51.000    19267964.781 8  80053588.148 8       874.277          49.000
C05  39794377.398 6 207219765.616 6         -.594          36.000    39794375.148 6 160235459.393 6         -.359          41.000
C14  24287176.977 8 126469679.300 8     -2892.160          49.000    24287172.945 8  97794375.909 8     -2236.356          50.000
C23  25615301.945 6 133385600.251 6      3218.254          41.000
C24  23006672.789 7 119801812.910 7     -1887.727          44.000
C25  22102302.820 8 115092544.902 8      1354.691          51.000
E05  23823239.570 8 125191955.224 8      -958.633          51.000    23823240.609 8  95926336.789 8      -734.477          51.000
E24  22468855.219 8 118074637.574 8      -413.574          48.000    22468867.227 8  90472821.583 8      -316.841          49.000
E25  24837548.547 8 130522263.546 8      2374.121          51.000    24837550.922 8 100010548.972 8      1819.099          51.000
> 2020 05 09 03 14 30.0000000  0 16        .000000000000
G05  20565160.547 8 108070644.096 8      -224.426          51.000    20565159.375 8  84210889.861 8      -174.877          51.000
G07  22026170.664 6 115748309.277 6     -2205.414          36.000    22026168.211 5  90193467.416 5     -1718.501          35.000
G28  22248229.766 8 116915241.004 8      2699.375          48.000    22248228.445 7  91102793.045 7      2103.409          45.000
G30  20417946.312 8 107297073.918 8      -563.316          51.000    20417947.438 8  83608120.431 8      -438.948          51.000
R01  21368912.969 7 114229105.546 7     -3057.574          45.000    21368918.328 6  88844837.755 6     -2378.116          40.000
R02  19272025.375 7 102839210.689 7      1178.363          44.000    19272028.867 6  79986079.119 6       916.505          39.000
R11  20585891.148 6 110004784.402 6     -2781.441          38.000
R12  19261709.258 8 102892623.786 8      1100.910          51.000    19261713.852 8  80027616.723 8       856.266          50.000
C05  39794372.570 6 207219740.594 6         1.262          36.000    39794370.328 6 160235440.048 6         1.033          41.000
C14  24303851.320 8 126556503.968 8     -2897.207          48.000    24303847.992 8  97861514.252 8     -2240.247          51.000
C23  25596764.336 6 133289074.132 6      3215.531          40.000
C24  23017572.133 7 119858571.491 7     -1897.176          43.000
C25  22094529.352 8 115052068.709 8      1342.543          51.000
E05  23828726.188 8 125220787.954 8      -964.566          51.000    23828727.344 8  95948429.390 8      -739.092          51.000
E24  22471248.977 7 118087216.515 7      -426.059          47.000    22471260.789 8  90482459.986 8      -326.457          49.000
E25  24824016.305 8 130451148.965 8      2365.871          51.000    24824018.703 8  99956058.583 8      1812.804          51.000
> 2020 05 09 03 15  0.0000000  0 16        .000000000000
G05  20566498.625 8 108077676.116 8      -244.059          51.000    20566497.531 8  84216369.342 8      -190.176          51.000
G07  22038781.602 6 115814581.276 6     -2212.891          37.000    22038779.742 6  90245107.971 6     -1724.330          37.000
G28  22232852.953 7 116834439.124 7      2688.039          47.000    22232851.383 7  91039830.582 7      2094.579          43.000
G30  20421204.547 8 107314196.466 8      -577.617          51.000    20421205.758 8  83621462.692 8      -450.091          51.000
R01  21386110.383 7 114321031.892 7     -3070.320          47.000    21386115.461 6  88916335.937 6     -2388.030          41.000
R02  19265450.977 7 102804126.383 7      1161.219          44.000    19265453.383 6  79958791.336 6       903.170          39.000
R11  20601557.094 5 110088494.456 5     -2798.828          34.000
R12  19255597.719 8 102859976.113 8      1076.102          51.000    19255602.336 8  80002224.131 8       836.968          49.000
C05  39794367.312 6 207219712.852 6         1.246          36.000    39794365.055 6 160235418.586 6          .958          41.000
C14  24320563.984 7 126643528.849 7     -2903.898          47.000    24320561.773 8  97928807.394 8     -2245.481          51.000
C23  25578252.023 6 133192681.743 6      3211.039          39.000
C24  23028534.562 7 119915656.372 7     -1907.992          43.000
C25  22086835.180 8 115012002.888 8      1328.887          51.000
E05  23834256.633 8 125249851.340 8      -972.383          51.000    23834258.039 8  95970698.729 8      -745.016          51.000
E24  22473723.617 7 118100221.280 7      -440.336          45.000    22473735.570 8  90492424.694 8      -337.397          49.000
E25  24810539.562 8 130380326.793 8      2356.215          51.000    24810542.086 8  99901792.242 8      1805.399          51.000
> 2020 05 09 03 15 30.0000000  0 16        .000000000000
G05  20567949.430 8 108085300.418 8      -263.457          51.000    20567948.391 8  84222310.356 8      -205.291          51.000
G07  22051438.305 6 115881091.689 6     -2220.414          39.000    22051436.906 6  90296934.265 6     -1730.193          38.000
G28  22217541.711 7 116753980.587 7      2676.758          47.000    22217539.125 6  90977135.708 6      2085.788          40.000
G30  20424544.773 8 107331749.180 8      -591.648          51.000    20424545.938 8  83635140.142 8      -461.025          51.000
R01  21403380.102 7 114413344.291 7     -3082.934          47.000    21403385.125 6  88988134.435 6     -2397.837          41.000
R02  19258973.398 7 102769559.464 7      1144.102          43.000    19258975.344 6  79931905.953 6       889.857          40.000
R11  20617317.484 5 110172716.907 5     -2814.992          33.000    20617355.992 5  85689950.864 5     -2189.429          30.000
R12  19249626.289 8 102828078.019 8      1051.418          51.000    19249630.453 8  79977414.496 8       817.770          48.000
C05  39794362.445 6 207219687.261 6         1.621          36.000    39794360.109 6 160235398.791 6         1.154          41.000
C14  24337315.727 7 126730757.700 7     -2910.328          45.000    24337314.656 8  97996258.270 8     -2250.462          51.000
C23  25559766.180 6 133096429.349 6      3206.379          38.000
C24  23039560.195 7 119973070.633 7     -1918.734          43.000
C25  22079220.695 8 114972352.661 8      1315.289          51.000
E05  23839831.938 8 125279150.567 8      -979.996          51.000    23839833.648 8  95993148.772 8      -750.864          51.000
E24  22476280.125 7 118113656.184 7      -454.418          45.000    22476292.320 8  90502718.975 8      -348.172          48.000
E25  24797119.578 8 130309803.383 8      2346.301          51.000    24797122.055 8  99847754.808 8      1797.854          51.000
> 2020 05 09 03 16  0.0000000  0 17        .000000000000
G05  20569510.891 8 108093506.584 8      -283.316          51.000    20569510.117 8  84228704.758 8      -220.766          51.000
G07  22064137.953 6 115947828.135 6     -2228.367          40.000    22064136.523 6  90348936.666 6     -1736.390          39.000
G09  24339765.305 5 127906329.444 5     -3033.992          31.000
G28  22202294.219 7 116673857.954 7      2665.102          43.000    22202290.164 6  90914702.544 6      2076.706          39.000
G30  20427964.570 8 107349720.495 8      -606.090          51.000    20427965.656 8  83649143.762 8      -472.278          51.000
R01  21420719.555 7 114506030.679 7     -3095.863          44.000    21420724.383 6  89060223.842 6     -2407.894          41.000
R02  19252590.773 7 102735501.945 7      1126.855          44.000    19252592.273 6  79905416.757 6       876.440          40.000
R11  20633170.867 5 110257437.507 5     -2831.949          35.000    20633209.602 5  85755844.824 5     -2202.627          31.000
R12  19243793.461 8 102796919.211 8      1026.211          51.000    19243797.461 8  79953179.878 8       798.164          49.000
C05  39794355.844 6 207219653.403 6         1.059          37.000    39794353.602 6 160235372.613 6          .894          40.000
C14  24354103.703 7 126818179.039 7     -2917.371          43.000    24354104.055 8  98063857.979 8     -2255.872          51.000
C23  25541306.414 6 133000307.846 6      3201.891          37.000
C24  23050646.750 7 120030802.204 7     -1929.840          44.000
C25  22071684.289 8 114933107.980 8      1301.414          51.000
E05  23845450.328 8 125308675.412 8      -988.047          51.000    23845452.352 8  96015771.709 8      -757.108          51.000
E24  22478916.297 7 118127510.061 7      -468.906          42.000    22478928.273 7  90513334.266 7      -359.235          47.000
E25  24783754.438 8 130239569.526 8      2336.234          51.000    24783756.844 8  99793939.265 8      1790.090          51.000
> 2020 05 09 03 16 30.0000000  0 17        .000000000000
G05  20571181.469 8 108102286.363 8      -301.762          51.000    20571180.727 8  84235546.158 8      -235.139          51.000
G07  22076879.086 6 116014780.625 6     -2234.223          36.000    22076877.125 6  90401107.416 6     -1740.953          36.000
G28  22187108.008 6 116594065.044 6      2654.543          40.000    22187105.477 6  90852526.230 6      2068.472          40.000
G30  20431462.133 8 107368100.654 8      -619.004          51.000    20431463.211 8  83663465.978 8      -482.338          51.000
R01  21438127.273 7 114599081.149 7     -3107.277          43.000    21438131.875 7  89132596.458 7     -2416.768          42.000
R02  19246302.461 7 102701947.579 7      1110.484          45.000    19246303.273 6  79879318.927 6       863.710          40.000
R11  20649116.680 5 110342643.984 5     -2847.254          31.000    20649119.008 4  85822033.348 4     -2214.531          28.000
R12  19238097.148 8 102766491.406 8      1002.492          50.000    19238100.852 8  79929513.811 8       779.716          48.000
C05  39794346.180 6 207219602.846 6         2.008          36.000    39794343.844 6 160235333.487 6         1.873          41.000
C14  24370926.016 7 126905783.134 7     -2922.695          42.000    24370927.727 8  98131599.069 8     -2260.016          51.000
C23  25522871.906 6 132904310.153 6      3198.328          37.000
C24  23061792.812 7 120088840.736 7     -1939.156          44.000
C25  22064224.750 8 114894260.783 8      1288.762          51.000
E05  23851109.930 8 125338417.542 8      -994.527          51.000    23851112.078 8  96038561.147 8      -762.052          51.000
E09  25615526.867 5 134610498.071 5     -2448.672          34.000
E24  22481630.820 6 118141773.592 6      -481.895          40.000    22481642.289 7  90524263.489 7      -369.157          47.000
E25  24770442.781 8 130169618.032 8      2327.367          51.000    24770444.797 8  99740340.066 8      1783.376          51.000
> 2020 05 09 03 17  0.0000000  0 16        .000000000000
G05  20572960.844 8 108111638.068 8      -324.590          51.000    20572960.023 8  84242833.185 8      -252.927          51.000
G07  22089660.992 5 116081945.590 5     -2245.828          32.000    22089658.359 5  90453443.888 5     -1749.993          31.000
G28  22171986.125 7 116514603.050 7      2639.824          45.000    22171985.367 7  90790607.723 7      2057.006          44.000
G30  20435037.234 8 107386887.111 8      -636.379          51.000    20435038.242 8  83678104.771 8      -495.880          51.000
R01  21455600.867 7 114692492.580 7     -3123.039          42.000    21455606.430 6  89205249.801 6     -2429.033          40.000
R02  19240108.750 7 102668897.118 7      1089.828          46.000    19240109.305 6  79853613.027 6       847.644          41.000
R12  19232537.484 8 102736793.458 8       974.230          51.000    19232540.703 8  79906415.385 8       757.735          48.000
C05                                                                  39794330.734 6 160235280.333 6         -.577          41.000
C14  24387783.625 7 126993567.601 7     -2932.453          44.000    24387784.578 8  98199479.598 8     -2267.631          48.000
C23  25504462.391 6 132808436.282 6      3190.230          38.000
C24  23072997.258 7 120147183.047 7     -1953.113          44.000
C25  22056841.398 8 114855809.864 8      1271.648          51.000
E05  23856810.438 8 125368375.812 8     -1005.586          51.000    23856812.703 8  96061516.191 8      -770.544          51.000
E09  25629515.375 5 134684011.748 5     -2454.867          34.000
E24  22484422.750 6 118156444.761 6      -499.250          39.000    22484433.945 7  90535504.992 7      -382.557          46.000
E25  24757184.812 8 130099948.730 8      2314.215          51.000    24757186.141 8  99686957.116 8      1773.230          51.000
> 2020 05 09 03 17 30.0000000  0 17        .000000000000
G05  20574856.617 8 108121600.188 8      -340.742          51.000    20574855.656 8  84250595.882 8      -265.513          51.000
G07  22102490.016 5 116149360.370 5     -2249.691          35.000    22102486.375 5  90505974.855 5     -1753.012          35.000
G28  22156936.781 8 116435512.903 8      2631.777          48.000    22156936.211 7  90728979.013 7      2050.736          44.000
G30  20438696.664 8 107406117.095 8      -646.863          51.000    20438697.594 8  83693089.192 8      -504.049          51.000
R01  21473149.805 7 114786303.021 7     -3132.023          44.000    21473154.461 6  89278213.476 6     -2436.021          37.000
R02  19234017.367 7 102636391.605 7      1075.816          47.000    19234018.273 7  79828330.957 7       836.746          42.000
R11  20681286.133 5 110514531.611 5     -2880.199          31.000    20681315.117 4  85955752.615 4     -2240.140          29.000
R12  19227122.000 8 102707864.665 8       953.066          51.000    19227124.961 8  79883915.229 8       741.274          48.000
C05  39794323.641 6 207219485.233 6         2.891          36.000    39794321.367 6 160235242.547 6         2.308          41.000
C14  24404683.609 7 127081569.405 7     -2935.488          46.000    24404681.180 7  98267528.177 7     -2269.809          46.000
C23  25486084.938 6 132712725.535 6      3189.148          37.000
C24  23084266.836 7 120205865.370 7     -1960.195          45.000
C25  22049541.281 8 114817793.637 8      1261.496          51.000
E05  23862559.562 8 125398588.840 8     -1009.805          51.000    23862561.930 8  96084666.447 8      -773.734          51.000
E09  25643530.141 5 134757656.934 5     -2454.504          33.000
E24  22487298.875 5 118171561.217 5      -510.105          35.000    22487309.867 7  90547087.631 7      -390.570          46.000
E25  24743988.141 8 130030601.370 8      2307.785          51.000    24743988.406 8  99633820.851 8      1768.303          50.000
> 2020 05 09 03 18  0.0000000  0 18        .000000000000
G05  20576860.383 8 108132128.737 8      -362.715          51.000    20576859.320 8  84258799.935 8      -282.635          51.000
G07  22115357.211 6 116216979.048 6     -2259.926          37.000    22115352.586 6  90558664.709 6     -1760.984          37.000
G09  24409190.789 5 128271164.061 5     -3048.328          33.000
G13  21672281.742 5 113888611.247 5      2237.207          33.000
G28  22141950.367 8 116356753.121 8      2617.457          48.000    22141949.578 7  90667607.758 7      2039.577          45.000
G30  20442431.789 8 107425745.155 8      -663.305          51.000    20442432.742 8  83708383.809 8      -516.861          51.000
R01  21490765.305 7 114880465.766 7     -3146.914          46.000    21490768.219 6  89351451.099 6     -2447.603          37.000
R02  19228020.211 8 102604388.812 8      1056.016          48.000    19228021.539 7  79803439.890 7       821.345          42.000
R12  19221842.250 8 102679660.186 8       925.742          51.000    19221844.555 7  79861978.419 7       720.022          47.000
C05  39794309.609 6 207219412.387 6          .395          36.000    39794307.359 6 160235186.220 6          .465          41.000
C14  24421616.625 7 127169743.349 7     -2944.352          45.000    24421611.359 7  98335709.889 7     -2276.702          46.000
C23  25467731.023 6 132617135.369 6      3182.020          36.000
C24  23095592.773 7 120264842.001 7     -1973.012          44.000
C25  22042315.992 8 114780168.502 8      1245.289          51.000
E05  23868348.820 8 125429012.548 8     -1019.992          51.000    23868351.398 8  96107978.131 8      -781.457          51.000
E09  25657559.172 5 134831378.972 5     -2460.656          35.000
E24  22490250.922 5 118187065.745 5      -526.172          34.000    22490262.789 7  90558976.910 7      -403.123          46.000
E25  24730844.938 8 129961532.912 8      2295.328          51.000    24730843.977 8  99580898.288 8      1758.746          49.000
> 2020 05 09 03 18 30.0000000  0 18        .000000000000
G05  20578978.812 8 108143259.795 8      -380.781          51.000    20578977.586 8  84267473.469 8      -296.713          51.000
G07  22128269.938 6 116284836.293 6     -2266.004          36.000    22128264.656 5  90611540.429 5     -1765.717          35.000
G13  21659524.867 6 113821566.901 6      2232.078          36.000
G28  22127033.859 7 116278362.281 7      2606.910          47.000    22127032.695 7  90606524.001 7      2031.359          46.000
G30  20446249.359 8 107445806.278 8      -675.547          51.000    20446250.328 8  83724015.851 8      -526.400          51.000
R01  21508453.398 7 114975016.314 7     -3157.949          47.000    21508455.844 6  89424990.347 6     -2456.183          39.000
R02  19222124.422 7 102572927.421 7      1039.879          47.000    19222125.719 7  79778969.923 7       808.795          42.000
R11  20713837.836 5 110688467.872 5     -2913.285          34.000    20713831.164 4  86091003.499 4     -2265.888          29.000
R12  19216705.164 8 102652217.084 8       902.328          51.000    19216707.273 8  79840633.794 8       701.811          49.000
C05  39794297.844 6 207219351.331 6         2.281          37.000    39794295.578 6 160235139.014 6         1.456          41.000
C14  24438588.758 7 127258124.190 7     -2949.230          43.000    24438583.102 7  98404051.568 7     -2280.562          46.000
C23  25449406.969 5 132521702.890 5      3178.914          33.000
C24  23106981.328 7 120324147.006 7     -1982.094          43.000
C25  22035172.297 8 114742970.534 8      1233.039          51.000
E05  23874185.125 8 125459683.352 8     -1026.316          51.000    23874187.867 8  96131479.140 8      -786.398          51.000
E09  25671607.336 5 134905206.608 5     -2462.699          31.000
E24  22493286.305 6 118203017.872 6      -538.652          38.000    22493299.078 7  90571199.982 7      -412.868          45.000
E25  24717762.148 8 129892780.834 8      2286.586          51.000    24717760.516 8  99528218.130 8      1752.002          49.000
> 2020 05 09 03 19  0.0000000  0 16        .000000000000
G05  20581206.539 8 108154966.256 8      -400.293          51.000    20581205.250 8  84276595.371 8      -311.917          51.000
G07  22141222.297 5 116352903.007 5     -2273.180          33.000    22141217.836 5  90664579.489 5     -1771.306          33.000
G28  22112182.453 8 116200316.044 8      2595.375          48.000    22112181.250 7  90545708.784 7      2022.373          46.000
G30  20450143.727 8 107466272.302 8      -689.352          51.000    20450144.914 8  83739963.416 8      -537.157          51.000
R01  21526208.609 7 115069925.468 7     -3170.227          46.000    21526211.039 6  89498808.581 6     -2465.732          41.000
R02  19216325.359 8 102541982.499 8      1022.520          48.000    19216326.117 7  79754901.665 7       795.293          43.000
R11  20730238.125 5 110776108.500 5     -2929.672          35.000    20730231.406 5  86159191.610 5     -2278.634          31.000
R12  19211705.039 8 102625508.005 8       877.582          51.000    19211707.484 8  79819860.090 8       682.564          48.000
C05  39794283.352 6 207219275.333 6         2.516          37.000    39794281.023 6 160235080.219 6         1.864          40.000
C14  24455595.125 7 127346683.955 7     -2955.320          44.000    24455590.594 8  98472531.646 8     -2285.323          48.000
C23  25431108.141 5 132426402.790 5      3174.191          34.000
C24  23118427.500 7 120383751.796 7     -1992.492          42.000
C25  22028105.195 8 114706173.303 8      1219.465          51.000
E05  23880063.547 8 125490574.467 8     -1033.871          51.000    23880066.273 8  96155148.968 8      -792.157          51.000
E24  22496399.406 7 118219377.821 7      -552.320          42.000    22496412.492 7  90583735.523 7      -423.272          44.000
E25  24704734.547 8 129824319.397 8      2276.848          51.000    24704732.992 8  99475760.654 8      1744.553          50.000
> 2020 05 09 03 19 30.0000000  0 16        .000000000000
G05  20583552.359 8 108167293.091 8      -422.648          51.000    20583550.781 8  84286200.707 8      -329.336          51.000
G07  22154222.523 6 116421223.207 6     -2282.785          36.000    22154220.344 6  90717816.009 6     -1778.800          36.000
G28  22097405.547 8 116122662.272 8      2580.652          49.000    22097404.023 7  90485199.381 7      2010.898          47.000
G30  20454123.633 8 107487187.312 8      -706.031          51.000    20454125.086 8  83756260.826 8      -550.154          51.000
R01  21544038.406 7 115165238.003 7     -3185.125          44.000    21544041.977 6  89572940.529 6     -2477.319          41.000
R02  19210631.836 8 102511601.872 8      1001.949          48.000    19210633.133 7  79731272.298 7       779.294          44.000
R12  19206851.109 8 102599579.296 8       849.918          51.000    19206853.383 8  79799693.286 8       661.047          48.000
C05  39794274.555 6 207219229.248 6         -.133          37.000    39794272.203 6 160235044.580 6         -.208          41.000
C14  24472645.180 7 127435466.401 7     -2964.445          45.000    24472641.344 8  98541183.897 8     -2292.291          49.000
C23  25412841.219 5 132331281.221 5      3166.320          35.000
C24  23129940.008 7 120443699.410 7     -2005.293          43.000
C25  22021123.742 8 114669821.887 8      1202.891          51.000
E05  23885992.656 8 125521731.431 8     -1044.281          51.000    23885995.289 8  96179022.480 8      -800.185          51.000
E09  25699760.414 5 135053154.290 5     -2471.879          33.000
E24  22499598.742 7 118236190.114 7      -569.160          43.000    22499611.367 7  90596617.662 7      -436.256          43.000
E25  24691770.656 8 129756195.150 8      2263.871          51.000    24691770.133 8  99423561.559 8      1734.705          51.000
> 2020 05 09 03 20  0.0000000  0 16        .000000000000
G05  20586011.453 8 108180215.950 8      -440.605          50.000    20586009.992 8  84296270.463 8      -343.329          50.000
G07  22167266.453 6 116489770.960 6     -2288.480          39.000    22167265.727 5  90771229.836 5     -1783.238          33.000
G28  22082699.219 8 116045378.911 8      2570.070          51.000    22082697.281 7  90424978.618 7      2002.655          45.000
G30  20458184.125 8 107508525.607 8      -718.184          51.000    20458185.812 8  83772888.063 8      -559.624          51.000
R01  21561938.594 7 115260927.465 7     -3195.789          44.000    21561942.906 6  89647365.685 6     -2485.614          41.000
R02  19205039.812 8 102481763.801 8       985.648          48.000    19205042.445 7  79708064.877 7       766.615          45.000
R12  19202138.625 8 102574405.931 8       826.688          51.000    19202141.289 8  79780114.016 8       642.979          49.000
C05  39794266.719 6 207219188.782 6         1.934          36.000    39794264.414 6 160235013.299 6         1.103          41.000
C14  24489733.961 7 127524446.118 7     -2969.039          46.000    24489729.945 8  98609988.621 8     -2295.858          50.000
C23  25394603.117 6 132236315.263 6      3163.051          37.000
C24  23141513.117 7 120503963.803 7     -2014.031          42.000
C25  22014223.531 8 114633892.274 8      1190.828          51.000
E05  23891967.859 8 125553129.893 8     -1050.453          51.000    23891970.242 8  96203081.048 8      -804.875          51.000
E09  25713868.375 5 135127291.325 5     -2472.867          32.000
E24  22502879.312 7 118253429.466 7      -581.566          45.000    22502891.188 7  90609827.002 7      -445.580          43.000
E25  24678866.125 8 129688384.852 8      2255.297          51.000    24678867.406 8  99371603.047 8      1728.040          51.000
> 2020 05 09 03 20 30.0000000  0 16        .000000000000
G05  20588578.102 8 108193703.855 8      -457.633          51.000    20588576.484 8  84306780.515 8      -356.597          51.000
G07  22180348.156 6 116558514.563 6     -2293.449          39.000    22180346.828 6  90824796.202 6     -1787.106          36.000
G09  24496382.469 5 128729379.812 5     -3061.465          34.000
G28  22068058.438 8 115968438.567 8      2560.340          51.000    22068056.156 7  90365025.123 7      1995.070          45.000
G30  20462319.133 8 107530255.766 8      -729.434          51.000    20462320.836 8  83789820.665 8      -568.390          51.000
R01  21579903.062 7 115356961.631 7     -3205.383          44.000    21579907.945 6  89722058.982 6     -2493.076          40.000
R02  19199544.148 8 102452439.435 8       970.371          50.000    19199547.398 7  79685257.033 7       754.733          46.000
R12  19197561.883 8 102549957.331 8       804.258          51.000    19197564.805 8  79761098.448 8       625.534          49.000
C05  39794254.273 6 207219124.114 6         3.863          37.000    39794251.961 6 160234963.275 6         2.990          41.000
C14  24506854.555 8 127613592.022 8     -2972.828          48.000    24506849.984 8  98678921.815 8     -2298.722          49.000
C23  25376389.469 6 132141476.331 6      3160.328          37.000
C24  23153140.883 7 120564513.195 7     -2021.496          44.000
C25  22007398.578 8 114598354.763 8      1179.512          51.000
E05  23897983.445 8 125584739.971 8     -1055.742          51.000    23897985.523 8  96227301.749 8      -808.918          51.000
E24  22506235.234 7 118271064.870 7      -592.910          44.000    22506247.703 7  90623339.856 7      -454.362          42.000
E25  24666015.961 8 129620859.591 8      2247.535          51.000    24666018.734 8  99319862.920 8      1722.119          51.000
> 2020 05 09 03 21  0.0000000  0 15        .000000000000
G05  20591257.078 8 108207781.977 8      -480.391          50.000    20591255.375 8  84317750.497 8      -374.330          50.000
G07  22193496.039 6 116627608.605 6     -2304.086          38.000    22193497.781 4  90878663.280 4     -1795.392          27.000
G28  22053488.016 8 115891868.032 8      2544.863          51.000    22053485.711 7  90305359.781 7      1983.010          45.000
G30  20466533.164 8 107552400.729 8      -746.387          51.000    20466534.867 8  83807076.474 8      -581.600          51.000
R01  21597936.969 7 115453363.644 7     -3220.965          45.000    21597941.781 6  89797038.333 6     -2505.195          39.000
R02  19194150.086 8 102423655.551 8       949.117          50.000    19194153.289 7  79662869.574 7       738.202          46.000
R12  19193125.398 8 102526258.227 8       776.125          51.000    19193128.234 8  79742665.818 8       603.653          49.000
C05  39794241.773 6 207219058.962 6          .566          36.000    39794239.492 6 160234912.880 6          .704          41.000
C14  24524010.812 7 127702926.787 7     -2982.258          46.000    24524006.094 8  98748001.066 8     -2306.137          48.000
C23  25358204.664 5 132046789.620 5      3151.965          34.000
C24  23164827.711 7 120625369.741 7     -2034.816          42.000
C25  22000653.883 8 114563233.479 8      1162.484          51.000
E05  23904043.656 8 125616585.948 8     -1066.832          51.000    23904045.758 8  96251703.194 8      -817.467          51.000
E24  22509670.961 7 118289119.622 7      -610.230          46.000    22509684.250 6  90637173.999 6      -467.367          40.000
E25  24653225.125 8 129553644.711 8      2233.902          51.000    24653228.555 8  99268360.607 8      1711.697          51.000
> 2020 05 09 03 21 30.0000000  0 15        .000000000000
G05  20594051.422 8 108222465.763 8      -494.352          51.000    20594049.664 8  84329192.393 8      -385.209          51.000
G28  22038990.945 8 115815685.724 8      2537.973          48.000    22038989.227 7  90245996.930 7      1977.638          45.000
G30  20470828.906 8 107574975.458 8      -754.504          51.000    20470830.781 8  83824667.176 8      -587.925          51.000
R01  21616042.836 7 115550148.288 7     -3227.211          46.000    21616045.758 5  89872315.214 5     -2510.056          35.000
R02  19188860.703 8 102395430.912 8       936.699          51.000    19188863.922 7  79640917.067 7       728.544          46.000
R11  20813607.570 5 111221600.933 5     -3004.035          34.000
R12  19188832.109 8 102503324.941 8       757.062          51.000    19188835.547 8  79724828.852 8       588.829          49.000
C05  39794232.258 6 207219009.462 6         6.461          36.000    39794229.984 6 160234874.598 6         5.114          41.000
C14  24541204.961 7 127792465.303 7     -2982.801          46.000    24541201.281 8  98817237.850 8     -2306.433          48.000
C23  25340052.117 5 131952272.475 5      3152.582          30.000
C24  23176576.055 6 120686547.571 6     -2039.473          41.000
C25  21993992.625 8 114528544.687 8      1154.164          51.000
E05  23910151.805 8 125648684.205 8     -1068.906          51.000    23910153.836 8  96276297.946 8      -818.999          51.000
E24  22513189.680 7 118307609.115 7      -618.332          46.000    22513201.859 6  90651341.227 6      -473.688          37.000
E25  24640496.852 8 129486757.578 8      2229.367          51.000    24640500.344 8  99217109.448 8      1708.195          51.000
> 2020 05 09 03 22  0.0000000  0 15        .000000000000
G05  20596966.398 8 108237782.731 8      -521.969          50.000    20596964.352 8  84341127.695 8      -406.729          50.000
G07  22219853.438 4 116766118.103 4     -2320.742          29.000    22219853.594 4  90986576.197 4     -1808.358          28.000
G28  22024572.398 7 115739922.151 7      2517.473          45.000    22024572.141 7  90186960.363 7      1961.667          43.000
G30  20475211.398 8 107598006.490 8      -776.168          51.000    20475213.352 8  83842613.435 8      -604.806          51.000
R01  21634225.062 7 115647342.582 7     -3247.426          45.000    21634226.688 6  89947910.694 6     -2525.776          36.000
R02  19183682.008 8 102367795.484 8       910.457          51.000    19183684.805 7  79619422.851 7       708.133          46.000
R11  20830551.375 5 111312110.568 5     -3027.102          33.000    20830532.688 4  86576071.424 4     -2354.412          28.000
R12  19184687.578 8 102481185.604 8       723.910          51.000    19184691.273 8  79707609.399 8       563.041          49.000
C05  39794231.031 6 207219003.050 6        -1.105          36.000    39794228.797 6 160234869.641 6        -1.093          41.000
C14  24558443.312 7 127882233.864 7     -2997.086          47.000    24558440.805 8  98886652.535 8     -2317.477          48.000
C24  23188391.195 7 120748072.394 7     -2057.512          42.000
C25  21987419.500 8 114494316.032 8      1132.480          51.000
E05  23916313.266 8 125681062.721 8     -1084.805          51.000    23916315.008 8  96301107.457 8      -831.190          51.000
E24  22516796.164 7 118326560.248 7      -640.230          46.000    22516809.953 6  90665862.202 6      -490.539          37.000
E25  24627836.719 8 129420227.248 8      2210.844          51.000    24627839.383 8  99166131.679 8      1694.026          51.000
> 2020 05 09 03 22 30.0000000  0 15        .000000000000
G05  20599969.711 8 108253563.972 8      -538.383          51.000    20599967.492 8  84353424.770 8      -419.516          51.000
G07  22233090.055 4 116835643.749 4     -2324.527          29.000
G28  22010201.867 7 115664411.161 7      2508.191          44.000    22010202.484 7  90128120.640 7      1954.438          43.000
G30  20479648.500 8 107621324.063 8      -786.574          51.000    20479650.375 8  83860782.978 8      -612.915          51.000
R01  21652450.508 7 115744773.304 7     -3256.305          42.000    21652453.672 6  90023690.137 6     -2532.681          40.000
R02  19178582.000 8 102340580.428 8       895.453          51.000    19178584.812 7  79598255.585 7       696.464          47.000
R11  20847556.953 5 111402976.560 5     -3038.895          34.000    20847529.609 4  86646733.680 4     -2363.588          28.000
R12  19180659.297 8 102459668.843 8       702.297          50.000    19180663.406 8  79690874.172 8       546.234          49.000
C05  39794206.047 6 207218872.835 6         1.938          36.000    39794203.820 6 160234768.933 6         1.392          41.000
C14  24575694.305 7 127972064.264 7     -2999.918          47.000    24575692.070 8  98956115.079 8     -2319.757          48.000
C24  23200241.258 7 120809775.491 7     -2064.328          44.000
C25  21980902.672 8 114460380.816 8      1121.762          51.000
E05  23922495.906 8 125713553.212 8     -1089.527          51.000    23922497.602 8  96326002.770 8      -834.824          51.000
E24  22520458.109 7 118345803.708 7      -650.957          46.000    22520474.695 5  90680607.163 5      -498.920          32.000
E25  24615212.961 8 129353886.403 8      2203.680          51.000    24615214.164 8  99115299.099 8      1688.486          50.000
> 2020 05 09 03 23  0.0000000  0 14        .000000000000
G05  20603112.203 8 108270077.495 8      -556.281          51.000    20603110.070 8  84366292.454 8      -433.466          51.000
G07  22246388.906 5 116905557.600 5     -2329.656          34.000    22246390.484 4  91095237.313 4     -1815.317          28.000
G28  21995931.508 7 115589423.205 7      2497.254          46.000    21995931.898 7  90069688.504 7      1945.915          42.000
G30  20484190.875 8 107645194.936 8      -798.445          51.000    20484192.836 8  83879383.670 8      -622.165          51.000
R01  21670771.086 7 115842711.692 7     -3266.316          43.000    21670776.469 6  90099864.445 6     -2540.468          40.000
R02  19173612.352 8 102314060.553 8       878.883          51.000    19173615.195 7  79577629.014 7       683.579          47.000
R12  19176798.422 8 102439046.914 8       678.961          50.000    19176802.562 8  79674834.890 8       528.081          49.000
C05  39794208.234 6 207218884.279 6         3.629          36.000    39794206.031 6 160234777.779 6         2.794          41.000
C14  24593008.266 8 128062220.818 8     -3004.270          48.000    24593006.016 8  99025829.861 8     -2323.068          48.000
C24  23212176.328 7 120871920.532 7     -2072.434          45.000
C25  21974493.391 8 114427004.687 8      1109.590          51.000
E05  23928750.938 8 125746423.818 8     -1095.531          51.000    23928752.867 8  96351189.338 8      -839.481          51.000
E24  22524226.703 7 118365606.591 7      -662.984          47.000    22524241.031 5  90695785.634 5      -507.863          34.000
E25  24602676.555 8 129288004.259 8      2194.793          51.000    24602676.391 8  99064817.976 8      1681.745          50.000
> 2020 05 09 03 23 30.0000000  0 15        .000000000000
G05  20606353.586 8 108287111.921 8      -576.957          50.000    20606351.922 8  84379566.037 8      -449.577          50.000
G07  22259715.242 5 116975602.599 5     -2337.449          31.000    22259714.039 5  91149806.893 5     -1821.389          32.000
G28  21981721.695 8 115514749.634 8      2483.387          49.000    21981721.195 7  90011501.337 7      1935.107          43.000
G30  20488798.195 8 107669406.637 8      -813.164          51.000    20488800.102 8  83898249.935 8      -633.634          51.000
R01  21689147.492 7 115940941.288 7     -3279.719          45.000    21689153.039 6  90176265.262 6     -2550.892          40.000
R02  19168733.039 8 102288023.346 8       859.273          51.000    19168735.727 8  79557377.853 8       668.324          48.000
R12  19173065.055 8 102419105.035 8       652.883          50.000    19173069.336 8  79659324.540 8       507.798          49.000
C05  39794197.398 6 207218828.042 6         2.160          36.000    39794195.227 6 160234734.261 6         2.223          41.000
C14  24610344.297 7 128152493.077 7     -3011.465          47.000    24610342.500 8  99095634.114 8     -2328.677          50.000
C23  25267736.922 5 131575726.372 5      3127.527          32.000
C24  23224154.961 7 120934296.384 7     -2083.426          44.000
C25  21968150.953 8 114393978.457 8      1094.590          51.000
E05  23935038.031 8 125779463.524 8     -1104.625          51.000    23935040.148 8  96376505.475 8      -846.431          51.000
E24  22528061.086 7 118385756.763 7      -677.977          47.000    22528076.273 6  90711225.372 6      -519.521          37.000
E25  24590187.281 8 129222370.711 8      2183.203          51.000    24590186.445 8  99014527.351 8      1672.805          50.000
> 2020 05 09 03 24  0.0000000  0 14        .000000000000
G05  20609692.016 8 108304656.470 8      -599.949          51.000    20609690.711 8  84393237.126 8      -467.493          51.000
G28  21967570.500 8 115440382.889 8      2467.160          50.000    21967569.312 7  89953553.220 7      1922.462          43.000
G30  20493468.289 8 107693947.668 8      -830.164          51.000    20493469.828 8  83917372.836 8      -646.878          51.000
R01  21707576.492 7 116039449.953 7     -3295.055          47.000    21707581.438 6  90252883.109 6     -2562.820          40.000
R02  19163942.523 8 102262460.500 8       837.477          51.000    19163945.227 8  79537495.643 8       651.371          48.000
R12  19169457.188 8 102399832.685 8       624.512          50.000    19169461.406 8  79644334.951 8       485.731          49.000
C05  39794171.750 6 207218694.024 6         -.594          37.000    39794169.484 6 160234630.669 6         -.819          41.000
C14  24627699.859 7 128242869.724 7     -3020.855          45.000    24627699.008 8  99165519.078 8     -2335.896          51.000
C23  25249723.930 6 131481914.117 6      3119.074          37.000
C24  23236175.328 7 120996891.095 7     -2096.836          45.000
C25  21961873.469 8 114361292.186 8      1077.367          51.000
E05  23941355.344 8 125812662.357 8     -1115.914          51.000    23941357.547 8  96401943.534 8      -855.054          51.000
E24  22531959.430 7 118406243.211 7      -694.961          47.000    22531975.094 6  90726922.766 6      -532.467          36.000
E25  24577743.391 8 129156976.852 8      2169.125          51.000    24577742.523 8  98964420.376 8      1662.069          51.000
> 2020 05 09 03 24 30.0000000  0 14        .000000000000
G05  20613155.852 8 108322859.305 8      -615.008          51.000    20613154.516 8  84407421.175 8      -479.227          51.000
G28  21953506.359 8 115366473.840 8      2458.781          49.000    21953504.961 7  89895961.756 7      1915.933          44.000
G30  20498229.133 8 107718965.142 8      -839.121          51.000    20498230.570 8  83936866.983 8      -653.861          51.000
R01  21726085.867 8 116138387.107 8     -3302.191          48.000    21726089.523 6  90329834.218 6     -2568.371          38.000
R02  19159269.547 8 102237524.852 8       823.453          51.000    19159272.289 8  79518101.252 8       640.464          48.000
R12  19166003.203 8 102381380.397 8       604.176          51.000    19166007.055 8  79629983.167 8       469.914          49.000
C05  39794159.305 6 207218630.242 6         3.973          36.000    39794156.992 6 160234580.547 6         2.867          40.000
C14  24645102.922 7 128333496.543 7     -3022.480          43.000    24645103.219 8  99235597.471 8     -2337.050          51.000
C23  25231754.977 6 131388332.889 6      3117.836          36.000
C24  23248266.023 7 121059849.845 7     -2101.875          45.000
C25  21955689.672 8 114329093.005 8      1067.953          51.000
E05  23947731.359 8 125846168.794 8     -1119.242          51.000    23947733.508 8  96427617.289 8      -857.652          51.000
E24  22535949.992 7 118427213.381 7      -704.285          45.000    22535961.430 6  90742990.699 6      -539.396          37.000
E25  24565373.250 8 129091972.112 8      2163.109          51.000    24565372.734 8  98914611.571 8      1657.391          51.000
> 2020 05 09 03 25  0.0000000  0 14        .000000000000
G05  20616724.461 8 108341612.730 8      -634.938          51.000    20616723.164 8  84422034.234 8      -494.756          51.000
G28  21939509.297 8 115292916.969 8      2445.406          49.000    21939507.539 7  89838644.705 7      1905.511          44.000
G30  20503059.859 8 107744350.004 8      -852.832          51.000    20503061.508 8  83956647.413 8      -664.544          51.000
R01  21744654.242 7 116237641.712 7     -3314.465          47.000    21744656.805 6  90407032.222 6     -2577.920          38.000
R02  19154694.016 8 102213109.079 8       804.562          51.000    19154696.664 8  79499111.208 8       625.774          48.000
R12  19162682.172 8 102363638.213 8       578.988          51.000    19162685.570 8  79616183.711 8       450.327          48.000
C05  39794139.672 6 207218527.854 6         4.082          37.000    39794137.336 6 160234501.392 6         2.743          41.000
C14  24662532.695 7 128424265.468 7     -3028.594          43.000    24662534.719 8  99305785.762 8     -2341.910          51.000
C23  25213809.234 6 131294877.024 6      3112.691          36.000
C24  23260405.625 7 121123064.007 7     -2111.922          44.000
C25  21949578.805 8 114297274.229 8      1053.648          51.000
E05  23954145.352 8 125879875.244 8     -1127.441          51.000    23954147.664 8  96453444.291 8      -863.869          51.000
E24  22540011.633 7 118448558.486 7      -718.430          45.000    22540022.500 6  90759346.088 6      -550.386          40.000
E25  24553056.711 8 129027249.963 8      2151.938          51.000    24553056.984 8  98865019.273 8      1648.881          51.000
> 2020 05 09 03 25 30.0000000  0 17        .000000000000
G05  20620402.570 8 108360941.320 8      -652.898          51.000    20620401.031 8  84437095.475 8      -508.752          51.000
G07  22313391.594 5 117257646.057 5     -2362.609          31.000    22313384.914 4  91369580.172 4     -1840.994          29.000
G09  24672218.891 5 129653384.704 5     -3094.867          32.000
G28  21925584.641 8 115219739.964 8      2433.852          48.000    21925582.578 7  89781623.688 7      1896.511          45.000
G30  20507964.938 8 107770126.294 8      -864.910          51.000    20507966.555 8  83976732.836 8      -673.959          51.000
R01  21763285.758 7 116337237.611 7     -3324.566          45.000    21763287.922 6  90484495.662 6     -2585.774          37.000
R02  19150221.219 8 102189240.919 8       787.414          51.000    19150223.328 8  79480547.088 8       612.433          48.000
R11  20951416.469 5 111957981.095 5     -3125.105          35.000    20951408.344 5  87078417.398 5     -2430.638          32.000
R12  19159498.992 8 102346631.664 8       555.551          51.000    19159501.781 8  79602956.425 8       432.098          48.000
C05  39794117.547 6 207218412.956 6         4.965          36.000    39794115.266 6 160234412.510 6         3.981          41.000
C14  24679995.148 7 128515200.359 7     -3032.859          44.000    24679998.242 8  99376102.390 8     -2345.296          51.000
C23  25195892.469 5 131201572.955 5      3109.004          33.000
C24  23272598.711 7 121186556.798 7     -2120.219          45.000
C25  21943545.828 8 114265860.991 8      1041.320          51.000
E05  23960602.297 8 125913807.213 8     -1133.906          51.000    23960604.398 8  96479444.106 8      -868.807          51.000
E24  22544149.617 7 118470303.037 7      -730.527          45.000    22544161.461 6  90776007.511 6      -559.755          40.000
E25  24540798.617 8 128962836.843 8      2142.969          49.000    24540800.195 8  98815663.740 8      1642.012          51.000
> 2020 05 09 03 26  0.0000000  0 16        .000000000000
G05  20624198.508 8 108380889.412 8      -674.441          51.000    20624196.945 8  84452639.417 8      -525.539          51.000
G07  22326910.188 5 117328689.482 5     -2370.750          34.000    22326909.297 5  91424960.507 5     -1847.338          30.000
G28  21911741.297 8 115146990.459 8      2418.730          51.000    21911739.125 7  89724935.796 7      1884.725          46.000
G30  20512952.828 8 107796337.769 8      -880.090          51.000    20512954.164 8  83997157.341 8      -685.784          51.000
R01  21781988.719 7 116437219.130 7     -3338.340          44.000    21781990.789 6  90562259.044 6     -2596.487          37.000
R02  19145860.180 8 102165968.344 8       766.609          51.000    19145861.977 8  79462446.207 8       596.252          49.000
R11  20969010.641 6 112052007.125 6     -3141.289          37.000    20969017.914 4  87151598.253 4     -2443.225          29.000
R12  19156461.977 8 102330406.218 8       528.660          51.000    19156464.656 8  79590336.654 8       411.180          49.000
C05  39794101.664 6 207218330.123 6         2.867          36.000    39794099.430 6 160234348.464 6         2.193          41.000
C14  24697498.984 7 128606344.640 7     -3040.727          46.000    24697502.039 8  99446580.945 8     -2351.379          51.000
C23  25178012.500 5 131108466.589 5      3100.359          31.000
C24  23284853.750 7 121250371.016 7     -2131.559          44.000
C25  21937599.648 8 114234898.052 8      1025.398          51.000
E05  23967111.078 8 125948009.891 8     -1143.789          51.000    23967112.602 8  96505651.353 8      -876.455          51.000
E24  22548371.789 7 118492491.072 7      -746.102          43.000    22548382.781 6  90793008.715 6      -571.640          41.000
E25  24528608.242 8 128898778.975 8      2130.086          50.000    24528610.984 8  98766580.411 8      1632.102          51.000
> 2020 05 09 03 26 30.0000000  0 15        .000000000000
G05  20628096.227 8 108401371.983 8      -697.074          51.000    20628094.547 8  84468599.843 8      -543.175          51.000
G07  22340488.734 5 117400050.013 5     -2381.227          35.000
G28  21897963.602 8 115074585.443 8      2402.328          51.000    21897961.289 7  89668516.321 7      1871.944          47.000
G30  20518007.055 8 107822897.737 8      -896.570          51.000    20518008.344 8  84017853.431 8      -698.626          51.000
R01  21800746.648 7 116537497.751 7     -3353.070          43.000    21800749.477 6  90640253.529 6     -2607.947          37.000
R02  19141594.828 8 102143206.738 8       744.719          51.000    19141596.414 8  79444742.741 8       579.226          49.000
R12  19153554.523 8 102314874.614 8       500.688          51.000    19153557.570 8  79578256.542 8       389.424          49.000
C05  39794075.695 6 207218193.778 6          .148          36.000    39794073.445 6 160234243.788 6          .076          41.000
C14  24715027.164 7 128697612.435 7     -3049.559          47.000    24715029.305 8  99517154.994 8     -2358.082          51.000
C23  25160155.688 6 131015474.618 6      3092.621          36.000
C24  23297153.711 7 121314420.278 7     -2144.355          43.000
C25  21931724.008 8 114204300.918 8      1008.473          51.000
E05  23973655.070 8 125982398.089 8     -1154.676          51.000    23973656.531 8  96532000.739 8      -884.710          51.000
E24  22552662.164 7 118515036.347 7      -762.910          43.000    22552672.328 7  90810283.644 7      -584.307          42.000
E25  24516470.109 8 128834992.069 8      2116.469          51.000    24516473.180 8  98717704.714 8      1621.650          51.000
> 2020 05 09 03 27  0.0000000  0 14        .000000000000
G05  20632127.055 8 108422554.248 8      -712.227          51.000    20632125.172 8  84485105.489 8      -554.982          51.000
G28  21884283.523 8 115002693.317 8      2393.301          51.000    21884281.133 7  89612496.503 7      1864.913          47.000
G30  20523159.039 8 107849970.928 8      -905.539          51.000    20523160.297 8  84038949.430 8      -705.615          51.000
R01  21819591.922 7 116638240.591 7     -3360.055          44.000    21819595.539 6  90718609.018 6     -2613.376          37.000
R02  19137457.164 8 102121127.078 8       730.191          51.000    19137458.703 8  79427569.674 8       567.927          49.000
R12  19150808.180 8 102300205.391 8       480.113          50.000    19150811.648 8  79566847.150 8       373.421          49.000
C05  39794071.234 6 207218171.368 6         4.211          36.000    39794068.977 6 160234225.675 6         3.362          40.000
C14  24732610.250 7 128789167.059 7     -3051.156          46.000    24732611.508 8  99587950.831 8     -2359.278          51.000
C23  25142353.438 6 130922762.797 6      3091.215          36.000
C24  23309529.805 7 121378867.221 7     -2149.383          44.000
C25  21925950.289 8 114174234.103 8       998.891          51.000
E05  23980265.938 8 126017138.017 8     -1158.363          51.000    23980267.539 8  96558619.626 8      -887.514          51.000
E24  22557051.922 6 118538103.831 6      -772.074          40.000    22557063.445 7  90827958.778 7      -591.622          43.000
E25  24504415.789 8 128771643.255 8      2109.797          51.000    24504418.555 8  98669164.731 8      1616.622          51.000
> 2020 05 09 03 27 30.0000000  0 14        .000000000000
G05  20636250.672 8 108444224.711 8      -732.672          51.000    20636249.078 8  84501991.550 8      -570.913          51.000
G28  21870661.328 8 114931105.847 8      2378.973          51.000    21870658.523 7  89556714.061 7      1853.745          47.000
G30  20528368.453 8 107877345.326 8      -919.551          51.000    20528369.383 8  84060280.132 8      -716.533          51.000
R01  21838485.227 7 116739231.967 7     -3372.605          45.000    21838488.625 6  90797157.815 6     -2623.138          39.000
R02  19133407.352 8 102099516.823 8       710.285          51.000    19133409.305 8  79410761.692 8       552.444          50.000
R12  19148182.891 8 102286183.696 8       454.418          50.000    19148187.062 8  79555941.398 8       353.436          50.000
C05  39794048.172 6 207218051.107 6         3.414          37.000    39794045.883 6 160234132.688 6         2.586          41.000
C14  24750207.102 7 128880798.381 7     -3057.762          44.000    24750208.227 8  99658805.972 8     -2364.528          51.000
C23  25124565.602 6 130830123.623 6      3084.445          36.000
C24  23321942.055 7 121443501.166 7     -2159.797          43.000
C25  21920238.539 8 114144488.868 8       984.051          51.000
E05  23986903.664 8 126052019.072 8     -1167.223          51.000    23986905.289 8  96585346.674 8      -894.377          51.000
E24  22561500.164 6 118561481.883 6      -786.633          41.000    22561513.133 7  90845871.878 7      -602.691          43.000
E25  24492404.812 8 128708522.951 8      2097.996          51.000    24492406.633 8  98620799.854 8      1607.532          50.000
> 2020 05 09 03 28  0.0000000  0 14        .000000000000
G05  20640489.172 8 108466499.015 8      -752.434          51.000    20640487.883 8  84519348.146 8      -586.312          51.000
G28  21857119.523 8 114859941.128 8      2365.254          51.000    21857115.711 7  89501261.029 7      1843.055          46.000
G30  20533656.859 8 107905135.506 8      -933.117          51.000    20533657.609 8  84081934.836 8      -727.104          51.000
R01  21857446.812 7 116840587.878 7     -3384.500          44.000    21857449.844 6  90875990.170 6     -2632.389          39.000
R02  19129468.078 8 102078495.862 8       691.031          51.000    19129469.969 8  79394412.066 8       537.469          50.000
R12  19145700.719 8 102272927.147 8       429.254          50.000    19145705.570 8  79545630.767 8       333.864          49.000
C05  39794028.547 6 207217948.821 6         3.352          36.000    39794026.234 6 160234053.583 6         2.456          41.000
C14  24767839.297 7 128972620.038 7     -3063.773          42.000    24767841.242 8  99729808.292 8     -2369.113          51.000
C23  25106813.500 5 130737672.993 5      3078.816          34.000
C24  23334412.156 6 121508435.156 6     -2169.328          41.000
C25  21914610.836 8 114115180.129 8       969.766          51.000
E05  23993590.289 8 126087157.326 8     -1175.391          51.000    23993592.125 8  96612270.792 8      -900.576          51.000
E24  22566030.445 6 118585285.533 6      -800.480          41.000    22566042.055 7  90864111.023 7      -613.265          43.000
E25  24480459.641 8 128645748.214 8      2086.887          51.000    24480460.289 8  98572699.772 8      1599.028          51.000
> 2020 05 09 03 28 30.0000000  0 14        .000000000000
G05  20644839.422 8 108489360.369 8      -771.863          51.000    20644838.414 8  84537162.179 8      -601.452          51.000
G28  21843654.922 8 114789185.129 8      2351.746          51.000    21843650.266 7  89446126.478 7      1832.529          45.000
G30  20539020.953 8 107933323.535 8      -946.281          51.000    20539021.781 8  84103899.531 8      -737.362          51.000
R01  21876472.062 6 116942289.653 6     -3396.055          41.000    21876476.047 6  90955091.563 6     -2641.373          40.000
R02  19125636.367 8 102058049.754 8       671.848          51.000    19125638.398 8  79378509.538 8       522.548          50.000
R12  19143358.766 8 102260418.030 8       404.406          50.000    19143363.773 8  79535901.462 8       314.538          49.000
C05  39794009.195 6 207217847.976 6         3.309          37.000    39794006.875 6 160233975.590 6         2.450          41.000
C14  24785504.289 7 129064614.267 7     -3069.477          42.000    24785506.938 8  99800944.067 8     -2373.502          50.000
C23  25089094.016 6 130645395.894 6      3072.895          36.000
C24  23346936.117 6 121573650.911 6     -2178.969          41.000
C25  21909063.375 8 114086291.394 8       955.914          51.000
E05  24000322.750 8 126122536.277 8     -1183.379          51.000    24000325.016 8  96639379.346 8      -906.790          51.000
E24  22570637.516 6 118609497.013 6      -813.773          40.000    22570649.242 7  90882662.736 7      -623.669          44.000
E25  24468577.242 8 128583303.497 8      2075.824          51.000    24468577.562 8  98524852.553 8      1590.600          51.000
> 2020 05 09 03 29  0.0000000  0 14        .000000000000
G05  20649301.727 8 108512810.311 8      -791.203          51.000    20649301.156 8  84555434.874 8      -616.522          51.000
G28  21830268.391 8 114718842.530 8      2338.090          50.000    21830264.258 7  89391314.063 7      1821.888          45.000
G30  20544460.914 8 107961910.491 8      -959.219          51.000    20544461.891 8  84126175.072 8      -747.446          51.000
R01  21895560.039 6 117044338.011 6     -3406.879          37.000    21895567.344 6  91034462.576 6     -2649.792          41.000
R02  19121913.195 8 102038182.495 8       652.840          51.000    19121915.375 8  79363057.230 8       507.764          50.000
R12  19141157.164 8 102248658.239 8       379.746          50.000    19141162.398 8  79526754.974 8       295.358          50.000
C05  39793990.523 6 207217750.937 6         3.324          37.000    39793988.266 6 160233900.528 6         2.725          41.000
C14  24803203.906 7 129156782.128 7     -3074.922          44.000    24803205.727 8  99872214.088 8     -2377.682          50.000
C23  25071406.750 6 130553295.819 6      3067.762          37.000
C24  23359514.070 6 121639148.925 6     -2187.945          39.000
C25  21903596.477 8 114057825.035 8       942.008          51.000
E05  24007101.289 8 126158158.485 8     -1191.273          51.000    24007103.938 8  96666674.282 8      -912.779          51.000
E24  22575322.477 6 118634117.858 6      -827.496          40.000    22575334.555 7  90901528.044 7      -633.747          44.000
E25  24456758.234 8 128521192.285 8      2065.090          51.000    24456758.766 8  98477260.867 8      1582.336          51.000
> 2020 05 09 03 29 30.0000000  0 16        .000000000000
G05  20653874.602 8 108536841.498 8      -809.641          50.000    20653874.477 8  84574160.477 8      -630.889          50.000
G07  22422588.914 5 117831499.271 5     -2414.992          32.000
G28  21816959.406 8 114648908.924 8      2325.273          50.000    21816956.430 7  89336820.348 7      1811.901          44.000
G30  20549975.031 8 107990888.160 8      -971.410          51.000    20549976.055 8  84148755.080 8      -756.943          51.000
R01  21914711.594 6 117146724.556 6     -3417.645          38.000    21914721.562 6  91114096.589 6     -2658.168          41.000
R02  19118297.664 8 102018889.414 8       634.555          51.000    19118299.938 8  79348051.500 8       493.543          50.000
R11  21094369.914 6 112721932.775 6     -3236.402          36.000    21094357.703 4  87672555.549 4     -2517.199          28.000
R12  19139094.477 8 102237640.286 8       355.953          50.000    19139099.680 8  79518185.473 8       276.855          50.000
C05  39793971.336 6 207217650.863 6         4.852          36.000    39793969.109 6 160233823.166 6         3.422          41.000
C14  24820936.570 7 129249115.647 7     -3079.531          47.000    24820936.844 8  99943612.204 8     -2381.271          51.000
C23  25053751.922 6 130461367.276 6      3062.328          37.000
C24  23372144.328 6 121704920.486 6     -2195.445          38.000
C25  21898209.438 8 114029774.247 8       929.184          51.000
E05  24013924.508 8 126194017.228 8     -1198.219          51.000    24013927.656 8  96694150.459 8      -918.068          51.000
E24  22580084.258 6 118659140.020 6      -839.527          38.000    22580095.891 7  90920700.939 7      -643.358          44.000
E25  24445001.477 8 128459408.838 8      2055.027          51.000    24445002.141 8  98429920.300 8      1574.613          51.000
> 2020 05 09 03 30  0.0000000  0 15        .000000000000
G05  20658560.344 8 108561466.643 8      -830.848          50.000    20658560.414 8  84593348.892 8      -647.417          50.000
G28  21803731.695 8 114579399.689 8      2309.828          50.000    21803729.891 7  89282657.328 7      1799.866          45.000
G30  20555565.930 8 108020268.604 8      -986.059          51.000    20555566.734 8  84171648.922 8      -768.357          51.000
R01  21933931.109 7 117249460.955 7     -3430.387          43.000    21933940.102 6  91194002.674 6     -2668.079          39.000
R02  19114792.594 8 102000185.885 8       613.578          51.000    19114794.883 8  79333504.319 8       477.227          50.000
R11  21112581.617 6 112819273.525 6     -3251.773          37.000    21112580.305 4  87748264.982 4     -2529.157          26.000
R12  19137173.422 8 102227377.211 8       329.523          51.000    19137178.211 8  79510203.088 8       256.296          49.000
C05  39793954.086 6 207217561.096 6         2.785          36.000    39793951.867 6 160233753.734 6         2.175          41.000
C14  24838703.742 8 129341626.803 8     -3086.777          48.000    24838702.812 8 100015147.677 8     -2386.868          51.000
C23  25036133.188 6 130369624.695 6      3055.055          38.000
C24  23384829.008 6 121770977.099 6     -2206.598          38.000
C25  21892904.922 8 114002152.324 8       913.559          51.000
E05  24020795.750 8 126230126.034 8     -1207.797          51.000    24020798.969 8  96721818.256 8      -925.476          51.000
E24  22584924.492 6 118684576.087 6      -854.887          41.000    22584936.781 7  90940190.948 7      -655.100          45.000
E25  24433309.406 8 128397967.574 8      2042.340          51.000    24433310.328 8  98382841.909 8      1564.904          51.000
> 2020 05 09 03 30 30.0000000  0 16        .000000000000
G05  20663353.570 8 108586655.239 8      -848.605          50.000    20663353.695 8  84612976.361 8      -661.251          50.000
G07  22450258.242 4 117976902.459 4     -2428.367          28.000
G28  21790579.883 8 114510287.293 8      2297.453          51.000    21790579.117 7  89228803.537 7      1790.223          46.000
G30  20561227.609 8 108050020.311 8      -997.629          51.000    20561228.031 8  84194832.066 8      -777.373          51.000
R01  21953211.438 7 117352515.135 7     -3440.082          45.000    21953217.617 6  91274155.869 6     -2675.622          38.000
R02  19111392.469 8 101982043.318 8       595.734          51.000    19111395.102 8  79319393.421 8       463.349          50.000
R11  21130865.914 5 112916992.790 5     -3262.531          35.000    21130872.711 4  87824310.389 4     -2537.524          25.000
R12  19135387.695 8 102217837.573 8       306.305          50.000    19135392.172 8  79502783.389 8       238.237          49.000
C05  39793933.086 6 207217451.664 6         4.348          37.000    39793930.891 6 160233669.094 6         3.395          40.000
C14  24856498.938 7 129434284.348 7     -3090.676          47.000    24856497.312 8 100086796.364 8     -2389.931          51.000
C23  25018545.227 6 130278039.356 6      3050.430          37.000
C24  23397562.719 6 121837287.025 6     -2214.203          38.000
C25  21887676.820 8 113974929.280 8       901.191          51.000
E05  24027709.211 8 126266454.884 8     -1214.293          51.000    24027712.117 8  96749654.648 8      -930.462          51.000
E24  22589837.680 6 118710394.777 6      -866.523          41.000    22589850.445 7  90959974.104 7      -663.966          45.000
E25  24421676.172 8 128336839.419 8      2032.582          51.000    24421678.039 8  98336003.431 8      1557.469          51.000
> 2020 05 09 03 31  0.0000000  0 15        .000000000000
G05  20668243.070 8 108612349.004 8      -868.457          50.000    20668242.938 8  84632997.470 8      -676.720          49.000
G28  21777493.086 8 114441515.819 8      2282.973          50.000    21777492.992 7  89175215.403 7      1778.940          46.000
G30  20566948.609 8 108080084.030 8     -1010.930          51.000    20566948.961 8  84218258.359 8      -787.737          51.000
R01  21972540.117 8 117455826.004 8     -3451.742          48.000    21972544.031 6  91354508.725 6     -2684.688          38.000
R02  19108086.859 8 101964404.665 8       575.812          51.000    19108089.625 8  79305674.466 8       447.854          50.000
R11  21149209.297 5 113015028.064 5     -3276.879          30.000
R12  19133726.297 8 102208961.794 8       281.004          50.000    19133730.414 8  79495880.028 8       218.559          48.000
C05  39793897.211 6 207217265.126 6         4.469          36.000    39793895.062 6 160233524.860 6         2.930          41.000
C14  24874310.523 7 129527029.665 7     -3096.562          46.000    24874308.625 8 100158512.933 8     -2394.507          51.000
C23  25000977.227 6 130186555.113 6      3043.895          36.000
C24  23410334.500 6 121903791.063 6     -2223.277          38.000
C25  21882513.820 8 113948047.743 8       886.672          51.000
E05  24034653.250 8 126302946.033 8     -1222.840          51.000    24034655.695 8  96777615.384 8      -936.999          51.000
E24  22594812.594 6 118736537.101 6      -880.527          40.000    22594824.570 7  90980005.268 7      -674.570          44.000
E25  24410091.453 8 128275967.495 8      2021.133          50.000    24410094.734 8  98289361.295 8      1548.654          51.000
> 2020 05 09 03 31 30.0000000  0 14        .000000000000
G05  20673270.336 8 108638767.738 8      -887.387          49.000    20673269.961 8  84653583.491 8      -691.470          49.000
G28  21764513.664 8 114373308.758 8      2269.379          50.000    21764513.633 7  89122067.036 7      1768.347          46.000
G30  20572770.703 8 108110679.273 8     -1023.371          51.000    20572771.258 8  84242098.814 8      -797.432          51.000
R01  21991957.711 7 117559616.580 7     -3462.371          47.000    21991960.711 6  91435234.690 6     -2692.958          38.000
R02  19104918.164 8 101947496.230 8       556.859          51.000    19104920.750 8  79292523.462 8       433.113          50.000
R12  19132231.070 8 102200973.808 8       256.730          51.000    19132234.453 8  79489667.148 8       199.679          49.000
C05  39793888.656 6 207217220.473 6         3.941          36.000    39793886.430 6 160233490.284 6         3.323          40.000
C14  24892179.844 7 129620080.289 7     -3101.473          43.000    24892178.281 8 100230465.608 8     -2398.349          50.000
C23  24983470.102 6 130095392.074 6      3038.535          37.000
C24  23423184.883 6 121970706.259 6     -2232.086          38.000
C25  21877458.547 8 113921726.532 8       873.316          51.000
E05  24041670.219 8 126339820.429 8     -1230.258          51.000    24041672.305 8  96805869.776 8      -942.701          51.000
E24  22599890.117 7 118763222.928 7      -893.414          42.000    22599902.273 7  91000452.877 7      -684.501          45.000
E25  24398598.312 8 128215573.761 8      2010.238          51.000    24398602.641 8  98243085.556 8      1540.360          51.000
> 2020 05 09 03 32  0.0000000  0 16        .000000000000
G05  20678393.070 8 108665688.617 8      -906.637          49.000    20678392.531 8  84674560.791 8      -706.470          49.000
G07  22492026.125 5 118196391.506 5     -2446.027          30.000
G13  21330236.461 5 112091117.279 5      2038.109          31.000
G28  21751599.828 8 114305446.626 8      2255.410          50.000    21751599.578 7  89069187.429 7      1757.462          44.000
G30  20578651.492 8 108141582.810 8     -1036.055          51.000    20578651.836 8  84266179.486 8      -807.315          51.000
R01  22011421.914 8 117663659.388 8     -3473.191          48.000    22011424.352 6  91516156.878 6     -2701.371          38.000
R02  19101844.461 8 101931094.663 8       537.266          51.000    19101847.195 8  79279766.690 8       417.873          50.000
R12  19130859.789 8 102193647.147 8       232.328          51.000    19130862.938 8  79483968.658 8       180.703          49.000
C05  39793865.031 6 207217097.604 6         4.473          36.000    39793862.812 6 160233395.256 6         3.631          40.000
C14  24910063.695 6 129713214.990 6     -3106.766          39.000    24910063.617 8 100302483.301 8     -2402.342          48.000
C23  24965981.531 6 130004331.598 6      3032.391          37.000
C24  23436071.430 6 122037810.798 6     -2240.719          37.000
C25  21872468.742 8 113895745.659 8       859.504          51.000
E05  24048718.039 8 126376856.290 8     -1238.043          51.000    24048719.930 8  96834247.891 8      -948.663          51.000
E24  22605028.938 7 118790229.307 7      -906.418          43.000    22605041.703 7  91021146.097 7      -694.453          45.000
E25  24387154.836 8 128155437.293 8      1999.500          51.000    24387159.562 8  98197006.967 8      1532.034          51.000
> 2020 05 09 03 32 30.0000000  0 15        .000000000000
G05  20683623.234 8 108693173.646 8      -925.996          49.000    20683622.648 8  84695977.687 8      -721.555          49.000
G28  21738763.703 8 114237993.186 8      2241.145          49.000    21738762.469 6  89016626.302 6      1746.346          41.000
G30  20584602.438 8 108172855.341 8     -1049.043          51.000    20584602.336 8  84290547.688 8      -817.436          51.000
R01  22030944.281 7 117768015.893 7     -3484.289          46.000    22030946.375 6  91597322.998 6     -2710.006          36.000
R02  19098877.719 8 101915264.979 8       517.637          51.000    19098880.484 8  79267454.711 8       402.603          49.000
R11  21204727.367 5 113311634.265 5     -3314.203          32.000    21204737.781 4  88131285.484 4     -2577.707          26.000
R12  19129623.945 8 102187044.257 8       207.621          51.000    19129626.539 8  79478833.092 8       161.483          49.000
C05  39793838.266 6 207216958.139 6         4.602          36.000    39793836.055 6 160233287.425 6         3.428          41.000
C14  24927974.734 6 129806494.144 6     -3112.273          39.000    24927975.453 7 100374612.630 7     -2406.378          45.000
C23  24948523.602 5 129913436.450 5      3026.602          35.000
C24  23449006.117 6 122105164.386 6     -2249.461          37.000
C25  21867556.266 8 113870166.569 8       845.445          51.000
E05  24055808.188 8 126414115.859 8     -1246.141          51.000    24055810.328 8  96862797.404 8      -954.820          51.000
E24  22610240.766 7 118817617.240 7      -919.625          43.000    22610253.672 7  91042131.672 7      -704.717          45.000
E25  24375772.648 8 128095621.241 8      1988.051          51.000    24375777.227 8  98151173.887 8      1523.303          51.000
> 2020 05 09 03 33  0.0000000  0 13        .000000000000
G05  20688981.125 8 108721328.833 8      -956.152          50.000    20688980.648 8  84717916.783 8      -745.054          49.000
G28  21726026.398 8 114171057.908 8      2216.000          48.000    21726023.211 6  88964468.967 6      1726.756          41.000
G30  20590643.656 8 108204602.306 8     -1072.676          51.000    20590643.719 8  84315285.601 8      -835.848          51.000
R01  22050544.664 7 117872792.830 7     -3506.184          45.000    22050546.031 5  91678816.070 5     -2727.035          34.000
R02  19096039.070 8 101900117.626 8       486.812          51.000    19096041.828 8  79255673.448 8       378.632          49.000
R12  19128543.648 8 102181272.759 8       171.875          51.000    19128545.906 8  79474344.163 8       133.681          49.000
C05  39793828.555 6 207216907.917 6        -6.145          36.000    39793826.508 6 160233248.587 6        -5.159          40.000
C14  24945935.453 7 129900022.237 7     -3128.289          43.000    24945932.445 6 100446934.428 6     -2419.031          40.000
C24  23462008.484 6 122172871.073 6     -2269.316          36.000
C25  21862741.820 8 113845095.050 8       820.766          51.000
E05  24062961.148 8 126451706.044 8     -1265.035          51.000    24062963.445 8  96891600.255 8      -969.367          51.000
E24  22615545.195 7 118845492.504 7      -943.949          42.000    22615558.500 7  91063490.648 7      -723.277          45.000
E25  24364471.969 8 128036233.423 8      1965.965          51.000    24364476.203 8  98105668.949 8      1506.368          51.000
> 2020 05 09 03 33 30.0000000  0 14        .000000000000
G05  20694441.492 8 108750021.860 8      -961.598          50.000    20694440.648 8  84740275.001 8      -749.297          50.000
G28  21713363.102 8 114104511.590 8      2215.523          49.000    21713358.734 7  88912614.711 7      1726.382          42.000
G30  20596749.891 8 108236691.067 8     -1071.621          51.000    20596750.328 8  84340289.836 8      -835.029          51.000
R01  22070198.180 7 117977855.099 7     -3503.102          44.000    22070198.852 5  91760531.099 5     -2724.638          35.000
R02  19093303.219 8 101885521.008 8       481.180          49.000    19093306.219 8  79244320.513 8       374.248          48.000
R11  21242107.664 4 113511381.425 4     -3337.031          27.000    21242125.742 5  88286658.190 5     -2595.469          31.000
R12  19127593.727 8 102176198.317 8       161.391          51.000    19127596.117 8  79470397.403 8       125.529          50.000
C05  39793811.172 6 207216816.790 6         7.551          37.000    39793809.039 6 160233178.066 6         5.875          40.000
C14  24963920.000 7 129993667.790 7     -3119.672          45.000    24963914.312 7 100519347.030 7     -2412.316          42.000
C24  23475053.352 6 122240798.824 6     -2264.480          38.000
C25  21858000.023 8 113820400.889 8       820.656          51.000
E05  24070152.125 8 126489495.615 8     -1259.098          51.000    24070154.336 8  96920555.888 8      -964.667          51.000
E24  22620917.625 7 118873722.634 7      -942.980          43.000    22620931.375 7  91085121.551 7      -722.475          45.000
E25  24353228.000 8 127977143.554 8      1968.566          51.000    24353231.688 8  98060392.306 8      1508.415          51.000
> 2020 05 09 03 34  0.0000000  0 14        .000000000000
G05  20699993.953 8 108779199.308 8      -983.094          50.000    20699992.906 8  84763010.674 8      -766.050          50.000
G28  21700764.414 8 114038303.583 8      2198.902          50.000    21700760.648 7  88861024.058 7      1713.430          44.000
G30  20602910.680 8 108269067.291 8     -1086.352          51.000    20602911.297 8  84365518.065 8      -846.508          51.000
R01  22089893.875 7 118083146.748 7     -3516.188          42.000    22089895.594 6  91842424.594 6     -2734.809          37.000
R02  19090660.945 8 101871422.961 8       459.164          50.000    19090663.992 8  79233355.376 8       357.128          48.000
R12  19126764.055 8 102171766.471 8       134.637          51.000    19126766.531 8  79466950.413 8       104.717          50.000
C05  39793775.758 6 207216632.233 6         5.184          37.000    39793773.500 6 160233035.349 6         4.141          41.000
C14  24981916.867 7 130087377.087 7     -3127.117          44.000    24981911.547 7 100591808.957 7     -2417.928          45.000
C23  24896387.219 5 129641976.759 5      3009.016          33.000
C24  23488130.766 6 122308893.397 6     -2274.906          40.000
C25  21853320.406 8 113796031.519 8       804.590          51.000
E05  24077371.164 8 126527431.811 8     -1269.375          51.000    24077373.430 8  96949623.875 8      -972.617          51.000
E24  22626347.266 7 118902253.677 7      -958.547          44.000    22626361.031 7  91106983.007 7      -734.309          45.000
E25  24342030.711 8 127918299.707 8      1955.039          51.000    24342033.586 8  98015304.181 8      1498.026          51.000
> 2020 05 09 03 34 30.0000000  0 15        .000000000000
G05  20705644.953 8 108808894.541 8      -995.184          51.000    20705643.875 8  84786149.783 8      -775.468          51.000
G28  21688237.180 8 113972470.530 8      2191.508          51.000    21688234.430 7  88809725.568 7      1707.668          45.000
G30  20609132.477 8 108301764.125 8     -1092.008          51.000    20609133.242 8  84390996.119 8      -850.915          51.000
R01  22109639.000 7 118188701.359 7     -3519.551          44.000    22109643.234 6  91924522.628 6     -2737.428          40.000
R02  19088119.352 8 101857860.353 8       446.527          49.000    19088122.398 8  79222806.701 8       347.299          48.000
R11  21279723.336 5 113712375.187 5     -3356.250          33.000    21279724.414 4  88442957.497 4     -2610.420          28.000
R12  19126060.859 8 102168011.160 8       117.273          51.000    19126063.547 8  79464029.629 8        91.210          50.000
C05  39793729.070 6 207216389.426 6        12.484          36.000    39793726.703 6 160232846.801 6         9.790          41.000
C14  24999932.109 7 130181182.960 7     -3125.188          43.000    24999927.859 7 100664345.607 7     -2416.466          46.000
C23  24879060.664 6 129551716.831 6      3009.922          38.000
C24  23501246.328 6 122377187.228 6     -2276.426          41.000
C25  21848709.898 8 113772021.002 8       797.613          51.000
E05  24084624.805 8 126565549.195 8     -1270.148          51.000    24084627.125 8  96978830.688 8      -973.165          51.000
E24  22631840.336 7 118931118.986 7      -964.273          44.000    22631853.086 7  91129100.585 7      -738.787          44.000
E25  24330886.797 8 127859737.373 8      1950.828          51.000    24330888.820 8  97970431.761 8      1494.844          51.000
> 2020 05 09 03 35  0.0000000  0 16        .000000000000
G05  20711434.523 8 108839317.347 8     -1023.020          51.000    20711433.078 8  84809855.880 8      -797.158          51.000
G28  21675821.828 8 113907224.775 8      2168.262          51.000    21675819.703 7  88758884.721 7      1689.555          46.000
G30  20615455.117 8 108334990.280 8     -1113.156          51.000    20615456.031 8  84416886.611 8      -867.394          51.000
R01  22129474.031 7 118294730.517 7     -3538.926          46.000    22129480.031 6  92006989.765 6     -2752.498          41.000
R02  19085717.781 8 101845048.660 8       417.848          48.000    19085721.641 8  79212842.050 8       324.993          48.000
R11  21298652.047 6 113813530.530 6     -3377.328          37.000    21298654.852 4  88521634.025 4     -2626.805          26.000
R12  19125524.016 8 102165144.982 8        84.047          50.000    19125527.320 8  79461800.397 8        65.373          50.000
R13  21549839.203 6 115074933.076 6      3707.000          36.000    21549828.336 4  89502687.328 4      2883.222          25.000
C05  39793710.828 6 207216294.572 6         3.957          36.000    39793708.562 6 160232773.444 6         2.978          41.000
C14  25018005.367 7 130275292.286 7     -3138.703          44.000    25018002.219 7 100737116.923 7     -2427.141          47.000
C23  24861793.297 6 129461793.750 6      2995.051          39.000
C24  23514439.555 6 122445886.583 6     -2293.449          40.000
C25  21844208.438 8 113748577.411 8       775.191          51.000
E05  24091952.953 8 126604058.010 8     -1286.910          51.000    24091954.922 8  97008337.435 8      -986.071          51.000
E24  22637436.828 7 118960527.596 7      -986.078          44.000    22637449.141 7  91151634.458 7      -755.489          45.000
E25  24319836.438 8 127801667.671 8      1930.695          51.000    24319838.000 8  97925936.814 8      1479.316          51.000
> 2020 05 09 03 35 30.0000000  0 17        .000000000000
G05  20717325.781 8 108870276.591 8     -1029.016          51.000    20717324.492 8  84833979.967 8      -801.830          51.000
G07  22590652.188 5 118714661.745 5     -2476.113          34.000
G28  21663482.445 8 113842378.012 8      2166.672          51.000    21663480.320 7  88708354.792 7      1688.316          45.000
G30  20621842.016 8 108368554.040 8     -1112.645          51.000    20621843.008 8  84443040.199 8      -866.996          51.000
R01  22149361.945 7 118401038.848 7     -3536.203          47.000    22149368.250 6  92089674.055 6     -2750.380          41.000
R02  19083421.477 8 101832796.201 8       410.949          49.000    19083425.461 8  79203312.372 8       319.627          48.000
R11  21317643.211 5 113915006.766 5     -3375.855          33.000    21317654.672 4  88600608.146 4     -2625.662          28.000
R12  19125117.219 8 102162973.563 8        72.910          50.000    19125120.938 8  79460111.491 8        56.708          50.000
R13  21529045.133 6 114963895.038 6      3707.551          38.000    21529042.203 5  89416330.102 5      2883.654          31.000
C05  39793685.039 6 207216160.057 6        16.723          37.000    39793682.750 6 160232669.425 6        12.970          40.000
C14  25036100.508 7 130369515.213 7     -3130.895          44.000    25036098.047 7 100809976.043 7     -2420.997          47.000
C23  24844551.812 6 129372020.076 6      3001.781          39.000
C24  23527673.727 6 122514801.006 6     -2288.680          37.000
C25  21839779.250 8 113725511.972 8       774.223          51.000
E05  24099319.609 8 126642768.013 8     -1281.809          51.000    24099320.930 8  97037998.332 8      -982.180          51.000
E24  22643100.070 7 118990288.048 7      -986.223          44.000    22643112.758 7  91174437.932 7      -755.581          44.000
E25  24308843.461 8 127743901.191 8      1932.305          51.000    24308844.859 8  97881674.220 8      1480.573          50.000
> 2020 05 09 03 36  0.0000000  0 16        .000000000000
G05  20723340.547 8 108901885.408 8     -1066.211          51.000    20723339.594 8  84858610.211 8      -830.814          51.000
G07  22604891.539 5 118789475.671 5     -2500.086          34.000    22604860.539 5  92563136.204 5     -1948.122          35.000
G28  21651240.969 8 113778046.968 8      2133.949          51.000    21651238.156 7  88658226.740 7      1662.818          43.000
G30  20628314.695 8 108402568.299 8     -1143.113          51.000    20628315.453 8  84469544.824 8      -890.738          51.000
R01  22169323.469 7 118507741.039 7     -3565.086          47.000    22169329.547 6  92172664.661 6     -2772.842          40.000
R02  19081252.250 8 101821221.045 8       372.750          49.000    19081256.516 8  79194309.478 8       289.917          48.000
R12  19124861.977 8 102161611.946 8        30.207          50.000    19124866.531 8  79459052.470 8        23.494          50.000
R13  21508339.109 6 114853324.286 6      3676.480          37.000    21508341.656 6  89330330.647 6      2859.485          37.000
C05  39793673.297 6 207216099.139 6        -1.086          36.000    39793671.102 6 160232622.295 6         -.761          41.000
C14  25054238.602 7 130463963.661 7     -3153.875          45.000    25054236.352 7 100883009.512 7     -2438.698          46.000
C23  24827360.531 6 129282510.294 6      2977.211          41.000
C24  23540970.078 6 122584041.947 6     -2315.113          37.000
C25  21835444.398 8 113702937.800 8       742.547          51.000
E05  24106746.312 8 126681793.600 8     -1307.883          51.000    24106747.250 8  97067901.042 8     -1002.159          51.000
E24  22648852.156 7 119020513.488 7     -1017.008          44.000    22648864.109 7  91197597.685 7      -779.221          44.000
E25  24297929.883 8 127686553.261 8      1902.801          51.000    24297930.758 8  97837732.333 8      1457.975          49.000
> 2020 05 09 03 36 30.0000000  0 17        .000000000000
G05  20729451.016 8 108933996.323 8     -1081.711          51.000    20729450.234 8  84883631.715 8      -842.892          51.000
G13  21227346.773 5 111550464.499 5      1965.684          31.000
G28  21639069.578 8 113714087.080 8      2122.844          50.000    21639065.875 7  88608387.906 7      1654.164          42.000
G30  20634844.977 8 108436885.086 8     -1151.816          51.000    20634845.383 8  84496285.190 8      -897.519          51.000
R01  22189330.078 7 118614685.890 7     -3571.801          47.000    22189335.992 6  92255843.985 6     -2778.067          40.000
R02  19079182.211 8 101810175.535 8       356.398          50.000    19079186.789 8  79185718.527 8       277.199          48.000
R11  21355847.984 5 114119140.897 5     -3414.305          30.000    21355835.562 4  88759324.814 4     -2655.564          25.000
R12  19124730.477 8 102160909.938 8         9.426          51.000    19124735.180 8  79458506.468 8         7.331          49.000
R13  21487692.477 6 114743073.623 6      3666.480          37.000    21487696.625 6  89244580.117 6      2851.704          41.000
C05  39793647.766 6 207215966.450 6         3.023          36.000    39793645.648 6 160232519.694 6         2.169          41.000
C14  25072391.969 7 130558490.933 7     -3154.992          46.000    25072388.977 7 100956103.951 7     -2439.701          46.000
C23  24810192.750 6 129193120.284 6      2974.641          41.000
C24  23554301.688 6 122653462.345 6     -2319.980          38.000
C25  21831175.844 8 113680709.459 8       732.316          51.000
E05  24114204.898 8 126720988.243 8     -1312.184          51.000    24114205.945 8  97097933.278 8     -1005.457          51.000
E24  22654664.102 6 119051056.208 6     -1026.512          40.000    22654675.875 7  91221000.542 7      -786.365          44.000
E25  24287068.242 8 127629478.198 8      1895.008          51.000    24287068.430 8  97793999.514 8      1452.139          49.000
> 2020 05 09 03 37  0.0000000  0 16        .000000000000
G05  20735680.867 8 108966736.126 8     -1098.809          50.000    20735680.523 8  84909143.225 8      -856.214          50.000
G13  21216150.297 5 111491603.123 5      1959.320          31.000
G28  21626992.492 7 113650627.918 7      2109.793          44.000    21626989.250 7  88558939.267 7      1643.998          44.000
G30  20641456.750 8 108471630.395 8     -1162.316          51.000    20641457.305 8  84523359.467 8      -905.701          51.000
R01  22209405.164 7 118722001.306 7     -3580.211          45.000    22209411.195 6  92339311.514 6     -2784.609          40.000
R02  19077236.281 8 101799791.283 8       338.180          51.000    19077240.555 8  79177641.872 8       263.029          48.000
R12  19124746.648 8 102160996.085 8       -12.953          51.000    19124751.305 8  79458573.467 8       -10.075          50.000
R13  21467129.812 6 114633275.440 6      3655.344          37.000    21467134.734 7  89159181.498 7      2843.045          42.000
C05  39793632.789 6 207215888.314 6         5.176          36.000    39793630.680 6 160232459.258 6         3.516          41.000
C14  25090584.336 7 130653222.028 7     -3158.168          46.000    25090580.547 7 101029356.014 7     -2442.035          46.000
C23  24793072.234 7 129103977.395 7      2970.285          43.000
C24  23567692.258 6 122723186.587 6     -2326.125          38.000
C25  21826997.578 8 113658953.028 8       720.309          51.000
E05  24121719.719 8 126760479.447 8     -1318.375          51.000    24121720.758 8  97128192.749 8     -1010.171          51.000
E24  22660559.906 6 119082042.332 6     -1037.324          41.000    22660573.086 7  91244743.247 7      -794.758          44.000
E25  24276283.344 8 127572804.357 8      1885.371          51.000    24276283.609 8  97750574.127 8      1444.626          51.000
> 2020 05 09 03 37 30.0000000  0 16        .000000000000
G05  20741997.500 8 108999930.553 8     -1116.672          51.000    20741997.289 8  84935008.991 8      -870.134          51.000
G07  22647740.297 5 119014677.902 5     -2509.855          33.000
G28  21614977.008 6 113587498.492 6      2096.320          40.000    21614976.047 6  88509747.520 6      1633.496          40.000
G30  20648116.875 8 108506629.794 8     -1173.449          51.000    20648117.828 8  84550631.735 8      -914.376          51.000
R01  22229516.062 7 118829509.238 7     -3589.531          43.000    22229522.547 6  92422928.748 6     -2791.861          40.000
R02  19075382.109 8 101789893.929 8       319.055          51.000    19075386.094 8  79169943.939 8       248.154          48.000
R12  19124877.539 8 102161693.357 8       -36.180          51.000    19124881.977 8  79459115.810 8       -28.140          49.000
R13  21446619.859 6 114523756.433 6      3643.289          37.000    21446624.859 7  89074000.022 7      2833.669          42.000
C05  39793595.359 6 207215693.262 6         5.770          36.000    39793593.258 6 160232308.401 6         4.555          41.000
C14  25108782.438 7 130747984.085 7     -3161.996          47.000    25108778.758 8 101102632.025 8     -2444.962          48.000
C23  24775966.383 7 129014911.333 7      2964.914          44.000
C24  23581107.781 6 122793041.463 6     -2333.621          38.000
C25  21822876.641 8 113637496.821 8       707.578          51.000
E05  24129257.844 8 126800094.204 8     -1325.250          51.000    24129259.008 8  97158546.913 8     -1015.457          51.000
E24  22666508.031 7 119113297.892 7     -1049.145          42.000    22666521.156 7  91268692.299 7      -803.839          44.000
E25  24265542.461 8 127516359.587 8      1875.035          51.000    24265543.391 8  97707324.256 8      1436.721          51.000
> 2020 05 09 03 38  0.0000000  0 15        .000000000000
G05  20748436.438 8 109033767.041 8     -1137.414          50.000    20748436.172 8  84961375.064 8      -886.300          50.000
G28  21603062.320 7 113524888.973 7      2079.656          45.000    21603062.547 7  88460960.842 7      1620.511          45.000
G30  20654860.789 8 108542069.822 8     -1187.398          51.000    20654861.867 8  84578247.340 8      -925.249          51.000
R01  22249697.953 6 118937398.841 6     -3601.062          39.000    22249705.031 6  92506842.849 6     -2800.826          39.000
R02  19073654.984 8 101780676.552 8       297.164          51.000    19073658.953 8  79162774.845 8       231.128          48.000
R12  19125158.297 8 102163191.688 8       -62.082          51.000    19125162.156 8  79460281.189 8       -48.286          49.000
R13  21426198.773 6 114414709.933 6      3628.258          37.000    21426203.719 7  88989186.071 7      2821.978          43.000
C05  39793571.203 6 207215567.462 6         4.227          36.000    39793569.078 6 160232211.098 6         3.347          41.000
C14  25127021.820 7 130842961.945 7     -3168.312          46.000    25127018.742 8 101176074.924 8     -2449.901          49.000
C23  24758911.000 7 128926109.510 7      2956.906          44.000
C24  23594583.336 6 122863211.162 6     -2342.996          39.000
C25  21818849.109 8 113616526.896 8       692.062          51.000
E05  24136854.828 8 126840020.588 8     -1334.840          51.000    24136857.102 8  97189139.845 8     -1022.757          51.000
E24  22672542.812 5 119145009.524 5     -1063.449          35.000    22672554.844 7  91292990.819 7      -814.776          42.000
E25  24254881.203 8 127460332.814 8      1861.738          51.000    24254882.797 8  97664394.656 8      1426.536          51.000
> 2020 05 09 03 38 30.0000000  0 15        .000000000000
G05  20754981.742 8 109068163.434 8     -1155.648          50.000    20754981.250 8  84988177.432 8      -900.502          50.000
G28  21591232.750 8 113462720.589 8      2065.250          51.000    21591232.773 7  88412517.918 7      1609.283          45.000
G30  20661672.898 8 108577868.143 8     -1198.906          51.000    20661673.945 8  84606142.115 8      -934.216          51.000
R01  22269934.906 6 119045586.289 6     -3611.094          40.000    22269942.297 6  92590988.634 6     -2808.628          36.000
R02  19072040.227 8 101772058.420 8       277.496          51.000    19072043.758 8  79156071.854 8       215.830          48.000
R12  19125573.383 8 102165407.545 8       -85.570          51.000    19125576.953 8  79462004.629 8       -66.552          49.000
R13  21405851.766 6 114306056.440 6      3615.812          36.000    21405856.117 7  88904677.781 7      2812.296          42.000
C05  39793544.961 6 207215430.710 6         4.703          37.000    39793542.805 6 160232105.349 6         3.767          40.000
C14  25145286.625 7 130938074.147 7     -3172.270          44.000    25145284.609 8 101249621.721 8     -2453.036          50.000
C23  24741891.602 7 128837492.900 7      2950.977          44.000
C24  23608102.953 6 122933613.879 6     -2350.258          40.000
C25  21814899.477 8 113595962.809 8       679.012          50.000
E05  24144495.828 8 126880177.714 8     -1342.078          51.000    24144499.039 8  97219909.592 8     -1028.316          51.000
E24  22678649.312 5 119177105.023 5     -1075.375          31.000    22678660.172 7  91317575.912 7      -824.040          42.000
E25  24244284.078 8 127404643.943 8      1851.004          51.000    24244286.305 8  97621723.973 8      1418.308          51.000
> 2020 05 09 03 39  0.0000000  0 15        .000000000000
G05  20761634.586 8 109103124.608 8     -1175.512          50.000    20761633.773 8  85015419.885 8      -915.983          51.000
G28  21579488.961 8 113401000.975 8      2049.129          51.000    21579488.234 7  88364424.708 7      1596.724          46.000
G30  20668554.078 8 108614029.230 8     -1212.168          51.000    20668555.320 8  84634319.574 8      -944.546          51.000
R01  22290229.469 6 119154075.278 6     -3622.152          41.000    22290236.266 5  92675368.926 5     -2817.233          35.000
R02  19070539.203 8 101764046.847 8       256.105          51.000    19070542.625 8  79149840.610 8       199.193          49.000
R12  19126123.461 8 102168345.619 8      -110.648          51.000    19126127.008 8  79464289.810 8       -86.063          49.000
R13  21385580.109 6 114197805.185 6      3600.543          37.000    21385583.375 6  88820482.352 6      2800.422          40.000
C05  39793517.711 6 207215288.766 6         4.309          37.000    39793515.594 6 160231995.573 6         3.253          41.000
C14  25163577.781 7 131033325.134 7     -3178.012          42.000    25163577.008 8 101323275.831 8     -2457.534          50.000
C23  24724909.445 6 128749068.459 6      2943.379          41.000
C24  23621667.547 6 123004253.592 6     -2359.578          39.000
C25  21811028.867 8 113575810.192 8       664.109          51.000
E05  24152182.445 8 126920571.555 8     -1351.195          51.000    24152186.070 8  97250860.721 8     -1035.343          51.000
E24                                                                  22684838.180 6  91342451.192 6      -834.608          41.000
E25  24233752.516 8 127349299.831 8      1838.223          51.000    24233755.203 8  97579317.460 8      1408.532          51.000
> 2020 05 09 03 39 30.0000000  0 15        .000000000000
G05  20768396.258 8 109138656.397 8     -1193.809          51.000    20768395.234 8  85043107.005 8      -930.240          51.000
G28  21567832.086 8 113339739.070 8      2034.465          51.000    21567830.578 7  88316688.141 7      1585.297          47.000
G30  20675505.438 8 108650558.431 8     -1223.699          51.000    20675506.727 8  84662783.884 8      -953.532          51.000
R01  22310581.852 6 119262871.104 6     -3631.539          41.000    22310588.031 5  92759987.849 5     -2824.533          35.000
R02  19069153.414 8 101756650.581 8       236.375          51.000    19069156.781 8  79144087.951 8       183.847          49.000
R12  19126809.734 8 102172011.775 8      -134.227          51.000    19126813.219 8  79467141.266 8      -104.398          48.000
R13  21365384.641 5 114089964.316 5      3587.840          35.000    21365386.109 6  88736606.156 6      2790.545          37.000
C05  39793490.695 6 207215148.440 6         4.746          37.000    39793488.672 6 160231887.048 6         3.525          40.000
C14  25181896.805 7 131128720.330 7     -3182.293          42.000    25181896.883 8 101397041.452 8     -2460.660          49.000
C23  24707966.023 6 128660844.046 6      2937.582          41.000
C24  23635278.938 6 123075135.128 6     -2366.695          38.000
C25  21807238.969 8 113556075.507 8       650.969          51.000
E05  24159915.703 8 126961208.980 8     -1358.551          51.000    24159919.445 8  97281998.491 8     -1041.015          51.000
E24  22691077.781 5 119242417.829 5     -1101.438          32.000    22691088.773 6  91367620.917 6      -843.755          40.000
E25  24223288.250 8 127294308.140 8      1827.379          51.000    24223291.398 8  97537180.983 8      1400.161          51.000
> 2020 05 09 03 40  0.0000000  0 16        .000000000000
G05  20775257.344 8 109174710.905 8     -1217.793          51.000    20775256.219 8  85071201.425 8      -948.930          51.000
G28  21556253.328 8 113278890.024 8      2014.203          51.000    21556251.664 7  88269273.319 7      1569.509          47.000
G30  20682517.727 8 108687407.445 8     -1240.879          51.000    20682518.805 8  84691497.398 8      -966.919          51.000
R01  22330982.172 6 119371923.799 6     -3646.613          40.000    22330988.539 5  92844806.493 5     -2836.258          34.000
R02  19067874.195 8 101749823.593 8       210.742          51.000    19067877.297 8  79138778.067 8       163.911          49.000
R11  21491492.750 5 114843960.008 5     -3495.848          35.000
R12  19127623.000 8 102176356.759 8      -163.492          51.000    19127626.398 8  79470520.710 8      -127.161          48.000
R13  21345257.531 6 113982489.585 6      3568.562          36.000    21345257.555 6  88653014.764 6      2775.552          38.000
C05  39793455.234 6 207214963.178 6         -.402          36.000    39793453.102 6 160231743.768 6         -.299          40.000
C14  25200235.219 7 131224211.887 7     -3191.754          42.000    25200235.188 8 101470881.592 8     -2468.067          49.000
C23  24691051.758 6 128572774.344 6      2925.805          39.000
C24  23648928.852 6 123146210.126 6     -2379.074          37.000
C25  21803520.523 8 113536712.055 8       632.105          51.000
E05  24167686.562 8 127002043.138 8     -1371.641          51.000    24167690.359 8  97313286.992 8     -1050.949          51.000
E24  22697396.203 5 119275606.645 5     -1119.074          35.000    22697403.570 6  91393048.269 6      -857.320          40.000
E25  24212882.234 8 127239622.904 8      1810.410          51.000    24212886.164 8  97495279.311 8      1387.233          51.000
> 2020 05 09 03 40 30.0000000  0 17        .000000000000
G05  20782198.766 8 109211188.098 8     -1207.105          51.000    20782197.609 8  85099625.210 8      -940.602          51.000
G07  22734277.023 6 119469389.719 6     -2519.031          37.000
G28  21544734.062 8 113218356.588 8      2028.070          50.000    21544732.852 7  88222104.420 7      1580.315          47.000
G30  20689571.664 8 108724475.475 8     -1223.562          51.000    20689572.633 8  84720381.573 8      -953.425          51.000
R01  22351411.695 7 119481130.606 7     -3626.746          42.000    22351418.219 5  92929745.104 5     -2820.803          35.000
R02  19066682.938 8 101743466.217 8       220.031          51.000    19066685.766 8  79133833.435 8       171.135          50.000
R11  21511083.203 6 114948651.190 6     -3476.801          36.000    21511082.641 4  89404548.134 4     -2704.178          26.000
R12  19128544.125 8 102181278.370 8      -157.703          51.000    19128547.727 8  79474348.646 8      -122.658          48.000
R13  21325180.703 6 113875282.578 6      3584.926          38.000    21325182.172 6  88569631.573 6      2788.276          41.000
C05  39793392.141 6 207214634.497 6        28.828          36.000    39793390.023 6 160231489.592 6        22.259          41.000
C14  25218573.492 6 131319699.954 6     -3167.387          41.000    25218572.898 8 101544718.990 8     -2449.264          49.000
C23  24674146.734 6 128484761.879 6      2948.555          37.000
C24  23662596.617 6 123217378.450 6     -2358.270          36.000
C25  21799854.742 8 113517621.094 8       647.438          51.000
E05  24175476.102 8 127042974.692 8     -1350.391          51.000    24175479.695 8  97344650.126 8     -1034.688          51.000
E24                                                                  22703763.617 6  91418656.167 6      -844.545          38.000
E25  24202515.391 8 127185145.581 8      1828.094          51.000    24202520.234 8  97453536.948 8      1400.807          51.000
> 2020 05 09 03 41  0.0000000  0 17        .000000000000
G05  20789325.852 8 109248640.422 8     -1261.750          51.000    20789324.516 8  85128808.857 8      -983.182          51.000
G07  22748859.430 6 119545999.448 6     -2560.613          36.000    22748832.664 5  93152660.301 5     -1995.295          31.000
G28  21533380.055 8 113158694.567 8      1977.004          48.000    21533379.820 7  88175614.509 7      1540.523          47.000
G30  20696772.445 8 108762315.130 8     -1271.277          51.000    20696773.438 8  84749867.027 8      -990.603          51.000
R01  22371976.656 7 119591053.009 7     -3673.090          46.000    22371981.898 6  93015240.326 6     -2856.848          37.000
R02  19065685.750 8 101738142.803 8       163.074          51.000    19065688.320 8  79129693.018 8       126.836          50.000
R11  21530811.203 6 115054079.998 6     -3523.711          38.000    21530809.266 5  89486548.274 5     -2740.667          30.000
R12  19129678.406 8 102187338.425 8      -218.008          51.000    19129682.102 8  79479062.031 8      -169.562          48.000
R13  21305260.344 6 113768908.764 6      3534.887          37.000    21305263.758 7  88486896.397 7      2749.359          43.000
C05  39793406.914 6 207214711.427 6        -6.840          36.000    39793404.789 6 160231549.051 6        -5.023          41.000
C14  25237016.281 6 131415732.212 6     -3207.164          41.000    25237015.227 8 101618977.148 8     -2480.212          48.000
C23  24657356.281 5 128397356.921 5      2906.309          35.000
C24  23676386.375 5 123289187.186 5     -2401.184          34.000
C25  21796346.562 8 113499351.350 8       598.152          51.000
E05  24183389.484 8 127084557.754 8     -1394.180          51.000    24183392.703 8  97376512.455 8     -1068.357          51.000
E24                                                                  22710272.164 6  91444868.139 6      -881.345          37.000
E25  24192293.492 8 127131431.133 8      1780.395          51.000    24192298.992 8  97412379.095 8      1364.177          51.000
> 2020 05 09 03 41 30.0000000  0 17        .000000000000
G05  20796521.562 8 109286454.079 8     -1265.895          51.000    20796520.227 8  85158274.045 8      -986.411          51.000
G07  22763430.906 6 119622563.605 6     -2550.832          36.000    22763402.055 5  93212321.586 5     -1987.670          32.000
G28  21522075.867 8 113099293.157 8      1976.191          48.000    21522076.133 7  88129327.679 7      1539.889          45.000
G30  20704003.141 8 108800311.967 8     -1268.594          51.000    20704004.133 8  84779474.937 8      -988.515          51.000
R01  22392558.883 7 119701065.725 7     -3667.930          46.000    22392563.031 6  93100805.722 6     -2852.837          39.000
R02  19064765.438 8 101733232.873 8       157.312          50.000    19064768.547 8  79125874.158 8       122.354          51.000
R11  21550560.078 6 115159645.777 6     -3519.480          39.000    21550560.695 5  89568625.347 5     -2737.374          30.000
R12  19130908.906 8 102193912.339 8      -227.148          51.000    19130912.703 8  79484175.101 8      -176.671          48.000
R13  21285379.742 6 113662747.790 6      3535.602          37.000    21285384.484 7  88404326.744 7      2749.912          43.000
C05  39793382.898 6 207214586.429 6         8.227          36.000    39793380.867 6 160231452.393 6         6.099          40.000
C14  25255446.578 6 131511699.739 6     -3197.172          40.000    25255445.273 7 101693185.269 7     -2472.392          46.000
C23  24640567.984 6 128309953.101 6      2913.980          38.000
C24  23690181.688 6 123361027.196 6     -2395.016          36.000
C25  21792879.312 8 113481295.092 8       598.930          51.000
E05  24191310.242 8 127126179.300 8     -1387.488          51.000    24191313.141 8  97408404.267 8     -1063.161          51.000
E24  22716802.297 7 119377612.885 7     -1148.566          42.000    22716813.016 6  91471213.615 6      -879.957          36.000
E25  24182100.445 8 127077867.329 8      1783.496          51.000    24182105.594 8  97371336.668 8      1366.545          51.000
> 2020 05 09 03 42  0.0000000  0 17        .000000000000
G05  20803808.562 8 109324747.253 8     -1286.879          51.000    20803806.930 8  85188112.889 8     -1002.763          51.000
G07  22778015.461 6 119699199.979 6     -2557.973          38.000    22778013.859 5  93272138.836 5     -1993.225          30.000
G28  21510844.961 8 113040273.925 8      1958.574          50.000    21510844.742 7  88083338.689 7      1526.162          43.000
G30  20711286.172 8 108838584.054 8     -1282.457          51.000    20711287.023 8  84809297.337 8      -999.317          51.000
R01  22413179.977 7 119811287.987 7     -3679.773          46.000    22413182.852 6  93186534.137 6     -2862.046          39.000
R02  19063946.117 8 101728858.700 8       134.484          51.000    19063948.477 8  79122472.067 8       104.599          50.000
R11  21570349.297 5 115265410.872 5     -3532.258          33.000    21570354.281 4  89650882.023 4     -2747.312          28.000
R12  19132258.094 8 102201120.186 8      -253.102          51.000    19132261.922 8  79489781.221 8      -196.860          48.000
R13  21265562.438 6 113556923.323 6      3519.555          36.000    21265567.164 7  88322018.831 7      2737.431          43.000
C05  39793342.812 6 207214377.961 6         5.871          37.000    39793340.797 6 160231291.159 6         4.670          40.000
C14  25273886.492 6 131607719.624 6     -3203.707          39.000    25273885.242 7 101767433.878 7     -2477.376          45.000
C23  24623804.977 6 128222669.843 6      2905.059          39.000
C24  23704005.922 6 123433014.960 6     -2404.406          38.000
C25  21789475.781 8 113463570.432 8       583.023          51.000
E05  24199261.016 8 127167958.916 8     -1397.617          51.000    24199263.594 8  97440417.202 8     -1070.931          51.000
E24  22723401.242 6 119412288.416 6     -1163.223          41.000    22723411.570 5  91497783.201 5      -891.399          35.000
E25  24171959.305 8 127024574.498 8      1769.469          51.000    24171962.914 8  97330501.905 8      1355.833          51.000
> 2020 05 09 03 42 30.0000000  0 17        .000000000000
G05  20811213.281 8 109363659.341 8     -1305.668          51.000    20811211.664 8  85218434.009 8     -1017.404          51.000
G07  22792640.008 6 119776047.496 6     -2563.293          38.000
G28  21499714.242 8 112981779.145 8      1942.816          51.000    21499712.898 7  88037758.345 7      1513.883          42.000
G30  20718647.891 8 108877270.324 8     -1294.691          51.000    20718648.742 8  84839442.480 8     -1008.850          51.000
R01  22433865.758 7 119921860.739 7     -3689.797          44.000    22433867.953 6  93272535.170 6     -2869.842          38.000
R02  19063253.938 8 101725164.565 8       113.562          49.000    19063256.055 8  79119598.876 8        88.326          50.000
R11  21590210.641 5 115371545.907 5     -3542.824          31.000    21590215.180 4  89733431.466 4     -2755.530          28.000
R12  19133752.469 8 102209103.292 8      -277.242          51.000    19133756.070 8  79495990.305 8      -215.633          48.000
R13  21245835.852 6 113451580.504 6      3505.215          36.000    21245839.773 7  88240085.528 7      2726.275          43.000
C05  39793313.406 6 207214225.038 6         5.660          37.000    39793311.438 6 160231172.894 6         4.501          41.000
C14  25292361.672 5 131703929.452 5     -3208.145          33.000    25292361.492 7 101841829.450 7     -2480.958          45.000
C23  24607093.281 6 128135647.370 6      2898.266          40.000
C24  23717884.664 5 123505287.760 5     -2412.188          34.000
C25  21786162.570 8 113446316.133 8       568.988          51.000
E05  24207268.258 8 127210036.973 8     -1405.824          51.000    24207270.633 8  97472658.810 8     -1077.175          51.000
E24  22730083.258 7 119447395.448 7     -1175.559          44.000    22730092.453 5  91524663.450 5      -900.810          32.000
E25  24161896.711 8 126971693.807 8      1757.613          51.000    24161898.523 8  97289982.960 8      1346.761          51.000
> 2020 05 09 03 43  0.0000000  0 15        .000000000000
G05  20818724.766 8 109403134.000 8     -1330.402          50.000    20818723.789 8  85249193.461 8     -1036.677          50.000
G07  22807294.156 5 119853049.866 5     -2574.715          35.000    22807280.555 4  93391973.391 4     -2006.268          28.000
G28  21488673.117 8 112923755.325 8      1921.137          51.000    21488670.617 7  87992545.000 7      1496.990          42.000
G30  20726077.664 8 108916314.188 8     -1312.684          51.000    20726078.727 8  84869866.267 8     -1022.870          51.000
R01  22454605.117 7 120032725.912 7     -3705.691          42.000    22454607.289 6  93358763.655 6     -2882.204          38.000
R02  19062678.477 8 101722095.663 8        86.559          51.000    19062680.961 8  79117211.950 8        67.323          50.000
R12  19135381.344 8 102217804.059 8      -307.227          51.000    19135384.961 8  79502757.597 8      -238.954          49.000
R13  21226188.805 6 113346665.843 6      3484.457          36.000    21226192.961 7  88158485.224 7      2710.133          43.000
C05  39793284.195 6 207214073.023 6          .043          36.000    39793282.250 6 160231055.332 6          .009          40.000
C14  25310859.609 4 131800294.178 4     -3219.543          29.000    25310863.156 7 101916328.627 7     -2488.942          45.000
C23  24590422.047 6 128048832.170 6      2885.121          36.000
C25  21782928.977 8 113429477.247 8       549.277          51.000
E05  24215321.516 8 127252358.385 8     -1419.852          51.000    24215323.977 8  97505086.882 8     -1087.956          51.000
E24  22736835.828 7 119482877.791 7     -1194.172          44.000
E25  24151902.234 8 126919171.014 8      1739.578          51.000    24151902.594 8  97249738.254 8      1332.926          51.000
> 2020 05 09 03 43 30.0000000  0 15        .000000000000
G05  20826335.602 8 109443131.037 8     -1338.582          50.000    20826335.344 8  85280359.976 8     -1043.051          50.000
G28  21477714.430 8 112866165.797 8      1915.699          51.000    21477711.594 7  87947670.059 7      1492.753          42.000
G30  20733567.891 8 108955675.351 8     -1314.008          51.000    20733568.977 8  84900537.282 8     -1023.902          51.000
R01  22475390.805 7 120143841.822 7     -3704.773          42.000    22475392.984 6  93445187.095 6     -2881.493          37.000
R02  19062213.617 8 101719614.363 8        76.242          51.000    19062216.023 8  79115282.084 8        59.303          50.000
R12  19137137.055 8 102227181.432 8      -320.453          51.000    19137140.211 8  79510051.115 8      -249.241          48.000
R13  21206615.055 6 113242142.487 6      3480.902          37.000    21206619.367 7  88077189.241 7      2707.368          43.000
C05  39793247.641 6 207213882.371 6        10.922          36.000    39793245.789 6 160230908.688 6         7.881          40.000
C14  25329381.180 5 131896732.053 5     -3212.898          33.000    25329382.805 7 101990900.572 7     -2484.381          44.000
C23  24573783.336 6 127962186.827 6      2888.383          37.000
C24  23745787.438 5 123650505.611 5     -2422.918          32.000
C25  21779767.492 8 113413014.901 8       545.738          51.000
E05  24223413.742 8 127294884.260 8     -1417.660          51.000    24223415.984 8  97537671.643 8     -1086.220          51.000
E24  22743651.750 7 119518695.084 7     -1195.941          43.000
E25  24141968.469 8 126866968.025 8      1738.070          51.000    24141968.203 8  97209738.600 8      1331.744          51.000
> 2020 05 09 03 44  0.0000000  0 16        .000000000000
G05  20834060.711 8 109483726.869 8     -1365.012          50.000    20834060.773 8  85311993.089 8     -1063.645          51.000
G07  22836671.609 6 120007497.422 6     -2581.637          37.000
G28  21466853.141 8 112809089.586 8      1892.031          50.000    21466850.656 7  87903195.088 7      1474.310          44.000
G30  20741132.875 8 108995429.594 8     -1333.598          51.000    20741133.820 8  84931514.617 8     -1039.167          51.000
R01  22496238.289 7 120255285.515 7     -3722.102          44.000    22496240.828 6  93531865.418 6     -2894.971          37.000
R02  19061873.453 8 101717800.829 8        47.422          51.000    19061876.117 8  79113871.544 8        36.884          50.000
R12  19139033.734 8 102237312.601 8      -352.188          50.000    19139036.648 8  79517930.921 8      -273.924          49.000
R13  21187130.969 6 113138091.043 6      3458.473          40.000    21187133.805 7  87996260.333 7      2689.923          42.000
C05  39793218.852 5 207213731.693 5         2.543          35.000    39793216.898 6 160230792.132 6         1.969          40.000
C14  25347934.547 5 131993339.425 5     -3224.895          35.000    25347934.461 7 102065603.479 7     -2493.660          44.000
C23  24557192.344 6 127875788.868 6      2874.309          39.000
C24  23759779.133 5 123723458.524 5     -2438.031          35.000
C25  21776693.094 8 113397005.341 8       524.250          51.000
E05  24231559.477 8 127337691.943 8     -1433.562          51.000    24231561.727 8  97570472.339 8     -1098.411          51.000
E24  22750545.680 7 119554923.498 7     -1216.199          45.000
E25  24132110.453 8 126815162.913 8      1718.328          51.000    24132110.273 8  97170043.811 8      1316.644          51.000
> 2020 05 09 03 44 30.0000000  0 16        .000000000000
G05  20841894.023 8 109524890.370 8     -1380.062          51.000    20841894.242 8  85344068.559 8     -1075.373          50.000
G07  22851416.922 6 120084964.109 6     -2583.242          38.000    22851427.023 6  93572787.755 6     -2012.910          36.000
G28  21456084.391 8 112752498.694 8      1879.738          51.000    21456082.328 7  87859098.289 7      1464.731          46.000
G30  20748766.648 8 109035545.691 8     -1341.566          51.000    20748767.484 8  84962773.923 8     -1045.376          51.000
R01  22517141.789 7 120367024.335 7     -3727.992          46.000    22517143.383 6  93618773.365 6     -2899.549          37.000
R02  19061653.102 8 101716625.058 8        30.133          51.000    19061655.750 8  79112957.062 8        23.437          50.000
R12  19141065.672 8 102248165.237 8      -372.199          50.000    19141068.508 8  79526371.834 8      -289.488          50.000
R13  21167729.844 6 113034483.329 6      3447.727          41.000    21167730.609 6  87915676.575 6      2681.565          41.000
C05  39793191.781 6 207213591.433 6         5.484          36.000    39793189.828 6 160230682.853 6         4.727          41.000
C14  25366514.406 6 132090085.111 6     -3225.242          36.000    25366512.891 7 102140413.378 7     -2494.255          46.000
C23  24540644.031 6 127789609.951 6      2870.500          41.000
C24  23773825.680 6 123796643.020 6     -2441.941          37.000
C25  21773699.773 8 113381418.667 8       514.062          51.000
E05  24239753.172 8 127380751.632 8     -1437.961          51.000    24239755.617 8  97603466.117 8     -1101.820          51.000
E24  22757511.781 7 119591531.905 7     -1225.129          44.000
E25  24122322.742 8 126763726.672 8      1709.934          51.000    24122323.023 8  97130631.664 8      1310.173          51.000
> 2020 05 09 03 45  0.0000000  0 16        .000000000000
G05  20849825.773 8 109566571.377 8     -1398.082          51.000    20849825.898 8  85376547.233 8     -1089.415          51.000
G07  22866178.852 5 120162539.679 5     -2587.473          34.000    22866181.805 5  93633236.207 5     -2016.209          33.000
G28  21445399.133 8 112696346.344 8      1864.266          51.000    21445397.266 7  87815343.197 7      1452.675          46.000
G30  20756459.812 8 109075973.294 8     -1352.824          51.000    20756460.703 8  84994275.940 8     -1054.149          51.000
R01  22538090.734 7 120479006.481 7     -3736.898          44.000    22538092.359 6  93705870.546 6     -2906.477          38.000
R02  19061543.281 8 101716040.104 8         9.648          51.000    19061546.328 8  79112502.073 8         7.501          50.000
R12  19143222.852 8 102259688.462 8      -395.277          50.000    19143225.648 8  79535334.330 8      -307.438          50.000
R13  21148402.422 6 112931272.757 6      3433.645          40.000    21148401.383 6  87835401.710 6      2670.612          40.000
C05  39793157.180 6 207213410.910 6         6.863          36.000    39793155.203 6 160230543.276 6         5.129          41.000
C14  25385111.328 5 132186919.218 5     -3229.316          35.000    25385109.031 7 102215291.646 7     -2497.176          47.000
C23  24524128.898 7 127703602.605 7      2863.926          45.000
C24  23787910.523 6 123870008.890 6     -2448.613          36.000
C25  21770778.094 8 113366206.019 8       500.871          51.000
E05  24247985.914 8 127424014.399 8     -1445.508          51.000    24247988.219 8  97636615.494 8     -1107.615          51.000
E24  22764540.688 7 119628470.034 7     -1236.770          44.000
E25  24112596.094 8 126712611.132 8      1698.453          51.000    24112596.812 8  97091465.239 8      1301.418          51.000
> 2020 05 09 03 45 30.0000000  0 15        .000000000000
G05  20857863.938 8 109608810.336 8     -1416.859          51.000    20857863.344 8  85409460.706 8     -1104.046          51.000
G28  21434805.422 8 112640676.230 8      1847.980          50.000    21434804.164 8  87771963.894 8      1439.988          49.000
G30  20764219.977 8 109116752.816 8     -1364.793          51.000    20764220.984 8  85026052.182 8     -1063.475          51.000
R01  22559091.883 6 120591272.591 6     -3746.641          41.000    22559094.445 6  93793188.649 6     -2914.051          39.000
R02  19061552.453 8 101716088.940 8       -11.809          51.000    19061555.547 8  79112540.045 8        -9.184          49.000
R12  19145513.711 8 102271923.065 8      -419.301          50.000    19145516.047 8  79544850.108 8      -326.123          51.000
R13  21129156.711 6 112828504.339 6      3418.402          39.000    21129155.680 6  87755470.738 6      2658.757          40.000
C05  39793122.914 6 207213232.767 6         6.734          36.000    39793121.008 6 160230405.514 6         4.836          41.000
C14  25403732.883 5 132283881.909 5     -3234.074          35.000    25403730.234 8 102290269.350 8     -2500.631          48.000
C23  24507654.891 7 127617809.430 7      2856.551          47.000
C24  23802039.180 5 123943595.919 5     -2456.195          34.000
C25  21767936.305 8 113351408.545 8       486.715          51.000
E05  24256265.422 8 127467522.154 8     -1454.016          51.000    24256267.539 8  97669952.591 8     -1114.104          51.000
E24  22771640.227 7 119665778.582 7     -1249.574          43.000    22771657.391 6  91692023.501 6      -957.364          37.000
E25  24102938.547 8 126661858.997 8      1685.973          51.000    24102939.648 8  97052577.255 8      1291.861          51.000
> 2020 05 09 03 46  0.0000000  0 15        .000000000000
G05  20866006.016 8 109651594.854 8     -1433.738          51.000    20866004.383 8  85442799.271 8     -1117.199          51.000
G28  21424301.227 8 112585478.695 8      1833.523          49.000    21424300.727 8  87728952.855 8      1428.720          49.000
G30  20772044.641 8 109157871.619 8     -1374.820          51.000    20772045.539 8  85058092.812 8     -1071.289          51.000
R01  22580141.266 6 120703809.037 6     -3753.840          39.000    22580147.031 6  93880717.083 6     -2919.647          37.000
R02  19061678.508 8 101716761.866 8       -31.273          51.000    19061681.453 8  79113063.407 8       -24.324          48.000
R12  19147934.766 8 102284855.925 8      -441.121          51.000    19147937.234 8  79554909.006 8      -343.097          50.000
R13  21109991.602 6 112726168.892 6      3405.531          38.000    21109991.234 6  87675876.500 6      2648.747          39.000
C05  39793086.984 6 207213045.962 6         7.742          36.000    39793085.156 6 160230261.027 6         6.219          40.000
C14  25422376.359 5 132380960.702 5     -3236.836          35.000    25422373.914 8 102365336.831 8     -2502.573          48.000
C23  24491219.844 7 127532220.413 7      2851.051          47.000
C24  23816208.938 5 124017391.162 5     -2461.516          32.000
C25  21765171.914 8 113337014.805 8       474.609          51.000
E05  24264589.430 8 127511263.732 8     -1460.496          51.000    24264591.203 8  97703468.852 8     -1119.087          51.000
E24  22778807.617 7 119703444.955 7     -1259.949          42.000    22778819.844 6  91720884.738 6      -965.508          37.000
E25  24093347.938 8 126611459.810 8      1675.590          51.000    24093349.289 8  97013959.698 8      1283.905          51.000
> 2020 05 09 03 46 30.0000000  0 14        .000000000000
G05  20874247.703 8 109694903.030 8     -1448.727          51.000    20874245.039 8  85476545.910 8     -1128.878          51.000
G28  21413883.469 8 112530734.750 8      1820.914          50.000    21413883.453 8  87686295.224 8      1418.891          48.000
G30  20779929.586 8 109199307.319 8     -1382.805          51.000    20779930.273 8  85090380.367 8     -1077.510          51.000
R01  22601239.586 7 120816592.888 7     -3759.910          44.000    22601245.750 6  93968437.904 6     -2924.375          37.000
R02  19061918.055 8 101718038.891 8       -48.953          51.000    19061920.680 8  79114056.632 8       -38.075          48.000
R12  19150482.297 8 102298464.142 8      -461.141          49.000    19150484.812 8  79565493.144 8      -358.665          51.000
R13  21090904.000 6 112624247.024 6      3394.230          38.000    21090904.031 6  87596603.959 6      2639.957          40.000
C05  39793045.414 6 207212829.505 6        11.957          36.000    39793043.594 6 160230093.643 6         8.820          41.000
C14  25441037.688 6 132478133.383 6     -3236.844          36.000    25441035.656 7 102440476.907 7     -2502.972          47.000
C23  24474819.695 7 127446815.841 7      2847.352          47.000
C25  21762480.891 8 113323003.620 8       464.238          51.000
E05  24272953.953 8 127555218.142 8     -1464.934          51.000    24272955.438 8  97737148.191 8     -1122.518          51.000
E24  22786039.242 7 119741446.992 7     -1268.871          44.000    22786050.570 6  91750003.173 6      -972.108          39.000
E25  24083820.461 8 126561393.414 8      1666.930          51.000    24083821.672 8  96975597.123 8      1277.258          51.000
> 2020 05 09 03 47  0.0000000  0 14        .000000000000
G05  20882593.977 8 109738762.500 8     -1472.688          51.000    20882591.117 8  85510722.113 8     -1147.549          51.000
G28  21403558.148 8 112476475.757 8      1799.023          50.000    21403558.258 7  87644015.457 7      1401.836          47.000
G30  20787880.094 8 109241087.766 8     -1399.988          51.000    20787880.789 8  85122936.553 8     -1090.900          51.000
R01  22622390.891 7 120929651.738 7     -3774.578          47.000    22622396.211 6  94056372.488 6     -2935.786          37.000
R02  19062276.391 8 101719951.132 8       -75.852          51.000    19062278.945 8  79115543.894 8       -58.999          48.000
R12  19153161.227 8 102312775.777 8      -490.285          50.000    19153164.203 8  79576624.419 8      -381.333          50.000
R13  21071900.680 6 112522771.621 6      3373.875          38.000    21071901.586 7  87517678.696 7      2624.125          42.000
C05  39793003.914 6 207212612.668 6         5.379          37.000    39793001.969 6 160229925.920 6         4.525          40.000
C14  25459722.516 6 132575427.564 6     -3246.621          36.000    25459720.719 7 102515710.948 7     -2510.496          46.000
C23  24458460.266 7 127361625.844 7      2834.547          47.000
C25  21759869.141 8 113309403.608 8       445.008          51.000
E05  24281364.211 8 127599414.722 8     -1478.742          51.000    24281365.375 8  97771013.085 8     -1133.032          51.000
E24  22793339.969 7 119779812.705 7     -1286.406          43.000    22793352.148 6  91779400.262 6      -985.457          40.000
E25  24074361.961 8 126511689.800 8      1649.375          51.000    24074362.984 8  96937512.526 8      1263.804          51.000
> 2020 05 09 03 47 30.0000000  0 14        .000000000000
G05  20891048.727 8 109783193.505 8     -1491.422          51.000    20891046.086 8  85545343.681 8     -1162.147          51.000
G28  21393329.492 8 112422724.504 8      1782.379          50.000    21393329.516 7  87602131.354 7      1388.864          46.000
G30  20795899.961 8 109283232.863 8     -1411.723          51.000    20795900.719 8  85155776.882 8     -1100.044          51.000
R01  22643597.109 8 121043005.190 8     -3784.188          48.000    22643602.289 6  94144536.199 6     -2943.260          40.000
R02  19062758.352 8 101722521.292 8       -97.449          51.000    19062760.383 8  79117542.902 8       -75.794          48.000
R12  19155975.516 8 102327810.826 8      -514.094          50.000    19155978.625 8  79588318.327 8      -399.851          49.000
R13  21052985.859 6 112421766.358 6      3358.340          39.000    21052988.211 7  87439119.056 7      2612.042          43.000
C05  39792966.250 6 207212417.429 6         5.625          36.000    39792964.312 6 160229774.172 6         4.132          41.000
C14  25478433.617 5 132672863.141 5     -3251.520          33.000    25478432.180 7 102591054.242 7     -2513.946          43.000
C23  24442145.156 7 127276672.594 7      2826.918          44.000
C25  21757340.352 8 113296235.533 8       430.898          51.000
E05  24289824.500 8 127643874.834 8     -1487.289          51.000    24289825.320 8  97805079.911 8     -1139.647          51.000
E24  22800713.477 7 119818562.098 7     -1298.996          42.000    22800725.953 6  91809091.356 6      -995.137          40.000
E25  24064976.391 8 126462371.123 8      1636.543          51.000    24064978.031 8  96899722.879 8      1253.963          51.000
> 2020 05 09 03 48  0.0000000  0 15        .000000000000
G05  20899604.000 8 109828153.469 8     -1508.742          51.000    20899601.930 8  85580377.437 8     -1175.643          51.000
G28  21383190.156 8 112369441.985 8      1766.977          50.000    21383190.234 7  87560612.514 7      1376.868          45.000
G30  20803981.195 8 109325700.373 8     -1422.273          51.000    20803981.992 8  85188868.426 8     -1108.265          51.000
R01  22664850.203 7 121156609.636 7     -3792.250          47.000    22664855.469 6  94232895.127 6     -2949.531          40.000
R02  19063355.875 8 101725709.521 8      -118.047          51.000    19063357.695 8  79120022.621 8       -91.814          48.000
R11  21812270.305 5 116558156.185 5     -3646.922          30.000    21812273.055 5  90656311.763 5     -2836.495          35.000
R12  19158917.312 8 102343526.074 8      -536.508          51.000    19158920.633 8  79600541.295 8      -417.281          50.000
R13  21034151.938 6 112321192.190 6      3344.117          39.000    21034155.359 7  87360894.698 7      2600.980          44.000
C05  39792924.727 6 207212200.423 6         6.148          36.000    39792922.805 6 160229607.116 6         4.836          41.000
C14  25497162.148 5 132770398.164 5     -3253.844          34.000    25497162.180 7 102666474.401 7     -2516.281          42.000
C23  24425866.492 6 127191916.742 6      2820.684          41.000
C25  21754886.852 8 113283458.523 8       418.051          51.000
E05  24298327.297 8 127688557.623 8     -1494.391          51.000    24298327.977 8  97839317.355 8     -1145.059          51.000
E24  22808152.648 7 119857653.067 7     -1309.867          43.000    22808164.180 6  91839044.177 6     -1003.727          41.000
E25  24055655.977 8 126413397.243 8      1625.410          51.000    24055659.062 8  96862197.435 8      1245.543          51.000
> 2020 05 09 03 48 30.0000000  0 15        .000000000000
G05  20908285.070 8 109873775.498 8     -1526.223          51.000    20908283.867 8  85615927.082 8     -1189.261          51.000
G07  22970241.281 4 120709431.944 4     -2620.973          29.000
G28  21373166.195 8 112316764.735 8      1751.312          50.000    21373165.531 7  87519565.294 7      1364.659          45.000
G30  20812149.023 8 109368623.241 8     -1432.828          51.000    20812149.930 8  85222314.805 8     -1116.489          51.000
R01  22686174.922 7 121270599.848 7     -3800.461          45.000    22686180.141 6  94321554.169 6     -2955.914          39.000
R02  19064094.719 8 101729653.211 8      -138.457          50.000    19064096.938 8  79123089.926 8      -107.689          49.000
R12  19162011.531 8 102360056.042 8      -558.910          51.000    19162015.164 8  79613397.945 8      -434.708          49.000
R13  21015424.305 6 112221188.210 6      3329.930          37.000    21015428.523 7  87283113.804 7      2589.942          44.000
C05  39792905.102 6 207212098.789 6         7.176          36.000    39792903.211 6 160229527.760 6         5.368          40.000
C14  25515935.445 6 132868164.460 6     -3257.574          36.000    25515936.883 7 102742073.396 7     -2518.604          43.000
C23  24409650.500 6 127107492.564 6      2814.207          41.000
C25  21752533.820 8 113271205.376 8       405.191          51.000
E05  24306897.945 8 127733597.563 8     -1501.730          51.000    24306898.641 8  97873828.450 8     -1150.707          51.000
E24  22815682.031 7 119897218.773 7     -1321.281          42.000    22815693.422 7  91869360.710 7     -1012.359          42.000
E25  24046427.211 8 126364903.335 8      1613.852          51.000    24046431.453 8  96825039.774 8      1236.617          51.000
> 2020 05 09 03 49  0.0000000  0 14        .000000000000
G05  20917052.039 8 109919848.919 8     -1543.367          51.000    20917051.289 8  85651828.441 8     -1202.624          51.000
G28  21363217.727 8 112264484.514 8      1735.996          50.000    21363216.227 7  87478827.446 7      1352.724          44.000
G30  20820363.281 8 109411790.332 8     -1442.930          51.000    20820364.305 8  85255951.473 8     -1124.364          51.000
R01  22707530.969 7 121384760.348 7     -3808.176          44.000    22707535.922 6  94410345.669 6     -2961.911          38.000
R02  19064935.695 8 101734141.019 8      -158.723          50.000    19064937.844 8  79126580.442 8      -123.448          49.000
R12  19165218.273 8 102377186.022 8      -580.965          51.000    19165221.898 8  79626721.236 8      -451.862          49.000
R13  20996763.070 6 112121543.024 6      3315.551          37.000    20996768.031 7  87205611.921 7      2578.759          43.000
C05  39792867.289 6 207211901.793 6         8.277          36.000    39792865.461 6 160229375.410 6         6.102          40.000
C14  25534713.773 6 132965952.734 6     -3260.203          38.000    25534716.266 7 102817689.446 7     -2520.757          43.000
C23  24393460.477 7 127023193.189 7      2807.863          45.000
C25  21750241.500 8 113259267.806 8       392.609          51.000
E05  24315496.633 8 127778784.891 8     -1508.766          51.000    24315497.445 8  97908452.458 8     -1156.076          51.000
E24  22823261.320 6 119937047.942 6     -1331.945          37.000    22823273.016 7  91899879.213 7     -1020.593          43.000
E25  24037250.500 8 126316680.345 8      1602.918          51.000    24037255.195 8  96788089.717 8      1228.177          51.000
> 2020 05 09 03 49 30.0000000  0 14        .000000000000
G05  20925923.562 8 109966469.387 8     -1562.816          51.000    20925922.641 8  85688156.086 8     -1217.779          51.000
G28  21353363.422 8 112212700.122 8      1718.203          49.000    21353361.938 7  87438475.997 7      1338.860          45.000
G30  20828642.242 8 109455297.143 8     -1455.570          51.000    20828643.281 8  85289852.860 8     -1134.211          51.000
R01  22728936.539 7 121499187.519 7     -3818.320          45.000    22728941.508 6  94499344.586 6     -2969.805          38.000
R02  19065896.977 8 101739272.635 8      -181.332          50.000    19065899.352 8  79130571.711 8      -141.036          49.000
R12  19168555.328 8 102395012.595 8      -605.422          51.000    19168559.492 8  79640586.371 8      -470.884          49.000
R13  20978188.734 6 112022358.530 6      3298.883          39.000    20978193.289 6  87128468.404 6      2565.798          41.000
C05  39792829.734 6 207211706.493 6         6.934          36.000    39792827.930 6 160229224.345 6         5.380          40.000
C14  25553515.539 6 133063857.668 6     -3265.281          40.000    25553518.188 7 102893395.740 7     -2524.726          43.000
C23  24377314.805 7 126939115.759 7      2799.289          47.000
C25  21748028.125 8 113247741.500 8       377.648          51.000
E05  24324141.828 8 127824216.572 8     -1518.109          51.000    24324143.047 8  97943263.702 8     -1163.236          51.000
E24  22830909.703 6 119977236.464 6     -1345.195          40.000    22830920.703 7  91930673.010 7     -1030.743          43.000
E25  24028144.398 8 126268826.016 8      1589.258          51.000    24028148.672 8  96751422.136 8      1217.752          51.000
> 2020 05 09 03 50  0.0000000  0 14        .000000000000
G05  20934894.148 8 110013608.787 8     -1577.594          51.000    20934892.898 8  85724888.080 8     -1229.294          51.000
G28  21343598.422 8 112161386.461 8      1704.992          49.000    21343597.320 7  87398491.356 7      1328.565          44.000
G30  20836980.609 8 109499115.614 8     -1463.438          51.000    20836981.562 8  85323997.122 8     -1140.338          51.000
R01  22750386.773 7 121613852.377 7     -3823.820          46.000    22750391.000 5  94588528.328 5     -2974.082          35.000
R02  19066973.883 8 101745021.779 8      -199.492          50.000    19066976.969 8  79135043.248 8      -155.161          50.000
R12  19172017.508 8 102413507.026 8      -625.145          51.000    19172021.336 7  79654970.920 7      -486.224          47.000
R13  20959696.430 6 111923608.521 6      3286.824          40.000    20959699.656 6  87051662.878 6      2556.419          39.000
C05  39792787.516 6 207211486.583 6         9.625          36.000    39792785.664 6 160229054.251 6         7.893          41.000
C14  25572335.367 6 133161851.497 6     -3265.535          41.000    25572337.516 6 102969170.788 6     -2525.122          41.000
C23  24361207.609 8 126855234.974 8      2795.129          49.000
C25  21745888.367 8 113236599.611 8       367.375          51.000
E05  24332828.477 8 127869865.967 8     -1522.891          51.000    24332830.086 8  97978241.792 8     -1166.842          51.000
E24  22838620.609 6 120017756.357 6     -1353.734          38.000    22838631.508 7  91961720.681 7     -1037.280          43.000
E25  24019103.867 8 126221314.425 8      1580.391          51.000    24019107.117 8  96715017.160 8      1210.946          51.000
> 2020 05 09 03 50 30.0000000  0 16        .000000000000
G05  20943943.883 8 110061163.253 8     -1602.738          51.000    20943942.438 8  85761943.488 8     -1248.887          51.000
G07  23030302.172 5 121025052.466 5     -2642.316          32.000
G28  21333904.250 8 112110443.413 8      1681.199          49.000    21333902.734 7  87358795.451 7      1310.025          45.000
G30  20845358.633 8 109543142.373 8     -1481.617          51.000    20845359.648 8  85358303.683 8     -1154.507          51.000
R01  22771861.867 7 121728649.037 7     -3839.465          45.000    22771864.242 5  94677814.578 5     -2986.253          32.000
R02  19068147.594 8 101751286.275 8      -228.242          51.000    19068151.023 8  79139915.628 8      -177.522          49.000
R12  19175585.094 8 102432563.822 8      -655.477          51.000    19175588.633 8  79669792.877 8      -509.815          48.000
R13  20941266.734 6 111825192.458 6      3264.059          39.000    20941267.656 6  86975117.108 6      2538.712          38.000
C05  39792721.016 6 207211139.883 6         3.164          37.000    39792719.258 6 160228786.953 6         2.296          41.000
C14  25591152.906 7 133259831.820 7     -3276.184          42.000    25591155.023 6 103044935.440 6     -2533.435          40.000
C23  24345118.445 8 126771450.828 8      2780.559          48.000
C24  23945566.180 5 124690842.391 5     -2528.594          32.000
C25  21743803.016 8 113225740.656 8       346.695          51.000
E05  24341537.078 8 127915631.150 8     -1538.082          51.000    24341539.375 8  98013308.597 8     -1178.590          51.000
E24  22846374.047 5 120058504.233 5     -1373.281          35.000    22846385.508 7  91992943.097 7     -1051.931          43.000
E25  24010109.258 8 126174044.285 8      1560.883          51.000    24010111.469 8  96678797.189 8      1196.019          51.000
> 2020 05 09 03 51  0.0000000  0 17        .000000000000
G05  20953144.867 8 110109512.309 8     -1617.254          51.000    20953143.383 8  85799618.060 8     -1260.198          51.000
G07  23045402.234 5 121104404.353 5     -2644.238          34.000
G13  20921610.039 5 109943806.017 5      1721.508          33.000
G28  21324353.547 8 112060253.532 8      1668.023          50.000    21324351.883 7  87319686.450 7      1299.759          44.000
G30  20853848.508 8 109587756.780 8     -1489.238          51.000    20853849.594 8  85393068.146 8     -1160.445          51.000
R01  22793433.242 7 121843963.150 7     -3844.727          43.000    22793434.336 5  94767503.232 5     -2990.346          32.000
R02  19069490.742 8 101758454.394 8      -246.164          51.000    19069494.180 8  79145490.825 8      -191.464          50.000
R12  19179330.031 8 102452567.944 8      -674.809          51.000    19179333.789 8  79685351.672 8      -524.851          48.000
R13  20922972.250 6 111727499.793 6      3252.027          38.000    20922972.383 6  86899134.001 6      2529.355          40.000
C05  39792702.953 6 207211045.844 6         6.629          37.000    39792701.148 6 160228714.225 6         5.059          41.000
C14  25610039.727 6 133358174.591 6     -3276.574          41.000    25610042.852 6 103120980.354 6     -2533.580          39.000
C23  24329119.602 8 126688141.708 8      2776.680          48.000
C24  23960146.406 6 124766803.301 6     -2531.840          37.000
C25  21741844.344 8 113215541.524 8       336.516          51.000
E05  24350340.594 8 127961892.864 8     -1542.727          51.000    24350343.273 8  98048755.876 8     -1182.053          51.000
E24  22854244.250 5 120099859.643 5     -1380.879          34.000    22854254.680 7  92024630.979 7     -1058.127          43.000
E25  24001233.094 8 126127397.080 8      1552.172          51.000    24001234.523 8  96643054.539 8      1189.315          51.000
> 2020 05 09 03 51 30.0000000  0 16        .000000000000
G05  20962428.047 8 110158294.395 8     -1635.395          51.000    20962426.641 8  85837630.079 8     -1274.333          51.000
G07  23060502.703 5 121183766.333 5     -2649.086          33.000    23060504.484 5  94428921.703 5     -2064.217          34.000
G28  21314877.953 8 112010457.916 8      1651.027          50.000    21314876.219 7  87280884.688 7      1286.518          44.000
G30  20862381.320 8 109632596.869 8     -1500.535          51.000    20862382.273 8  85428008.465 8     -1169.248          51.000
R01  22815032.258 6 121959425.579 6     -3853.336          41.000    22815033.398 5  94857307.244 5     -2997.042          35.000
R02  19070934.891 8 101766160.099 8      -268.062          51.000    19070938.406 8  79151484.149 8      -208.493          50.000
R12  19183183.461 8 102473151.071 8      -697.926          51.000    19183186.492 7  79701360.761 7      -542.831          47.000
R13  20904744.984 6 111630166.554 6      3236.234          37.000    20904746.242 7  86823430.395 7      2517.071          43.000
C05  39792664.633 6 207210846.239 6         6.121          36.000    39792662.766 6 160228559.854 6         4.866          41.000
C14  25628927.148 6 133456521.042 6     -3280.484          40.000    25628932.219 6 103197028.157 6     -2536.570          38.000
C23  24313143.688 8 126604951.381 8      2768.840          50.000
C24  23974747.555 6 124842856.187 6     -2538.500          36.000
C25  21739943.594 8 113205644.448 8       322.727          51.000
E05  24359170.086 8 128008290.555 8     -1550.957          51.000    24359173.094 8  98084307.354 8     -1188.396          51.000
E24                                                                  22862170.789 7  92056507.090 7     -1067.364          43.000
E25  23992407.055 8 126081012.973 8      1539.586          51.000    23992407.688 8  96607513.464 8      1179.683          51.000
> 2020 05 09 03 52  0.0000000  0 15        .000000000000
G05  20971813.477 8 110207615.608 8     -1653.852          51.000    20971812.438 8  85876062.186 8     -1288.716          51.000
G28  21305498.430 8 111961165.812 8      1633.688          51.000    21305496.312 7  87242475.242 7      1273.003          45.000
G30  20870977.344 8 109677769.002 8     -1512.062          51.000    20870978.352 8  85463207.530 8     -1178.231          51.000
R01  22836679.102 5 122075143.894 5     -3862.316          35.000    22836681.664 6  94947310.266 6     -3004.027          36.000
R02  19072500.719 8 101774514.704 8      -290.242          51.000    19072504.125 8  79157982.164 8      -225.744          49.000
R12  19187165.414 8 102494420.752 8      -721.379          51.000    19187168.484 8  79717903.871 8      -561.072          48.000
R13  20886605.586 6 111533303.739 6      3219.566          36.000    20886608.344 7  86748092.630 7      2504.107          43.000
C05  39792626.594 6 207210647.875 6         5.551          36.000    39792624.703 6 160228406.441 6         4.483          41.000
C14  25647835.242 6 133554976.690 6     -3284.633          38.000    25647842.766 6 103273160.357 6     -2539.868          37.000
C23  24297211.719 8 126521987.685 8      2760.777          50.000
C24  23989385.602 5 124919106.222 5     -2544.961          34.000
C25  21738121.203 8 113196155.811 8       308.633          51.000
E05  24368045.852 8 128054932.097 8     -1559.711          51.000    24368049.375 8  98120045.657 8     -1195.115          51.000
E24                                                                  22870154.102 7  92088652.996 7     -1076.780          44.000
E25  23983651.367 8 126035000.450 8      1526.691          51.000    23983651.672 8  96572257.115 8      1169.794          51.000
> 2020 05 09 03 52 30.0000000  0 14        .000000000000
G05  20981300.438 8 110257471.392 8     -1670.766          51.000    20981299.672 8  85914910.859 8     -1301.895          51.000
G28  21296214.672 8 111912375.858 8      1617.953          51.000    21296212.188 7  87204457.098 7      1260.743          46.000
G30  20879635.719 8 109723268.716 8     -1522.125          51.000    20879637.023 8  85498661.856 8     -1186.071          51.000
R02  19074187.914 8 101783515.838 8      -310.887          51.000    19074190.898 8  79164983.041 8      -241.801          49.000
R12  19191274.867 8 102516371.902 8      -743.082          51.000    19191277.664 7  79734977.006 7      -577.953          47.000
R13  20868553.852 5 111436911.204 5      3205.082          34.000    20868557.914 7  86673120.608 7      2492.842          43.000
C05  39792588.164 6 207210448.794 6         6.746          36.000    39792586.328 6 160228251.724 6         5.340          40.000
C14  25666763.188 5 133653537.098 5     -3287.211          35.000    25666772.961 5 103349373.564 5     -2541.898          33.000
C23  24281322.977 8 126439248.663 8      2754.184          51.000
C24  24004060.859 5 124995548.644 5     -2551.391          34.000
C25  21736376.641 8 113187072.103 8       295.992          51.000
E05  24376967.367 8 128101814.375 8     -1566.719          51.000    24376970.875 8  98155968.414 8     -1200.446          51.000
E24                                                                  22878203.727 7  92121065.300 7     -1084.682          44.000
E25  23974965.359 8 125989357.044 8      1515.340          51.000    23974965.938 8  96537283.602 8      1161.173          51.000
> 2020 05 09 03 53  0.0000000  0 15        .000000000000
G05  20990888.062 8 110307856.472 8     -1688.633          51.000    20990887.461 8  85954171.960 8     -1315.818          51.000
G28  21287025.953 8 111864086.329 8      1600.945          51.000    21287023.047 7  87166828.914 7      1247.490          47.000
G30  20888355.516 8 109769091.068 8     -1533.145          51.000    20888356.898 8  85534367.589 8     -1194.658          51.000
R01  22880108.266 5 122307267.863 5     -3878.297          35.000    22880118.750 6  95127916.149 6     -3016.453          39.000
R02  19075995.836 8 101793161.265 8      -332.543          51.000    19075998.336 8  79172485.046 8      -258.645          49.000
R12  19195510.844 8 102538999.137 8      -765.840          51.000    19195513.305 8  79752575.962 8      -595.653          48.000
R13  20850589.102 5 111340987.353 5      3189.629          35.000    20850594.344 7  86598513.152 7      2480.822          42.000
C05  39792548.734 6 207210242.517 6         6.621          37.000    39792546.898 6 160228092.965 6         5.223          40.000
C14  25685710.516 5 133752197.264 5     -3290.410          33.000    25685720.273 5 103425663.958 5     -2544.378          35.000
C23  24265476.828 8 126356731.820 8      2746.543          51.000
C24  24018773.906 5 125072178.242 5     -2557.777          31.000
C25  21734708.984 8 113178389.349 8       282.492          51.000
E05  24385934.070 8 128148933.830 8     -1574.863          51.000    24385936.945 8  98192072.933 8     -1206.734          51.000
E24                                                                  22886319.062 7  92153740.332 7     -1093.888          44.000
E25  23966348.984 8 125944080.010 8      1502.789          51.000    23966349.703 8  96502590.804 8      1151.479          51.000
> 2020 05 09 03 53 30.0000000  0 16        .000000000000
G05  21000574.289 8 110358759.865 8     -1705.680          51.000    21000573.781 8  85993836.927 8     -1329.101          51.000
G07  23121157.680 5 121502485.171 5     -2663.957          33.000    23121165.102 5  94677304.695 5     -2075.811          33.000
G28  21277930.500 8 111816288.738 8      1584.797          51.000    21277927.258 7  87129584.066 7      1234.907          46.000
G30  20897134.578 8 109815224.593 8     -1543.168          51.000    20897135.586 8  85570315.785 8     -1202.469          51.000
R01  22901897.609 6 122423714.473 6     -3885.652          41.000    22901901.812 6  95218485.695 6     -3022.174          37.000
R02  19077922.688 8 101803441.615 8      -353.559          51.000    19077925.078 8  79180480.854 8      -274.990          49.000
R12  19199870.945 8 102562289.959 8      -787.734          51.000    19199873.797 7  79770691.060 7      -612.682          47.000
R13  20832711.641 6 111245524.180 6      3173.977          36.000    20832716.320 6  86524264.001 6      2468.648          40.000
C05  39792506.398 6 207210023.085 6         7.418          36.000    39792504.633 6 160227922.513 6         5.624          40.000
C14  25704675.445 5 133850945.899 5     -3293.324          31.000    25704680.773 5 103502022.706 5     -2546.849          33.000
C23  24249671.297 8 126274428.236 8      2739.711          51.000
C24  24033522.547 4 125148858.451 4     -2563.121          29.000
C25  21733116.234 8 113170097.086 8       269.535          51.000
E05  24394943.812 8 128196280.447 8     -1582.281          51.000    24394946.633 8  98228351.500 8     -1212.379          51.000
E24                                                                  22894497.438 7  92186669.323 7     -1102.000          44.000
E25  23957800.547 8 125899159.887 8      1491.160          51.000    23957801.445 8  96468171.473 8      1142.574          51.000
> 2020 05 09 03 54  0.0000000  0 17        .000000000000
G05  21010362.273 8 110410196.496 8     -1723.309          51.000    21010361.891 8  86033917.410 8     -1342.838          51.000
G07  23136377.617 5 121582472.088 5     -2667.914          35.000    23136387.078 5  94739618.182 5     -2078.891          31.000
G28  21268932.086 8 111769002.018 8      1567.809          51.000    21268928.492 7  87092737.260 7      1221.669          46.000
G30  20905975.914 8 109861685.262 8     -1553.832          51.000    20905976.500 8  85606518.891 8     -1210.778          51.000
R01  22923729.938 7 122540409.469 7     -3893.859          43.000    22923731.102 5  95309248.399 5     -3028.560          35.000
R02  19079971.969 8 101814375.462 8      -375.129          51.000    19079974.609 8  79188984.961 8      -291.767          49.000
R12  19204358.289 8 102586260.335 8      -810.105          51.000    19204360.742 7  79789334.672 7      -630.082          47.000
R13  20814924.430 6 111150541.539 6      3158.145          38.000    20814927.633 6  86450388.636 6      2456.338          38.000
C05  39792464.539 6 207209804.868 6         7.492          36.000    39792462.781 6 160227753.762 6         5.784          40.000
C14                                                                  25723657.430 5 103578461.988 5     -2548.854          30.000
C23  24233909.898 8 126192356.184 8      2732.141          50.000
C24  24048308.477 5 125225854.851 5     -2569.746          31.000
C25  21731602.008 8 113162212.052 8       256.188          51.000
E03  23620342.602 6 124125736.078 6       925.133          40.000    23620343.977 6  95109336.407 6       708.913          40.000
E05  24403999.812 8 128243871.568 8     -1590.238          51.000    24404002.914 8  98264817.406 8     -1218.539          51.000
E24                                                                  22902741.312 7  92219864.597 7     -1110.808          44.000
E25  23949323.523 8 125854614.745 8      1478.723          51.000    23949324.852 8  96434039.477 8      1133.014          51.000
> 2020 05 09 03 54 30.0000000  0 15        .000000000000
G05  21020248.695 8 110462149.486 8     -1740.062          51.000    21020248.258 8  86074400.249 8     -1355.893          51.000
G28  21260027.906 8 111722211.857 8      1551.707          51.000    21260024.375 7  87056277.377 7      1209.122          45.000
G30  20914876.109 8 109908455.737 8     -1563.879          51.000    20914876.672 8  85642963.404 8     -1218.607          51.000
R01  22945603.781 7 122657334.463 7     -3901.035          43.000    22945603.539 5  95400190.015 5     -3034.138          31.000
R02  19082140.648 8 101825948.124 8      -396.059          51.000    19082143.375 8  79197985.906 8      -308.046          49.000
R12  19208969.344 8 102610891.731 8      -831.730          51.000    19208971.969 8  79808492.430 8      -646.901          48.000
R13  20797225.172 6 111056025.494 6      3143.148          39.000    20797225.398 6  86376876.185 6      2444.674          37.000
C05  39792420.070 6 207209573.018 6         8.199          36.000    39792418.289 6 160227574.451 6         6.307          41.000
C14                                                                  25742652.773 5 103654997.657 5     -2550.984          30.000
C23  24218190.484 8 126110500.897 8      2725.145          51.000
C25  21730162.867 8 113154717.965 8       243.539          51.000
E03  23615083.344 6 124098090.868 6       918.141          41.000    23615083.727 6  95088153.749 6       703.403          41.000
E05  24413099.391 8 128291691.220 8     -1597.445          51.000    24413102.266 8  98301458.439 8     -1224.017          51.000
E24  22911040.055 5 120398326.239 5     -1460.184          34.000    22911048.219 7  92253312.887 7     -1118.881          44.000
E25  23940915.227 8 125810429.252 8      1467.242          51.000    23940916.758 8  96400183.067 8      1124.254          51.000
> 2020 05 09 03 55  0.0000000  0 15        .000000000000
G05  21030229.664 8 110514598.101 8     -1757.633          51.000    21030228.969 8  86115269.276 8     -1369.584          51.000
G28  21251214.531 8 111675900.184 8      1534.637          51.000    21251211.617 7  87020190.371 7      1195.821          46.000
G30  20923831.203 8 109955515.075 8     -1574.664          51.000    20923831.938 8  85679632.999 8     -1227.011          51.000
R01  22967516.023 7 122774467.186 7     -3909.160          46.000    22967512.914 4  95491293.278 4     -3040.455          29.000
R02  19084425.367 8 101838139.954 8      -417.863          51.000    19084428.359 8  79207468.436 8      -325.005          49.000
R12  19213699.977 8 102636162.277 8      -854.129          51.000    19213702.977 8  79828147.299 8      -664.322          48.000
R13  20779610.133 6 110961958.473 6      3126.723          38.000    20779609.039 6  86303712.997 6      2431.898          38.000
C05  39792369.273 6 207209308.315 6         7.520          36.000    39792367.375 6 160227369.719 6         6.509          41.000
C14  25761678.992 5 134147827.589 5     -3302.684          33.000    25761664.453 5 103731550.762 5     -2554.035          33.000
C23  24202509.477 8 126028844.012 8      2717.469          50.000
C25  21728795.062 8 113147594.931 8       230.121          51.000
E03  23609863.039 6 124070653.758 6       909.922          41.000    23609862.992 6  95067130.505 6       697.440          40.000
E05  24422238.945 8 128339719.876 8     -1605.574          51.000    24422241.234 8  98338259.618 8     -1230.176          51.000
E24  22919409.430 5 120442308.589 5     -1472.215          30.000    22919414.375 7  92286998.206 7     -1127.561          44.000
E25  23932571.945 8 125766584.569 8      1454.621          51.000    23932573.039 8  96366587.798 8      1114.538          51.000
> 2020 05 09 03 55 30.0000000  0 18        .000000000000
G05  21040317.297 8 110567606.280 8     -1773.777          51.000    21040316.086 8  86156574.333 8     -1382.164          51.000
G13  20835265.461 5 109490072.619 5      1641.090          34.000
G28  21242505.219 8 111630134.870 8      1518.883          50.000    21242502.836 7  86984529.073 7      1183.545          45.000
G30  20932853.523 8 110002927.932 8     -1583.836          51.000    20932854.359 8  85716578.065 8     -1234.158          51.000
R01  22989479.930 8 122891873.177 8     -3915.434          48.000    22989476.797 5  95582609.006 5     -3045.340          31.000
R02  19086838.688 8 101851019.087 8      -438.215          51.000    19086842.297 8  79217485.517 8      -340.834          50.000
R11  22124601.133 5 118227100.881 5     -3764.434          30.000
R12  19218562.398 8 102662136.983 8      -874.973          50.000    19218565.297 8  79848349.822 8      -680.534          48.000
R13  20762091.344 6 110868409.680 6      3112.371          37.000    20762091.953 6  86230952.863 6      2420.730          41.000
C05  39792324.695 6 207209076.111 6         9.195          36.000    39792322.797 6 160227190.164 6         7.370          41.000
C14  25780716.523 5 134246955.386 5     -3303.555          30.000    25780702.055 6 103808209.652 6     -2555.207          38.000
C23  24186879.180 8 125947451.971 8      2711.090          50.000
C24  24092902.773 5 125458054.895 5     -2585.324          31.000
C25  21727511.203 8 113140907.914 8       218.059          51.000
E03  23604693.789 6 124043491.832 6       903.195          41.000    23604694.133 6  95046318.117 6       692.044          40.000
E05  24431430.781 8 128388023.600 8     -1612.223          51.000    24431432.672 8  98375271.541 8     -1235.354          51.000
E24                                                                  22927851.031 7  92320970.111 7     -1135.295          44.000
E25  23924306.180 8 125723147.300 8      1443.668          51.000    23924306.258 8  96333304.694 8      1106.178          51.000
> 2020 05 09 03 56  0.0000000  0 16        .000000000000
G05  21050508.344 8 110621157.971 8     -1797.004          51.000    21050506.680 8  86198302.923 8     -1400.263          51.000
G28  21233897.562 8 111584902.601 8      1495.945          49.000    21233895.648 7  86949283.116 7      1165.672          47.000
G30  20941940.125 8 110050678.384 8     -1600.156          51.000    20941940.859 8  85753786.179 8     -1246.875          51.000
R01  23011491.555 8 123009535.166 8     -3929.344          49.000    23011489.328 5  95674123.830 5     -3056.159          33.000
R02  19089378.328 8 101864572.433 8      -466.016          51.000    19089382.352 8  79228027.004 8      -362.457          49.000
R12  19223553.328 8 102688799.003 8      -903.012          49.000    19223556.703 8  79869086.953 8      -702.342          49.000
R13  20744666.602 6 110775366.060 6      3090.090          36.000    20744669.508 7  86158585.564 7      2403.403          43.000
C05  39792283.633 6 207208862.206 6         4.102          36.000    39792281.773 6 160227024.767 6         3.024          40.000
C14                                                                  25799762.859 7 103884957.174 7     -2561.900          42.000
C23  24171297.141 8 125866311.449 8      2697.555          49.000
C24  24107831.125 5 125535794.299 5     -2597.320          32.000
C25  21726307.898 8 113134641.975 8       198.980          51.000
E03  23599573.867 6 124016591.580 6       889.484          41.000    23599574.781 6  95025706.217 6       681.643          40.000
E05  24440672.484 8 128436587.790 8     -1626.062          51.000    24440673.820 8  98412483.041 8     -1245.959          51.000
E24  22936346.180 5 120531343.023 5     -1499.074          35.000    22936355.477 7  92355216.438 7     -1148.336          44.000
E25  23916115.430 8 125680103.587 8      1425.164          51.000    23916114.508 8  96300323.167 8      1092.072          51.000
> 2020 05 09 03 56 30.0000000  0 18        .000000000000
G05  21060784.828 8 110675160.339 8     -1795.258          51.000    21060783.344 8  86240382.685 8     -1398.902          51.000
G07  23212801.938 5 121984094.953 5     -2672.094          35.000    23212808.297 5  95052551.807 5     -2082.151          35.000
G28  21225374.312 8 111540113.464 8      1497.945          49.000    21225373.219 8  86914382.484 8      1167.230          48.000
G30  20951073.250 8 110098673.601 8     -1591.582          51.000    20951074.008 8  85791185.019 8     -1240.194          51.000
R01  23033532.633 7 123127358.068 7     -3917.668          46.000    23033531.297 6  95765763.789 6     -3047.078          36.000
R02  19092026.922 8 101878707.418 8      -468.391          51.000    19092031.422 8  79239020.866 8      -364.304          50.000
R11  22166968.172 5 118453497.163 5     -3764.648          34.000    22166974.961 4  92130570.227 4     -2928.057          26.000
R12  19228655.008 8 102716053.237 8      -905.844          49.000    19228658.711 8  79890284.658 8      -704.548          48.000
R13  20727319.734 5 110682737.813 5      3093.113          35.000    20727324.578 7  86086541.317 7      2405.755          44.000
C05  39792228.648 6 207208576.061 6        22.609          36.000    39792226.797 6 160226803.472 6        17.725          41.000
C14                                                                  25818828.648 7 103961722.195 7     -2549.516          43.000
C23  24155745.578 8 125785332.876 8      2708.816          48.000
C24  24122782.445 5 125613641.784 5     -2584.328          32.000
C25  21725167.922 8 113128706.019 8       204.590          51.000
E03  23594487.008 6 123989862.589 6       900.594          41.000    23594487.625 6  95005225.597 6       689.964          40.000
E05  24449946.258 8 128485321.054 8     -1614.793          51.000    24449947.102 8  98449824.071 8     -1237.297          51.000
E24                                                                  22944911.453 7  92389666.131 7     -1142.197          44.000
E25  23907982.414 8 125637362.570 8      1432.145          51.000    23907980.969 8  96267573.594 8      1097.366          51.000
> 2020 05 09 03 57  0.0000000  0 17        .000000000000
G05  21071162.180 8 110729694.703 8     -1841.273          51.000    21071161.070 8  86282876.984 8     -1434.762          51.000
G28  21216951.492 8 111495851.940 8      1452.031          50.000    21216950.914 8  86879892.980 8      1131.453          48.000
G30  20960268.477 8 110146995.179 8     -1630.781          51.000    20960269.477 8  85828838.193 8     -1270.739          51.000
R01  23055617.891 7 123245424.277 7     -3954.422          42.000    23055618.805 6  95857593.014 6     -3075.664          37.000
R02  19094800.789 8 101893509.534 8      -519.355          51.000    19094805.305 8  79250533.617 8      -403.943          49.000
R11  22188203.211 5 118566974.333 5     -3800.914          33.000    22188209.070 4  92218827.167 4     -2956.273          26.000
R12  19233883.016 8 102743981.991 8      -957.070          50.000    19233886.797 8  79912007.019 8      -744.388          48.000
R13  20710067.195 6 110590610.438 6      3047.410          36.000    20710072.688 7  86014886.660 7      2370.208          44.000
C05  39792175.625 6 207208299.949 6        -5.625          36.000    39792173.789 6 160226589.947 6        -4.220          41.000
C14                                                                  25837914.609 7 104038567.255 7     -2573.980          43.000
C23  24140240.438 7 125704599.543 7      2672.504          47.000
C24  24137770.375 5 125691677.966 5     -2618.703          32.000
C25  21724107.188 8 113123181.764 8       162.918          51.000
E03  23589448.586 6 123963389.016 6       863.668          39.000    23589449.016 6  94984940.658 6       661.613          41.000
E05  24459267.938 8 128534306.373 8     -1651.648          51.000    24459268.492 8  98487358.241 8     -1265.549          51.000
E24                                                                  22953533.453 7  92424381.729 7     -1172.709          43.000
E25  23899922.836 8 125595007.902 8      1390.707          51.000    23899921.617 8  96235120.053 8      1065.586          51.000
> 2020 05 09 03 57 30.0000000  0 17        .000000000000
G05  21081662.875 8 110784877.492 8     -1844.293          51.000    21081661.969 8  86325876.550 8     -1437.111          51.000
G28  21208652.305 8 111452238.056 8      1448.918          50.000    21208651.891 8  86845908.107 8      1129.024          48.000
G30  20969548.031 8 110195759.994 8     -1626.910          51.000    20969549.297 8  85866836.756 8     -1267.722          51.000
R01  23077769.383 6 123363851.857 6     -3947.234          39.000    23077773.586 6  95949703.359 6     -3070.068          38.000
R02  19097722.195 8 101909098.895 8      -526.754          51.000    19097726.523 8  79262658.671 8      -409.697          49.000
R11  22209498.844 5 118680788.460 5     -3794.164          32.000
R12  19239259.633 8 102772703.025 8      -964.469          51.000    19239263.297 8  79934345.614 8      -750.142          48.000
R13  20692932.055 6 110499106.831 6      3046.098          38.000    20692937.047 7  85943717.206 7      2369.190          43.000
C05  39792147.094 6 207208151.123 6         8.562          36.000    39792145.266 6 160226474.841 6         6.811          40.000
C14                                                                  25857042.273 6 104115581.847 6     -2565.377          39.000
C23  24124806.031 8 125624229.564 8      2678.793          49.000
C24  24152814.484 5 125770018.371 5     -2610.664          31.000
C25  21723147.891 8 113118185.823 8       163.582          51.000
E03  23584480.898 6 123937290.072 6       869.914          38.000    23584482.078 6  94964942.756 6       666.357          41.000
E05  24468660.328 8 128583661.963 8     -1645.449          51.000    24468660.609 8  98525176.157 8     -1260.835          51.000
E24  22962230.719 6 120667338.273 6     -1527.766          40.000    22962242.453 7  92459452.796 7     -1170.470          42.000
E25  23891959.430 8 125553158.432 8      1392.535          51.000    23891958.711 8  96203053.589 8      1067.004          51.000
> 2020 05 09 03 58  0.0000000  0 16        .000000000000
G05  21092255.992 8 110840547.021 8     -1864.746          50.000    21092255.586 8  86369255.384 8     -1453.049          50.000
G07  23258950.078 5 122226607.053 5     -2701.578          35.000
G28  21200446.242 8 111409113.600 8      1428.238          50.000    21200445.945 8  86812304.629 8      1112.916          48.000
G30  20978881.391 8 110244807.097 8     -1640.547          51.000    20978882.656 8  85905055.260 8     -1278.351          51.000
R01  23099958.695 6 123482476.485 6     -3958.191          39.000    23099965.266 6  96041966.914 6     -3078.596          38.000
R02  19100761.234 8 101925315.261 8      -552.023          51.000    19100765.320 8  79275271.396 8      -429.352          49.000
R12  19244754.070 8 102802052.147 8      -989.711          51.000    19244757.430 8  79957172.697 8      -769.775          49.000
R13  20675884.242 6 110408066.586 6      3025.883          40.000    20675887.750 7  85872908.157 7      2353.467          42.000
C05  39792112.727 6 207207972.514 6         5.414          36.000    39792110.789 6 160226335.956 6         4.277          40.000
C14                                                                  25876180.922 5 104192642.657 5     -2570.470          31.000
C23  24109412.156 8 125544065.786 8      2667.695          50.000
C25  21722259.664 8 113113559.478 8       147.078          51.000
E03  23579554.586 6 123911407.257 6       858.176          39.000    23579556.727 6  94945110.428 6       657.623          41.000
E05  24478092.641 8 128633228.197 8     -1656.684          51.000    24478093.648 8  98563155.459 8     -1269.404          51.000
E24  22970997.992 6 120713411.979 6     -1541.863          39.000    22971009.461 7  92494755.991 7     -1181.422          42.000
E25  23884061.805 8 125511655.175 8      1376.613          51.000    23884061.609 8  96171252.391 8      1054.846          51.000
> 2020 05 09 03 58 30.0000000  0 15        .000000000000
G05  21102935.766 8 110896673.445 8     -1879.078          49.000    21102935.930 8  86412990.234 8     -1464.217          49.000
G28  21192327.875 8 111366450.905 8      1413.766          51.000    21192327.680 7  86779060.979 7      1101.636          47.000
G30  20988262.602 8 110294105.809 8     -1647.930          51.000    20988263.797 8  85943469.833 8     -1284.101          51.000
R01  23122181.383 7 123601266.348 7     -3962.918          42.000    23122187.992 6  96134358.944 6     -3082.273          38.000
R02  19103912.492 8 101942129.480 8      -570.949          51.000    19103916.086 8  79288349.106 8      -444.072          49.000
R12  19250360.047 8 102831997.235 8     -1008.578          51.000    19250363.430 8  79980463.319 8      -784.450          50.000
R13  20658917.820 6 110317462.024 6      3012.258          39.000    20658919.570 6  85802437.965 6      2342.867          40.000
C05  39792066.742 6 207207733.212 6         8.430          36.000    39792064.883 6 160226150.886 6         6.669          40.000
C14  25895327.414 4 134843749.188 4     -3323.340          27.000
C23  24094052.734 8 125464080.221 8      2662.699          50.000
C25  21721436.781 8 113109273.243 8       136.688          51.000
E03  23574664.188 6 123885712.322 6       852.773          40.000    23574666.773 6  94925422.107 6       653.484          41.000
E05  24487559.281 8 128682975.827 8     -1661.824          51.000    24487561.164 8  98601273.743 8     -1273.286          51.000
E24  22979817.656 6 120759758.043 6     -1550.031          41.000    22979829.391 7  92530267.907 7     -1187.596          42.000
E25  23876224.188 8 125470469.402 8      1367.102          51.000    23876224.742 8  96139694.468 8      1047.555          51.000
> 2020 05 09 03 59  0.0000000  0 15        .000000000000
G05  21113709.938 8 110953294.515 8     -1896.391          49.000    21113710.297 8  86457110.540 8     -1477.707          49.000
G28  21184305.227 8 111324290.944 8      1396.164          51.000    21184304.820 7  86746209.065 7      1087.920          46.000
G30  20997699.047 8 110343694.764 8     -1658.547          51.000    20997700.352 8  85982110.591 8     -1292.374          51.000
R01  23144442.922 7 123720259.829 7     -3970.465          42.000    23144448.727 6  96226909.342 6     -3088.142          36.000
R02  19107183.500 8 101959582.907 8      -593.281          51.000    19107186.383 8  79301923.986 8      -461.441          48.000
R12  19256084.641 8 102862576.818 8     -1030.648          50.000    19256087.867 8  80004247.429 8      -801.615          49.000
R13  20642039.961 6 110227336.315 6      2995.617          37.000    20642040.594 6  85732340.199 6      2329.924          40.000
C05  39792016.945 6 207207473.965 6         8.223          36.000    39792015.156 6 160225950.406 6         6.410          40.000
C14  25914484.406 5 134943502.774 5     -3327.270          32.000
C23  24078735.242 8 125384313.555 8      2654.457          50.000
C25  21720686.406 8 113105366.186 8       123.098          51.000
E03  23569817.688 6 123860246.367 6       844.492          40.000    23569819.648 6  94905909.253 6       646.926          40.000
E05  24497067.953 8 128732944.797 8     -1670.094          51.000    24497070.258 8  98639561.641 8     -1279.646          51.000
E24  22988696.750 7 120806415.137 7     -1561.062          42.000    22988708.172 7  92566018.112 7     -1196.202          42.000
E25  23868454.578 8 125429641.735 8      1354.176          51.000    23868456.141 8  96108410.941 8      1037.666          51.000
> 2020 05 09 03 59 30.0000000  0 14        .000000000000
G05  21124587.062 8 111010453.929 8     -1913.648          51.000    21124587.094 8  86501650.360 8     -1491.155          51.000
G28  21176387.008 8 111282680.708 8      1378.520          50.000    21176386.266 7  86713785.533 7      1074.171          45.000
G30  21007199.141 8 110393618.027 8     -1668.949          51.000    21007200.594 8  86021011.833 8     -1300.480          51.000
R01  23166750.078 7 123839500.612 7     -3978.039          42.000    23166755.477 5  96319652.143 5     -3094.033          35.000
R02  19110583.125 8 101977721.936 8      -615.379          51.000    19110585.289 8  79316032.121 8      -478.628          48.000
R12  19261936.188 8 102893834.859 8     -1052.617          51.000    19261939.203 8  80028559.206 8      -818.702          50.000
R13  20625260.555 6 110137736.917 6      2978.312          38.000    20625261.430 6  85662651.776 6      2316.465          41.000
C05                                                                  39791970.227 6 160225769.345 6         6.023          40.000
C23  24063467.922 8 125304811.829 8      2646.254          50.000
C25  21720017.375 8 113101882.739 8       109.762          51.000
E03  23565023.758 6 123835055.887 6       835.684          41.000    23565025.461 6  94886607.438 6       640.470          41.000
E05  24506627.164 8 128783180.506 8     -1678.344          51.000    24506630.016 8  98678053.930 8     -1285.983          51.000
E24  22997642.773 6 120853427.247 6     -1572.355          40.000    22997653.984 7  92602040.366 7     -1204.891          42.000
E25  23860761.945 8 125389218.178 8      1341.441          51.000    23860764.359 8  96077437.049 8      1027.840          51.000
