     3.02           OBSERVATION DATA    M (MIXED)           RINEX VERSION / TYPE
SAVERINEX           SC600               20200517 005931 LCL PGM / RUN BY / DATE
       G = GPS       R = GLONASS       C = COMPASS          COMMENT
       S = SBAS      J = QZSS          E = GALILEO          COMMENT
BEAN                                                        MARKER NAME
1                                                           MARKER NUMBER
GEODETIC                                                    MARKER TYPE
Unige DICCA         GTER                                    OBSERVER / AGENCY
SC60291900056       SC600               2.12(191202)        REC # / TYPE / VERS
                    HEMA45          NONE                    ANT # / TYPE
  4509407.8091   693652.4678  4442337.6214                  APPROX POSITION XYZ
        0.0000        0.0000        0.0000                  ANTENNA: DELTA H/E/N
G    8 C1C L1C D1C S1C C2Y L2Y D2Y S2Y                      SYS / # / OBS TYPES
R    8 C1C L1C D1C S1C C2P L2P D2P S2P                      SYS / # / OBS TYPES
C    8 C1I L1I D1I S1I C7I L7I D7I S7I                      SYS / # / OBS TYPES
E    8 C1C L1C D1C S1C C7Q L7Q D7Q S7Q                      SYS / # / OBS TYPES
DBHZ                                                        COMMENT
     30.000                                                 INTERVAL
  2020    05    16    22    00    0.0000000     GPS         TIME OF FIRST OBS
  2020    05    16    22    59   30.0000000     GPS         TIME OF LAST OBS
     0                                                      RCV CLOCK OFFS APPL
G L1C  0.00000                                              SYS / PHASE SHIFT
G L2Y  0.00000                                              SYS / PHASE SHIFT
R L1C  0.00000                                              SYS / PHASE SHIFT
R L2P  0.25000                                              SYS / PHASE SHIFT
C L1I  0.00000                                              SYS / PHASE SHIFT
C L7I  0.00000                                              SYS / PHASE SHIFT
E L1C  0.50000                                              SYS / PHASE SHIFT
E L7Q -0.25000                                              SYS / PHASE SHIFT
 13 R01  1 R06 -4 R07  5 R08  6 R09 -2 R10 -7 R15  0 R16 -1 GLONASS SLOT / FRQ #
    R19  3 R20  2 R21  4 R22 -3 R23  3                      GLONASS SLOT / FRQ #
 C1C   71.950 C2C   71.950 C2P   71.950                     GLONASS COD/PHS/BIS
    18                                                      LEAP SECONDS
*** Above antenna height is from mark to ANTENNA BOTTOM.    COMMENT
    17     4        0.0000        ANT MEASURE TYPE/HEIGT    COMMENT
    0.0000    0.0000    0.0458    0.0405    0.0000          COMMENT
                    BASE STATION                            COMMENT
                                                            END OF HEADER
> 2020 05 16 22 00  0.0000000  0 15        .000000000000
G01  23446632.938 8 123212873.734 8     -3509.043          48.000    23446634.852 8  96010051.693 8     -2734.319          48.000
G03  21059719.703 7 110669599.545 7     -1583.469          45.000    21059721.781 7  86236056.002 7     -1233.872          44.000
G04  20266037.594 8 106498770.162 8       287.633          51.000    20266037.969 8  82986092.952 8       224.129          51.000
G09  21536631.625 8 113175793.703 8      2462.211          51.000    21536632.016 8  88188941.207 8      1918.609          51.000
G17  22613337.000 6 118833881.398 6     -1839.062          40.000    22613336.227 6  92597825.456 6     -1433.036          40.000
R07  20154603.312 6 107889153.592 6     -1886.148          36.000    20154605.180 5  83913797.802 5     -1467.004          34.000
R08  20015895.516 5 107184177.129 5      1200.398          35.000
R22  20745143.477 8 110738981.774 8     -3418.094          51.000    20745144.789 7  86130307.594 7     -2658.517          47.000
C12  22911773.258 8 119307588.390 8     -1993.727          48.000    22911773.508 8  92256237.571 8     -1541.618          51.000
C21  22188952.781 6 115543704.269 6       983.559          39.000
C22  22760086.789 6 118517740.015 6     -1589.684          38.000
E07  24345978.039 8 127939085.612 8     -1603.355          51.000    24345981.461 8  98031196.815 8     -1228.509          51.000
E19  27291099.008 7 143415687.060 7      2414.141          43.000    27291099.648 7 109889971.497 7      1850.050          44.000
E26  23611456.969 8 124079059.364 8     -2293.410          51.000    23611461.742 8  95073562.712 8     -1757.315          51.000
E33  23989485.109 6 126065594.722 6       415.918          41.000    23989485.656 6  96595715.458 6       318.601          41.000
> 2020 05 16 22 00 30.0000000  0 16        .000000000000
G01  23466681.984 7 123318229.910 7     -3514.598          47.000    23466683.578 7  96092147.393 7     -2738.648          47.000
G03  21068782.195 7 110717223.080 7     -1591.367          46.000    21068784.180 7  86273165.250 7     -1240.026          46.000
G04  20264441.766 8 106490384.503 8       271.605          51.000    20264442.273 8  82979558.689 8       211.641          51.000
G09  21522608.094 8 113102101.299 8      2450.781          50.000    21522608.922 8  88131518.574 8      1909.700          50.000
G17  22623873.602 7 118889249.861 7     -1852.340          44.000    22623872.438 7  92640969.653 7     -1443.382          44.000
R01  22851833.742 5 122156081.182 5      3075.949          32.000    22851834.062 4  95010336.395 4      2392.408          24.000
R07  20165196.617 6 107945862.279 6     -1894.414          36.000    20165197.266 5  83957904.547 5     -1473.433          33.000
R08  20009193.047 4 107148319.626 4      1188.812          28.000
R22  20764401.000 8 110841779.189 8     -3434.770          51.000    20764401.852 7  86210261.105 7     -2671.487          47.000
C12  22923297.945 7 119367600.103 7     -2006.934          47.000    22923298.242 8  92302642.468 8     -1551.834          51.000
C21  22183304.281 6 115514289.428 6       977.344          41.000
C22  22769259.664 6 118565507.888 6     -1594.449          41.000
E07  24355145.695 8 127987261.473 8     -1608.086          51.000    24355148.750 8  98068110.795 8     -1232.122          51.000
E19  27277327.188 7 143343314.504 7      2410.691          44.000    27277327.125 7 109834517.270 7      1847.171          43.000
E26  23624576.711 8 124148001.637 8     -2302.391          51.000    23624580.352 8  95126388.612 8     -1764.160          51.000
E33  23987149.055 7 126053316.417 7       402.703          42.000    23987149.383 6  96586307.382 6       308.813          41.000
> 2020 05 16 22 01  0.0000000  0 17        .000000000000
G01  23486764.484 7 123423763.821 7     -3521.199          46.000    23486765.797 7  96174381.621 7     -2743.792          46.000
G03  21077891.516 7 110765092.453 7     -1600.281          46.000    21077893.977 7  86310466.024 7     -1246.972          46.000
G04  20262939.297 8 106482488.951 8       254.504          51.000    20262939.789 8  82973406.311 8       198.315          51.000
G09  21508651.453 8 113028762.696 8      2438.270          50.000    21508653.000 8  88074371.591 8      1899.950          50.000
G17  22634490.062 7 118945036.701 7     -1866.941          45.000    22634487.531 7  92684439.874 7     -1454.760          45.000
G22  22971529.914 6 120716177.141 6     -2428.621          36.000
R01  22834594.133 6 122063905.341 6      3069.496          36.000
R07  20175838.312 6 108002830.512 6     -1903.414          39.000    20175838.305 5  84002213.172 5     -1480.433          33.000
R08  20002571.633 4 107112862.233 4      1175.508          29.000
R22  20783753.211 8 110945085.530 8     -3452.512          50.000    20783755.219 7  86290610.483 7     -2685.287          47.000
C12  22934900.109 7 119428015.716 7     -2021.066          47.000    22934900.516 8  92349359.652 8     -1562.793          51.000
C21  22177697.023 6 115485090.637 6       969.039          40.000
C22  22778463.320 6 118613432.481 6     -1600.727          41.000
E07  24364342.398 8 128035589.779 8     -1613.914          51.000    24364345.047 8  98105141.586 8     -1236.674          51.000
E19  27263577.898 7 143271061.490 7      2406.051          44.000    27263577.539 7 109779154.625 7      1843.367          43.000
E26  23637749.211 8 124217221.670 8     -2312.496          51.000    23637751.828 8  95179427.334 8     -1771.916          50.000
E33  23984887.375 6 126041435.654 6       388.848          41.000    23984886.812 6  96577203.984 6       297.840          40.000
> 2020 05 16 22 01 30.0000000  0 17        .000000000000
G01  23506888.797 7 123529522.016 7     -3528.680          44.000    23506890.516 7  96256790.584 7     -2749.621          44.000
G03  21087056.719 7 110813255.554 7     -1610.066          47.000    21087059.078 7  86347995.705 7     -1254.597          46.000
G04  20261539.031 8 106475131.316 8       236.586          51.000    20261539.469 8  82967673.089 8       184.353          51.000
G09  21494772.070 8 112955827.402 8      2424.785          51.000    21494773.680 8  88017538.874 8      1889.443          51.000
G17  22645194.852 7 119001288.528 7     -1882.410          44.000    22645191.875 7  92728272.490 7     -1466.810          44.000
G22  22985416.938 5 120789145.567 5     -2435.652          35.000
R01  22817396.758 6 121971952.398 6      3062.039          36.000
R07  20186538.281 6 108060106.129 6     -1914.012          40.000    20186538.336 5  84046760.893 5     -1488.676          35.000
R08  19996034.641 5 107077814.798 5      1161.789          33.000    19996036.109 4  83282779.902 4       903.614          27.000
R22  20803209.398 8 111048946.393 8     -3470.926          51.000    20803212.445 8  86371391.183 8     -2699.609          48.000
C12  22946588.648 7 119488881.357 7     -2036.047          47.000    22946588.875 8  92396424.828 8     -1574.343          51.000
C21  22172140.305 6 115456155.591 6       960.547          39.000
C22  22787706.039 6 118661561.102 6     -1607.602          40.000
E07  24373577.102 8 128084117.863 8     -1620.605          51.000    24373579.539 8  98142325.437 8     -1241.760          51.000
E19  27249860.516 7 143198976.629 7      2400.273          44.000    27249860.312 7 109723920.802 7      1839.156          44.000
E26  23650983.469 8 124286766.579 8     -2323.219          51.000    23650985.273 8  95232714.988 8     -1780.174          49.000
E33  23982711.094 6 126030001.582 6       374.078          41.000    23982710.336 6  96568442.826 6       286.512          41.000
> 2020 05 16 22 02  0.0000000  0 17        .000000000000
G01  23527050.875 7 123635479.193 7     -3535.898          45.000    23527053.070 7  96339354.604 7     -2755.246          44.000
G03  21096273.211 7 110861688.585 7     -1619.441          45.000    21096274.383 7  86385735.696 7     -1261.905          44.000
G04  20260236.688 8 106468287.620 8       218.793          51.000    20260237.078 8  82962340.333 8       170.488          51.000
G09  21480965.820 8 112883273.049 8      2411.406          51.000    21480966.742 8  87961003.021 8      1879.018          51.000
G17  22655982.539 7 119057979.009 7     -1897.703          45.000    22655980.805 7  92772446.915 7     -1478.730          45.000
G22  22999332.664 6 120862280.026 6     -2441.285          36.000
R01  22800236.094 5 121880198.853 5      3054.426          35.000
R07  20197291.086 6 108117663.263 6     -1923.613          40.000    20197292.203 6  84091527.587 6     -1496.141          37.000
R08  19989565.070 5 107043159.464 5      1147.301          33.000
R22  20822764.906 8 111153334.120 8     -3488.988          51.000    20822768.023 8  86452581.672 8     -2713.655          48.000
C12  22958358.430 7 119550171.766 7     -2050.773          46.000    22958358.727 8  92443818.455 8     -1585.743          51.000
C21  22166630.531 7 115427461.060 7       951.672          42.000
C22  22796983.305 6 118709869.765 6     -1614.074          41.000
E07  24382845.031 8 128132821.211 8     -1626.984          51.000    24382847.531 8  98179643.585 8     -1246.671          51.000
E19  27236170.625 7 143127036.920 7      2394.895          44.000    27236170.984 7 109668798.219 7      1834.932          44.000
E26  23664274.828 8 124356611.820 8     -2333.840          51.000    23664275.695 8  95286232.738 8     -1788.231          49.000
E33  23980615.742 6 126018991.420 6       359.398          41.000    23980615.930 6  96560006.480 6       275.249          41.000
> 2020 05 16 22 02 30.0000000  0 16        .000000000000
G01  23547257.883 7 123741668.511 7     -3542.547          46.000    23547260.461 7  96422099.547 7     -2760.426          46.000
G03  21105547.664 7 110910426.158 7     -1628.617          46.000    21105547.648 7  86423712.963 7     -1269.052          44.000
G04  20259038.664 8 106461992.306 8       201.672          51.000    20259039.047 8  82957434.905 8       157.147          51.000
G09  21467239.086 8 112811135.799 8      2398.723          51.000    21467239.328 8  87904792.203 8      1869.138          51.000
G17  22666859.898 7 119115140.937 7     -1912.180          46.000    22666859.195 7  92816988.733 7     -1490.010          46.000
G22  23013284.945 5 120935615.075 5     -2447.289          31.000    23013292.812 5  94235585.033 5     -1906.978          32.000
R07  20208102.391 6 108175535.858 6     -1933.289          39.000    20208105.344 6  84136539.646 6     -1503.669          37.000
R08  19983167.688 4 107008955.194 4      1134.918          28.000
R22  20842425.266 8 111258280.574 8     -3506.543          51.000    20842428.164 8  86534206.726 8     -2727.308          49.000
C12  22970215.750 7 119611919.809 7     -2064.898          45.000    22970216.039 8  92491565.955 8     -1596.683          51.000
C21  22161174.203 6 115399041.793 6       943.543          41.000
C22  22806301.617 6 118758392.633 6     -1620.125          40.000
E07  24392152.797 8 128181733.857 8     -1632.820          51.000    24392155.305 8  98217122.112 8     -1251.146          51.000
E19  27222514.953 7 143055277.625 7      2390.066          44.000    27222516.188 7 109613813.854 7      1831.287          45.000
E26  23677629.742 8 124426791.194 8     -2343.848          51.000    23677629.367 8  95340006.513 8     -1795.932          48.000
E33  23978607.602 6 126008441.036 6       345.105          40.000    23978608.945 7  96551922.386 7       264.551          42.000
> 2020 05 16 22 03  0.0000000  0 15        .000000000000
G01  23567491.492 7 123847996.512 7     -3546.984          47.000    23567494.555 7  96504952.543 7     -2763.884          47.000
G03  21114862.547 7 110959376.172 7     -1635.473          45.000    21114862.969 7  86461855.791 7     -1274.397          44.000
G04  20257927.484 8 106456153.133 8       186.863          51.000    20257927.508 8  82952884.908 8       145.608          51.000
G09  21453574.055 8 112739325.160 8      2387.902          50.000    21453573.781 8  87848835.868 8      1860.703          50.000
G17  22677809.711 8 119172680.642 8     -1924.539          48.000    22677808.914 8  92861824.879 8     -1499.641          48.000
G22  23027260.789 5 121009058.481 5     -2450.066          34.000
R07  20218954.281 6 108233628.875 6     -1940.621          40.000    20218957.664 6  84181723.150 6     -1509.372          36.000
R22  20862171.914 8 111363688.826 8     -3521.500          51.000    20862174.680 8  86616190.944 8     -2738.944          49.000
C12  22982143.250 7 119674032.773 7     -2076.852          46.000    22982143.656 8  92539595.622 8     -1605.941          51.000
C21  22155752.328 6 115370806.808 6       938.051          38.000
C22  22815643.422 6 118807038.261 6     -1623.906          41.000
E07  24401482.750 8 128230763.110 8     -1636.543          51.000    24401485.094 8  98254689.983 8     -1254.025          51.000
E19  27208876.484 7 142983607.529 7      2387.285          44.000    27208878.609 7 109558897.816 7      1829.081          45.000
E26  23691030.383 8 124497211.846 8     -2351.691          51.000    23691029.141 8  95393965.165 8     -1802.005          48.000
E33  23976669.711 6 125998259.384 6       332.695          41.000    23976671.773 7  96544120.864 7       255.045          42.000
> 2020 05 16 22 03 30.0000000  0 17        .000000000000
G01  23587761.914 7 123954517.859 7     -3553.531          47.000    23587765.312 7  96587956.184 7     -2768.985          47.000
G03  21124228.461 7 111008594.857 7     -1644.672          44.000    21124229.289 7  86500207.946 7     -1281.562          43.000
G04  20256913.750 8 106450826.058 8       169.309          51.000    20256913.656 8  82948733.949 8       131.929          51.000
G09  21439981.641 8 112667898.738 8      2374.699          50.000    21439981.500 8  87793178.917 8      1850.415          49.000
G17  22688841.648 8 119230651.746 8     -1939.113          48.000    22688839.727 8  92906997.146 8     -1510.997          48.000
G22  23041267.617 5 121082666.322 5     -2456.152          32.000
R01  22748941.234 4 121606131.456 4      3036.383          29.000
R07  20229857.648 6 108291998.135 6     -1949.879          40.000    20229859.359 5  84227121.448 5     -1516.576          35.000
R08  19970577.375 4 106941523.187 4      1110.812          29.000    19970584.117 4  83176776.598 4       863.965          27.000
R22  20882014.523 8 111469612.277 8     -3538.980          51.000    20882017.609 8  86698575.869 8     -2752.540          49.000
C12  22994151.719 7 119736564.865 7     -2090.926          46.000    22994151.969 8  92587949.401 8     -1616.984          51.000
C21  22150374.375 6 115342812.034 6       929.738          36.000
C22  22825020.156 6 118855862.006 6     -1630.121          41.000
E07  24410845.422 8 128279964.503 8     -1642.676          51.000    24410847.641 8  98292389.756 8     -1258.668          51.000
E19  27195266.156 7 142912083.584 7      2381.980          44.000    27195269.031 7 109504093.788 7      1825.151          46.000
E26  23704487.039 8 124567929.192 8     -2361.938          51.000    23704486.258 8  95448151.177 8     -1809.769          50.000
E33  23974813.391 6 125988503.709 6       318.277          41.000    23974815.672 7  96536645.756 7       243.926          43.000
> 2020 05 16 22 04  0.0000000  0 16        .000000000000
G01  23608061.195 7 124061190.948 7     -3557.184          47.000    23608064.664 7  96671078.072 7     -2771.831          47.000
G03  21133637.883 7 111058042.044 7     -1650.750          43.000    21133638.945 7  86538738.215 7     -1286.299          43.000
G04  20255989.656 8 106445970.801 8       155.148          51.000    20255989.719 8  82944950.639 8       120.895          51.000
G09  21426455.445 8 112596817.858 8      2364.777          51.000    21426455.758 8  87737791.242 8      1842.684          51.000
G17  22699947.445 7 119289012.232 7     -1950.633          47.000    22699944.672 7  92952472.821 7     -1519.974          47.000
G19  22330203.789 5 117346008.724 5     -1130.715          35.000
R07  20240805.727 6 108350601.827 6     -1956.203          39.000    20240805.812 6  84272702.024 6     -1521.494          36.000
R08  19964378.906 4 106908365.436 4      1100.969          29.000    19964391.922 4  83150986.555 4       856.309          26.000
R22  20901944.883 8 111576007.063 8     -3553.164          50.000    20901948.320 8  86781327.346 8     -2763.575          48.000
C12  23006233.023 7 119799474.758 7     -2102.023          46.000    23006233.109 8  92636595.307 8     -1625.436          51.000
C21  22145035.750 6 115315018.177 6       924.172          38.000
C22  22834423.281 7 118904823.947 7     -1632.996          42.000
E07  24420233.156 8 128329297.327 8     -1645.316          51.000    24420235.328 8  98330190.219 8     -1260.694          51.000
E19  27181676.305 7 142840666.464 7      2379.957          45.000    27181679.742 7 109449371.621 7      1823.681          46.000
E26  23717991.906 8 124638902.248 8     -2368.746          49.000    23717992.773 8  95502533.151 8     -1815.010          51.000
E33  23973030.938 6 125979135.027 6       307.047          41.000    23973033.453 7  96529467.154 7       235.371          43.000
> 2020 05 16 22 04 30.0000000  0 15        .000000000000
G01  23628406.617 7 124168107.585 7     -3570.930          46.000    23628409.938 7  96754389.751 7     -2782.540          46.000
G03  21143108.383 6 111107810.976 6     -1667.902          40.000    21143110.062 6  86577519.201 6     -1299.664          41.000
G04  20255173.070 8 106441680.367 8       130.391          51.000    20255173.109 8  82941607.446 8       101.603          51.000
G09  21413013.219 8 112526177.234 8      2344.188          51.000    21413014.164 8  87682746.616 8      1826.643          51.000
G17  22711144.469 7 119347853.504 7     -1972.617          47.000    22711142.062 7  92998323.179 7     -1537.104          47.000
R01  22714939.000 4 121424364.634 4      3017.938          28.000
R07  20251815.086 6 108409533.330 6     -1973.051          40.000    20251815.742 6  84318537.670 6     -1534.595          37.000
R22  20921981.734 8 111682964.301 8     -3577.863          51.000    20921983.734 7  86864516.281 7     -2782.783          47.000
C12  23018404.781 7 119862853.328 7     -2123.598          46.000    23018404.703 8  92685603.639 8     -1642.061          51.000
C21  22139754.938 6 115287517.866 6       908.566          38.000
C22  22843870.203 7 118954016.223 7     -1646.801          42.000
E07  24429663.594 8 128378854.212 8     -1658.773          51.000    24429665.875 8  98368162.364 8     -1270.972          51.000
E19  27168124.531 7 142769450.182 7      2367.316          44.000    27168128.266 7 109394803.340 7      1814.067          46.000
E26  23731563.148 8 124710223.562 8     -2386.348          49.000    23731565.844 8  95557181.944 8     -1828.449          51.000
E33  23971340.047 7 125970247.656 7       285.027          42.000    23971342.859 7  96522657.380 7       218.392          43.000
> 2020 05 16 22 05  0.0000000  0 16        .000000000000
G01  23648788.078 7 124275214.533 7     -3571.855          45.000    23648791.133 7  96837849.742 7     -2783.261          45.000
G03  21152630.391 6 111157849.988 6     -1670.949          39.000    21152632.211 6  86616510.553 6     -1302.038          39.000
G04  20254454.141 8 106437902.787 8       118.996          51.000    20254454.172 8  82938663.875 8        92.724          51.000
G09  21399644.938 8 112455926.626 8      2336.809          51.000    21399646.172 8  87628005.891 8      1820.890          51.000
G17  22722422.328 8 119407122.018 8     -1981.055          48.000    22722421.336 7  93044506.443 7     -1543.679          47.000
R01  22698002.773 5 121333821.390 5      3016.531          33.000    22698016.141 4  94370767.571 4      2346.188          28.000
R07  20262874.695 7 108468739.066 7     -1976.387          42.000    20262876.367 6  84364586.580 6     -1537.190          36.000
R08  19952240.703 4 106843341.891 4      1072.957          26.000
R22  20942114.156 8 111790428.214 8     -3588.875          51.000    20942114.844 7  86948099.280 7     -2791.347          47.000
C12  23030656.477 7 119926647.647 7     -2131.688          47.000    23030655.859 8  92734933.481 8     -1648.395          51.000
C21  22134521.367 6 115260260.217 6       906.223          39.000
C22  22853351.398 7 119003387.363 7     -1646.930          43.000
E07  24439126.586 8 128428582.752 8     -1658.836          50.000    24439129.281 8  98406266.064 8     -1271.053          51.000
E19  27154601.055 7 142698383.554 7      2367.984          44.000    27154604.508 7 109340349.756 7      1814.439          45.000
E26  23745191.023 8 124781840.489 8     -2390.496          51.000    23745195.078 8  95612057.263 8     -1831.655          51.000
E33  23969730.633 6 125961790.985 6       276.172          40.000    23969733.734 7  96516177.601 7       211.777          43.000
> 2020 05 16 22 05 30.0000000  0 15        .000000000000
G01  23669196.898 7 124382463.961 7     -3577.832          45.000    23669199.562 7  96921420.744 7     -2787.921          46.000
G03  21162195.109 5 111208112.548 5     -1679.707          35.000    21162196.844 5  86655676.216 5     -1308.860          35.000
G04  20253824.000 8 106434591.417 8       102.059          51.000    20253824.258 8  82936083.607 8        79.526          51.000
G09  21386341.953 8 112386021.140 8      2323.859          50.000    21386343.109 8  87573534.095 8      1810.800          50.000
G17  22733772.516 8 119466768.780 8     -1995.004          48.000    22733772.562 8  93090984.439 8     -1554.548          48.000
R01  22681096.695 5 121243430.484 5      3009.180          32.000    22681103.414 4  94300463.580 4      2340.476          26.000
R07  20273977.211 7 108528170.290 7     -1985.207          43.000    20273978.500 5  84410810.802 5     -1544.053          35.000
R22  20962331.688 8 111898348.056 8     -3605.383          51.000    20962331.609 7  87032036.918 7     -2804.187          47.000
C12  23042978.852 8 119990810.355 8     -2145.414          48.000    23042977.586 8  92784548.185 8     -1658.961          51.000
C21  22129325.914 7 115233199.590 7       898.246          42.000
C22  22862858.016 7 119052891.177 7     -1652.793          44.000
E07  24448613.305 8 128478435.995 8     -1664.246          50.000    24448616.344 8  98444465.314 8     -1275.220          51.000
E19  27141097.273 7 142627421.148 7      2363.180          43.000    27141099.930 7 109285976.001 7      1810.820          45.000
E26  23758866.688 8 124853705.898 8     -2400.180          51.000    23758871.148 8  95667122.971 8     -1839.078          51.000
E33  23968194.344 6 125953719.633 6       262.305          40.000    23968197.805 7  96509993.097 7       200.936          44.000
> 2020 05 16 22 06  0.0000000  0 14        .000000000000
G01  23689641.188 7 124489898.322 7     -3583.934          46.000    23689643.125 7  97005135.836 7     -2792.676          46.000
G04  20253290.984 8 106431789.898 8        85.164          51.000    20253291.281 8  82933900.623 8        66.365          51.000
G09  21373113.062 8 112316506.073 8      2310.996          50.000    21373113.867 8  87519366.549 8      1800.776          50.000
G17  22745203.031 8 119526836.034 8     -2009.051          49.000    22745203.180 8  93137790.050 8     -1565.494          49.000
R01  22664223.227 4 121153244.467 4      3003.785          29.000    22664229.195 4  94230318.849 4      2336.280          24.000
R07  20285130.555 7 108587870.509 7     -1993.969          43.000    20285130.891 5  84457244.277 5     -1550.865          35.000
R22  20982641.211 8 112006765.049 8     -3621.820          50.000    20982641.797 7  87116361.255 7     -2816.971          47.000
C12  23055379.727 8 120055383.249 8     -2159.008          48.000    23055378.195 8  92834480.035 8     -1669.449          51.000
C21  22124176.922 6 115206379.907 6       890.375          39.000
C22  22872398.523 7 119102571.019 7     -1658.629          43.000
E07  24458132.039 8 128528457.262 8     -1669.879          50.000    24458135.211 8  98482793.313 8     -1279.518          51.000
E19  27127621.688 7 142556607.508 7      2358.293          43.000    27127623.477 7 109231716.259 7      1806.938          44.000
E26  23772598.016 8 124925862.808 8     -2409.770          51.000    23772602.250 8  95722412.030 8     -1846.393          51.000
E33  23966739.273 6 125946078.624 6       247.758          39.000    23966743.992 7  96504138.281 7       189.921          44.000
> 2020 05 16 22 06 30.0000000  0 16        .000000000000
G01  23710115.750 7 124597491.981 7     -3584.980          46.000    23710116.523 7  97088975.039 7     -2793.491          46.000
G04  20252850.352 8 106429473.790 8        73.289          51.000    20252850.516 8  82932095.873 8        57.108          51.000
G09  21359954.594 8 112247358.738 8      2302.914          51.000    21359955.148 8  87465485.544 8      1794.478          51.000
G17  22756708.648 8 119587297.676 8     -2017.891          50.000    22756707.828 8  93184902.963 8     -1572.382          50.000
G19  22364008.281 5 117523674.843 5     -1228.039          33.000
R01  22647380.805 5 121063233.593 5      3001.523          32.000
R07  20296328.359 7 108647813.773 7     -1997.953          42.000    20296329.023 6  84503866.836 6     -1553.964          36.000
R08  19934547.438 5 106748599.137 5      1038.379          30.000    19934550.023 4  83026685.356 4       807.628          29.000
R22  21003037.984 8 112115651.052 8     -3633.086          49.000    21003040.141 7  87201050.405 7     -2825.734          46.000
C12  23067853.586 7 120120340.903 7     -2167.445          47.000    23067852.883 8  92884709.380 8     -1676.073          51.000
C21  22119066.930 5 115179777.499 5       887.113          33.000
C22  22881968.102 7 119152402.669 7     -1659.531          42.000
E07  24467678.094 8 128578621.794 8     -1670.414          51.000    24467681.062 8  98521231.090 8     -1279.946          51.000
E19  27114169.961 7 142485919.306 7      2358.152          43.000    27114171.031 7 109177552.623 7      1807.055          43.000
E26  23786380.180 8 124998286.262 8     -2414.445          51.000    23786383.438 8  95777905.318 8     -1850.065          51.000
E33  23965362.086 6 125938844.783 6       238.367          41.000    23965367.203 7  96498595.446 7       182.633          44.000
> 2020 05 16 22 07  0.0000000  0 17        .000000000000
G01  23730611.508 7 124705196.335 7     -3595.816          45.000    23730610.250 7  97172900.487 7     -2801.935          46.000
G04  20252493.008 8 106427595.766 8        51.598          51.000    20252493.281 8  82930632.495 8        40.206          51.000
G09  21346857.969 8 112178533.475 8      2285.184          51.000    21346858.469 8  87411855.495 8      1780.663          51.000
G17  22768279.859 8 119648104.163 8     -2036.289          49.000    22768278.352 8  93232284.636 8     -1586.719          49.000
G19  22371091.641 5 117560902.692 5     -1253.613          32.000
G22  23140149.227 5 121602282.713 5     -2492.605          32.000
R01  22630566.469 5 120973362.638 5      2989.113          33.000
R07  20307561.094 7 108707951.085 7     -2011.664          43.000    20307563.336 6  84550640.322 6     -1564.625          37.000
R08  19928780.648 5 106717697.229 5      1021.398          34.000    19928777.586 4  83002650.458 4       794.415          25.000
R22  21023514.188 8 112224954.858 8     -3654.109          51.000    21023516.492 7  87286064.468 7     -2842.085          45.000
C12  23080391.562 7 120185635.016 7     -2185.684          46.000    23080392.250 8  92935198.938 8     -1690.170          51.000
C21  22113987.102 5 115153346.109 5       874.219          30.000
C22  22891557.742 6 119202339.339 6     -1670.094          40.000
E07  24477242.336 8 128628881.913 8     -1680.629          51.000    24477245.117 8  98559742.092 8     -1287.758          51.000
E19  27100733.336 7 142415310.158 7      2348.527          42.000    27100733.984 7 109123449.559 7      1799.587          43.000
E26  23800203.828 8 125070928.352 8     -2428.781          51.000    23800205.867 8  95833566.134 8     -1861.038          50.000
E33  23964054.336 7 125931972.003 7       219.355          42.000    23964057.984 7  96493329.338 7       168.033          43.000
> 2020 05 16 22 07 30.0000000  0 17        .000000000000
G01  23751168.445 7 124813222.909 7     -3604.965          45.000    23751166.391 7  97257076.968 7     -2809.064          45.000
G04  20252259.539 8 106426368.420 8        31.488          51.000    20252259.867 8  82929676.133 8        24.536          51.000
G09  21333863.461 8 112110244.638 8      2268.785          51.000    21333863.977 8  87358643.422 8      1767.885          51.000
G17  22779956.609 8 119709466.530 8     -2053.199          50.000    22779955.656 8  93280099.481 8     -1599.892          50.000
G19  22378318.625 5 117598870.728 5     -1276.316          34.000
G31  24228952.289 5 127324026.947 5     -2410.938          30.000
R01  22613818.914 5 120883843.183 5      2979.590          32.000
R07  20318870.789 7 108768497.951 7     -2023.586          45.000    20318874.531 6  84597732.354 6     -1573.897          38.000
R08  19923110.945 5 106687328.772 5      1004.859          33.000    19923108.844 4  82979030.691 4       781.566          25.000
R22  21044109.547 8 112334889.497 8     -3673.508          51.000    21044111.258 7  87371569.169 7     -2857.173          45.000
C12  23093034.617 7 120251474.956 7     -2202.289          46.000    23093036.805 8  92986110.575 8     -1702.886          51.000
C21  22108982.750 5 115127277.152 5       863.410          31.000
C22  22901208.289 6 119252591.789 6     -1678.871          40.000
E07  24486865.023 8 128679449.960 8     -1689.195          50.000    24486868.016 8  98598489.037 8     -1294.345          51.000
E19  27087352.023 7 142344993.613 7      2340.441          42.000    27087353.000 7 109069570.699 7      1793.418          43.000
E26  23814109.180 8 125144001.147 8     -2441.355          50.000    23814110.648 8  95889556.967 8     -1870.625          49.000
E33  23962855.859 6 125925674.325 6       201.922          40.000    23962858.102 7  96488503.877 7       154.758          42.000
> 2020 05 16 22 08  0.0000000  0 18        .000000000000
G01  23771729.648 7 124921271.965 7     -3588.922          45.000    23771729.164 7  97341271.006 7     -2796.559          45.000
G03  21210746.773 5 111463226.899 5     -1704.859          34.000    21210748.906 5  86854467.717 5     -1328.462          33.000
G04  20252093.000 8 106425493.200 8        36.512          50.000    20252093.148 8  82928994.150 8        28.454          51.000
G09  21320914.125 8 112042195.416 8      2277.422          51.000    21320915.047 8  87305618.062 8      1774.617          51.000
G17  22791682.062 8 119771084.605 8     -2044.996          50.000    22791682.016 8  93328113.545 8     -1593.503          50.000
G19  22385628.508 5 117637279.403 5     -1274.480          34.000
G22  23168671.797 5 121752176.269 5     -2485.352          31.000
G31  24242764.633 5 127396597.960 5     -2404.379          33.000    24242762.445 5  99270062.700 5     -1873.542          31.000
R07  20330201.156 7 108829149.689 7     -2009.949          43.000    20330205.258 6  84644905.962 6     -1563.294          38.000
R08  19917484.695 5 106657190.583 5      1014.117          35.000
R22  21064765.688 8 112445148.072 8     -3667.246          51.000    21064766.969 7  87457325.820 7     -2852.303          46.000
C12  23105726.547 7 120317563.753 7     -2193.949          47.000    23105729.055 8  93037214.657 8     -1696.498          51.000
C21  22103999.508 6 115101315.160 6       877.293          36.000
C22  22910863.328 6 119302864.348 6     -1663.055          40.000
E07  24496489.422 8 128730027.131 8     -1672.949          50.000    24496492.594 8  98637242.969 8     -1281.753          51.000
E19  27073969.758 7 142274672.371 7      2357.266          42.000    27073971.266 7 109015688.232 7      1806.249          44.000
E26  23828039.383 8 125217205.605 8     -2429.137          50.000    23828041.031 8  95945648.699 8     -1861.272          50.000
E33  23961710.531 6 125919654.518 6       209.469          40.000    23961712.219 7  96483891.311 7       160.248          43.000
> 2020 05 16 22 08 30.0000000  0 16        .000000000000
G01  23792349.164 7 125029629.123 7     -3616.805          45.000    23792350.750 7  97425705.183 7     -2818.289          45.000
G03  21220621.641 6 111515115.304 6     -1735.934          40.000    21220622.906 6  86894900.249 6     -1352.672          40.000
G04  20252047.984 8 106425256.942 8        -2.594          51.000    20252048.000 8  82928810.046 8        -2.021          51.000
G09  21308064.766 8 111974674.363 8      2242.105          50.000    21308066.383 8  87253004.259 8      1747.095          50.000
G17  22803510.477 8 119833243.461 8     -2080.734          50.000    22803510.641 8  93376548.993 8     -1621.351          50.000
G31  24256651.969 5 127469575.151 5     -2443.023          33.000    24256650.633 5  99326928.036 5     -1903.652          31.000
R01  22580411.312 5 120705245.446 5      2964.883          32.000
R07  20341605.977 7 108890197.305 7     -2041.312          42.000    20341609.867 6  84692387.463 6     -1587.684          38.000
R22  21085536.484 8 112556019.059 8     -3705.648          51.000    21085537.836 7  87543558.814 7     -2882.171          47.000
C12  23118521.219 8 120384184.294 8     -2229.379          48.000    23118522.867 8  93088729.887 8     -1723.891          51.000
C21  22099087.945 6 115075725.272 6       846.949          39.000
C22  22920576.914 6 119353441.381 6     -1690.758          38.000
E07  24506170.203 8 128780899.972 8     -1700.484          50.000    24506173.203 8  98676223.479 8     -1302.963          50.000
E19  27060641.648 7 142204634.179 7      2330.035          43.000    27060643.453 7 108962022.617 7      1785.420          44.000
E26  23842049.000 8 125290827.987 8     -2460.910          50.000    23842051.602 8  96002060.662 8     -1885.650          51.000
E33  23960673.219 6 125914200.712 6       172.645          39.000    23960674.141 7  96479712.428 7       132.095          42.000
> 2020 05 16 22 09  0.0000000  0 17        .000000000000
G01  23812983.273 7 125138065.728 7     -3616.535          44.000    23812986.859 7  97510201.275 7     -2818.079          44.000
G03  21230528.781 6 111567174.711 6     -1738.551          41.000    21230529.312 6  86935466.034 6     -1354.715          40.000
G04  20252081.344 8 106425432.026 8       -13.395          51.000    20252081.383 8  82928946.485 8       -10.437          51.000
G09  21295273.148 8 111907455.559 8      2234.910          51.000    21295275.109 8  87200626.010 8      1741.491          51.000
G17  22815398.109 8 119895713.608 8     -2088.227          50.000    22815397.867 8  93425227.010 8     -1627.190          50.000
G31  24270607.883 5 127542911.742 5     -2450.969          33.000    24270606.211 5  99384073.375 5     -1909.846          31.000
R01  22563765.820 5 120616228.616 5      2965.059          35.000
R07  20353040.648 6 108951408.263 6     -2043.555          40.000    20353044.375 5  84739996.026 5     -1589.431          35.000
R08  19906467.516 5 106598232.956 5       971.820          34.000    19906479.266 4  82909769.081 4       755.854          29.000
R22  21106377.688 8 112667267.892 8     -3715.199          51.000    21106379.305 7  87630085.692 7     -2889.599          47.000
C12  23131374.555 8 120451109.665 8     -2236.582          49.000    23131374.531 8  93140480.790 8     -1729.389          51.000
C21  22094204.023 6 115050282.593 6       845.031          39.000
C22  22930304.500 6 119404097.478 6     -1690.637          37.000
E07  24515863.906 8 128831840.669 8     -1699.699          51.000    24515866.594 8  98715255.960 8     -1302.400          50.000
E19  27047324.695 7 142134652.344 7      2331.121          44.000    27047326.594 7 108908400.240 7      1786.118          44.000
E26  23856094.828 8 125364640.182 8     -2464.078          50.000    23856098.516 8  96058618.070 8     -1888.084          51.000
E33  23959699.836 6 125909086.646 6       164.262          39.000    23959700.352 7  96475793.853 7       125.803          43.000
> 2020 05 16 22 09 30.0000000  0 17        .000000000000
G01  23833651.062 7 125246678.023 7     -3623.582          44.000    23833655.836 7  97594834.262 7     -2823.567          44.000
G03  21240486.969 7 111619502.866 7     -1748.941          43.000    21240486.664 7  86976241.212 7     -1362.811          43.000
G04  20252211.453 8 106426115.848 8       -31.582          51.000    20252211.445 8  82929479.341 8       -24.609          51.000
G09  21282558.250 8 111840638.189 8      2220.230          51.000    21282560.109 8  87148560.565 8      1730.050          51.000
G17  22827363.133 8 119958590.608 8     -2103.012          50.000    22827362.328 8  93474222.089 8     -1638.710          50.000
G31  24284650.375 5 127616703.512 5     -2467.836          34.000    24284648.539 5  99441573.432 5     -1922.980          32.000
R01  22547154.867 5 120527424.275 5      2956.164          31.000    22547157.094 4  93743572.907 4      2299.242          27.000
R07  20364523.078 7 109012880.751 7     -2053.746          42.000    20364526.078 5  84787807.983 5     -1597.358          33.000
R08  19901070.914 5 106569298.549 5       957.688          32.000    19901072.438 4  82887264.508 4       744.871          28.000
R22  21127307.055 8 112778990.375 8     -3732.227          51.000    21127308.641 7  87716980.960 7     -2902.843          46.000
C12  23144304.195 7 120518435.139 7     -2251.191          47.000    23144301.625 8  93192541.058 8     -1740.649          48.000
C21  22089364.922 5 115025084.479 5       835.922          34.000
C22  22940065.680 6 119454929.334 6     -1697.570          37.000
E07  24525588.953 8 128882946.412 8     -1706.426          51.000    24525591.586 8  98754414.888 8     -1307.473          50.000
E19  27034037.422 7 142064825.736 7      2324.770          44.000    27034039.422 7 108854896.793 7      1781.329          45.000
E26  23870195.258 8 125438739.102 8     -2475.000          51.000    23870199.523 8  96115395.160 8     -1896.381          51.000
E33  23958810.094 6 125904411.058 6       148.465          41.000    23958810.547 7  96472211.253 7       113.684          44.000
> 2020 05 16 22 10  0.0000000  0 18        .000000000000
G01  23854307.609 7 125355228.475 7     -3628.324          45.000    23854312.539 7  97679419.048 7     -2827.266          45.000
G03  21250451.047 7 111671863.752 7     -1757.105          45.000    21250450.211 7  87017041.882 7     -1369.173          45.000
G04  20252393.344 8 106427071.964 8       -47.578          51.000    20252393.211 8  82930224.373 8       -37.074          51.000
G09  21269875.148 8 111773987.517 8      2207.703          51.000    21269876.680 8  87096625.010 8      1720.288          51.000
G17  22839360.180 8 120021636.339 8     -2115.457          50.000    22839359.367 8  93523348.640 8     -1648.408          50.000
G19  22415995.219 5 117796845.024 5     -1369.500          31.000
G22  23226037.375 4 122053671.577 4     -2523.641          29.000
G31  24298734.297 5 127690712.665 5     -2481.051          31.000    24298732.539 5  99499242.870 5     -1933.280          30.000
R07  20376010.656 7 109074373.391 7     -2061.391          43.000    20376011.250 5  84835635.501 5     -1603.307          32.000
R08  19895696.125 5 106540513.689 5       945.730          35.000    19895696.242 4  82864876.324 4       735.571          26.000
R22  21148278.578 8 112890943.385 8     -3746.879          49.000    21148280.664 7  87804055.544 7     -2914.239          46.000
C12  23157264.953 7 120585925.097 7     -2263.453          47.000    23157260.680 8  93244728.551 8     -1750.291          49.000
C21  22084525.727 5 114999897.241 5       828.133          32.000
C22  22949816.039 6 119505702.892 6     -1702.398          37.000
E07  24535300.438 8 128933980.561 8     -1711.211          50.000    24535303.180 8  98793518.960 8     -1311.158          49.000
E19  27020734.672 7 141994918.654 7      2320.332          44.000    27020736.953 7 108801331.677 7      1777.935          44.000
E26  23884305.070 8 125512887.815 8     -2483.770          51.000    23884309.055 8  96172210.413 8     -1903.121          50.000
E33  23957959.312 6 125899938.838 6       134.387          40.000    23957959.719 7  96468784.478 7       102.942          43.000
> 2020 05 16 22 10 30.0000000  0 18        .000000000000
G01  23875079.484 7 125464383.894 7     -3641.305          45.000    23875084.359 7  97764475.228 7     -2837.377          45.000
G03  21260548.281 7 111724925.605 7     -1773.105          43.000    21260547.953 7  87058388.797 7     -1381.641          43.000
G04  20252754.203 8 106428968.311 8       -71.477          51.000    20252754.148 8  82931702.054 8       -55.693          51.000
G09  21257351.227 8 111708173.263 8      2187.184          51.000    21257352.445 8  87045341.198 8      1704.299          51.000
G17  22851516.109 8 120085516.919 8     -2135.840          50.000    22851515.633 8  93573125.698 8     -1664.291          50.000
G19  22423911.594 6 117838449.458 6     -1396.230          36.000
G22  23240500.148 5 122129651.943 5     -2535.984          31.000
R01  22514055.680 5 120350554.225 5      2935.859          32.000
R07  20387629.664 6 109136565.922 6     -2077.281          41.000    20387630.539 5  84884007.409 5     -1615.666          35.000
R08  19890476.984 5 106512559.720 5       925.770          30.000
R22  21169419.102 8 113003802.122 8     -3769.488          48.000    21169422.219 7  87891834.570 7     -2931.824          45.000
C12  23170383.922 7 120654240.159 7     -2283.512          47.000    23170379.586 8  93297554.059 8     -1765.898          50.000
C21  22079817.016 6 114975383.245 6       813.199          36.000
C22  22959682.406 6 119557080.275 6     -1715.156          37.000
E07  24545125.281 8 128985610.877 8     -1723.668          50.000    24545128.242 8  98833079.850 8     -1320.676          49.000
E19  27007543.578 7 141925600.333 7      2308.156          43.000    27007546.172 7 108748217.670 7      1768.575          44.000
E26  23898551.383 8 125587753.736 8     -2500.129          51.000    23898554.578 8  96229575.210 8     -1915.647          50.000
E33  23957274.289 6 125896339.259 6       112.777          40.000    23957274.680 7  96466026.347 7        86.453          43.000
> 2020 05 16 22 11  0.0000000  0 15        .000000000000
G01  23895833.078 7 125573442.817 7     -3643.207          44.000    23895837.734 7  97849456.216 7     -2838.863          44.000
G03  21270645.578 7 111777988.629 7     -1778.094          43.000    21270646.016 7  87099736.557 7     -1385.528          43.000
G04  20253160.672 8 106431104.539 8       -84.633          51.000    20253160.656 8  82933366.665 8       -65.948          51.000
G09  21244853.625 8 111642496.841 8      2177.516          51.000    21244854.453 8  86994164.769 8      1696.765          51.000
G17  22863697.461 8 120149530.343 8     -2145.434          50.000    22863697.016 8  93623006.281 8     -1671.766          50.000
G19  22431887.758 4 117880367.821 4     -1411.918          29.000
R07  20399245.523 6 109198743.824 6     -2081.965          39.000    20399248.227 5  84932368.005 5     -1619.306          35.000
R22  21190596.367 8 113116851.925 8     -3781.137          48.000    21190599.328 7  87979762.187 7     -2940.884          45.000
C12  23183527.750 7 120722684.996 7     -2292.953          46.000    23183523.859 8  93350479.949 8     -1773.066          50.000
C21  22075107.133 6 114950849.617 6       808.824          36.000
C22  22969531.016 6 119608367.658 6     -1717.305          39.000
E07  24554930.242 8 129037136.797 8     -1725.211          49.000    24554933.398 8  98872560.740 8     -1321.870          49.000
E19  26994331.133 7 141856171.536 7      2306.816          43.000    26994333.867 7 108695019.003 7      1767.504          43.000
E26  23912801.047 8 125662636.006 8     -2505.758          51.000    23912803.141 8  96286952.520 8     -1919.894          50.000
E33  23956622.227 6 125892913.269 6       101.793          41.000    23956623.359 7  96463401.249 7        78.063          44.000
> 2020 05 16 22 11 30.0000000  0 14        .000000000000
G01  23916627.906 7 125682719.322 7     -3645.332          43.000    23916632.344 7  97934606.735 7     -2840.522          43.000
G03  21280803.352 7 111831368.265 7     -1783.703          45.000    21280803.875 7  87141331.088 7     -1389.895          45.000
G04  20253672.711 8 106433795.754 8       -97.980          51.000    20253672.742 8  82935463.722 8       -76.348          51.000
G09  21232442.578 8 111577275.043 8      2167.496          51.000    21232443.234 8  86943342.601 8      1688.958          51.000
G17  22875963.641 8 120213989.945 8     -2155.039          50.000    22875963.039 8  93673234.520 8     -1679.251          49.000
R07  20410918.016 6 109261227.406 6     -2086.785          36.000    20410921.797 6  84980966.387 6     -1623.052          36.000
R22  21211869.484 8 113230409.835 8     -3792.617          49.000    21211872.414 7  88068084.967 7     -2949.816          46.000
C12  23196756.188 7 120791570.650 7     -2302.473          46.000    23196753.086 8  93403746.714 8     -1780.439          50.000
C21  22070453.086 5 114926609.213 5       803.977          33.000
C22  22979423.195 6 119659877.567 6     -1719.516          40.000
E07  24564775.383 8 129088873.347 8     -1727.129          49.000    24564778.414 8  98912203.024 8     -1323.331          49.000
E19  26981158.141 7 141786948.583 7      2305.035          44.000    26981160.547 7 108641978.051 7      1766.202          43.000
E26  23927113.812 8 125737849.309 8     -2511.613          50.000    23927115.125 8  96344583.491 8     -1924.513          50.000
E33  23956063.281 6 125889977.349 6        90.547          41.000    23956065.727 7  96461151.642 7        69.605          44.000
> 2020 05 16 22 12  0.0000000  0 17        .000000000000
G01  23937441.109 7 125792091.162 7     -3646.211          44.000    23937445.078 7  98019831.535 7     -2841.203          43.000
G03  21290998.234 6 111884943.786 6     -1787.820          41.000    21290998.836 6  87183078.282 6     -1393.107          41.000
G04  20254267.266 8 106436920.793 8      -110.141          51.000    20254267.391 8  82937898.819 8       -85.824          51.000
G09  21220095.172 8 111512388.441 8      2158.539          51.000    21220096.102 8  86892781.627 8      1681.982          51.000
G17  22888291.211 8 120278772.468 8     -2163.605          49.000    22888290.383 8  93723714.437 8     -1685.926          49.000
G22  23283922.359 5 122357811.650 5     -2539.945          32.000
R07  20422622.586 6 109323892.707 6     -2090.465          38.000    20422628.281 5  85029706.107 5     -1625.920          35.000
R08  19875105.133 5 106430240.816 5       899.094          34.000
R22  21233214.258 8 113344349.633 8     -3803.117          49.000    21233217.359 7  88156704.804 7     -2957.983          47.000
R23  19958884.641 5 106766561.376 5       800.449          32.000
C12  23210045.859 7 120860775.750 7     -2311.008          46.000    23210043.820 8  93457260.491 8     -1786.951          51.000
C21  22065832.094 6 114902542.756 6       801.012          37.000
C22  22989335.797 6 119711490.226 6     -1721.066          40.000
E07  24574637.664 8 129140699.200 8     -1727.738          49.000    24574640.242 8  98951913.742 8     -1323.854          49.000
E19  26968002.141 7 141717811.150 7      2304.398          45.000    26968003.734 7 108589002.647 7      1765.750          43.000
E26  23941466.117 8 125813271.954 8     -2516.340          49.000    23941467.641 8  96402374.848 8     -1928.015          51.000
E33  23955574.836 7 125887411.670 7        80.668          42.000    23955577.789 7  96459185.742 7        61.796          44.000
> 2020 05 16 22 12 30.0000000  0 16        .000000000000
G01  23958295.625 7 125901679.194 7     -3654.125          43.000    23958298.961 7  98105224.789 7     -2847.373          43.000
G03  21301253.609 6 111938837.751 6     -1799.363          41.000    21301254.031 7  87225073.540 7     -1402.098          42.000
G04  20254967.586 8 106440601.615 8      -129.570          51.000    20254967.719 8  82940766.982 8      -100.964          50.000
G09  21207834.875 8 111447960.816 8      2142.262          51.000    21207836.258 8  86842578.294 8      1669.295          51.000
G17  22900702.984 8 120343998.227 8     -2179.195          49.000    22900702.336 8  93774539.692 8     -1698.074          49.000
R01  22448280.797 4 119998928.017 4      2916.730          29.000    22448285.758 4  93332517.852 4      2268.568          26.000
R07  20434385.695 6 109386863.197 6     -2101.797          40.000    20434390.508 5  85078683.160 5     -1634.734          33.000
R08  19870131.844 5 106403599.836 5       883.230          34.000
R22  21254653.344 8 113458791.965 8     -3820.637          50.000    21254656.344 7  88245715.511 7     -2971.606          47.000
C12  23223419.727 7 120930419.813 7     -2326.414          45.000    23223419.133 8  93511113.709 8     -1798.958          51.000
C21  22061267.930 6 114878771.972 6       789.887          37.000
C22  22999291.039 6 119763326.649 6     -1729.301          38.000
E07  24584540.078 8 129192736.232 8     -1735.727          48.000    24584542.391 8  98991786.277 8     -1329.963          49.000
E19  26954886.016 7 141648882.482 7      2296.609          45.000    26954887.188 7 108536187.221 7      1759.659          44.000
E26  23955880.625 7 125889025.461 7     -2528.301          46.000    23955883.750 8  96460419.755 8     -1937.204          51.000
E33  23955180.547 6 125885339.531 6        63.266          41.000    23955183.188 7  96457598.023 7        48.371          44.000
> 2020 05 16 22 13  0.0000000  0 16        .000000000000
G01  23979163.438 6 126011338.754 6     -3654.742          40.000    23979166.203 6  98190673.777 6     -2847.851          40.000
G03  21311542.586 6 111992906.868 6     -1803.426          40.000    21311543.086 6  87267205.379 6     -1405.267          40.000
G04  20255746.414 8 106444694.571 8      -141.504          51.000    20255746.523 8  82943956.311 8      -110.260          51.000
G09  21195634.844 8 111383850.286 8      2133.320          51.000    21195636.336 8  86792622.042 8      1662.328          51.000
G17  22913171.922 8 120409522.330 8     -2187.352          50.000    22913171.117 8  93825597.465 8     -1704.430          50.000
G19  22464907.852 5 118053890.470 5     -1479.543          31.000
G22  23313010.414 5 122510686.670 5     -2549.309          34.000
R07  20446179.492 6 109449991.984 6     -2105.145          40.000    20446182.070 5  85127783.306 5     -1637.335          32.000
R22  21276159.094 8 113573587.788 8     -3830.652          50.000    21276161.594 7  88335001.134 7     -2979.396          47.000
C12  23236850.297 7 121000359.343 7     -2334.527          44.000    23236851.000 8  93565195.449 8     -1805.208          51.000
C21  22056732.523 6 114855155.226 6       786.570          37.000
C22  23009261.711 5 119815244.917 5     -1729.977          32.000
E07  24594455.359 7 129244840.716 7     -1736.137          47.000    24594457.672 8  99031710.483 8     -1330.311          49.000
E19  26941782.445 7 141580020.156 7      2296.004          44.000    26941783.539 7 108483422.607 7      1759.300          44.000
E26  23970330.523 7 125964965.768 7     -2532.770          45.000    23970335.828 8  96518607.800 8     -1940.673          51.000
E33  23954852.875 6 125883618.697 6        53.344          41.000    23954855.359 7  96456279.422 7        40.802          45.000
> 2020 05 16 22 13 30.0000000  0 16        .000000000000
G01  24000072.562 6 126121219.291 6     -3664.414          36.000    24000075.672 6  98276295.000 6     -2855.385          36.000
G03  21321893.586 6 112047302.161 6     -1816.828          40.000    21321894.766 6  87309591.346 6     -1415.710          40.000
G04  20256632.320 8 106449350.179 8      -162.625          51.000    20256632.383 8  82947584.061 8      -126.721          51.000
G09  21183524.195 8 111320209.092 8      2115.594          51.000    21183525.312 8  86743031.523 8      1648.515          51.000
G17  22925725.906 8 120475493.163 8     -2204.477          51.000    22925724.828 8  93877003.301 8     -1717.774          51.000
G22  23327607.586 5 122587397.112 5     -2559.102          34.000
R07  20458031.359 6 109513431.594 6     -2118.141          39.000    20458030.953 5  85177125.270 5     -1647.440          31.000
R08  19860360.320 4 106351326.903 4       857.316          29.000
R22  21297759.242 8 113688887.227 8     -3849.770          50.000    21297761.203 8  88424678.451 8     -2994.265          48.000
C12  23250366.117 7 121070742.283 7     -2351.617          43.000    23250367.977 8  93619620.040 8     -1818.350          51.000
C21  22052255.508 6 114831842.508 6       774.078          38.000
C22  23019276.156 4 119867394.544 4     -1740.176          29.000
E07  24604411.977 7 129297163.062 7     -1745.750          46.000    24604414.484 8  99071801.636 8     -1337.653          49.000
E19  26928720.109 7 141511375.996 7      2286.480          44.000    26928721.266 7 108430825.163 7      1751.823          44.000
E26  23984845.656 8 126041242.934 8     -2546.215          48.000    23984852.102 8  96577053.966 8     -1951.023          51.000
E33  23954621.305 7 125882400.991 7        34.227          43.000    23954622.891 7  96455346.360 7        26.166          44.000
> 2020 05 16 22 14  0.0000000  0 14        .000000000000
G01  24021002.711 5 126231217.603 5     -3668.984          32.000    24021007.914 5  98362008.077 5     -2858.943          31.000
G03  21332286.844 6 112101921.837 6     -1823.801          37.000    21332287.914 6  87352152.244 6     -1421.143          36.000
G04  20257605.883 8 106454466.243 8      -178.113          51.000    20257606.016 8  82951570.611 8      -138.787          51.000
G09  21171483.930 8 111256936.828 8      2102.984          51.000    21171484.359 8  86693728.472 8      1638.692          51.000
G17  22938345.109 8 120541806.609 8     -2216.094          50.000    22938343.688 8  93928676.098 8     -1726.826          50.000
G22  23342227.688 5 122664228.504 5     -2562.785          35.000    23342229.555 5  95582555.990 5     -1996.975          30.000
R07  20469921.469 5 109577077.534 5     -2124.688          34.000    20469919.328 4  85226627.663 4     -1652.535          28.000
R22  21319432.906 8 113804582.812 8     -3863.047          49.000    21319435.242 8  88514663.890 8     -3004.592          48.000
C12  23263947.180 7 121141466.063 7     -2363.289          43.000    23263950.398 8  93674308.117 8     -1827.212          51.000
C21  22047817.820 6 114808733.387 6       767.074          40.000
E07  24614390.461 7 129349601.013 7     -1749.766          45.000    24614393.234 8  99111981.383 8     -1340.712          49.000
E19  26915679.734 7 141442848.865 7      2282.387          43.000    26915681.133 7 108378317.366 7      1748.803          44.000
E26  23999406.352 8 126117754.339 8     -2554.137          50.000    23999412.750 8  96635679.586 8     -1957.078          51.000
E33  23954466.508 7 125881585.506 7        20.672          44.000    23954466.602 7  96454721.525 7        15.693          44.000
> 2020 05 16 22 14 30.0000000  0 14        .000000000000
G01  24041962.688 5 126341368.443 5     -3675.801          33.000    24041969.305 5  98447839.952 5     -2864.257          33.000
G03  21342729.523 6 112156802.443 6     -1835.410          37.000    21342731.586 6  87394916.373 6     -1430.190          37.000
G04  20258673.922 8 106460078.485 8      -196.914          51.000    20258674.008 8  82955943.802 8      -153.436          51.000
G09  21159521.125 8 111194070.929 8      2087.141          51.000    21159521.172 8  86644742.094 8      1626.343          51.000
G17  22951035.773 8 120608496.861 8     -2230.871          49.000    22951034.367 8  93980642.508 8     -1738.341          49.000
R07  20481856.148 6 109640965.598 6     -2135.352          36.000    20481846.969 4  85276276.879 4     -1660.826          25.000
R22  21341185.945 8 113920708.098 8     -3879.602          48.000    21341189.328 8  88604983.557 8     -3017.468          48.000
C12  23277600.617 7 121212564.775 7     -2377.668          43.000    23277603.781 8  93729286.158 8     -1838.636          51.000
C21  22043426.148 6 114785864.103 6       756.703          40.000
C22  23039382.742 5 119972114.417 5     -1752.527          34.000
E07  24624397.836 7 129402190.268 7     -1757.074          45.000    24624400.688 8  99152277.069 8     -1346.363          48.000
E19  26902668.656 7 141374475.553 7      2274.953          44.000    26902670.289 7 108325927.435 7      1743.131          44.000
E26  24014018.625 8 126194535.241 8     -2565.465          51.000    24014024.219 8  96694511.712 8     -1965.716          51.000
E33  23954395.211 7 125881209.371 7         3.703          44.000    23954394.148 7  96454433.323 7         2.846          45.000
> 2020 05 16 22 15  0.0000000  0 14        .000000000000
G01  24062950.148 6 126451652.855 6     -3677.750          37.000    24062956.148 6  98533775.871 6     -2865.779          37.000
G03  21353219.156 6 112211926.074 6     -1840.492          39.000    21353221.461 6  87437870.004 6     -1434.144          39.000
G04  20259832.828 8 106466168.886 8      -210.191          51.000    20259832.547 8  82960689.585 8      -163.782          50.000
G09  21147632.562 8 111131595.223 8      2076.719          51.000    21147632.406 8  86596059.743 8      1618.222          51.000
G17  22963794.211 7 120675544.250 7     -2239.977          46.000    22963793.234 7  94032887.238 7     -1745.436          46.000
R07  20493832.836 6 109705076.497 6     -2139.828          36.000    20493833.773 4  85326161.405 4     -1664.314          28.000
R22  21363016.211 8 114037241.344 8     -3890.340          50.000    21363019.648 8  88695620.538 8     -3025.820          48.000
C12  23291322.867 7 121284019.387 7     -2386.918          44.000    23291325.016 8  93784539.408 8     -1845.692          51.000
C21  22039077.945 7 114763217.751 7       752.039          42.000
C22  23049490.086 6 120024709.099 6     -1755.000          36.000
E07  24634430.539 7 129454912.807 7     -1758.871          45.000    24634433.398 8  99192674.859 8     -1347.730          48.000
E19  26889683.609 7 141306239.394 7      2273.074          43.000    26889685.664 7 108273642.616 7      1741.575          45.000
E26  24028678.375 8 126271567.195 8     -2571.168          51.000    24028682.883 8  96753536.203 8     -1970.068          51.000
E33  23954403.953 7 125881255.958 7        -7.793          43.000    23954403.008 7  96454469.016 7        -5.968          46.000
> 2020 05 16 22 15 30.0000000  0 15        .000000000000
G01  24083962.562 6 126562067.847 6     -3682.488          39.000    24083967.758 6  98619813.532 6     -2869.471          39.000
G03  21363755.445 7 112267291.711 7     -1849.293          43.000    21363757.820 7  87481012.147 7     -1441.004          42.000
G04  20261082.500 8 106472735.497 8      -226.637          51.000    20261081.812 8  82965806.433 8      -176.600          50.000
G09  21135817.961 8 111069509.537 8      2063.113          51.000    21135818.086 8  86547681.286 8      1607.624          51.000
G17  22976619.750 7 120742945.083 7     -2252.387          46.000    22976619.445 7  94085407.388 7     -1755.103          46.000
R01  22350745.617 5 119477527.000 5      2876.883          31.000
R07  20505851.219 6 109769408.336 6     -2147.844          39.000    20505851.945 4  85376197.205 4     -1670.545          28.000
R22  21384922.797 8 114154177.790 8     -3904.379          51.000    21384925.891 8  88786571.073 8     -3036.739          49.000
C12  23305113.555 7 121355826.621 7     -2399.285          46.000    23305114.250 8  93840065.322 8     -1855.216          51.000
C21  22034771.734 6 114740793.276 6       743.840          41.000
C22  23059620.891 6 120077451.009 6     -1759.871          36.000
E07  24644488.266 7 129507766.660 7     -1763.844          45.000    24644491.062 8  99233173.272 8     -1351.481          48.000
E19  26876724.422 7 141238139.687 7      2267.844          43.000    26876727.172 7 108221462.348 7      1737.758          45.000
E26  24043384.922 8 126348847.834 8     -2579.988          51.000    24043388.203 8  96812751.252 8     -1976.808          51.000
E33  23954492.828 7 125881724.657 7       -22.516          43.000    23954493.094 7  96454828.116 7       -17.240          47.000
> 2020 05 16 22 16  0.0000000  0 14        .000000000000
G01  24105002.047 6 126672624.761 6     -3687.992          40.000    24105006.047 6  98705961.816 6     -2873.757          40.000
G03  21374340.453 6 112322912.159 6     -1859.035          40.000    21374342.836 6  87524352.827 6     -1448.596          41.000
G04  20262425.195 8 106479790.731 8      -243.930          51.000    20262424.516 8  82971304.040 8      -190.075          50.000
G09  21124080.188 8 111007827.955 8      2048.598          51.000    21124080.914 8  86499617.726 8      1596.313          51.000
G17  22989514.945 8 120810710.182 8     -2265.359          48.000    22989515.094 8  94138211.361 8     -1765.215          48.000
R07  20517913.180 6 109833972.556 6     -2156.727          36.000    20517908.719 4  85426413.859 4     -1677.451          27.000
R22  21406906.633 8 114271526.669 8     -3919.141          50.000    21406909.703 8  88877842.427 8     -3048.220          49.000
C12  23318974.281 7 121427997.663 7     -2412.344          47.000    23318973.672 8  93895872.523 8     -1865.450          51.000
C21  22030509.289 6 114718603.656 6       735.102          40.000
C22  23069778.789 6 120130352.755 6     -1766.652          37.000
E07  24654573.461 7 129560764.191 7     -1769.770          44.000    24654576.086 7  99273781.795 7     -1356.003          47.000
E19  26863793.930 7 141170189.872 7      2261.691          43.000    26863797.227 7 108169396.925 7      1733.005          46.000
E26  24058140.461 8 126426389.130 8     -2589.754          51.000    24058142.578 8  96872166.014 8     -1984.441          50.000
E33  23954664.914 7 125882629.159 7       -38.152          44.000    23954665.945 7  96455521.154 7       -29.183          47.000
> 2020 05 16 22 16 30.0000000  0 15        .000000000000
G01  24126067.125 6 126783317.870 6     -3692.336          38.000    24126070.219 6  98792216.201 6     -2877.145          38.000
G03  21384972.922 6 112378783.185 6     -1866.887          41.000    21384974.695 6  87567888.676 6     -1454.720          41.000
G04  20263859.805 8 106487329.680 8      -259.523          51.000    20263858.859 8  82977178.581 8      -202.226          49.000
G09  21112418.852 8 110946547.440 8      2035.832          51.000    21112420.094 8  86451866.704 8      1586.363          51.000
G17  23002478.430 8 120878832.315 8     -2276.805          50.000    23002478.742 8  94191293.555 8     -1774.130          50.000
R07  20530016.219 6 109898763.860 6     -2163.621          37.000    20530013.984 4  85476807.141 4     -1682.813          28.000
R22  21428965.922 8 114389280.044 8     -3932.055          50.000    21428969.539 8  88969428.412 8     -3058.262          50.000
R23  19925025.297 5 106585452.826 5       544.672          34.000
C12  23332903.664 7 121500526.349 7     -2423.719          47.000    23332902.117 8  93951956.280 8     -1874.137          51.000
C21  22026292.242 6 114696645.251 6       727.711          39.000
C22  23079967.453 6 120183409.918 6     -1771.367          36.000
E07  24664685.102 7 129613900.610 7     -1773.641          43.000    24664687.414 7  99314496.712 7     -1359.038          47.000
E19  26850891.141 7 141102386.269 7      2257.555          43.000    26850894.750 7 108117443.533 7      1729.785          45.000
E26  24072944.297 8 126504185.823 8     -2597.621          51.000    24072945.492 8  96931776.441 8     -1990.403          50.000
E33  23954919.625 7 125883965.963 7       -51.996          45.000    23954920.492 7  96456545.472 7       -39.790          47.000
> 2020 05 16 22 17  0.0000000  0 16        .000000000000
G01  24147156.664 6 126894140.895 6     -3696.156          38.000    24147159.172 6  98878571.809 6     -2880.122          38.000
G03  21395651.945 6 112434899.990 6     -1874.828          41.000    21395652.859 6  87611616.108 6     -1460.905          40.000
G04  20265385.531 8 106495347.140 8      -275.383          51.000    20265384.195 8  82983425.963 8      -214.584          49.000
G09  21100833.094 8 110885664.485 8      2022.707          51.000    21100834.648 8  86404425.463 8      1576.135          51.000
G17  23015508.547 8 120947304.709 8     -2288.285          50.000    23015508.695 8  94244648.659 8     -1783.079          50.000
G22  23430541.148 5 123128324.108 5     -2592.586          32.000
R07  20542159.695 5 109963776.513 5     -2171.102          31.000    20542162.539 5  85527372.576 5     -1688.635          31.000
R22  21451099.258 8 114507429.722 8     -3944.895          50.000    21451103.203 8  89061322.620 8     -3068.251          49.000
R23  19922054.664 6 106569535.586 6       516.617          36.000
C12  23346899.914 7 121573406.286 7     -2435.207          47.000    23346898.281 8  94008311.664 8     -1883.020          51.000
C21  22022118.180 6 114674913.707 6       720.723          38.000
C22  23090185.352 6 120236617.578 6     -1775.641          36.000
E07  24674822.195 7 129667170.707 7     -1778.008          44.000    24674824.398 7  99355314.053 7     -1362.235          46.000
E19  26838015.375 7 141034724.934 7      2253.031          44.000    26838018.773 7 108065599.139 7      1726.277          44.000
E26  24087795.828 8 126582232.234 8     -2605.695          51.000    24087796.445 8  96991578.229 8     -1996.536          50.000
E33  23955255.875 7 125885731.162 7       -65.898          46.000    23955256.977 8  96457898.045 8       -50.577          48.000
> 2020 05 16 22 17 30.0000000  0 16        .000000000000
G01  24168269.477 6 127005087.477 6     -3702.711          38.000    24168271.578 6  98965023.713 6     -2885.226          38.000
G03  21406376.219 6 112491257.833 6     -1884.906          38.000    21406376.820 6  87655531.317 6     -1468.758          38.000
G04  20267001.078 8 106503837.712 8      -293.262          51.000    20267000.227 8  82990042.015 8      -228.516          50.000
G09  21089322.125 8 110825175.534 8      2007.297          50.000    21089323.812 8  86357291.218 8      1564.124          51.000
G17  23028603.930 8 121016120.956 8     -2301.895          49.000    23028603.844 8  94298271.707 8     -1793.684          49.000
G19  22545455.930 5 118477170.242 5     -1651.656          33.000
G22  23445356.586 5 123206168.981 5     -2599.090          30.000
R22  21473305.195 8 114625966.949 8     -3960.156          51.000    21473309.109 8  89153518.239 8     -3080.122          48.000
R23  19919239.750 5 106554457.509 5       485.984          35.000
C12  23360961.812 7 121646630.912 7     -2448.867          47.000    23360960.953 8  94064933.590 8     -1893.635          51.000
C21  22017985.812 6 114653404.487 6       710.895          37.000
C22  23100430.922 6 120289971.224 6     -1783.398          37.000
E07  24684983.820 7 129720569.145 7     -1784.398          43.000    24684985.938 7  99396229.735 7     -1367.317          46.000
E19  26825166.227 7 140967201.854 7      2246.105          44.000    26825168.625 7 108013860.677 7      1721.000          43.000
E26  24102693.961 8 126660522.604 8     -2616.168          51.000    24102694.391 8  97051566.946 8     -2004.575          51.000
E33  23955672.578 7 125887920.762 7       -82.562          46.000    23955674.273 7  96459575.786 7       -63.244          47.000
> 2020 05 16 22 18  0.0000000  0 15        .000000000000
G01  24189412.992 6 127116198.451 6     -3705.441          38.000    24189415.633 6  99051603.719 6     -2887.354          39.000
G03  21417154.500 6 112547899.061 6     -1892.004          40.000    21417155.914 6  87699667.339 6     -1474.289          40.000
G04  20268714.773 8 106512843.139 8      -307.887          51.000    20268714.258 8  82997059.229 8      -239.912          50.000
G09  21077894.594 8 110765124.091 8      1995.184          51.000    21077896.000 8  86310497.881 8      1554.689          51.000
G17  23041772.047 8 121085320.623 8     -2312.332          48.000    23041771.898 8  94352193.541 8     -1801.817          48.000
R07  20566599.750 5 110094553.324 5     -2186.410          34.000    20566580.289 5  85629089.821 5     -1700.535          31.000
R22  21495591.320 8 114744930.954 8     -3971.625          50.000    21495595.039 8  89246045.780 8     -3089.042          48.000
R23  19916584.625 5 106540263.131 5       458.914          31.000
C12  23375097.344 7 121720240.303 7     -2459.371          46.000    23375097.641 8  94121853.025 8     -1901.657          51.000
C21  22013904.852 6 114632159.957 6       704.848          38.000
C22  23110712.461 6 120343512.309 6     -1787.203          38.000
E07  24695177.672 6 129774137.760 6     -1787.555          41.000    24695179.992 7  99437275.779 7     -1369.694          46.000
E19  26812351.703 7 140899859.845 7      2242.531          45.000    26812352.758 7 107962260.983 7      1718.387          43.000
E26  24117646.414 8 126739098.299 8     -2623.156          51.000    24117646.945 8  97111774.303 8     -2009.966          51.000
E33  23956177.992 7 125890577.790 7       -95.527          47.000    23956179.719 7  96461611.697 7       -73.181          47.000
> 2020 05 16 22 18 30.0000000  0 14        .000000000000
G01  24210580.711 6 127227439.474 6     -3710.312          37.000    24210584.805 6  99138285.076 6     -2891.150          37.000
G03  21427980.422 6 112604790.858 6     -1900.676          39.000    21427982.039 6  87743998.669 6     -1481.043          40.000
G04  20270520.133 8 106522329.930 8      -324.270          51.000    20270519.633 8  83004451.550 8      -252.678          51.000
G09  21066544.555 8 110705478.433 8      1981.398          51.000    21066545.586 8  86264020.771 8      1543.947          51.000
G17  23055006.469 8 121154868.251 8     -2323.996          49.000    23055006.234 8  94406386.510 8     -1810.906          49.000
R01  22254610.016 5 118963643.389 5      2833.578          30.000
R22  21517950.484 8 114864285.010 8     -3984.965          50.000    21517954.086 8  89338876.708 8     -3099.417          48.000
C12  23389300.273 7 121794200.173 7     -2471.227          47.000    23389301.359 8  94179043.515 8     -1910.885          51.000
C21  22009869.055 6 114611148.043 6       696.500          41.000
C22  23121023.570 6 120397208.354 6     -1792.480          38.000
E07  24705397.180 6 129827843.140 6     -1792.367          40.000    24705399.938 7  99478426.645 7     -1373.459          45.000
E19  26799565.891 7 140832666.834 7      2237.277          46.000    26799565.141 7 107910775.481 7      1714.394          42.000
E26  24132646.445 8 126817925.476 8     -2631.918          50.000    24132647.492 8  97172174.347 8     -2016.536          51.000
E33  23956766.562 8 125893670.222 8      -110.402          48.000    23956767.766 7  96463981.231 7       -84.654          47.000
> 2020 05 16 22 19  0.0000000  0 16        .000000000000
G01  24231763.102 6 127338756.680 6     -3712.086          38.000    24231768.305 6  99225025.823 6     -2892.531          38.000
G03  21438843.844 6 112661880.996 6     -1906.691          36.000    21438844.797 5  87788484.497 5     -1485.734          35.000
G04  20272406.953 8 106532245.233 8      -337.707          51.000    20272406.789 8  83012177.759 8      -263.148          51.000
G09  21055262.109 8 110646187.494 8      1970.273          51.000    21055263.070 8  86217820.076 8      1535.281          51.000
G17  23068296.969 8 121224709.230 8     -2333.117          50.000    23068296.203 8  94460808.058 8     -1818.013          50.000
G19  22574173.703 6 118628080.233 6     -1702.398          36.000
G22  23489970.352 4 123440626.622 4     -2610.480          29.000
R22  21540371.703 8 114983972.038 8     -3995.250          49.000    21540375.352 7  89431966.646 7     -3107.417          47.000
R23  19911738.609 5 106514352.154 5       405.145          31.000
C12  23403560.141 7 121868456.782 7     -2480.305          46.000    23403561.914 8  94236463.479 8     -1917.935          51.000
C21  22005867.922 6 114590317.226 6       690.969          39.000
C22  23131354.523 6 120451007.473 6     -1795.078          37.000
E07  24715632.039 6 129881632.518 6     -1794.555          36.000    24715635.672 7  99519641.871 7     -1375.001          44.000
E19  26786798.688 7 140765571.103 7      2234.887          46.000    26786796.430 7 107859364.517 7      1712.257          42.000
E26  24147683.961 8 126896950.874 8     -2637.723          49.000    24147685.789 8  97232726.273 8     -2021.085          51.000
E33  23957428.336 8 125897146.500 8      -122.559          48.000    23957428.914 7  96466644.855 7       -93.885          47.000
> 2020 05 16 22 19 30.0000000  0 16        .000000000000
G01  24252971.414 6 127450205.490 6     -3716.738          40.000    24252976.250 6  99311869.066 6     -2896.160          40.000
G03  21449755.859 6 112719226.276 6     -1915.961          37.000    21449756.672 6  87833169.182 6     -1492.957          37.000
G04  20274386.078 8 106542645.256 8      -354.562          51.000    20274386.023 8  83020281.686 8      -276.279          51.000
G09  21044057.875 8 110587309.253 8      1955.992          50.000    21044059.109 8  86171940.957 8      1524.150          50.000
G17  23081653.719 8 121294898.301 8     -2345.105          51.000    23081652.102 8  94515500.841 8     -1827.355          51.000
G19  22583954.141 5 118679451.191 5     -1721.109          35.000
R07  20603526.203 4 110292311.217 4     -2206.992          29.000    20603511.906 5  85782843.932 5     -1716.546          32.000
R22  21562865.734 8 115104046.160 8     -4008.660          49.000    21562868.484 7  89525357.641 7     -3117.847          46.000
R23  19909544.805 5 106502683.608 5       375.465          31.000
C12  23417888.141 7 121943064.684 7     -2492.492          47.000    23417890.000 8  94294155.088 8     -1927.386          51.000
C21  22001913.039 6 114569724.148 6       682.828          40.000
C22  23141716.086 6 120504966.011 6     -1800.934          36.000
E07  24725893.531 5 129935447.114 5     -1799.918          32.000    24725897.797 7  99560964.658 7     -1379.086          44.000
E19  26774060.633 7 140698630.291 7      2229.062          45.000    26774058.242 7 107808072.261 7      1707.926          43.000
E26  24162769.977 8 126976230.350 8     -2646.688          48.000    24162772.711 8  97293472.883 8     -2027.999          51.000
E33  23958173.953 8 125901064.142 8      -137.711          48.000    23958173.781 7  96469646.674 7      -105.498          47.000
> 2020 05 16 22 20  0.0000000  0 14        .000000000000
G01  24274221.469 7 127561871.694 7     -3724.980          42.000    24274224.562 6  99398881.647 6     -2902.588          38.000
G03  21460733.492 5 112776914.318 5     -1928.281          33.000    21460734.852 5  87878120.823 5     -1502.566          32.000
G04  20276473.922 8 106553616.697 8      -374.445          51.000    20276473.906 8  83028830.875 8      -291.776          51.000
G09  21032948.789 8 110528932.270 8      1938.348          50.000    21032950.195 8  86126452.407 8      1510.401          50.000
G17  23095092.891 8 121365520.510 8     -2360.359          50.000    23095090.758 8  94570531.128 8     -1839.241          50.000
R07  20615921.555 5 110358627.668 5     -2218.617          31.000    20615919.047 5  85834490.189 5     -1725.591          33.000
R22  21585448.984 8 115224592.536 8     -4025.234          50.000    21585450.656 7  89619115.916 7     -3130.741          45.000
C12  23432300.852 8 122018108.633 8     -2507.953          49.000    23432301.383 8  94352183.850 8     -1939.390          51.000
C21  21998021.352 6 114549455.823 6       670.844          41.000
C22  23152124.539 6 120559170.180 6     -1810.145          36.000
E07  24736199.734 5 129989603.972 5     -1808.270          34.000    24736203.008 7  99602461.505 7     -1385.644          43.000
E19  26761368.422 7 140631932.416 7      2219.941          44.000    26761366.828 7 107756966.141 7      1701.054          43.000
E26  24177921.133 8 127055850.265 8     -2658.922          48.000    24177924.586 8  97354480.335 8     -2037.443          51.000
E33  23959020.156 8 125905511.300 8      -156.301          48.000    23959019.516 7  96473054.241 7      -119.868          47.000
> 2020 05 16 22 20 30.0000000  0 15        .000000000000
G01  24295474.656 6 127673553.543 6     -3724.352          41.000    24295476.961 6  99485906.296 6     -2902.098          40.000
G03  21471738.633 6 112834744.495 6     -1931.535          36.000    21471739.680 5  87923183.337 5     -1505.089          34.000
G04  20278632.250 8 106564958.719 8      -385.625          51.000    20278632.258 8  83037668.822 8      -300.487          51.000
G09  21021897.094 8 110470857.362 8      1929.500          49.000    21021898.500 8  86081199.253 8      1503.506          49.000
G17  23108575.727 8 121436373.617 8     -2366.977          48.000    23108573.781 8  94625741.323 8     -1844.397          48.000
G22  23534844.281 5 123676455.206 5     -2625.465          33.000
R07  20628347.852 5 110425152.722 5     -2220.051          31.000    20628345.398 5  85886231.844 5     -1726.709          33.000
R22  21608081.570 8 115345404.143 8     -4032.930          49.000    21608082.500 7  89713080.450 7     -3136.723          43.000
C12  23446758.992 8 122093388.421 8     -2514.613          50.000    23446756.969 8  94410394.949 8     -1944.440          48.000
C21  21994154.000 6 114529314.134 6       667.902          41.000
C22  23162541.734 5 120613421.746 5     -1810.570          33.000
E07  24746510.938 6 130043787.414 6     -1807.902          38.000    24746513.344 7  99643978.666 7     -1385.324          42.000
E19  26748683.906 7 140565277.777 7      2219.762          43.000    26748683.516 7 107705893.133 7      1700.898          42.000
E26  24193098.836 8 127135609.382 8     -2662.332          48.000    24193102.883 8  97415594.454 8     -2039.993          51.000
E33  23959929.094 8 125910288.387 8      -166.086          49.000    23959928.320 7  96476714.610 7      -127.273          47.000
> 2020 05 16 22 21  0.0000000  0 17        .000000000000
G01  24316762.773 6 127785420.221 6     -3730.781          40.000    24316766.625 6  99573075.101 6     -2907.099          40.000
G03  21482803.453 6 112892887.898 6     -1942.086          38.000    21482804.070 6  87968489.843 6     -1513.314          38.000
G04  20280893.484 8 106576841.357 8      -403.895          51.000    20280893.492 8  83046928.018 8      -314.723          51.000
G09  21010935.742 8 110413256.446 8      1913.352          49.000    21010937.078 8  86036315.433 8      1490.923          49.000
G17  23122134.242 8 121507625.429 8     -2380.660          48.000    23122132.781 8  94681262.241 8     -1855.057          48.000
R01  22175561.961 5 118541084.399 5      2799.215          31.000
R07  20640826.875 5 110491959.298 5     -2230.801          32.000    20640824.750 5  85938192.515 5     -1735.067          32.000
R08  19796056.984 4 106006946.411 4       672.555          29.000
R22  21630794.320 7 115466650.291 7     -4047.621          44.000    21630795.188 6  89807382.985 6     -3148.150          41.000
R23  19903987.617 5 106472879.508 5       287.461          32.000
C12  23461293.828 8 122169071.289 8     -2528.340          49.000    23461289.078 7  94468917.710 7     -1955.079          47.000
C21  21990343.000 6 114509468.705 6       657.547          39.000
C22  23173002.555 6 120667889.573 6     -1818.125          38.000
E07  24756859.523 6 130098167.537 6     -1815.031          37.000    24756861.562 7  99685646.557 7     -1390.583          42.000
E19  26736040.281 7 140498837.845 7      2212.207          43.000    26736040.570 7 107654984.638 7      1695.089          42.000
E26  24208334.953 7 127215677.389 7     -2672.844          47.000    24208339.742 8  97476945.280 8     -2048.041          51.000
E33  23960933.281 8 125915566.818 8      -183.051          49.000    23960932.922 8  96480759.124 8      -140.209          48.000
> 2020 05 16 22 21 30.0000000  0 14        .000000000000
G01  24338066.414 6 127897368.164 6     -3732.863          41.000    24338070.516 7  99660307.275 7     -2908.725          42.000
G03  21493907.906 6 112951242.488 6     -1948.695          37.000    21493908.672 6  88013960.966 6     -1518.464          38.000
G04  20283237.969 8 106589161.998 8      -418.062          51.000    20283238.273 8  83056528.530 8      -325.763          51.000
G09  21000045.969 8 110356028.715 8      1901.477          51.000    21000047.305 8  85991722.379 8      1481.670          51.000
G17  23135748.961 8 121579171.852 8     -2389.867          49.000    23135747.852 8  94737012.719 8     -1862.234          49.000
R07  20653340.852 5 110558942.769 5     -2235.551          33.000    20653336.219 5  85990290.691 5     -1738.768          32.000
R22  21653566.281 6 115588223.995 6     -4057.832          41.000    21653569.656 7  89901940.345 7     -3156.089          42.000
C12  23475885.117 7 122245054.322 7     -2537.812          47.000    23475878.883 7  94527672.545 7     -1962.286          47.000
C21  21986569.617 6 114489818.818 6       651.289          36.000
C22  23183486.406 5 120722472.528 5     -1822.027          33.000
E07  24767225.812 6 130152641.938 6     -1817.285          36.000    24767228.445 6  99727386.692 6     -1392.516          41.000
E19  26723418.602 7 140432511.379 7      2209.047          43.000    26723419.164 7 107604163.101 7      1692.769          42.000
E26  24223610.219 8 127295951.353 8     -2679.203          48.000    24223615.633 8  97538453.931 8     -2052.821          51.000
E33  23962013.945 8 125921245.341 8      -195.852          50.000    23962014.094 8  96485110.204 8      -150.143          49.000
> 2020 05 16 22 22  0.0000000  0 15        .000000000000
G01  24359384.578 6 128009392.331 6     -3736.590          39.000    24359387.977 6  99747598.856 6     -2911.625          39.000
G03  21505052.242 6 113009804.722 6     -1957.027          38.000    21505052.172 6  88059593.869 6     -1524.956          38.000
G04  20285665.039 8 106601916.390 8      -433.719          51.000    20285665.336 8  83066467.017 8      -337.963          51.000
G09  20989227.023 8 110299171.602 8      1887.809          51.000    20989228.141 8  85947418.148 8      1471.020          51.000
G17  23149418.945 8 121651006.739 8     -2400.637          51.000    23149417.531 8  94792987.962 8     -1870.626          51.000
G19  22634371.812 6 118944380.876 6     -1809.516          37.000
R07  20665886.047 4 110626098.349 4     -2242.125          29.000    20665881.906 5  86042522.813 5     -1743.875          32.000
R22  21676400.547 7 115710118.020 7     -4069.879          43.000    21676405.734 7  89996746.817 7     -3165.461          43.000
C12  23490531.922 7 122321332.179 7     -2548.816          46.000    23490527.273 8  94586655.428 8     -1970.834          48.000
C21  21982834.164 6 114470361.402 6       644.516          38.000
C22  23193985.008 5 120777193.314 5     -1826.414          30.000
E07  24777609.000 5 130207206.598 5     -1821.410          34.000    24777612.844 6  99769195.969 6     -1395.635          41.000
E19  26710818.305 7 140366295.317 7      2204.047          43.000    26710818.398 6 107553426.148 6      1688.878          41.000
E26  24238924.453 8 127376426.735 8     -2687.191          50.000    24238929.742 8  97600116.902 8     -2058.999          51.000
E33  23963170.320 8 125927321.042 8      -210.453          49.000    23963170.945 8  96489765.613 8      -161.238          50.000
> 2020 05 16 22 22 30.0000000  0 16        .000000000000
G01  24380728.320 6 128121552.550 6     -3740.391          38.000    24380731.016 6  99834996.413 6     -2914.593          39.000
G03  21516248.164 5 113068635.898 5     -1965.883          34.000    21516247.969 5  88105436.365 5     -1531.857          35.000
G04  20288186.156 8 106615165.179 8      -449.691          51.000    20288186.383 8  83076790.754 8      -350.409          51.000
G09  20978490.281 8 110242747.598 8      1873.734          51.000    20978491.000 8  85903451.412 8      1460.053          51.000
G17  23163155.258 8 121723189.506 8     -2411.520          50.000    23163153.062 8  94849234.268 8     -1879.109          50.000
G19  22644755.453 6 118998924.093 6     -1826.855          40.000
R01  22128594.719 5 118290035.172 5      2779.523          31.000
R08  19785033.141 5 105947954.950 5       637.707          31.000    19785033.039 4  82403965.695 4       495.991          25.000
R22  21699307.484 7 115832390.685 7     -4081.781          45.000    21699312.695 7  90091847.820 7     -3174.719          44.000
R23  19899832.133 5 106450700.614 5       204.215          31.000
C12  23505247.180 7 122397963.704 7     -2560.004          47.000    23505244.875 8  94645911.808 8     -1979.588          51.000
C21  21979146.984 6 114451157.603 6       636.047          38.000
E07  24788020.594 5 130261928.329 5     -1825.496          33.000    24788025.266 6  99811121.036 6     -1399.439          40.000
E19  26698250.695 7 140300251.723 7      2198.672          42.000    26698249.883 6 107502821.347 6      1684.706          40.000
E26  24254288.828 8 127457163.822 8     -2695.426          51.000    24254293.516 8  97661980.378 8     -2065.329          51.000
E33  23964413.859 8 125933855.956 8      -225.246          49.000    23964414.945 8  96494772.879 8      -172.699          50.000
> 2020 05 16 22 23  0.0000000  0 16        .000000000000
G01  24402094.477 6 128233832.235 6     -3744.621          38.000    24402096.477 6  99922487.093 6     -2917.884          38.000
G03  21527492.750 5 113127743.213 5     -1974.234          32.000    21527491.195 5  88151476.757 5     -1538.364          31.000
G04  20290798.367 8 106628892.686 8      -465.348          51.000    20290798.820 8  83087487.518 8      -362.609          51.000
G09  20967832.984 8 110186742.784 8      1860.082          51.000    20967833.383 8  85859811.286 8      1449.412          51.000
G17  23176954.227 8 121795702.360 8     -2422.363          48.000    23176951.516 8  94905737.786 8     -1887.556          48.000
G19  22655236.305 6 119053995.074 6     -1844.203          40.000
G22  23610153.836 5 124072200.281 5     -2650.465          31.000
R01  22113017.688 5 118206770.787 5      2772.680          31.000
R08  19781498.328 5 105929024.639 5       625.672          31.000
R22  21722282.570 7 115955023.355 7     -4093.336          46.000    21722285.891 7  90187228.781 7     -3183.706          43.000
C12  23520027.633 7 122474932.123 7     -2571.008          47.000    23520027.336 8  94705428.680 8     -1987.994          51.000
C21  21975505.109 6 114432192.809 6       628.602          36.000
E07  24798456.180 5 130316767.701 5     -1830.406          31.000    24798462.328 6  99853149.992 6     -1402.229          38.000
E19  26685712.953 6 140234366.028 6      2193.926          41.000    26685712.094 6 107452337.521 6      1680.821          41.000
E26  24269700.039 8 127538146.549 8     -2703.254          51.000    24269704.102 8  97724032.068 8     -2071.321          51.000
E33  23965742.094 8 125940835.623 8      -239.809          49.000    23965743.266 8  96500120.930 8      -183.752          50.000
> 2020 05 16 22 23 30.0000000  0 14        .000000000000
G01  24423494.586 6 128346293.556 6     -3747.203          37.000    24423496.656 6 100010119.399 6     -2919.895          38.000
G04  20293513.742 8 106643161.855 8      -479.828          51.000    20293514.039 8  83098606.358 8      -373.892          51.000
G09  20957267.594 8 110131221.964 8      1847.289          50.000    20957268.055 8  85816548.310 8      1439.446          50.000
G17  23190827.414 7 121868606.599 7     -2431.824          46.000    23190824.625 7  94962546.302 7     -1894.925          46.000
G19  22665828.734 6 119109655.329 6     -1860.188          41.000    22665814.094 5  92812714.757 5     -1449.482          34.000
R07  20703779.258 5 110828981.637 5     -2263.316          33.000    20703785.844 5  86200325.059 5     -1760.354          33.000
R22  21745336.367 7 116078077.015 7     -4103.980          46.000    21745336.852 6  90282937.139 6     -3191.988          41.000
C12  23534884.477 7 122552298.780 7     -2580.793          46.000    23534886.219 8  94765253.495 8     -1995.678          51.000
C21  21971922.766 6 114413530.629 6       621.824          38.000
C22  23225719.352 5 120942418.114 5     -1840.656          33.000
E07  24808933.156 5 130371819.948 5     -1833.762          34.000    24808936.953 6  99895331.371 6     -1404.842          38.000
E19  26673217.492 6 140168702.905 6      2190.023          39.000    26673217.297 6 107402024.239 6      1677.884          41.000
E26  24285169.859 8 127619437.642 8     -2710.043          51.000    24285173.547 8  97786320.044 8     -2076.559          51.000
E33  23967167.047 8 125948324.449 8      -253.406          49.000    23967168.320 8  96505859.131 8      -194.159          51.000
> 2020 05 16 22 24  0.0000000  0 15        .000000000000
G01  24444906.469 6 128458819.859 6     -3755.305          36.000    24444909.672 6 100097802.240 6     -2926.208          36.000
G04  20296310.102 8 106657856.831 8      -500.469          51.000    20296310.242 8  83110056.996 8      -389.976          51.000
G09  20946772.281 8 110076070.959 8      1828.797          49.000    20946773.219 8  85773573.541 8      1425.037          49.000
G17  23204752.609 7 121941784.820 7     -2447.426          46.000    23204749.812 7  95019568.303 7     -1907.085          45.000
G19  22676511.062 6 119165787.573 6     -1882.445          41.000    22676495.570 4  92856454.052 4     -1466.850          28.000
R07  20716491.477 5 110897032.682 5     -2274.797          31.000    20716499.336 5  86253253.618 5     -1769.293          33.000
R10  23595257.484 6 125775999.916 6      4027.820          41.000
R22  21768445.641 7 116201430.751 7     -4120.262          43.000    21768444.445 6  90378878.893 6     -3204.651          41.000
R23  19897136.133 5 106436248.104 5       113.656          32.000
C12  23549795.828 7 122629947.624 7     -2596.418          47.000    23549798.805 8  94825296.510 8     -2007.772          51.000
C21  21968376.016 6 114395057.482 6       608.863          38.000
E07  24819425.945 5 130426953.471 5     -1842.926          35.000    24819427.891 6  99937576.520 6     -1411.965          37.000
E19  26660742.656 6 140103147.707 6      2179.789          40.000    26660743.070 6 107351793.639 6      1670.243          41.000
E26  24300676.062 8 127700920.890 8     -2722.828          51.000    24300679.719 8  97848755.247 8     -2086.335          51.000
E33  23968666.773 8 125956207.826 8      -272.941          49.000    23968668.422 8  96511899.664 8      -209.077          51.000
> 2020 05 16 22 24 30.0000000  0 19        .000000000000
G01  24466335.414 5 128571433.244 5     -3754.730          35.000    24466339.344 5 100185552.902 5     -2925.767          35.000
G03  21561522.656 6 113306552.456 6     -1997.336          36.000    21561523.211 5  88290821.118 5     -1556.366          35.000
G04  20299191.836 8 106673000.480 8      -511.281          51.000    20299191.984 8  83121857.257 8      -398.398          51.000
G09  20936351.914 8 110021314.480 8      1819.555          49.000    20936353.375 8  85730906.185 8      1417.838          50.000
G17  23218734.047 7 122015258.117 7     -2452.895          47.000    23218731.414 7  95076820.220 7     -1911.346          46.000
G19  22687270.039 7 119222405.125 7     -1894.809          42.000    22687273.297 5  92900595.832 5     -1476.477          30.000
G22  23655682.492 5 124311440.369 5     -2663.938          31.000
R07  20729238.258 6 110965269.984 6     -2276.867          37.000    20729242.609 5  86306327.081 5     -1770.897          32.000
R08  19771318.625 5 105874504.983 5       588.969          30.000
R10  23572575.352 6 125655109.378 6      4029.449          36.000
R22  21791612.406 6 116325104.894 6     -4126.359          38.000    21791613.469 7  90475069.968 7     -3209.388          42.000
R23  19896558.258 5 106433150.537 5        90.184          33.000
C12  23564766.070 7 122707900.136 7     -2602.559          47.000    23564769.000 8  94885574.351 8     -2012.382          51.000
C21  21964867.805 6 114376796.970 6       606.461          37.000
C22  23246981.758 4 121053137.078 4     -1851.367          29.000
E07  24829938.773 6 130482193.475 6     -1842.199          37.000    24829939.930 6  99979903.233 6     -1411.636          37.000
E19  26648293.234 6 140037724.538 6      2179.531          41.000    26648294.273 6 107301664.187 6      1670.042          41.000
E26  24316222.773 8 127782618.822 8     -2725.766          51.000    24316226.648 8  97911354.961 8     -2088.526          51.000
E33  23970245.891 8 125964510.045 8      -282.656          48.000    23970248.359 8  96518261.121 8      -216.554          51.000
> 2020 05 16 22 25  0.0000000  0 17        .000000000000
G01  24487784.906 6 128684150.422 6     -3758.625          37.000    24487788.586 6 100273384.423 6     -2928.799          38.000
G03  21572954.898 5 113366645.047 5     -2006.363          34.000    21572958.781 5  88337633.982 5     -1563.403          34.000
G04  20302162.383 8 106688610.386 8      -527.828          51.000    20302162.328 8  83134020.822 8      -411.295          51.000
G09  20926010.789 8 109966971.894 8      1804.816          50.000    20926012.430 8  85688561.329 8      1406.353          50.000
G17  23232774.547 7 122089042.376 7     -2464.469          45.000    23232772.672 7  95134314.436 7     -1920.365          45.000
G19  22698141.086 6 119279540.162 6     -1912.758          39.000    22698142.734 4  92945116.572 4     -1490.467          28.000
R07  20742022.930 6 111033711.254 6     -2284.473          39.000    20742028.500 5  86359559.146 5     -1776.812          32.000
R10  23549910.547 5 125534314.758 5      4025.062          34.000
R22  21814842.930 6 116449114.326 6     -4139.105          39.000    21814845.594 7  90571521.868 7     -3219.301          42.000
R23  19896139.906 5 106430912.580 5        60.320          31.000
C12  23579798.266 7 122786172.580 7     -2614.160          47.000    23579800.133 8  94946099.570 8     -2021.456          51.000
C21  21961403.430 6 114358767.663 6       597.195          38.000
C22  23257669.922 5 121108765.289 5     -1856.762          30.000
E07  24840474.641 6 130537557.665 6     -1847.316          38.000    24840476.750 6 100022325.155 6     -1415.521          38.000
E19  26635872.617 6 139972452.381 6      2173.496          40.000    26635873.805 6 107251650.482 6      1665.256          40.000
E26  24331812.992 8 127864548.707 8     -2734.711          49.000    24331817.492 8  97974132.424 8     -2095.392          51.000
E33  23971908.500 8 125973249.970 8      -298.508          49.000    23971911.602 8  96524957.938 8      -228.673          51.000
> 2020 05 16 22 25 30.0000000  0 18        .000000000000
G01  24509252.883 6 128796963.330 6     -3762.629          39.000    24509255.953 6 100361290.601 6     -2931.916          40.000
G03  21584432.500 6 113426959.673 6     -2015.098          41.000    21584432.477 6  88384632.384 6     -1570.206          39.000
G04  20305220.125 8 106704679.207 8      -543.840          51.000    20305220.039 8  83146541.987 8      -423.771          51.000
G09  20915747.625 8 109913037.638 8      1790.324          51.000    20915748.953 8  85646534.668 8      1395.061          51.000
G17  23246872.336 7 122163128.857 7     -2475.023          44.000    23246871.727 7  95192044.165 7     -1928.590          44.000
G19  22709107.844 5 119337175.826 5     -1930.527          35.000
R01  22035761.703 5 117793774.550 5      2735.754          31.000
R07  20754845.789 6 111102348.871 6     -2291.602          36.000    20754852.562 5  86412943.935 5     -1782.354          33.000
R10  23527266.180 5 125413613.606 5      4021.090          35.000
R22  21838136.250 7 116573448.789 7     -4150.695          42.000    21838138.289 6  90668226.481 6     -3228.316          40.000
R23  19895882.359 5 106429528.873 5        31.562          35.000
C12  23594890.102 7 122864756.473 7     -2625.184          46.000    23594890.555 8  95006865.607 8     -2029.931          51.000
C21  21957982.617 6 114340963.400 6       588.828          37.000
C22  23268380.594 5 121164535.161 5     -1862.168          30.000
E07  24851032.508 6 130593039.108 6     -1851.746          37.000    24851036.484 6 100064836.929 6     -1419.032          38.000
E19  26623479.453 6 139907325.220 6      2167.988          40.000    26623480.430 6 107201747.888 6      1661.051          40.000
E26  24347445.352 8 127946702.932 8     -2742.852          48.000    24347450.922 8  98037081.794 8     -2101.564          51.000
E33  23973653.773 8 125982421.570 8      -313.492          50.000    23973656.906 8  96531985.526 8      -240.110          51.000
> 2020 05 16 22 26  0.0000000  0 17        .000000000000
G01  24530740.711 6 128909880.204 6     -3765.484          39.000    24530742.969 6 100449277.814 6     -2934.144          39.000
G03  21595957.852 7 113487522.127 7     -2022.980          43.000    21595960.750 7  88431823.963 7     -1576.348          42.000
G04  20308366.891 8 106721215.952 8      -559.008          51.000    20308366.938 8  83159427.776 8      -435.587          51.000
G09  20905564.312 8 109859522.533 8      1776.887          51.000    20905564.891 8  85604834.602 8      1384.587          51.000
G17  23261029.008 7 122237524.722 7     -2485.180          44.000    23261029.633 7  95250015.037 7     -1936.501          44.000
R07  20767706.195 5 111171191.982 5     -2298.254          35.000    20767715.062 5  86466488.628 5     -1787.531          33.000
R08  19761728.594 4 105823118.413 4       552.387          28.000
R10  23504645.586 6 125293021.183 6      4017.758          36.000
R22  21861492.000 7 116698114.494 7     -4161.066          43.000    21861491.906 6  90765188.712 6     -3236.385          38.000
R23  19895785.344 5 106429009.516 5         2.980          31.000
C12  23610043.008 7 122943659.578 7     -2635.430          45.000    23610041.758 8  95067878.514 8     -2037.890          51.000
C21  21954608.086 6 114323394.295 6       581.410          36.000
C22  23279120.742 5 121220483.003 5     -1866.414          33.000
E07  24861614.219 6 130648647.172 6     -1855.504          36.000    24861619.867 6 100107445.716 6     -1422.178          36.000
E19  26611115.883 6 139842353.702 6      2163.016          38.000    26611115.812 6 107151964.560 6      1657.492          39.000
E26  24363122.227 8 128029090.237 8     -2750.141          48.000    24363128.570 8  98100209.772 8     -2107.257          51.000
E33  23975483.633 8 125992035.234 8      -327.844          51.000    23975486.398 8  96539351.853 8      -251.217          51.000
> 2020 05 16 22 26 30.0000000  0 16        .000000000000
G01  24552243.281 6 129022875.195 6     -3768.449          39.000    24552245.430 6 100537325.887 6     -2936.454          40.000
G03  21607525.383 6 113548308.241 6     -2030.566          41.000    21607530.570 6  88479189.758 6     -1582.253          37.000
G04  20311598.000 8 106738195.543 8      -574.035          51.000    20311597.992 8  83172658.631 8      -447.300          51.000
G09  20895456.289 8 109806403.262 8      1763.371          51.000    20895456.336 8  85563442.944 8      1374.055          51.000
G17  23275239.797 7 122312203.182 7     -2494.543          46.000    23275240.977 7  95308206.065 7     -1943.800          46.000
G19  22731328.078 5 119453933.500 5     -1962.793          34.000
R01  22005116.828 5 117629967.146 5      2722.348          30.000
R10  23482041.125 5 125172517.184 5      4014.133          35.000
R22  21884903.578 7 116823082.758 7     -4171.441          43.000    21884901.461 5  90862386.255 5     -3244.454          35.000
C12  23625252.172 7 123022855.848 7     -2645.539          45.000    23625249.281 8  95129118.108 8     -2045.584          51.000
C21  21951275.461 6 114306036.651 6       574.406          39.000
C22  23289887.008 5 121276530.284 5     -1870.551          31.000
E07  24872214.602 5 130704369.952 5     -1859.562          33.000    24872222.555 5 100150132.519 5     -1424.692          34.000
E19  26598777.719 6 139777513.884 6      2158.301          37.000    26598776.031 6 107102282.219 6      1653.691          39.000
E26  24378839.102 8 128111685.266 8     -2757.191          48.000    24378845.719 8  98163496.906 8     -2112.704          51.000
E33  23977393.125 8 126002067.168 8      -341.953          51.000    23977395.594 8  96547038.664 8      -262.103          51.000
> 2020 05 16 22 27  0.0000000  0 14        .000000000000
G01  24573770.609 6 129136000.467 6     -3772.207          38.000    24573773.180 6 100625475.465 6     -2939.379          37.000
G03  21619145.391 7 113609371.679 7     -2039.348          45.000    21619149.594 7  88526771.768 7     -1589.099          42.000
G04  20314923.406 8 106755670.884 8      -589.992          51.000    20314923.312 8  83186275.780 8      -459.734          51.000
G09  20885434.133 8 109753734.494 8      1748.812          51.000    20885433.953 8  85522402.346 8      1362.711          51.000
G17  23289514.367 8 122387215.573 8     -2505.246          48.000    23289515.172 8  95366657.286 8     -1952.137          48.000
G19  22742586.242 6 119513092.377 6     -1980.074          38.000    22742600.828 5  93127147.289 5     -1542.915          33.000
R10  23459463.336 6 125052161.493 6      4009.977          37.000
R22  21908380.680 7 116948404.490 7     -4182.383          42.000    21908377.141 5  90959858.662 5     -3252.967          32.000
C12  23640527.523 7 123102396.665 7     -2656.352          46.000    23640523.562 8  95190624.081 8     -2054.020          51.000
C21  21947993.555 6 114288944.117 6       565.699          38.000
E07  24882844.359 5 130760231.895 5     -1863.742          34.000    24882854.406 5 100192943.142 5     -1428.379          31.000
E19  26586475.438 6 139712860.418 6      2152.641          36.000    26586472.047 6 107052742.595 6      1649.507          39.000
E26  24394605.797 8 128194540.666 8     -2765.438          48.000    24394612.477 8  98226983.533 8     -2119.013          51.000
E33  23979392.320 8 126012571.653 8      -357.309          51.000    23979394.727 8  96555087.534 8      -273.776          51.000
> 2020 05 16 22 27 30.0000000  0 16        .000000000000
G01  24595314.289 6 129249212.172 6     -3773.500          37.000    24595317.352 6 100713692.395 6     -2940.390          37.000
G03  21630810.531 7 113670670.179 7     -2045.969          44.000    21630817.977 7  88574536.811 7     -1594.261          42.000
G04  20318335.062 8 106773598.902 8      -603.883          51.000    20318334.906 8  83200245.672 8      -470.558          51.000
G09  20875489.922 8 109701474.957 8      1736.410          51.000    20875489.820 8  85481680.649 8      1353.050          51.000
G17  23303844.055 8 122462517.278 8     -2513.586          48.000    23303843.328 8  95425333.928 8     -1958.641          48.000
G19  22753937.211 6 119572739.962 6     -1994.988          39.000    22753950.859 5  93173586.804 5     -1554.539          33.000
R01  21974653.844 5 117467079.200 5      2708.863          32.000
R08  19752742.508 5 105775029.841 5       517.516          31.000
R10  23436906.078 6 124931915.939 6      4007.652          40.000
R22  21931914.188 6 117074033.335 6     -4191.242          39.000    21931909.820 5  91057569.911 5     -3259.855          30.000
C12  23655860.203 7 123182238.188 7     -2665.055          47.000    23655856.227 8  95252362.559 8     -2060.880          50.000
C21  21944754.172 6 114272075.030 6       559.641          36.000
E07  24893496.289 5 130816209.264 5     -1866.391          35.000
E19  26574200.398 6 139648351.563 6      2149.117          38.000    26574196.344 6 107003313.710 6      1646.741          39.000
E26  24410413.938 8 128277613.052 8     -2771.527          48.000    24410420.312 8  98290636.425 8     -2123.572          50.000
E33  23981473.422 8 126023506.948 8      -370.441          51.000    23981475.617 8  96563466.508 8      -283.824          51.000
> 2020 05 16 22 28  0.0000000  0 15        .000000000000
G01  24616870.898 6 129362493.668 6     -3777.805          38.000    24616875.016 6 100801963.720 6     -2943.744          38.000
G03  21642517.211 7 113732188.639 7     -2054.391          43.000    21642521.344 7  88622473.453 7     -1600.821          42.000
G04  20321829.797 8 106791963.632 8      -619.520          51.000    20321829.570 8  83214555.859 8      -482.742          51.000
G09  20865620.477 8 109649610.480 8      1722.055          51.000    20865620.875 8  85441266.784 8      1341.861          51.000
G17  23318225.148 7 122538090.179 7     -2523.805          47.000    23318222.008 7  95484221.870 7     -1966.601          46.000
G19  22765377.680 6 119632858.441 6     -2011.551          39.000    22765395.562 5  93220432.478 5     -1567.439          30.000
R10  23414367.836 7 124811770.160 7      4002.992          42.000
R22  21955500.672 6 117199949.905 6     -4201.961          38.000    21955498.102 4  91155505.015 4     -3268.192          29.000
R23  19897000.609 4 106435535.443 4      -110.539          29.000
C12  23671247.117 7 123262363.349 7     -2675.703          47.000    23671243.867 8  95314320.375 8     -2069.014          51.000
C21  21941556.562 6 114255415.047 6       551.641          39.000
E07  24904166.664 5 130872283.397 5     -1870.965          35.000
E19  26561949.023 6 139583972.560 6      2143.766          36.000    26561946.711 6 106953984.354 6      1642.539          41.000
E26  24426260.359 8 128360886.258 8     -2779.250          48.000    24426265.938 8  98354443.168 8     -2129.474          49.000
E33  23983633.953 8 126034858.343 8      -385.430          51.000    23983635.633 8  96572164.340 8      -295.311          51.000
> 2020 05 16 22 28 30.0000000  0 16        .000000000000
G01  24638444.453 6 129475864.785 6     -3780.578          38.000    24638450.016 6 100890304.900 6     -2945.902          36.000
G03  21654269.836 6 113793948.357 6     -2062.590          41.000    21654273.891 7  88670597.864 7     -1607.213          42.000
G04  20325411.383 8 106810785.586 8      -634.969          50.000    20325411.250 8  83229222.322 8      -494.781          50.000
G09  20855830.070 8 109598163.295 8      1707.969          51.000    20855831.000 8  85401178.077 8      1330.885          51.000
G17  23332661.367 7 122613953.374 7     -2533.660          46.000    23332656.625 7  95543336.055 7     -1974.281          46.000
G19  22776911.125 6 119693467.079 6     -2028.090          37.000    22776929.430 5  93267660.142 5     -1580.324          33.000
R01  21944342.375 5 117305064.187 5      2694.867          31.000
R07  20832556.406 5 111518302.020 5     -2330.375          33.000    20832563.336 5  86736486.948 5     -1812.514          30.000
R10  23391853.617 7 124691751.051 7      3998.496          43.000
R22  21979146.109 6 117326172.047 6     -4212.598          36.000    21979145.688 5  91253677.867 5     -3276.462          31.000
C12  23686691.914 8 123342791.394 8     -2686.055          48.000    23686690.039 8  95376512.419 8     -2077.019          51.000
C21  21938402.938 6 114238985.595 6       543.594          39.000
E07  24914859.719 5 130928471.298 5     -1874.797          34.000
E19  26549726.781 5 139519745.573 5      2137.977          35.000    26549726.266 6 106904771.466 6      1638.432          41.000
E26  24442148.828 8 128444380.489 8     -2786.926          49.000    24442153.398 8  98418419.267 8     -2135.428          48.000
E33  23985877.820 8 126046647.692 8      -400.406          51.000    23985879.008 8  96581197.743 8      -306.787          51.000
> 2020 05 16 22 29  0.0000000  0 17        .000000000000
G01  24660034.523 6 129589324.511 6     -3783.812          36.000    24660042.547 5 100978715.192 5     -2948.428          35.000
G03  21666068.633 6 113855950.221 6     -2071.246          36.000    21666071.703 6  88718910.967 6     -1613.958          37.000
G04  20329079.906 8 106830064.640 8      -650.707          51.000    20329079.969 8  83244244.982 8      -507.041          51.000
G09  20846119.180 8 109547135.092 8      1693.551          51.000    20846120.625 8  85361415.872 8      1319.650          51.000
G17  23347152.438 7 122690105.415 7     -2543.641          46.000    23347147.750 7  95602675.287 7     -1982.058          46.000
G19  22788536.008 6 119754557.449 6     -2045.129          37.000
R01  21929251.281 5 117224362.036 5      2686.500          31.000
R07  20845637.844 6 111588310.469 6     -2337.227          36.000    20845641.164 5  86790937.948 5     -1817.843          30.000
R10  23369363.688 7 124571863.692 7      3993.480          44.000
R22  22002850.133 6 117452696.872 6     -4222.727          36.000    22002850.055 5  91352086.127 5     -3284.340          32.000
R23  19898581.148 6 106443958.324 6      -169.176          39.000
C12  23702194.867 8 123423520.999 8     -2696.406          49.000    23702194.328 8  95438937.665 8     -2085.047          51.000
C21  21935291.898 5 114222787.696 5       535.766          34.000
E07  24925575.531 6 130984781.228 6     -1879.562          36.000
E19                                                                  26537534.266 6 106855675.862 6      1634.191          41.000
E26  24458079.336 8 128528095.326 8     -2794.531          49.000    24458082.375 7  98482564.382 7     -2141.276          47.000
E33  23988205.086 8 126058876.172 8      -415.383          51.000    23988205.836 8  96590567.618 8      -318.289          51.000
> 2020 05 16 22 29 30.0000000  0 18        .000000000000
G01  24681642.578 5 129702876.492 5     -3785.613          34.000    24681651.750 5 101067197.330 5     -2949.822          32.000
G03  21677915.117 5 113918199.216 5     -2078.828          31.000    21677915.328 5  88767416.634 5     -1619.866          32.000
G04  20332836.234 8 106849805.076 8      -664.816          50.000    20332836.344 8  83259627.128 8      -518.039          50.000
G09  20836489.234 8 109496531.923 8      1680.598          51.000    20836491.172 8  85321984.853 8      1309.557          51.000
G17  23361699.008 7 122766548.815 7     -2551.965          47.000    23361695.414 7  95662241.513 7     -1988.544          47.000
G19  22800255.953 6 119816150.852 6     -2060.270          37.000
R07  20858756.883 6 111658517.484 6     -2342.324          38.000    20858759.781 5  86845543.386 5     -1821.811          32.000
R08  19741688.805 5 105715854.708 5       470.055          32.000
R10  23346899.711 7 124452118.085 7      3990.078          43.000
R22  22026611.383 6 117579526.089 6     -4231.676          36.000    22026610.367 5  91450731.114 5     -3291.300          32.000
R23  19899605.250 6 106449458.303 6      -197.250          36.000
C12  23717756.828 8 123504555.326 8     -2705.297          49.000    23717756.938 8  95501598.553 8     -2091.835          51.000
C21  21932225.008 6 114206826.763 6       528.949          36.000
C22  23355067.836 5 121615935.618 5     -1899.555          35.000
E07  24936314.797 6 131041213.866 6     -1882.195          38.000
E19                                                                  26525371.133 6 106806702.009 6      1631.207          40.000
E26  24474052.750 8 128612034.844 8     -2800.848          49.000    24474053.609 7  98546881.638 7     -2146.074          47.000
E33  23990616.953 8 126071549.357 8      -428.867          51.000    23990617.094 8  96600278.242 8      -328.616          51.000
> 2020 05 16 22 30  0.0000000  0 18        .000000000000
G01  24703262.344 5 129816480.673 5     -3788.457          32.000
G03  21689807.273 6 113980733.037 6     -2086.383          36.000    21689800.391 6  88816108.867 6     -1625.756          36.000
G04  20336672.828 8 106869967.369 8      -679.926          50.000    20336673.086 8  83275338.014 8      -529.812          50.000
G09  20826933.312 8 109446316.051 8      1666.496          51.000    20826935.625 8  85282855.623 8      1298.568          51.000
G17  23376293.477 8 122843242.852 8     -2561.395          48.000    23376291.102 7  95722003.059 7     -1995.892          47.000
G19  22812061.633 6 119878193.418 6     -2076.227          38.000
R07  20871904.664 5 111728882.935 5     -2348.945          35.000    20871902.422 5  86900271.976 5     -1826.957          30.000
R08  19739094.570 4 105701943.156 4       458.258          27.000
R10  23324455.844 6 124332480.903 6      3985.223          41.000
R22  22050420.969 5 117706616.368 5     -4241.707          31.000    22050418.492 5  91549579.164 5     -3299.102          33.000
R23  19900786.336 6 106455787.023 6      -225.676          39.000
C12  23733369.578 8 123585854.112 8     -2715.184          49.000    23733369.875 8  95564463.951 8     -2099.597          51.000
C21  21929199.406 6 114191065.038 6       521.207          40.000
C22  23366024.141 5 121672974.003 5     -1904.285          33.000
E07  24947069.820 6 131097730.102 6     -1886.207          37.000
E19                                                                  26513229.562 6 106757820.850 6      1627.014          40.000
E26  24490061.430 8 128696159.279 8     -2808.059          49.000    24490061.023 8  98611340.600 8     -2151.623          49.000
E33  23993105.977 8 126084629.102 8      -443.660          51.000    23993105.641 8  96610300.380 8      -339.923          51.000
> 2020 05 16 22 30 30.0000000  0 16        .000000000000
G01  24724907.953 5 129930212.165 5     -3793.246          30.000    24724916.656 5 101244399.891 5     -2955.776          30.000
G03  21701737.984 6 114043476.136 6     -2096.488          38.000    21701740.078 6  88864999.483 6     -1633.633          38.000
G04  20340604.312 8 106890627.551 8      -697.312          51.000    20340604.648 8  83291436.869 8      -543.360          51.000
G09  20817466.203 8 109396565.278 8      1650.246          51.000    20817468.336 8  85244088.798 8      1285.909          51.000
G17  23390949.789 8 122920261.253 8     -2572.945          48.000    23390948.234 8  95782017.397 8     -2004.892          48.000
G19  22823967.367 5 119940760.060 5     -2094.727          35.000
R07  20885093.367 5 111799484.102 5     -2357.660          32.000    20885089.852 4  86955183.979 4     -1833.745          29.000
R10  23302048.156 6 124213034.101 6      3977.949          39.000
R23  19902137.797 6 106463023.316 6      -256.688          36.000
C12  23749047.367 8 123667491.460 8     -2727.258          49.000    23749047.695 8  95627591.137 8     -2108.813          51.000
C21  21926226.297 6 114175579.169 6       511.316          39.000
C22  23377007.773 5 121730200.143 5     -1911.773          30.000
E07  24957855.609 6 131154406.473 6     -1892.570          36.000
E19                                                                  26501126.875 6 106709091.683 6      1621.390          40.000
E26  24506119.875 8 128780544.418 8     -2817.625          49.000    24506119.602 8  98675999.327 8     -2158.864          50.000
E33  23995686.977 8 126098192.680 8      -460.629          51.000    23995686.656 8  96620693.250 8      -352.911          51.000
> 2020 05 16 22 31  0.0000000  0 16        .000000000000
G03  21713720.008 7 114106463.248 7     -2103.109          43.000    21713725.273 7  88914080.357 7     -1638.783          43.000
G04  20344622.594 8 106911743.439 8      -710.750          51.000    20344622.820 8  83307890.801 8      -553.831          51.000
G09  20808080.125 8 109347239.195 8      1637.734          51.000    20808080.867 8  85205652.904 8      1276.157          51.000
G17  23405659.500 7 122997560.384 7     -2580.660          47.000    23405658.438 7  95842250.490 7     -2010.904          47.000
R07  20898317.938 6 111870278.408 6     -2362.242          37.000    20898313.875 5  87010246.188 5     -1837.303          30.000
R08  19734106.406 5 105675246.610 5       433.648          31.000
R10  23279669.781 6 124093741.472 6      3974.648          39.000
R22  22098222.883 5 117961810.206 5     -4261.707          33.000    22098213.562 5  91748043.539 5     -3314.658          32.000
R23  19903652.438 6 106471124.851 6      -283.883          38.000    19903661.094 4  82810899.626 4      -220.798          28.000
C12  23764782.133 8 123749424.492 8     -2735.371          49.000    23764782.273 8  95690946.978 8     -2115.117          51.000
C21  21923296.602 6 114160328.351 6       505.207          38.000
C22  23388021.195 5 121787572.978 5     -1914.832          32.000
E07  24968663.812 6 131211201.205 6     -1894.234          36.000    24968690.016 5 100538495.778 5     -1451.803          33.000
E19  26489053.672 5 139200920.762 5      2112.855          34.000    26489055.227 6 106660483.231 6      1618.762          41.000
E26  24522219.797 8 128865147.818 8     -2823.098          49.000    24522220.281 8  98740825.309 8     -2163.120          51.000
E33  23998352.188 8 126112199.169 8      -473.582          51.000    23998352.148 8  96631425.506 8      -362.884          51.000
> 2020 05 16 22 31 30.0000000  0 17        .000000000000
G01  24768236.383 5 130157961.250 5     -3796.355          31.000    24768240.398 5 101421795.297 5     -2958.199          33.000
G03  21725751.492 6 114169698.018 6     -2110.168          41.000    21725757.547 6  88963354.185 6     -1644.287          41.000
G04  20348728.086 8 106933317.594 8      -724.945          51.000    20348728.266 8  83324701.845 8      -564.892          51.000
G09  20798775.562 8 109298342.163 8      1624.539          51.000    20798774.805 8  85167551.324 8      1265.875          51.000
G17  23420422.578 7 123075141.394 7     -2588.797          43.000    23420422.180 7  95902703.207 7     -2017.247          43.000
R01  21854363.852 4 116824098.218 4      2650.199          26.000
R07  20911578.688 6 111941268.306 6     -2367.973          37.000    20911577.273 5  87065460.539 5     -1841.760          30.000
R10  23257321.820 6 123974611.008 6      3970.020          40.000
R22  22122201.094 6 118089815.430 6     -4269.672          36.000    22122196.203 5  91847603.188 5     -3320.856          32.000
R23  19905329.648 5 106480095.942 5      -311.695          34.000    19905335.125 4  82817877.286 4      -242.424          28.000
C12  23780573.648 8 123831654.682 8     -2744.109          48.000    23780573.461 8  95754532.579 8     -2121.938          51.000
C21  21920412.781 6 114145316.589 6       498.215          39.000
C22  23399067.180 6 121845095.839 6     -1917.938          38.000
E07  24979495.375 5 131268133.492 5     -1897.441          34.000    24979518.359 5 100582106.899 5     -1454.099          33.000
E19  26477014.672 6 139137644.382 6      2108.328          37.000    26477015.883 7 106611998.728 7      1615.451          42.000
E26  24538361.188 8 128949971.875 8     -2829.293          49.000    24538362.719 8  98805820.382 8     -2167.960          51.000
E33  24001102.172 8 126126652.530 8      -487.465          51.000    24001102.633 8  96642500.158 8      -373.461          51.000
> 2020 05 16 22 32  0.0000000  0 16        .000000000000
G03  21737820.148 7 114233121.724 7     -2118.914          43.000    21737825.516 7  89012775.276 7     -1651.099          42.000
G04  20352909.438 8 106955290.381 8      -740.754          50.000    20352909.656 8  83341823.499 8      -577.211          50.000
G09  20789541.281 8 109249816.206 8      1609.578          51.000    20789540.875 8  85129738.906 8      1254.217          51.000
G17  23435227.430 6 123152942.576 6     -2598.562          41.000    23435227.766 6  95963327.505 6     -2024.854          41.000
G19  22860223.773 5 120131283.331 5     -2140.891          34.000    22860220.055 5  93608793.536 5     -1668.236          32.000
R07  20924865.281 6 112012393.298 6     -2375.125          37.000    20924865.469 5  87120779.947 5     -1847.319          30.000
R10  23234993.336 6 123855588.314 6      3963.758          39.000
R22  22146223.516 6 118218046.633 6     -4279.730          39.000    22146222.492 5  91947338.637 5     -3328.676          33.000
R23  19907155.688 5 106489873.681 5      -341.594          32.000    19907166.938 5  82825475.624 5      -265.675          30.000
C12  23796410.281 7 123914121.819 7     -2754.617          47.000    23796409.320 8  95818301.393 8     -2130.045          51.000
C21  21917565.391 7 114130486.076 7       489.621          43.000
C22  23410131.172 6 121902710.640 6     -1923.352          37.000
E07  24990340.031 6 131325124.963 6     -1901.961          36.000    24990341.945 5 100625752.797 5     -1457.152          33.000
E19  26464995.133 6 139074471.551 6      2102.328          37.000    26464996.797 7 106563593.597 7      1610.764          42.000
E26  24554532.711 8 129034956.668 8     -2837.270          49.000    24554535.508 8  98870938.614 8     -2174.009          51.000
E33  24003925.844 8 126141494.308 8      -502.957          51.000    24003927.039 8  96653872.445 8      -385.428          51.000
> 2020 05 16 22 32 30.0000000  0 17        .000000000000
G01  24811607.945 5 130385879.841 5     -3800.914          30.000    24811615.211 4 101599408.797 4     -2961.742          28.000
G03  21749936.070 7 114296791.716 7     -2125.707          43.000    21749942.062 7  89062388.225 7     -1656.398          43.000
G04  20357177.234 8 106977718.313 8      -754.430          49.000    20357177.547 8  83359299.810 8      -587.867          49.000
G09  20780388.680 8 109201719.650 8      1596.805          51.000    20780389.352 8  85092261.065 8      1244.263          51.000
G17  23450084.688 7 123231019.007 7     -2606.371          44.000    23450085.547 7  96024166.284 7     -2030.939          44.000
G19  22872484.453 6 120195738.658 6     -2154.688          38.000
R07  20938186.047 5 112083711.011 5     -2379.508          31.000    20938187.156 4  87176249.344 4     -1850.728          29.000
R10  23212696.344 6 123736736.628 6      3959.324          38.000
R22  22170298.117 6 118346558.809 6     -4287.785          37.000    22170301.727 5  92047292.635 5     -3334.941          31.000
R23  19909150.070 5 106500516.747 5      -368.617          33.000    19909156.422 4  82833748.236 4      -286.702          28.000
C12  23812302.812 7 123996880.673 7     -2762.832          45.000    23812300.859 8  95882295.781 8     -2136.246          51.000
C21  21914763.492 6 114115894.066 6       483.109          41.000
C22  23421223.797 6 121960474.255 6     -1926.879          39.000
E07  25001204.594 5 131382222.783 5     -1904.582          34.000    25001205.680 5 100669503.036 5     -1459.208          32.000
E19  26453005.320 5 139011460.371 5      2098.504          31.000    26453008.305 7 106515312.264 7      1608.046          42.000
E26  24570745.766 8 129120158.477 8     -2842.758          50.000    24570749.492 8  98936223.139 8     -2178.220          51.000
E33  24006834.609 8 126156782.322 8      -516.160          51.000    24006836.352 8  96665586.632 8      -395.499          51.000
> 2020 05 16 22 33  0.0000000  0 17        .000000000000
G01  24833319.469 5 130499968.976 5     -3803.367          31.000    24833324.789 5 101688309.443 5     -2963.663          31.000
G03  21762099.406 6 114360706.231 6     -2134.254          41.000    21762104.445 6  89112191.699 6     -1663.058          41.000
G04  20361531.133 8 107000598.686 8      -769.625          49.000    20361531.641 8  83377128.678 8      -599.708          49.000
G09  20771317.578 8 109154051.511 8      1582.414          51.000    20771318.914 8  85055117.068 8      1233.050          51.000
G17  23464993.688 7 123309366.538 7     -2615.434          45.000    23464994.391 7  96085216.300 7     -2038.000          45.000
G19  22884833.281 6 120260622.732 6     -2170.605          37.000
R07  20951543.031 5 112155219.122 5     -2385.910          35.000    20951546.391 5  87231866.723 5     -1855.708          31.000
R08  19724911.281 5 105625968.498 5       387.102          32.000
R10  23190431.875 5 123618059.015 5      3953.539          33.000
R22  22194424.000 6 118475345.919 6     -4297.062          38.000    22194435.438 5  92147460.505 5     -3342.157          32.000
C12  23828250.219 7 124079927.447 7     -2772.594          44.000    23828248.375 8  95946512.826 8     -2143.840          51.000
C21  21912005.820 6 114101539.098 6       475.328          41.000
C22  23432345.797 6 122018384.869 6     -1932.355          40.000
E07  25012095.055 5 131439443.741 5     -1908.391          33.000    25012093.906 5 100713334.988 5     -1462.213          32.000
E19                                                                  26441048.664 6 106467153.649 6      1603.569          40.000
E26  24587000.180 8 129205574.419 8     -2850.184          51.000    24587004.031 8  99001671.715 8     -2183.946          51.000
E33  24009828.398 8 126172515.152 8      -531.246          51.000    24009830.180 8  96677641.677 8      -407.104          51.000
> 2020 05 16 22 33 30.0000000  0 17        .000000000000
G01  24855042.086 5 130614127.691 5     -3806.691          30.000    24855047.805 4 101777264.300 4     -2966.253          29.000
G03  21774308.258 6 114424857.728 6     -2142.637          41.000    21774312.109 6  89162179.871 6     -1669.587          37.000
G04  20365969.680 8 107023923.007 8      -785.078          49.000    20365970.406 8  83395303.463 8      -611.749          49.000
G09  20762326.570 8 109106805.062 8      1567.664          51.000    20762328.047 8  85018301.687 8      1221.559          51.000
G17  23479952.469 7 123387974.995 7     -2624.730          46.000    23479952.227 7  96146469.663 7     -2045.241          46.000
G19  22897269.453 5 120325968.829 5     -2186.273          35.000    22897274.500 5  93760505.583 5     -1703.593          34.000
R07  20964934.555 5 112226908.827 5     -2392.941          34.000    20964939.008 4  87287625.346 4     -1861.174          29.000
R10  23168197.836 5 123499553.091 5      3946.926          30.000
R22  22218600.062 5 118604396.779 5     -4306.016          32.000    22218611.844 5  92247833.568 5     -3349.120          32.000
R23  19913620.586 6 106524400.855 6      -426.770          36.000
C12  23844250.922 7 124163252.728 7     -2782.238          44.000    23844250.320 8  96010945.240 8     -2151.539          51.000
C21  21909293.406 6 114087414.167 6       466.859          41.000
C22  23443495.438 6 122076434.953 6     -1937.578          39.000
E07                                                                  25023002.516 5 100757261.576 5     -1465.880          30.000
E19                                                                  26429116.086 6 106419112.346 6      1599.154          40.000
E26  24603294.031 8 129291195.741 8     -2857.688          51.000    24603297.562 8  99067277.655 8     -2189.675          51.000
E33  24012905.438 8 126188685.561 8      -546.520          51.000    24012907.047 8  96690032.004 8      -418.866          51.000
> 2020 05 16 22 34  0.0000000  0 14        .000000000000
G01  24876776.906 5 130728344.827 5     -3807.969          33.000    24876782.945 5 101866263.874 5     -2967.248          32.000
G03  21786560.031 6 114489235.654 6     -2149.762          39.000    21786564.578 6  89212344.460 6     -1675.139          36.000
G04  20370490.414 8 107047679.754 8      -799.301          50.000    20370491.227 8  83413815.229 8      -622.829          50.000
G09  20753414.422 8 109059970.685 8      1554.066          51.000    20753415.797 8  84981807.388 8      1210.961          51.000
G17  23494958.367 7 123466831.431 7     -2633.059          44.000    23494957.141 7  96207916.225 7     -2051.734          44.000
G19  22909792.398 6 120391762.728 6     -2201.332          36.000
R07  20978358.305 5 112298768.843 5     -2397.676          33.000    20978363.273 5  87343516.415 5     -1864.865          30.000
R10  23145995.367 6 123381212.964 6      3941.613          38.000
C12  23860303.539 7 124246844.080 7     -2791.094          44.000    23860303.859 8  96075583.378 8     -2158.260          51.000
C21  21906623.312 7 114073509.340 7       459.590          42.000
C22  23454668.305 6 122134614.198 6     -1941.566          37.000
E19  26417211.039 5 138823388.430 5      2082.816          32.000    26417209.711 6 106371180.840 6      1595.694          39.000
E26  24619624.711 8 129377010.842 8     -2863.918          51.000    24619627.961 8  99133032.082 8     -2194.437          51.000
E33  24016063.820 8 126205283.426 8      -560.594          51.000    24016065.539 8  96702749.837 8      -429.561          51.000
> 2020 05 16 22 34 30.0000000  0 15        .000000000000
G01  24898525.289 5 130842632.770 5     -3810.641          32.000    24898532.867 4 101955321.554 4     -2969.330          27.000
G03  21798857.672 6 114553854.747 6     -2157.047          37.000    21798859.453 4  89262684.073 4     -1680.797          26.000
G04  20375096.148 8 107071882.752 8      -813.297          50.000    20375096.797 8  83432674.693 8      -633.738          50.000
G09  20744583.672 8 109013563.795 8      1540.680          51.000    20744585.438 8  84945646.173 8      1200.530          51.000
G17  23510013.547 7 123545947.981 7     -2640.617          42.000    23510012.008 7  96269565.435 7     -2057.624          42.000
G19  22922404.406 6 120458043.279 6     -2215.594          40.000    22922392.703 5  93863374.119 5     -1726.437          32.000
R08  19718711.445 5 105592757.781 5       352.410          32.000
R10  23123830.023 6 123263058.173 6      3936.223          40.000
R22  22267098.352 6 118863273.464 6     -4322.266          36.000    22267090.703 5  92449190.919 5     -3361.759          34.000
R23  19918730.172 5 106551743.361 5      -483.293          35.000
C12  23876410.453 7 124330713.871 7     -2799.371          46.000    23876411.039 8  96140436.836 8     -2164.639          51.000
C21  21903997.320 6 114059839.445 6       452.223          39.000
C22  23465868.531 6 122192937.030 6     -1945.598          38.000
E26  24635994.547 8 129463033.181 8     -2869.984          51.000    24635997.719 8  99198945.302 8     -2199.079          51.000
E33  24019306.430 8 126222323.656 8      -574.473          51.000    24019308.469 8  96715806.620 8      -440.171          51.000
> 2020 05 16 22 35  0.0000000  0 14        .000000000000
G01  24920291.633 5 130957012.792 5     -3812.113          31.000
G03  21811205.148 5 114618736.352 5     -2166.258          34.000    21811208.148 5  89313241.179 5     -1687.993          34.000
G04  20379790.609 8 107096552.352 8      -828.621          49.000    20379791.359 8  83451897.758 8      -645.679          49.000
G09  20735838.367 8 108967606.573 8      1526.008          51.000    20735840.703 8  84909835.364 8      1189.100          51.000
G17  23525121.750 6 123625343.141 6     -2649.719          41.000    23525120.711 6  96331431.779 6     -2064.713          41.000
G19  22935104.781 6 120524792.190 6     -2231.078          40.000
R10  23101705.234 7 123145115.808 7      3929.277          42.000
R22  22291421.219 5 118993112.564 5     -4330.891          34.000    22291411.750 5  92550176.842 5     -3368.477          32.000
C12  23892574.805 7 124414881.289 7     -2808.898          46.000    23892575.312 8  96205520.402 8     -2172.028          50.000
C21  21901418.789 6 114046426.030 6       444.441          37.000
C22  23477101.164 6 122251424.650 6     -1950.867          38.000
E19  26393496.695 5 138698771.645 5      2072.551          34.000    26393493.742 6 106275662.239 6      1587.879          41.000
E26  24652407.188 8 129549282.996 8     -2877.195          51.000    24652410.445 8  99265032.830 8     -2204.637          51.000
E33  24022637.289 8 126239827.989 8      -589.543          51.000    24022639.469 8  96729219.020 8      -451.815          51.000
> 2020 05 16 22 35 30.0000000  0 15        .000000000000
G04  20384561.586 8 107121624.672 8      -843.391          49.000    20384562.453 8  83471434.635 8      -657.184          48.000
G09  20727166.945 8 108922036.879 8      1511.543          51.000    20727169.273 8  84874326.501 8      1177.826          51.000
G17  23540270.617 7 123704951.529 7     -2658.211          43.000    23540270.703 7  96393464.329 7     -2071.333          43.000
G19  22947882.734 6 120591941.195 6     -2246.598          37.000
R07  21018835.805 5 112515509.785 5     -2416.254          33.000    21018853.438 5  87512067.368 5     -1879.312          31.000
R08  19714899.531 5 105572399.773 5       328.121          34.000    19714905.641 4  82111866.924 4       255.208          28.000
R10  23079609.320 7 123027326.918 7      3922.676          42.000
R22  22315782.641 6 119123162.198 6     -4339.977          36.000    22315771.102 4  92651326.579 4     -3375.534          27.000
R23  19924466.336 4 106582459.581 4      -541.059          28.000
C12  23908783.906 7 124499282.042 7     -2818.129          46.000    23908784.258 8  96270784.398 8     -2179.277          50.000
C21  21898878.594 6 114033207.150 6       436.359          36.000
C22  23488352.898 6 122310014.784 6     -1955.590          37.000
E19  26381676.484 6 138636657.180 6      2066.809          37.000    26381676.969 6 106228081.054 6      1583.889          40.000
E26  24668850.586 8 129635696.193 8     -2884.180          51.000    24668854.016 8  99331245.562 8     -2209.968          51.000
E33  24026044.867 8 126257733.750 8      -604.590          51.000    24026046.570 8  96742939.034 8      -463.254          51.000
> 2020 05 16 22 36  0.0000000  0 15        .000000000000
G03  21836023.242 5 114749071.262 5     -2181.660          35.000
G04  20389418.375 8 107147147.851 8      -858.258          49.000    20389419.375 8  83491322.813 8      -668.772          49.000
G09  20718578.766 8 108876904.566 8      1497.180          51.000    20718580.234 8  84839158.465 8      1166.634          51.000
G17  23555469.344 7 123784820.045 7     -2666.398          46.000    23555470.383 7  96455699.546 7     -2077.713          45.000
G19  22960749.148 5 120659544.445 5     -2261.094          33.000
R07  21032398.539 5 112588075.241 5     -2422.285          30.000    21032400.680 4  87568511.502 4     -1884.000          29.000
R10  23057552.586 7 122909746.285 7      3915.852          44.000
R22  22340191.984 5 119253468.903 5     -4348.191          31.000
R23  19927584.250 5 106599120.959 5      -569.867          35.000
C12  23925046.703 7 124583962.671 7     -2827.266          46.000    23925046.523 8  96336264.783 8     -2186.134          49.000
C21  21896387.773 6 114020231.936 6       428.629          41.000
C22  23499633.180 5 122368756.157 5     -1960.793          35.000
E19  26369892.438 6 138574727.349 6      2061.699          37.000    26369893.305 6 106180628.338 6      1579.794          41.000
E26  24685334.430 8 129722320.757 8     -2890.805          51.000    24685337.852 8  99397620.244 8     -2215.053          51.000
E33  24029538.312 8 126276090.325 8      -619.164          51.000    24029539.656 8  96757004.474 8      -474.436          51.000
> 2020 05 16 22 36 30.0000000  0 16        .000000000000
G03  21848498.086 5 114814631.140 5     -2188.734          33.000    21848503.469 4  89465964.280 4     -1705.504          28.000
G04  20394357.367 8 107173102.258 8      -872.105          48.000    20394358.344 8  83511547.026 8      -679.563          48.000
G09  20710070.242 8 108832191.686 8      1483.652          51.000    20710070.844 8  84804317.286 8      1156.093          51.000
G17  23570713.516 7 123864927.282 7     -2674.008          47.000    23570715.125 7  96518120.774 7     -2083.642          47.000
G19  22973700.719 5 120727612.157 5     -2276.156          33.000
R07  21045985.805 5 112660825.007 5     -2427.172          33.000    21045997.297 5  87625094.940 5     -1887.800          31.000
R08  19711350.148 5 105553355.717 5       305.363          34.000
R10  23035532.250 7 122792360.183 7      3909.891          45.000
R22  22364644.906 4 119383995.715 4     -4354.984          29.000
R23  19930858.445 6 106616633.500 6      -598.055          36.000
C12  23941359.062 7 124668902.508 7     -2835.449          44.000    23941358.320 8  96401945.636 8     -2192.546          49.000
C21  21893940.570 7 114007482.287 7       421.531          42.000
C22  23510939.289 5 122427630.132 5     -1964.684          35.000
E19  26358137.531 6 138512947.202 6      2056.961          40.000    26358137.883 6 106133290.323 6      1576.173          40.000
E26  24701855.078 8 129809136.833 8     -2896.852          51.000    24701858.305 8  99464141.652 8     -2219.621          51.000
E33  24033114.023 8 126294879.371 8      -633.301          51.000    24033115.188 8  96771401.271 8      -485.259          51.000
> 2020 05 16 22 37  0.0000000  0 13        .000000000000
G03  21861017.727 5 114880430.753 5     -2196.441          34.000    21861017.141 5  89517236.687 5     -1711.519          34.000
G04  20399380.148 8 107199496.403 8      -886.434          49.000    20399380.836 8  83532113.900 8      -690.727          49.000
G09  20701643.328 8 108787908.608 8      1469.523          51.000    20701644.055 8  84769811.014 8      1145.086          51.000
G17  23586004.367 8 123945280.100 8     -2681.695          48.000    23586006.000 7  96580733.367 7     -2089.633          47.000
G19  22986737.930 5 120796122.245 5     -2290.160          32.000
R10  23013551.023 7 122675183.516 7      3902.918          45.000
R23  19934295.062 6 106635006.153 6      -626.207          37.000
C12  23957722.406 7 124754109.045 7     -2843.938          42.000    23957721.172 8  96467832.715 8     -2199.252          50.000
C21  21891537.867 6 113994968.056 6       414.000          41.000
C22  23522271.445 5 122486646.272 5     -1969.172          32.000
E19  26346413.172 6 138451326.625 6      2051.973          37.000    26346412.375 6 106086074.621 6      1572.255          40.000
E26  24718413.969 8 129896152.825 8     -2903.309          51.000    24718417.008 8  99530816.241 8     -2224.658          50.000
E33  24036774.062 8 126314110.594 8      -647.840          51.000    24036774.820 8  96786136.886 8      -496.463          51.000
> 2020 05 16 22 37 30.0000000  0 13        .000000000000
G03  21873581.133 6 114946451.654 6     -2204.230          36.000    21873584.461 6  89568681.648 6     -1717.579          36.000
G04  20404482.898 8 107226311.188 8      -901.004          50.000    20404483.430 8  83553008.552 8      -702.078          50.000
G09  20693294.719 8 108744037.899 8      1455.387          51.000    20693295.734 8  84735626.066 8      1134.068          51.000
G17  23601338.016 8 124025857.940 8     -2689.645          48.000    23601339.062 8  96643521.308 8     -2095.827          48.000
G19  22999855.766 5 120865059.096 5     -2305.316          32.000
R10  22991606.164 7 122558202.587 7      3895.957          46.000
R23  19937888.109 6 106654220.853 6      -655.043          37.000
C12  23974132.211 6 124839562.266 6     -2853.066          36.000    23974131.500 8  96533910.534 8     -2205.900          50.000
C21  21889176.336 6 113982671.647 6       406.109          39.000
C22  23533628.594 5 122545786.595 5     -1973.418          35.000
E19  26334715.719 6 138389848.247 6      2046.750          36.000    26334712.984 6 106038967.864 6      1568.232          39.000
E26  24735007.148 8 129983349.379 8     -2909.781          51.000    24735009.797 8  99597629.166 8     -2229.567          48.000
E33  24040514.836 8 126333766.136 8      -662.430          51.000    24040515.180 8  96801197.612 8      -507.582          51.000
> 2020 05 16 22 38  0.0000000  0 14        .000000000000
G03  21886188.203 6 115012702.502 6     -2212.066          37.000    21886194.523 6  89620305.571 6     -1723.688          37.000
G04  20409667.094 8 107253553.995 8      -915.246          50.000    20409667.664 8  83574236.715 8      -713.179          50.000
G09  20685026.242 8 108700588.678 8      1441.160          51.000    20685027.062 8  84701769.542 8      1122.982          51.000
G17  23616715.602 7 124106666.655 7     -2697.523          47.000    23616715.594 7  96706489.126 7     -2101.966          47.000
G19  23013054.898 5 120934417.242 5     -2319.273          34.000
R08  19706509.406 5 105527432.912 5       270.844          35.000    19706504.172 4  82076897.640 4       210.653          25.000
R10  22969700.492 7 122441430.889 7      3888.820          46.000
R23  19941639.359 6 106674285.327 6      -683.285          36.000
C12                                                                  23990590.359 8  96600183.899 8     -2212.421          49.000
C21  21886859.336 7 113970601.800 7       398.285          42.000
C22  23545011.758 6 122605059.328 6     -1977.781          37.000
E19  26323048.234 6 138328520.942 6      2041.430          36.000    26323041.938 6 105991976.910 6      1564.320          38.000
E26  24751635.633 8 130070733.678 8     -2916.035          49.000    24751637.867 7  99664585.949 7     -2234.359          47.000
E33  24044337.836 8 126353854.584 8      -676.973          51.000    24044337.758 8  96816590.061 8      -518.704          51.000
> 2020 05 16 22 38 30.0000000  0 16        .000000000000
G03  21898840.945 5 115079193.660 5     -2220.176          33.000    21898846.727 5  89672116.901 5     -1730.010          34.000
G04  20414934.617 8 107281234.379 8      -929.602          50.000    20414935.125 8  83595805.865 8      -724.365          50.000
G09  20676840.164 8 108657572.210 8      1427.023          51.000    20676840.898 8  84668250.222 8      1111.969          51.000
G17  23632138.750 8 124187714.348 8     -2705.113          48.000    23632137.461 7  96769643.157 7     -2107.880          47.000
G19  23026339.281 6 121004238.258 6     -2333.820          40.000
R08  19705019.859 5 105519469.724 5       259.383          33.000    19705018.945 4  82070707.203 4       201.742          26.000
R10  22947836.445 7 122324884.424 7      3881.453          45.000
R22  22462886.992 5 119908427.287 5     -4385.105          34.000    22462892.383 5  93262092.986 5     -3410.635          32.000
R23  19945550.383 5 106695209.842 5      -711.270          34.000
C12                                                                  24007099.266 8  96666659.296 8     -2218.994          48.000
C21  21884588.023 7 113958769.382 7       390.902          42.000
C22  23556422.195 6 122664475.234 6     -1982.477          36.000
E07                                                                  25133182.422 5 101200923.221 5     -1491.702          34.000
E19  26311412.867 6 138267355.711 6      2036.406          37.000    26311402.094 6 105945110.143 6      1560.450          37.000
E26  24768300.750 7 130158315.154 7     -2922.309          46.000    24768303.539 7  99731693.829 7     -2239.198          46.000
E33  24048245.000 8 126374386.736 8      -691.508          51.000    24048244.672 8  96832322.499 8      -529.851          51.000
> 2020 05 16 22 39  0.0000000  0 16        .000000000000
G03  21911538.688 5 115145912.225 5     -2227.887          31.000    21911544.359 5  89724113.176 5     -1736.013          32.000
G04  20420284.562 8 107309348.257 8      -944.449          50.000    20420284.953 8  83617712.789 8      -735.934          50.000
G09  20668736.336 8 108614986.116 8      1412.289          51.000    20668737.164 8  84635066.275 8      1100.485          51.000
G17  23647606.266 7 124268995.021 7     -2713.277          47.000    23647603.875 7  96832978.741 7     -2114.239          47.000
G19  23039704.938 6 121074499.689 6     -2348.438          41.000
R07  21114417.398 5 113027133.513 5     -2455.875          30.000    21114415.805 4  87909991.593 4     -1910.122          27.000
R10  22926014.523 7 122208565.236 7      3873.336          44.000
R22  22487553.750 6 120040101.518 6     -4393.137          37.000    22487559.039 5  93364506.286 5     -3416.881          32.000
R23  19949622.203 5 106716990.906 5      -740.867          33.000
C12  24023656.594 6 125097489.817 6     -2878.105          36.000    24023657.281 8  96733332.785 8     -2225.809          48.000
C21  21882360.852 7 113947171.878 7       382.480          42.000
C22  23567858.766 5 122724031.254 5     -1987.602          32.000
E07                                                                  25144307.180 5 101245724.680 5     -1494.569          34.000
E19  26299807.516 5 138206421.132 5      2030.605          30.000    26299793.742 6 105898365.705 6      1555.993          38.000
E26  24785002.266 7 130246089.498 7     -2929.105          46.000    24785006.633 7  99798949.511 7     -2244.448          46.000
E33  24052235.781 8 126395359.716 8      -706.504          51.000    24052235.469 8  96848392.710 8      -541.365          51.000
> 2020 05 16 22 39 30.0000000  0 15        .000000000000
G04  20425714.094 8 107337880.826 8      -957.906          49.000    20425714.500 8  83639945.968 8      -746.420          49.000
G09  20660712.211 8 108572817.353 8      1398.695          51.000    20660713.031 8  84602207.505 8      1089.892          51.000
G17  23663114.539 7 124350492.536 7     -2719.902          45.000    23663112.055 7  96896483.294 7     -2119.404          45.000
G19  23053152.102 6 121145140.726 6     -2361.957          41.000
R01  21621618.359 5 115579930.765 5      2533.742          31.000
R07  21128199.023 5 113100901.548 5     -2461.500          35.000    21128194.500 4  87967351.086 4     -1914.500          26.000
R10  22904233.555 7 122092463.883 7      3866.438          44.000
R22  22512260.648 6 120171981.074 6     -4399.184          39.000    22512266.266 5  93467079.333 5     -3421.587          34.000
C12  24040263.078 6 125183953.872 6     -2886.051          41.000    24040261.375 8  96800192.239 8     -2231.605          48.000
C21  21880175.211 7 113935795.914 7       375.668          43.000
C22  23579320.195 6 122783713.667 6     -1991.492          38.000
E07                                                                  25155451.430 5 101290596.113 5     -1496.733          35.000
E19                                                                  26288214.492 6 105851733.404 6      1552.949          38.000
E26  24801738.430 7 130334041.821 7     -2934.445          46.000    24801744.070 7  99866341.576 7     -2248.471          47.000
E33  24056307.789 8 126416759.932 8      -720.289          51.000    24056307.711 8  96864790.269 8      -551.913          51.000
> 2020 05 16 22 40  0.0000000  0 16        .000000000000
G04  20431224.164 8 107366836.169 8      -971.332          50.000    20431224.586 8  83662508.579 8      -756.882          50.000
G09  20652768.555 8 108531071.711 8      1385.406          51.000    20652769.453 8  84569678.452 8      1079.540          51.000
G17  23678664.148 7 124432209.361 7     -2726.645          43.000    23678662.594 7  96960158.752 7     -2124.658          43.000
G19  23066677.617 6 121216203.765 6     -2375.488          39.000
R01  21607422.531 4 115504035.623 4      2526.965          28.000
R07  21142010.211 5 113174833.837 5     -2466.215          34.000    21142005.070 4  88024852.006 4     -1918.170          27.000
R08  19700949.078 4 105497688.613 4       226.578          29.000    19700952.188 4  82053764.468 4       176.227          27.000
R10  22882495.938 7 121976591.224 7      3859.516          45.000
R22  22537007.070 7 120304067.318 7     -4405.391          42.000    22537011.953 5  93569813.026 5     -3426.418          33.000
C12  24056916.070 7 125270661.323 7     -2893.559          43.000    24056911.766 7  96867239.915 7     -2237.420          47.000
C21  21878033.633 7 113924647.046 7       368.820          44.000
C22  23590807.922 6 122843527.547 6     -1994.992          41.000
E07                                                                  25166614.664 6 101335541.129 6     -1498.957          36.000
E19                                                                  26276664.477 6 105805217.520 6      1549.154          38.000
E26  24818510.258 8 130422176.104 8     -2939.961          48.000    24818515.727 7  99933873.044 7     -2252.661          47.000
E33  24060462.203 8 126438592.683 8      -734.133          51.000    24060462.469 8  96881519.242 8      -562.478          51.000
> 2020 05 16 22 40 30.0000000  0 15        .000000000000
G04  20436814.547 8 107396212.969 8      -986.266          51.000    20436814.703 8  83685399.592 8      -768.519          51.000
G09  20644905.453 8 108489749.570 8      1370.250          51.000    20644906.180 8  84537479.414 8      1067.727          51.000
G17  23694255.148 7 124514142.626 7     -2734.602          45.000    23694254.633 7  97024002.842 7     -2130.858          45.000
G19  23080282.508 6 121287719.397 6     -2390.008          41.000
R07  21155853.273 5 113248929.362 5     -2472.781          33.000    21155849.984 4  88082485.862 4     -1923.271          28.000
R08  19699716.805 5 105491104.550 5       213.387          30.000    19699721.883 4  82048643.168 4       165.970          26.000
R10  22860802.273 7 121860951.729 7      3850.641          45.000
R22  22561790.773 6 120436356.198 6     -4413.160          40.000    22561794.055 5  93672704.335 5     -3432.461          30.000
C12  24073614.539 7 125357609.821 7     -2902.305          43.000    24073608.062 7  96934474.006 7     -2244.364          44.000
C21  21875936.758 7 113913725.441 7       360.043          46.000
C22  23602321.281 6 122903472.848 6     -2000.465          39.000
E07  25177795.375 5 132310206.728 5     -1959.914          31.000    25177795.930 6 101380559.235 6     -1501.893          36.000
E19                                                                  26265142.883 6 105758818.384 6      1544.802          37.000
E26  24835317.031 8 130510490.812 8     -2946.980          49.000    24835320.734 7 100001542.737 7     -2258.013          46.000
E33  24064698.930 8 126460857.806 8      -749.395          51.000    24064699.570 8  96898579.539 8      -574.259          51.000
> 2020 05 16 22 41  0.0000000  0 16        .000000000000
G04  20442486.281 8 107426017.729 8      -998.734          51.000    20442486.109 8  83708624.096 8      -778.235          51.000
G09  20637124.578 8 108448859.141 8      1357.793          51.000    20637124.797 8  84505616.728 8      1058.020          51.000
G17  23709888.625 7 124596297.328 7     -2740.195          47.000    23709888.891 7  97088019.459 7     -2135.217          47.000
G19  23093970.688 6 121359656.681 6     -2402.359          40.000
R07  21169736.805 5 113323231.153 5     -2476.453          35.000    21169726.266 4  88140270.955 4     -1926.133          29.000
R08  19698555.414 5 105484848.002 5       204.129          33.000    19698552.867 4  82043775.966 4       158.767          27.000
R10  22839154.727 7 121745557.884 7      3844.211          45.000
R22  22586612.703 6 120568851.780 6     -4417.777          38.000    22586614.266 4  93775756.316 4     -3436.052          29.000
R23  19967505.758 5 106812673.517 5      -851.602          34.000
C12  24090359.516 7 125444804.828 7     -2908.645          43.000    24090351.977 7  97001898.690 7     -2249.227          44.000
C21  21873885.578 7 113903038.936 7       354.234          46.000
C22  23613860.188 6 122963556.968 6     -2003.012          37.000
E07  25188993.688 5 132369058.858 5     -1962.137          34.000    25188995.992 6 101425656.038 6     -1503.258          36.000
E19  26253651.680 5 137963871.698 5      2012.324          32.000    26253651.242 6 105712541.981 6      1541.827          37.000
E26  24852159.445 8 130598992.242 8     -2951.203          50.000    24852160.562 7 100069355.504 7     -2261.365          46.000
E33  24069019.273 8 126483563.044 8      -762.293          51.000    24069020.531 8  96915977.051 8      -584.086          51.000
> 2020 05 16 22 41 30.0000000  0 16        .000000000000
G03  21975679.422 6 115482956.798 6     -2267.137          36.000    21975699.125 5  89986731.281 5     -1766.600          35.000
G04  20448234.531 8 107456224.548 8     -1015.359          51.000    20448234.180 8  83732161.881 8      -791.189          51.000
G09  20629421.047 8 108408376.196 8      1340.750          51.000    20629421.164 8  84474071.578 8      1044.740          51.000
G17  23725559.336 7 124678646.146 7     -2750.074          47.000    23725559.969 7  97152187.345 7     -2142.915          47.000
G19  23107725.570 6 121431930.543 6     -2418.539          40.000
R07  21183643.242 4 113397640.778 4     -2485.418          29.000    21183628.078 5  88198145.121 5     -1933.106          30.000
R10  22817549.438 7 121630390.290 7      3833.203          44.000
R22  22611468.203 5 120701525.076 5     -4426.891          35.000    22611467.805 4  93878946.655 4     -3443.137          28.000
R23  19972356.562 5 106838668.505 5      -882.203          35.000
C12  24107146.250 6 125532219.549 6     -2919.316          41.000    24107138.859 7  97069493.244 7     -2257.367          44.000
C21  21871874.523 7 113892563.368 7       343.688          46.000
C22  23625419.461 5 123023755.497 5     -2010.969          33.000
E07  25200209.070 6 132427991.343 6     -1967.645          36.000    25200211.242 6 101470812.173 6     -1507.643          36.000
E19  26242177.484 5 137903576.150 5      2004.586          33.000    26242184.906 6 105666369.891 6      1535.841          36.000
E26  24869032.125 8 130687654.400 8     -2960.027          49.000    24869031.570 7 100137291.409 7     -2268.034          47.000
E33  24073418.727 8 126506683.645 8      -779.543          51.000    24073420.688 8  96933692.836 8      -597.378          51.000
> 2020 05 16 22 42  0.0000000  0 15        .000000000000
G03  21988637.961 5 115551072.411 5     -2274.484          32.000    21988654.117 4  90039806.469 4     -1772.335          27.000
G04  20454067.844 8 107486878.730 8     -1028.746          51.000    20454067.555 8  83756048.271 8      -801.617          51.000
G09  20621803.680 8 108368347.723 8      1327.266          51.000    20621804.141 8  84442880.590 8      1034.236          51.000
G17  23741275.430 7 124761232.810 7     -2756.215          47.000    23741275.781 7  97216540.574 7     -2147.700          47.000
G19  23121570.766 6 121504675.925 6     -2431.895          41.000
R07  21197564.055 5 113472243.204 5     -2488.902          34.000    21197564.516 5  88256172.761 5     -1935.807          30.000
R10  22795995.875 7 121515500.057 7      3825.387          44.000
R22  22636365.086 5 120834419.490 5     -4433.289          31.000    22636363.617 4  93982345.912 4     -3448.114          27.000
C12  24123983.414 6 125619897.847 6     -2926.234          39.000    24123977.109 7  97137291.635 7     -2262.690          44.000
C21  21869912.273 7 113882345.089 7       336.926          46.000
C22  23637011.555 6 123084114.193 6     -2014.047          40.000
E07  25211446.852 5 132487046.470 5     -1969.754          34.000    25211451.320 6 101516062.970 6     -1509.235          36.000
E19  26230741.273 5 137843478.574 5      2000.094          34.000    26230752.242 5 105620338.033 5      1532.494          34.000
E26  24885943.375 8 130776522.417 8     -2964.938          48.000    24885942.906 7 100205385.085 7     -2271.874          47.000
E33  24077906.180 8 126530266.079 8      -793.047          51.000    24077908.750 8  96951762.491 8      -607.611          51.000
> 2020 05 16 22 42 30.0000000  0 15        .000000000000
G03  22001638.414 5 115619384.454 5     -2281.754          35.000    22001650.297 5  90093036.371 5     -1778.011          32.000
G04  20459974.805 8 107517920.266 8     -1042.285          51.000    20459974.477 8  83780236.486 8      -812.170          51.000
G09  20614261.531 8 108328715.470 8      1313.414          51.000    20614262.320 8  84411998.331 8      1023.440          51.000
G17  23757024.930 7 124843995.888 7     -2762.891          46.000    23757024.516 7  97281031.282 7     -2152.902          46.000
G19  23135486.258 7 121577798.784 7     -2444.840          42.000
R08  19695437.938 5 105468168.166 5       168.695          30.000    19695435.031 4  82030796.738 4       131.201          27.000
R10  22774483.922 7 121400833.435 7      3817.254          42.000
R23  19982562.922 5 106893229.203 5      -937.477          32.000
C12  24140859.367 6 125707779.236 6     -2933.730          36.000    24140854.961 7  97205247.080 7     -2268.716          44.000
C21  21867988.219 7 113872326.179 7       329.523          46.000
C22  23648622.688 6 123144574.773 6     -2018.258          36.000
E07  25222696.273 5 132546166.860 5     -1972.672          34.000    25222703.750 6 101561363.025 6     -1511.654          37.000
E19  26219331.297 5 137783516.525 5      1995.332          34.000    26219341.414 5 105574401.588 5      1528.529          33.000
E26  24902881.703 7 130865536.149 7     -2970.645          47.000    24902882.852 8 100273590.434 8     -2276.250          49.000
E33  24082470.469 8 126554251.546 8      -807.363          51.000    24082473.320 8  96970140.958 8      -618.644          51.000
> 2020 05 16 22 43  0.0000000  0 15        .000000000000
G03  22014686.828 5 115687959.901 5     -2288.887          31.000    22014693.000 5  90146490.298 5     -1783.551          32.000
G04  20465967.086 8 107549409.952 8     -1056.277          51.000    20465966.727 8  83804773.898 8      -823.073          51.000
G09  20606806.500 8 108289541.926 8      1298.949          51.000    20606807.828 8  84381473.501 8      1012.168          51.000
G17  23772818.781 7 124926994.275 7     -2769.664          44.000    23772817.648 7  97345705.348 7     -2158.177          44.000
G19  23149483.977 6 121651352.335 6     -2458.234          41.000
R08  19694530.914 4 105463337.379 4       156.348          29.000    19694530.938 4  82027029.338 4       121.601          29.000
R10  22753026.812 7 121286457.628 7      3808.504          43.000
R22  22686260.383 5 121100810.606 5     -4444.887          32.000    22686263.195 4  94189517.844 4     -3457.146          26.000
C12  24157784.906 5 125795922.925 5     -2941.883          33.000    24157783.289 7  97273405.348 7     -2274.651          44.000
C21  21866114.172 7 113862568.382 7       321.730          46.000
C22  23660264.711 5 123205198.798 5     -2024.109          31.000
E07                                                                  25233979.898 6 101606759.449 6     -1514.195          37.000
E19  26207958.047 5 137723748.192 5      1989.957          34.000    26207965.969 5 105528623.118 5      1524.766          34.000
E26  24919859.086 7 130954756.249 7     -2976.578          47.000    24919862.125 8 100341953.921 8     -2280.755          49.000
E33  24087123.680 8 126578702.007 8      -821.910          51.000    24087126.133 8  96988875.729 8      -629.784          51.000
> 2020 05 16 22 43 30.0000000  0 15        .000000000000
G03  22027777.312 5 115756749.218 5     -2295.379          35.000    22027778.367 5  90200092.406 5     -1788.598          34.000
G04  20472036.094 8 107581303.357 8     -1068.770          51.000    20472035.969 8  83829625.903 8      -832.807          51.000
G09  20599430.906 8 108250784.271 8      1286.027          51.000    20599432.672 8  84351272.750 8      1002.099          51.000
G17  23788648.195 7 125010182.267 7     -2774.965          43.000    23788647.367 7  97410527.148 7     -2162.310          43.000
G19  23163556.094 7 121725304.648 7     -2470.301          42.000
R07  21239557.539 5 113697010.007 5     -2503.727          33.000    21239541.695 4  88430958.675 4     -1947.343          29.000
R10  22731617.500 7 121172334.080 7      3800.965          43.000
R22  22711253.797 5 121234247.953 5     -4449.836          34.000    22711257.328 4  94293302.477 4     -3460.984          28.000
R23  19993387.828 4 106951142.317 4      -992.863          29.000
C12  24174751.289 5 125884283.657 5     -2948.074          32.000    24174752.719 7  97341731.544 7     -2279.427          43.000
C21  21864281.891 7 113853029.143 7       315.293          45.000
E07                                                                  25245268.797 5 101652218.828 5     -1515.760          34.000
E19  26196613.000 5 137664128.945 5      1985.691          35.000    26196619.062 5 105482940.092 5      1521.710          35.000
E26  24936867.961 8 131044138.173 8     -2980.863          48.000    24936871.773 8 100410441.394 8     -2284.119          49.000
E33  24091857.133 8 126603574.124 8      -834.941          51.000    24091858.883 8  97007933.585 8      -639.748          51.000
> 2020 05 16 22 44  0.0000000  0 13        .000000000000
G04  20478181.070 8 107613595.879 8     -1085.238          51.000    20478180.977 8  83854788.912 8      -845.640          51.000
G09  20592134.156 8 108212439.637 8      1268.961          51.000    20592136.023 8  84321393.826 8       988.801          51.000
G17  23804512.648 7 125093553.820 7     -2784.277          43.000    23804512.969 7  97475491.986 7     -2169.570          43.000
G19  23177700.930 7 121799643.116 7     -2486.414          44.000
R07  21253622.359 5 113772223.655 5     -2511.902          33.000    21253596.281 5  88489458.153 5     -1953.693          30.000
R10  22710255.992 7 121058464.226 7      3789.223          43.000
R22  22736278.906 6 121367846.963 6     -4458.020          36.000    22736280.305 4  94397212.890 4     -3467.342          28.000
C12  24191759.789 5 125972856.124 5     -2958.230          31.000    24191762.352 7  97410221.427 7     -2287.482          43.000
C21  21862490.828 7 113843705.369 7       305.051          46.000
E07  25256567.961 5 132724160.151 5     -1983.461          32.000    25256569.273 5 101697738.266 5     -1520.193          33.000
E19  26185295.273 5 137604654.680 5      1978.688          32.000    26185300.398 5 105437365.114 5      1515.598          35.000
E26  24953907.492 8 131133677.221 8     -2989.375          50.000    24953911.023 8 100479049.246 8     -2290.596          49.000
E33  24096670.016 8 126628864.523 8      -852.180          51.000    24096671.258 8  97027311.921 8      -652.939          51.000
> 2020 05 16 22 44 30.0000000  0 13        .000000000000
G04  20484412.984 8 107646344.311 8     -1097.324          51.000    20484412.688 8  83880307.165 8      -855.058          50.000
G09  20584927.312 8 108174566.432 8      1256.492          51.000    20584928.766 8  84291882.238 8       979.085          51.000
G17  23820423.164 7 125177164.108 7     -2789.062          44.000    23820424.469 7  97540642.852 7     -2173.295          45.000
G19  23191929.406 7 121874414.534 7     -2497.898          43.000
R10  22688953.719 7 120944911.650 7      3781.652          42.000
R22  22761346.469 6 121501662.578 6     -4462.164          38.000    22761347.469 4  94501291.687 4     -3470.575          27.000
C12  24208820.586 5 126061695.504 5     -2963.633          33.000    24208823.641 7  97478917.681 7     -2291.880          45.000
C21  21860752.719 7 113834654.860 7       298.945          46.000
C22  23695366.055 4 123387983.427 4     -2034.805          27.000
E07  25267894.656 5 132783681.719 5     -1985.223          32.000    25267897.648 5 101743361.813 5     -1521.001          33.000
E19                                                                  26174020.859 5 105391942.855 5      1512.953          35.000
E26  24970988.016 8 131223430.019 8     -2993.441          49.000    24970990.438 7 100547820.853 7     -2293.601          47.000
E33  24101573.367 8 126654631.042 8      -864.941          51.000    24101574.461 8  97047055.094 8      -662.774          51.000
> 2020 05 16 22 45  0.0000000  0 14        .000000000000
G04  20490717.961 8 107679476.834 8     -1110.711          51.000    20490717.594 8  83906124.714 8      -865.489          51.000
G09  20577796.977 8 108137094.504 8      1242.430          51.000    20577797.578 8  84262683.331 8       968.127          51.000
G17  23836365.477 7 125260939.806 7     -2795.188          47.000    23836367.375 7  97605922.599 7     -2178.068          46.000
G19  23206227.031 7 121949548.912 7     -2510.547          42.000
R08  19691529.141 5 105447230.181 5       111.668          32.000
R10  22667698.812 7 120831609.915 7      3772.535          43.000
R22  22786441.008 6 121635619.471 6     -4467.570          38.000
C12  24225918.773 5 126150729.689 5     -2971.219          33.000    24225922.984 7  97547764.510 7     -2297.341          46.000
C21  21859054.250 7 113825808.008 7       291.504          47.000
E07                                                                  25279240.852 5 101789026.117 5     -1523.530          33.000
E19  26162762.656 5 137486234.163 5      1969.613          34.000    26162765.562 5 105346619.625 5      1509.202          35.000
E26  24988095.461 8 131313324.604 8     -2998.801          49.000    24988096.344 7 100616701.115 7     -2297.779          46.000
E30  26144004.398 6 137387670.535 6      1470.500          39.000    26144007.273 6 105271083.140 6      1126.732          41.000
E33  24106553.688 8 126680803.041 8      -879.074          51.000    24106554.977 8  97067108.945 8      -673.540          51.000
> 2020 05 16 22 45 30.0000000  0 16        .000000000000
G04  20497090.031 8 107712962.490 8     -1117.270          51.000    20497089.758 8  83932217.435 8      -870.600          51.000
G09  20570737.391 8 108099994.572 8      1235.340          51.000    20570737.180 8  84233774.301 8       962.602          51.000
G17  23852333.242 8 125344848.500 8     -2794.238          48.000    23852335.414 8  97671305.989 8     -2177.329          48.000
G19  23220587.883 6 122025008.455 6     -2516.371          41.000
R01  21454002.156 5 114683952.967 5      2451.688          33.000
R07  21295931.477 5 113998787.291 5     -2518.672          31.000
R10  22646486.438 7 120718534.005 7      3770.270          44.000
R22  22811556.125 6 121769683.618 6     -4465.230          37.000
C12  24243048.156 5 126239926.728 5     -2970.926          35.000    24243053.828 8  97616737.353 8     -2297.465          48.000
C21  21857389.461 7 113817135.663 7       291.062          47.000
C22  23718841.781 5 123510194.059 5     -2036.797          32.000
E07                                                                  25290592.391 5 101834726.000 5     -1520.372          33.000
E19  26151529.758 6 137427183.409 6      1971.602          36.000    26151528.688 5 105301372.981 5      1510.768          34.000
E26  25005223.875 8 131403329.918 8     -2997.121          49.000    25005223.359 7 100685666.204 7     -2296.543          45.000
E30  26135635.203 6 137343690.812 6      1466.012          37.000    26135638.938 6 105237384.397 6      1123.371          40.000
E33  24111605.422 8 126707350.674 8      -886.305          51.000    24111607.094 8  97087450.637 8      -679.114          51.000
> 2020 05 16 22 46  0.0000000  0 17        .000000000000
G03  22093861.875 5 116104056.714 5     -2335.793          32.000    22093862.969 5  90470637.943 5     -1820.098          30.000
G04  20503540.109 8 107746858.069 8     -1139.664          51.000    20503539.984 8  83958629.566 8      -888.050          50.000
G09  20563759.742 8 108063325.106 8      1212.105          51.000    20563759.000 8  84205200.697 8       944.498          51.000
G17  23868336.906 8 125428945.364 8     -2809.363          49.000    23868339.031 8  97736836.006 8     -2189.114          49.000
G19  23235022.812 7 122100873.883 7     -2538.055          42.000
R01  21440293.562 5 114610656.110 5      2435.324          30.000
R07  21310090.375 5 114074602.092 5     -2532.145          35.000    21310099.219 4  88724710.222 4     -1969.449          28.000
R10  22625328.805 7 120605747.481 7      3751.609          46.000
R22  22836701.844 6 121903910.152 6     -4479.750          39.000
C12  24260219.477 5 126329342.139 5     -2987.121          33.000    24260226.539 8  97685878.986 8     -2309.656          48.000
C21  21855768.828 7 113808695.629 7       274.574          46.000
C22  23730628.594 6 123571541.354 6     -2050.141          36.000
E07                                                                  25301961.875 5 101880496.629 5     -1528.798          33.000
E19  26140325.648 6 137368290.914 6      1957.258          37.000    26140321.531 5 105256247.620 5      1500.091          33.000
E26  25022384.008 7 131493502.622 7     -3011.434          47.000    25022382.508 7 100754759.545 7     -2307.447          44.000
E30  26127333.281 6 137300061.432 6      1445.289          36.000    26127336.047 6 105203954.091 6      1107.630          40.000
E33  24116739.688 8 126734331.871 8      -909.457          51.000    24116741.617 8  97108124.551 8      -696.833          51.000
> 2020 05 16 22 46 30.0000000  0 17        .000000000000
G03  22107211.203 5 116174217.485 5     -2341.820          33.000    22107225.109 5  90525308.528 5     -1824.795          33.000
G04  20510079.086 8 107781220.685 8     -1151.648          51.000    20510078.859 8  83985405.634 8      -897.388          50.000
G09  20556874.938 8 108027144.862 8      1199.352          51.000    20556874.055 8  84177008.339 8       934.560          51.000
G17  23884386.938 8 125513286.528 8     -2813.793          48.000    23884388.883 8  97802556.396 8     -2192.566          48.000
G19  23249543.883 7 122177177.242 7     -2549.141          43.000
R01  21426634.211 4 114537638.189 4      2429.590          28.000
R08  19689919.766 5 105438594.796 5        78.074          32.000    19689917.555 4  82007799.149 4        60.721          28.000
R10  22604237.664 7 120493314.638 7      3743.520          46.000
R22  22861888.086 6 122038354.558 6     -4483.375          38.000    22861895.281 4  94918716.392 4     -3487.069          26.000
R23  20029605.789 6 107144888.811 6     -1160.246          37.000    20029608.023 4  83334903.128 4      -902.414          27.000
C12  24277443.570 5 126419031.376 5     -2992.496          33.000    24277451.656 8  97755232.411 8     -2314.072          48.000
C21  21854203.492 7 113800546.070 7       268.344          46.000
E07  25313363.477 6 133022656.207 6     -1997.051          37.000    25313357.578 5 101926382.528 5     -1530.187          32.000
E19                                                                  26129155.219 5 105211281.468 5      1497.035          33.000
E26  25039586.477 7 131583899.762 7     -3015.336          45.000    25039584.742 7 100824024.847 7     -2310.407          43.000
E30                                                                  26119111.969 6 105170838.383 6      1099.785          39.000
E33  24121967.391 8 126761804.873 8      -922.375          51.000    24121969.445 8  97129175.322 8      -706.731          51.000
> 2020 05 16 22 47  0.0000000  0 16        .000000000000
G04  20516689.633 8 107815959.705 8     -1165.082          51.000    20516689.383 8  84012475.008 8      -907.856          50.000
G09  20550065.891 8 107991364.827 8      1185.102          51.000    20550065.461 8  84149127.806 8       923.456          51.000
G17  23900465.695 8 125597779.474 8     -2819.730          48.000    23900467.344 8  97868395.054 8     -2197.193          48.000
G19  23264129.016 7 122253823.967 7     -2561.727          44.000    23264124.406 6  95262697.468 6     -1996.151          41.000
R07  21338520.711 5 114226768.882 5     -2540.727          34.000    21338514.219 4  88843007.393 4     -1976.118          27.000
R10  22583196.352 7 120381149.924 7      3733.367          46.000
R22  22887097.242 6 122172922.006 6     -4488.555          37.000    22887100.969 4  95023372.004 4     -3491.098          26.000
R23  20036195.773 6 107180103.876 6     -1188.016          40.000    20036193.570 4  83362292.632 4      -924.012          28.000
C12  24294703.039 5 126508903.607 5     -2999.848          33.000    24294711.680 7  97824727.309 7     -2319.518          47.000
C21  21852676.719 7 113792598.654 7       260.746          46.000
C22  23754275.188 5 123694750.250 5     -2057.500          35.000
E07  25324759.312 6 133082601.602 6     -2000.125          37.000    25324763.484 5 101972314.790 5     -1532.246          33.000
E19                                                                  26118014.961 5 105166420.369 5      1492.959          33.000
E26  25056814.117 7 131674430.521 7     -3020.789          42.000    25056812.891 7 100893392.519 7     -2314.666          43.000
E30                                                                  26110948.914 5 105137970.110 5      1091.108          33.000
E33  24127271.508 8 126789680.122 8      -936.719          51.000    24127273.469 8  97150534.283 8      -717.704          51.000
> 2020 05 16 22 47 30.0000000  0 18        .000000000000
G03  22134033.750 5 116315149.990 5     -2355.812          34.000
G04  20523375.594 8 107851095.205 8     -1177.547          51.000    20523375.453 8  84039853.327 8      -917.569          51.000
G09  20543337.375 8 107956006.744 8      1171.801          51.000    20543337.453 8  84121576.029 8       913.088          51.000
G17  23916576.680 8 125682442.776 8     -2824.797          48.000    23916577.914 8  97934366.431 8     -2201.140          48.000
G19  23278786.188 7 122330846.301 7     -2573.164          44.000
R01  21399470.539 4 114392421.984 4      2415.211          28.000    21399465.078 4  88971881.538 4      1878.497          24.000
R07  21352797.242 5 114303114.009 5     -2545.191          33.000    21352765.750 4  88902391.356 4     -1979.584          26.000
R10  22562210.273 7 120269279.556 7      3724.258          46.000
R22  22912333.297 6 122307630.576 6     -4492.184          36.000    22912332.367 4  95128123.369 4     -3493.921          27.000
R23  20042932.820 7 107216141.317 7     -1214.684          42.000    20042929.547 4  83390321.773 4      -944.754          28.000
C12  24312000.859 5 126598977.711 5     -3005.020          32.000    24312010.406 7  97894378.363 7     -2324.125          46.000
C21  21851193.133 7 113784874.967 7       253.777          47.000
C22  23766137.383 5 123756511.856 5     -2060.945          31.000
E07  25336190.180 5 133142592.492 5     -2002.242          35.000
E19  26106902.016 5 137192693.095 5      1943.961          34.000    26106902.797 5 105121678.845 5      1490.256          30.000
E26  25074070.695 6 131765114.849 6     -3025.078          38.000    25074071.008 7 100962877.897 7     -2318.019          43.000
E30                                                                  26102851.547 5 105105366.166 5      1082.356          31.000
E33  24132656.414 8 126817978.747 8      -950.105          51.000    24132657.906 8  97172217.655 8      -728.024          51.000
> 2020 05 16 22 48  0.0000000  0 17        .000000000000
G03  22147519.023 5 116385994.763 5     -2363.578          33.000
G04  20530138.180 8 107886633.309 8     -1190.965          51.000    20530138.164 8  84067545.366 8      -928.025          50.000
G09  20536690.664 8 107921078.314 8      1157.391          51.000    20536691.578 8  84094359.077 8       901.866          51.000
G17  23932720.945 8 125767281.254 8     -2830.516          48.000    23932721.445 8  98000474.296 8     -2205.597          48.000
G19  23293512.891 7 122408237.056 7     -2585.629          44.000
R01  21385933.398 5 114320095.477 5      2407.359          31.000
R07  21367073.102 4 114379550.749 4     -2550.164          29.000    21367046.289 4  88961806.437 4     -1983.455          27.000
R08  19688877.961 5 105433041.473 5        46.062          32.000
R10  22541281.992 7 120157716.292 7      3714.004          47.000
R22  22937596.523 4 122442484.116 4     -4497.914          29.000    22937593.844 5  95233009.472 5     -3498.384          30.000
R23  20049824.219 6 107253007.650 6     -1242.270          40.000    20049821.281 4  83418995.646 4      -966.207          27.000
C12  24329337.539 4 126689258.758 4     -3012.016          29.000    24329348.594 7  97964189.398 7     -2329.402          44.000
C21  21849754.156 8 113777382.514 8       246.223          48.000
E07  25347621.711 5 133202655.959 5     -2004.648          34.000    25347635.773 5 102064407.933 5     -1536.269          35.000
E19  26095819.484 5 137134452.315 5      1939.289          35.000    26095820.859 4 105077055.830 4      1485.491          29.000
E26  25091356.898 5 131855958.855 5     -3030.602          34.000    25091359.852 7 101032485.601 7     -2321.985          44.000
E33  24138123.547 8 126846707.987 8      -964.484          51.000    24138124.242 8  97194230.965 8      -739.009          51.000
> 2020 05 16 22 48 30.0000000  0 17        .000000000000
G04  20536982.523 8 107922600.958 8     -1205.586          51.000    20536982.484 8  84095572.105 8      -939.418          50.000
G09  20530130.984 8 107886608.130 8      1141.883          51.000    20530132.461 8  84067499.223 8       889.782          51.000
G17  23948903.266 7 125852320.198 7     -2837.453          47.000    23948903.031 7  98066738.353 7     -2211.005          47.000
G19  23308316.352 7 122486035.819 7     -2599.164          44.000
R01  21372457.391 5 114247984.411 5      2398.863          32.000
R08  19688654.609 5 105431878.645 5        33.488          32.000
R10  22520417.438 7 120046493.448 7      3702.305          46.000
R22  22962889.109 5 122577420.154 5     -4503.766          31.000    22962887.719 4  95338030.305 4     -3502.929          29.000
R23  20056876.031 6 107290729.695 6     -1270.969          41.000    20056872.172 4  83448335.014 4      -988.534          27.000
C12                                                                  24346731.227 7  98034180.352 7     -2335.440          43.000
C21  21848365.234 8 113770149.652 8       237.453          48.000
C22  23789941.898 5 123880448.930 5     -2070.316          33.000
E07  25359083.938 5 133262884.595 5     -2009.363          33.000    25359094.344 5 102110559.397 5     -1539.400          35.000
E19  26084771.961 5 137076397.747 5      1932.883          34.000
E26                                                                  25108684.172 7 101102236.177 7     -2326.893          44.000
E30  26086863.820 5 137087393.285 5      1387.590          35.000
E33  24143678.047 8 126875895.873 8      -979.934          51.000    24143678.094 8  97216595.708 8      -750.882          51.000
> 2020 05 16 22 49  0.0000000  0 15        .000000000000
G04  20543898.391 8 107958944.132 8     -1218.816          51.000    20543898.289 8  84123891.457 8      -949.727          51.000
G09  20523648.867 8 107852543.838 8      1127.641          51.000    20523649.570 8  84040955.637 8       878.681          51.000
G17  23965113.008 7 125937504.213 7     -2842.742          45.000    23965112.562 7  98133115.475 7     -2215.124          44.000
G19  23323185.953 7 122564165.105 7     -2611.148          43.000
R08  19688493.078 6 105431025.678 6        22.184          36.000
R10  22499607.109 7 119935562.483 7      3691.621          44.000
R23  20064076.266 6 107329252.273 6     -1298.309          38.000    20064073.320 4  83478314.989 4     -1009.799          28.000
C12                                                                  24364148.172 7  98104309.088 7     -2340.759          42.000
C21  21847016.109 8 113763124.453 8       229.668          48.000
C22  23801907.594 5 123942603.757 5     -2074.594          35.000
E07  25370558.406 5 133323183.418 5     -2011.914          32.000    25370562.844 5 102156759.273 5     -1541.438          34.000
E19  26073748.539 5 137018472.676 5      1927.523          33.000
E26  25126025.219 5 132038151.946 5     -3042.094          35.000    25126033.055 7 101172088.165 7     -2330.907          45.000
E30  26078972.250 6 137045918.695 6      1375.875          36.000
E33  24149309.688 8 126905489.482 8      -994.266          51.000    24149309.742 8  97239271.323 8      -761.858          51.000
> 2020 05 16 22 49 30.0000000  0 15        .000000000000
G04  20550888.742 8 107995678.592 8     -1230.289          51.000    20550888.719 8  84152515.720 8      -958.667          51.000
G09  20517247.398 8 107818902.756 8      1115.066          51.000    20517247.148 8  84014741.814 8       868.883          51.000
G17  23981352.953 7 126022847.677 7     -2846.586          43.000    23981352.945 7  98199616.884 7     -2218.119          43.000
G19  23338122.875 7 122642660.201 7     -2621.754          44.000
R07  21410075.531 5 114609804.165 5     -2564.309          30.000
R08  19688394.438 5 105430500.157 5        12.867          32.000
R10  22478854.852 7 119824946.266 7      3682.691          42.000
R23  20071429.336 6 107368591.207 6     -1324.078          40.000    20071427.938 4  83508912.012 4     -1029.836          29.000
C12  24381601.727 5 126961400.500 5     -3031.902          33.000    24381602.211 6  98174586.844 6     -2344.646          41.000
C21  21845710.086 8 113756324.040 8       223.715          49.000
C22  23813874.641 5 124004880.561 5     -2077.605          31.000
E19  26062755.016 5 136960701.564 5      1923.504          32.000
E26  25143403.602 6 132129462.724 6     -3045.512          37.000    25143409.297 7 101242053.547 7     -2333.544          45.000
E30  26071146.953 5 137004797.308 5      1365.852          33.000
E33  24155021.922 8 126935505.616 8     -1006.852          51.000    24155022.242 8  97262270.687 8      -771.478          51.000
> 2020 05 16 22 50  0.0000000  0 13        .000000000000
G04  20557963.773 8 108032858.481 8     -1247.004          51.000    20557963.898 8  84181487.090 8      -971.691          51.000
G07  24121121.141 6 126757340.185 6      3410.094          37.000    24121118.617 6  98771948.308 6      2657.213          36.000
G09  20510936.812 8 107785740.639 8      1097.223          51.000    20510936.938 8  83988901.230 8       854.979          51.000
G17  23997633.414 7 126108403.203 7     -2855.648          43.000    23997633.922 7  98266283.530 7     -2225.181          43.000
G19  23353137.469 7 122721569.552 7     -2637.191          45.000
R08  19688375.711 5 105430319.046 5        -1.723          30.000    19688378.438 4  82001374.907 4        -1.337          27.000
R10  22458172.445 6 119714705.513 6      3668.301          41.000
R23  20078945.836 6 107408801.735 6     -1355.148          41.000    20078946.727 5  83540186.888 5     -1054.007          32.000
C12  24399099.766 6 127052530.509 6     -3041.699          38.000    24399103.383 6  98245054.346 6     -2352.032          39.000
C21  21844458.000 8 113749803.703 8       212.520          49.000
E26  25160821.805 6 132220975.541 6     -3053.891          37.000    25160823.492 7 101312173.708 7     -2339.997          44.000
E30                                                                  26063399.375 4 104946507.875 4      1034.371          29.000
E33  24160825.078 8 126965999.417 8     -1024.531          51.000    24160825.602 8  97285636.078 8      -785.081          51.000
> 2020 05 16 22 50 30.0000000  0 15        .000000000000
G03  22215532.969 5 116743393.164 5     -2399.320          31.000    22215533.516 5  90968882.153 5     -1869.591          31.000
G04  20565111.164 8 108070418.617 8     -1255.516          51.000    20565111.227 8  84210754.732 8      -978.324          51.000
G07  24101652.984 6 126655040.383 6      3411.707          36.000    24101650.453 6  98692234.185 6      2658.473          37.000
G09  20504705.031 8 107752993.944 8      1087.508          51.000    20504705.625 8  83963384.319 8       847.409          51.000
G17  24013941.719 7 126194103.941 7     -2856.273          44.000    24013942.375 7  98333063.347 7     -2225.671          43.000
G19  23368218.742 7 122800817.981 7     -2644.461          46.000
R07  21438882.617 5 114764052.792 5     -2572.918          33.000    21438905.000 4  89260959.149 4     -2001.164          28.000
R10  22437549.688 7 119604780.103 7      3661.859          42.000
R23  20086613.172 6 107449816.758 6     -1377.617          40.000    20086614.383 5  83572087.420 5     -1071.483          31.000
C12  24416634.750 6 127143840.346 6     -3043.801          39.000    24416638.742 6  98315660.922 6     -2353.615          38.000
C21  21843247.891 8 113743500.422 8       209.336          50.000
C22  23837866.680 5 124130023.005 5     -2084.621          34.000
E07  25405088.219 5 133504638.176 5     -2018.023          33.000    25405092.164 5 102295776.888 5     -1545.993          33.000
E26  25178264.312 6 132312625.125 6     -3054.309          40.000    25178263.234 7 101382398.655 7     -2340.398          43.000
E33  24166706.648 8 126996906.744 8     -1034.219          51.000    24166707.359 8  97309318.320 8      -792.474          51.000
> 2020 05 16 22 51  0.0000000  0 15        .000000000000
G03  22229259.180 4 116815533.629 4     -2407.184          29.000    22229265.602 4  91025095.476 4     -1875.734          26.000
G04  20572325.992 8 108108333.184 8     -1269.793          50.000    20572326.023 8  84240298.563 8      -989.446          50.000
G07  24082194.508 6 126552788.381 6      3407.887          36.000    24082192.664 6  98612557.348 6      2655.496          37.000
G09  20498548.094 8 107720638.496 8      1071.992          51.000    20498548.039 8  83938172.231 8       835.319          51.000
G17  24030272.695 7 126279922.983 7     -2862.430          43.000    24030273.039 7  98399935.318 7     -2230.465          43.000
G19  23383358.766 7 122880381.171 7     -2657.402          46.000
R10  22416983.055 7 119495150.309 7      3649.180          42.000
R23  20094424.500 6 107491609.950 6     -1406.461          37.000    20094425.875 5  83604593.216 5     -1093.914          30.000
C12  24434199.344 6 127235303.442 6     -3051.461          39.000    24434202.789 6  98386386.015 6     -2359.465          36.000
C21  21842074.758 8 113737390.292 8       200.375          49.000
C22  23849894.289 5 124192680.834 5     -2089.785          30.000
E07                                                                  25416630.672 5 102342230.222 5     -1548.699          34.000
E19                                                                  26029971.156 5 104811899.503 5      1462.067          32.000
E26  25195726.234 7 132404385.572 7     -3060.422          42.000    25195724.195 7 101452708.556 7     -2345.100          44.000
E33  24172661.953 8 127028202.895 8     -1049.711          51.000    24172662.688 8  97333298.485 8      -804.321          51.000
> 2020 05 16 22 51 30.0000000  0 15        .000000000000
G04  20579606.039 8 108146590.735 8     -1284.055          50.000    20579606.414 8  84270109.656 8     -1000.562          50.000
G07  24062743.828 5 126450576.845 5      3403.367          34.000    24062742.000 5  98532911.980 5      2651.968          32.000
G09  20492463.906 8 107688664.250 8      1056.332          51.000    20492463.477 8  83913257.237 8       823.116          51.000
G17  24046623.883 7 126365847.468 7     -2869.180          43.000    24046623.328 7  98466889.422 7     -2235.727          42.000
G19  23398556.492 7 122960249.763 7     -2670.242          46.000    23398554.977 7  95813166.404 7     -2080.708          44.000
R07  21467798.398 5 114918859.412 5     -2585.848          31.000    21467807.898 4  89381317.895 4     -2011.209          26.000
R08  19688627.328 5 105431662.423 5       -32.695          34.000
R10  22396470.641 6 119385811.222 6      3636.457          40.000
R23  20102377.781 6 107534169.178 6     -1434.820          36.000    20102381.156 5  83637694.771 5     -1115.971          30.000
C12  24451791.617 6 127326907.405 6     -3059.113          38.000    24451793.453 5  98457220.012 5     -2365.183          35.000
C21  21840936.547 8 113731463.519 8       191.543          49.000
E07                                                                  25428180.031 5 102388710.456 5     -1552.129          34.000
E19                                                                  26019087.164 5 104768076.894 5      1456.931          32.000
E26  25213206.188 7 132496245.253 7     -3066.633          44.000    25213204.578 7 101523094.513 7     -2349.770          43.000
E33  24178689.039 8 127059877.359 8     -1065.270          51.000    24178689.500 8  97357568.514 8      -816.198          51.000
> 2020 05 16 22 52  0.0000000  0 16        .000000000000
G04  20586969.125 8 108185284.252 8     -1295.996          50.000    20586969.586 8  84300260.440 8     -1009.867          50.000
G07  24043318.680 4 126348502.718 4      3401.527          28.000    24043316.562 4  98453373.745 4      2650.535          27.000
G09  20486470.195 8 107657165.876 8      1043.016          51.000    20486469.875 8  83888713.069 8       812.742          51.000
G17  24063012.539 6 126451968.598 6     -2872.840          41.000    24063010.352 6  98533996.736 6     -2238.580          41.000
G19  23413829.562 7 123040509.109 7     -2680.785          47.000    23413827.492 7  95875706.150 7     -2088.923          43.000
R07  21482280.531 5 114996468.934 5     -2589.141          35.000    21482307.594 4  89441680.826 4     -2013.782          27.000
R08  19688844.375 5 105432791.338 5       -43.012          34.000    19688848.180 3  82003357.288 3       -33.451          23.000
R10  22376031.430 6 119276863.122 6      3625.828          37.000
R23  20110493.266 5 107577588.508 5     -1460.711          33.000    20110497.234 5  83671465.353 5     -1136.118          32.000
C12  24469428.602 6 127418743.443 6     -3064.309          37.000    24469428.305 4  98528233.432 4     -2368.763          29.000
C21  21839851.391 8 113725813.891 8       184.680          48.000
C22  23874038.547 5 124318372.341 5     -2098.621          32.000
E07                                                                  25439754.172 5 102435289.464 5     -1553.314          33.000
E19                                                                  26008242.961 5 104724410.586 5      1453.770          33.000
E26  25230722.008 7 132588297.098 7     -3070.664          45.000    25230722.070 7 101593627.726 7     -2352.870          42.000
E33  24184805.859 8 127092024.164 8     -1078.516          51.000    24184806.219 8  97382200.455 8      -826.401          51.000
> 2020 05 16 22 52 30.0000000  0 16        .000000000000
G04  20594414.758 8 108224411.501 8     -1303.121          50.000    20594415.188 8  84330749.195 8     -1015.419          50.000
G09  20480566.758 8 107626142.758 8      1034.391          51.000    20480566.477 8  83864539.211 8       806.019          51.000
G17  24079437.992 6 126538282.874 6     -2871.738          39.000    24079434.234 6  98601254.522 6     -2237.721          39.000
G19  23429176.773 7 123121155.585 7     -2686.465          47.000
R01  21266116.141 5 113679602.577 5      2344.730          34.000
R08  19689127.359 5 105434296.899 5       -47.922          33.000
R10  22355666.273 6 119168309.544 6      3620.125          37.000
R23  20118771.180 6 107621865.227 6     -1481.391          39.000    20118775.055 5  83705902.744 5     -1152.196          33.000
C12  24487109.398 5 127510808.293 5     -3064.855          34.000
C21  21838819.438 8 113720440.795 8       182.723          49.000
C22  23886149.820 5 124381454.567 5     -2097.273          32.000
E07                                                                  25451348.781 4 102482034.373 4     -1551.381          29.000
E19  25997442.828 5 136617482.173 5      1897.793          33.000    25997435.539 5 104680900.014 5      1454.264          32.000
E26  25248273.422 7 132680538.790 7     -3069.609          46.000    25248276.445 7 101664306.416 7     -2352.029          42.000
E30  26025661.719 5 136765779.964 5      1297.895          34.000    26025663.258 5 104794559.433 5       994.515          34.000
E33  24191012.664 8 127124642.084 8     -1086.805          51.000    24191012.930 8  97407193.396 8      -832.737          51.000
> 2020 05 16 22 53  0.0000000  0 16        .000000000000
G04  20601909.164 8 108263794.669 8     -1324.461          51.000    20601909.719 8  84361437.378 8     -1032.047          51.000
G09  20474719.781 8 107595418.606 8      1011.641          51.000    20474720.008 8  83840598.303 8       788.291          51.000
G17  24095865.766 6 126624611.093 6     -2885.238          40.000    24095861.844 6  98668523.248 6     -2248.238          39.000
G19  23444564.438 7 123202017.390 7     -2706.340          46.000
R01  21252997.414 4 113609483.815 4      2327.945          27.000
R07  21511366.219 4 115151993.131 4     -2601.438          29.000
R08  19689447.023 5 105435998.875 5       -67.777          34.000    19689446.531 4  82005849.824 4       -52.716          28.000
R10  22335343.297 6 119059977.026 6      3599.816          37.000
R23  20127175.289 6 107666818.050 6     -1517.340          40.000    20127179.477 5  83740866.057 5     -1180.150          35.000
C12  24504799.305 4 127602924.943 4     -3079.395          28.000    24504781.070 5  98670610.682 5     -2381.074          30.000
C21  21837807.359 8 113715169.720 8       166.590          49.000
C22  23898227.680 4 124444372.009 4     -2110.508          29.000
E19  25986641.102 5 136560720.031 5      1883.812          33.000    25986634.648 5 104637407.132 5      1443.393          33.000
E26  25265827.266 7 132772792.418 7     -3082.719          46.000    25265832.969 6 101734994.249 6     -2362.029          41.000
E30  26018305.922 5 136727125.930 5      1276.973          35.000    26018305.008 5 104764941.497 5       978.184          34.000
E33  24197275.727 8 127157554.310 8     -1109.312          51.000    24197276.031 8  97432411.860 8      -849.978          51.000
> 2020 05 16 22 53 30.0000000  0 17        .000000000000
G03  22298543.688 5 117179633.487 5     -2441.316          32.000    22298531.500 5  91308775.515 5     -1902.318          34.000
G04  20609498.477 8 108303676.337 8     -1331.121          51.000    20609499.094 8  84392514.000 8     -1037.237          51.000
G07  23985153.469 4 126042843.613 4      3394.824          29.000
G09  20468976.148 8 107565237.572 8      1003.602          51.000    20468976.891 8  83817080.625 8       782.030          51.000
G17  24112341.523 6 126711194.317 6     -2883.605          40.000    24112338.695 6  98735990.667 6     -2246.965          40.000
G19  23460036.578 7 123283325.926 7     -2711.266          46.000
R07  21525947.703 6 115230059.356 6     -2599.781          37.000
R08  19689847.234 5 105438145.649 5       -72.934          31.000    19689849.430 5  82007519.721 5       -56.717          30.000
R10  22315110.047 6 118952118.347 6      3594.152          39.000
R23  20135750.781 6 107712692.924 6     -1537.945          39.000    20135757.164 6  83776546.545 6     -1196.177          39.000
C12                                                                  24522531.039 5  98742066.199 5     -2380.365          34.000
C21  21836861.164 8 113710242.623 8       165.051          48.000
C22  23910390.086 4 124507654.382 4     -2108.020          28.000
E19  25975889.625 5 136504220.270 5      1885.645          31.000    25975887.023 5 104594125.192 5      1444.405          34.000
E26  25283429.820 7 132865300.515 7     -3081.152          45.000    25283438.016 6 101805877.126 6     -2360.961          38.000
E30  26011041.625 5 136688948.592 5      1270.867          32.000    26011040.281 5 104735680.863 5       973.515          34.000
E33  24203640.898 8 127191004.445 8     -1117.332          51.000    24203641.664 8  97458042.485 8      -856.120          51.000
> 2020 05 16 22 54  0.0000000  0 16        .000000000000
G04  20617143.438 8 108343850.331 8     -1343.910          51.000    20617144.070 8  84423818.420 8     -1047.203          51.000
G07  23965792.711 5 125941100.204 5      3391.223          35.000    23965789.883 5  98135909.289 5      2642.511          35.000
G09  20463297.164 8 107535395.049 8       989.078          51.000    20463297.875 8  83793826.719 8       770.710          51.000
G17  24128826.117 6 126797825.060 6     -2888.906          40.000    24128824.445 6  98803495.142 6     -2251.096          40.000
G19  23475556.461 7 123364882.119 7     -2722.625          46.000
R07  21540552.930 4 115308173.495 4     -2605.117          29.000    21540527.391 4  89684101.917 4     -2026.205          25.000
R10  22294927.383 6 118844529.910 6      3581.898          38.000
R22  23242576.023 5 124070430.225 5     -4540.121          30.000    23242589.719 4  96499294.391 4     -3531.205          25.000
R23  20144457.391 6 107759279.554 6     -1564.727          37.000    20144467.766 6  83812780.674 6     -1217.007          39.000
C12                                                                  24540296.477 6  98813588.175 6     -2385.104          37.000
C21  21835941.789 8 113705456.879 8       157.129          48.000
E07  25486173.078 5 133930745.341 5     -2034.777          35.000    25486181.805 5 102622277.195 5     -1559.025          33.000
E19                                                                  25965152.562 5 104550894.232 5      1440.322          35.000
E26  25301041.891 7 132957856.749 7     -3086.207          44.000    25301053.031 6 101876796.885 6     -2364.520          37.000
E30  26003831.055 5 136651054.729 5      1258.156          31.000    26003834.633 6 104706649.934 6       963.859          37.000
E33  24210069.195 8 127224787.234 8     -1131.641          51.000    24210070.164 8  97483927.996 8      -867.092          51.000
> 2020 05 16 22 54 30.0000000  0 16        .000000000000
G03  22326510.414 6 117326637.639 6     -2460.715          36.000    22326510.336 6  91423324.771 6     -1917.437          36.000
G04  20624873.656 8 108384472.512 8     -1361.219          51.000    20624874.219 8  84455472.071 8     -1060.690          51.000
G07  23946465.172 6 125839523.710 6      3383.293          36.000    23946461.977 5  98056758.793 5      2636.332          33.000
G09  20457712.492 8 107506048.432 8       970.301          51.000    20457713.477 8  83770959.243 8       756.082          51.000
G17  24145348.984 6 126884657.598 6     -2896.699          38.000    24145348.039 6  98871156.858 6     -2257.168          36.000
G19  23491151.422 7 123446831.472 7     -2737.922          45.000
R08  19690805.289 5 105443363.080 5       -99.238          34.000    19690804.359 5  82011500.066 5       -77.188          31.000
R10  22274826.125 6 118737376.328 6      3564.961          39.000
R23  20153327.148 6 107806736.311 6     -1596.176          38.000    20153339.891 6  83849691.410 6     -1241.473          37.000
C12                                                                  24558106.930 6  98885295.127 6     -2392.957          39.000
C21  21835079.578 8 113700968.601 8       144.930          48.000
E07  25497821.664 6 133991943.155 6     -2042.020          37.000    25497824.273 5 102669169.018 5     -1564.865          33.000
E19                                                                  25954460.516 5 104507835.303 5      1432.693          35.000
E26  25318693.008 7 133050616.939 7     -3094.945          43.000    25318707.586 5 101947872.967 5     -2371.350          35.000
E30                                                                  25996710.336 6 104677956.416 6       950.992          37.000
E33  24216590.727 8 127259059.518 8     -1150.164          51.000    24216591.383 8  97510188.595 8      -881.342          51.000
> 2020 05 16 22 55  0.0000000  0 15        .000000000000
G03  22340573.609 5 117400546.490 5     -2467.230          31.000    22340579.234 4  91480916.173 4     -1922.517          29.000
G04  20632676.594 8 108425476.320 8     -1373.203          51.000    20632676.789 8  84487423.090 8     -1070.028          51.000
G07  23927156.055 5 125738055.071 5      3380.160          35.000    23927153.555 6  97977692.364 6      2633.894          36.000
G09  20452209.914 8 107477132.700 8       956.551          51.000    20452211.328 8  83748427.533 8       745.364          51.000
G17  24161897.328 6 126971624.183 6     -2901.406          36.000    24161896.422 6  98938923.068 6     -2260.836          36.000
G19  23506808.570 7 123529110.994 7     -2748.312          45.000
R10  22254794.570 6 118630596.182 6      3553.121          38.000
R23  20162348.211 5 107854994.310 5     -1621.699          35.000    20162360.609 5  83887225.411 5     -1261.319          35.000
C12                                                                  24575950.539 6  98957135.455 6     -2397.029          41.000
C21  21834262.320 8 113696713.426 8       137.875          48.000
E07  25509485.172 5 134053221.515 5     -2044.441          34.000    25509473.031 5 102716100.490 5     -1566.367          31.000
E19                                                                  25943797.594 5 104464898.364 5      1429.295          35.000
E26  25336370.352 7 133143514.478 7     -3098.887          42.000    25336385.961 5 102019054.274 5     -2374.546          32.000
E30                                                                  25989656.297 5 104649551.527 5       942.129          35.000
E33  24223193.148 8 127293755.697 8     -1163.742          51.000    24223193.273 8  97536773.976 8      -891.702          51.000
> 2020 05 16 22 55 30.0000000  0 15        .000000000000
G03  22354688.633 5 117474681.331 5     -2474.582          34.000    22354694.938 5  91538717.778 5     -1928.246          35.000
G04  20640561.312 8 108466909.932 8     -1385.719          51.000    20640561.375 8  84519709.011 8     -1079.781          51.000
G07  23907877.273 6 125636746.219 6      3376.988          37.000    23907874.930 6  97898750.411 6      2631.419          37.000
G09  20446799.086 8 107448697.544 8       942.434          51.000    20446800.453 8  83726270.283 8       734.364          51.000
G17  24178481.062 5 127058771.354 5     -2905.227          34.000    24178478.844 5  99006829.985 5     -2263.810          35.000
G19  23522537.750 7 123611769.245 7     -2758.820          45.000    23522537.102 7  96320853.364 7     -2149.730          44.000
R08  19692031.969 5 105449925.577 5      -119.816          33.000    19692036.203 5  82016636.175 5       -93.194          32.000
R10  22234843.703 6 118524244.546 6      3540.383          40.000
R23  20171525.602 5 107904101.935 5     -1648.332          34.000    20171539.844 5  83925420.236 5     -1282.036          35.000
C12                                                                  24593836.258 7  99029145.243 7     -2401.104          43.000
C21  21833499.305 7 113692740.775 7       130.348          47.000
E07                                                                  25521144.555 5 102763153.356 5     -1567.960          32.000
E19                                                                  25933174.117 5 104422121.861 5      1425.192          35.000
E26  25354083.281 6 133236597.399 6     -3103.039          41.000    25354097.703 5 102090446.578 5     -2377.668          32.000
E33  24229885.938 8 127328924.914 8     -1177.543          51.000    24229885.836 8  97563721.805 8      -902.276          51.000
> 2020 05 16 22 56  0.0000000  0 16        .000000000000
G03  22368832.797 5 117549008.699 5     -2480.309          33.000    22368838.195 5  91596635.230 5     -1932.705          33.000
G04  20648504.461 8 108508650.989 8     -1396.824          51.000    20648504.672 8  84552234.507 8     -1088.434          51.000
G07  23888606.883 6 125535479.112 6      3374.871          37.000    23888605.523 5  97819840.993 5      2629.770          35.000
G09  20441456.656 8 107420622.157 8       929.449          51.000    20441457.680 8  83704393.372 8       724.246          51.000
G17  24195076.266 6 127145978.632 6     -2908.234          36.000    24195072.648 6  99074781.356 6     -2266.154          36.000
G19  23538315.289 7 123694680.896 7     -2768.105          46.000
R08  19692738.516 5 105453668.363 5      -128.918          30.000    19692737.000 5  82019547.189 5      -100.266          31.000
R10  22214951.070 6 118418203.893 6      3529.164          39.000
R23  20180842.742 7 107953934.547 7     -1673.688          42.000    20180855.406 6  83964178.848 6     -1301.757          36.000
C12                                                                  24611739.594 7  99101230.032 7     -2404.203          42.000
C21  21832767.609 8 113688931.093 8       123.945          48.000
C22  23971522.195 5 124825988.476 5     -2131.191          31.000
E07                                                                  25532824.961 5 102810108.639 5     -1568.681          30.000
E19  25922568.109 5 136224014.618 5      1856.656          31.000    25922567.977 5 104379413.021 5      1421.950          35.000
E26  25371808.766 6 133329743.293 6     -3106.121          40.000    25371820.250 5 102161808.157 5     -2380.308          31.000
E33  24236645.898 8 127364445.749 8     -1190.234          51.000    24236645.859 8  97590939.073 8      -912.028          51.000
> 2020 05 16 22 56 30.0000000  0 14        .000000000000
G03  22383016.844 5 117623545.203 5     -2488.691          34.000    22383021.742 5  91654715.661 5     -1939.237          35.000
G04  20656517.367 8 108550758.834 8     -1410.230          51.000    20656517.664 8  84585045.816 8     -1098.881          51.000
G07  23869356.812 5 125434317.272 5      3369.543          32.000    23869355.438 5  97741013.610 5      2625.621          30.000
G09  20436194.180 8 107392967.402 8       914.262          51.000    20436194.742 8  83682844.227 8       712.412          51.000
G17  24211693.477 6 127233298.110 6     -2913.238          38.000    24211689.102 6  99142822.530 6     -2270.056          37.000
G19  23554151.133 7 123777899.101 7     -2779.707          44.000    23554149.992 7  96450304.410 7     -2166.005          44.000
R08  19693492.656 5 105457777.067 5      -140.938          34.000    19693493.344 5  82022709.792 5      -109.618          30.000
R10  22195129.773 6 118312540.703 6      3515.105          41.000
R23  20190307.195 7 108004550.946 7     -1700.789          44.000    20190317.805 6  84003547.160 6     -1322.833          37.000
C12  24629670.953 4 128253164.171 4     -3116.332          29.000    24629671.961 7  99173434.543 7     -2409.087          42.000
C21  21832078.898 8 113685344.830 8       115.176          49.000
E19                                                                  25911990.062 5 104336818.568 5      1417.832          33.000
E26  25389557.453 6 133423011.402 6     -3111.461          38.000    25389566.375 5 102233264.307 5     -2384.050          33.000
E33  24243484.133 8 127400378.442 8     -1205.117          51.000    24243484.195 8  97618471.935 8      -923.369          51.000
> 2020 05 16 22 57  0.0000000  0 14        .000000000000
G03  22397235.492 5 117698263.453 5     -2492.715          34.000    22397239.898 5  91712937.697 5     -1942.375          32.000
G04  20664594.594 8 108593204.982 8     -1420.227          51.000    20664594.930 8  84618120.731 8     -1106.670          51.000
G09  20431006.773 8 107365706.313 8       902.410          51.000    20431006.844 8  83661601.839 8       703.177          51.000
G17  24228326.539 6 127320702.426 6     -2914.301          39.000    24228322.617 6  99210929.743 6     -2270.884          39.000
G19  23570040.391 7 123861393.681 7     -2787.609          44.000
R07  21628703.992 5 115780130.792 5     -2633.168          34.000    21628703.344 4  90051227.992 4     -2048.013          29.000
R08  19694305.359 5 105462126.605 5      -150.016          30.000    19694305.688 5  82026092.711 5      -116.682          32.000
R10  22175374.703 6 118207232.470 6      3504.688          41.000
R23  20199911.742 7 108055921.777 7     -1724.441          42.000    20199921.570 6  84043502.269 6     -1341.232          37.000
C12  24647626.016 5 128346666.101 5     -3118.836          31.000    24647628.148 6  99245736.217 6     -2411.458          41.000
C21  21831428.203 8 113681955.423 8       110.000          49.000
E19                                                                  25901434.680 5 104294318.287 5      1414.806          32.000
E26  25407323.711 6 133516373.173 6     -3113.324          37.000    25407331.664 5 102304801.270 5     -2385.349          34.000
E33  24250395.047 8 127436695.456 8     -1216.656          51.000    24250395.703 8  97646299.287 8      -932.231          51.000
> 2020 05 16 22 57 30.0000000  0 14        .000000000000
G03  22411501.305 6 117773229.513 6     -2502.609          36.000    22411502.984 4  91771352.829 4     -1950.097          28.000
G04  20672748.461 8 108636054.228 8     -1434.824          51.000    20672748.719 8  84651509.760 8     -1118.042          51.000
G09  20425906.891 8 107338905.178 8       885.938          51.000    20425906.883 8  83640717.840 8       690.341          51.000
G17  24244987.203 6 127408254.930 6     -2920.629          37.000    24244984.695 5  99279152.489 5     -2275.812          35.000
G19  23585995.242 7 123945236.715 7     -2800.105          45.000
R07  21643484.141 5 115859245.633 5     -2639.719          33.000
R10  22155699.992 7 118102351.155 7      3489.102          43.000
R23  20209669.984 7 108108112.024 7     -1753.129          46.000    20209678.359 6  84084094.693 6     -1363.545          36.000
C12  24665617.719 5 128440347.083 5     -3126.156          31.000    24665619.914 6  99318183.971 6     -2417.001          37.000
C21  21830827.930 8 113678828.785 8       100.008          50.000
C22  24008468.414 5 125018394.112 5     -2144.629          32.000
E19                                                                  25890913.977 5 104251980.862 5      1409.292          30.000
E26  25425119.547 5 133609893.352 5     -3119.762          35.000    25425127.219 5 102376459.662 5     -2390.601          34.000
E33  24257391.406 8 127473462.520 8     -1232.797          51.000    24257392.547 8  97674471.460 8      -944.590          51.000
> 2020 05 16 22 58  0.0000000  0 14        .000000000000
G03  22425806.969 6 117848403.742 6     -2507.230          38.000    22425807.000 5  91829930.087 5     -1953.689          31.000
G04  20680971.281 8 108679265.958 8     -1444.750          51.000    20680971.281 8  84685181.238 8     -1125.779          51.000
G09  20420886.758 8 107312524.869 8       874.109          51.000    20420887.055 8  83620161.731 8       681.124          51.000
G17  24261667.336 5 127495913.948 5     -2921.492          31.000    24261666.906 5  99347458.250 5     -2276.484          31.000
G19  23602006.375 7 124029379.047 7     -2807.820          45.000    23602002.883 7  96646255.533 7     -2187.912          45.000
R08  19696120.609 5 105471823.432 5      -170.898          33.000    19696124.477 5  82033654.813 5      -132.924          35.000
R10  22136098.547 7 117997861.253 7      3478.234          42.000
R22  23447335.953 4 125163524.438 4     -4561.414          28.000    23447337.109 4  97349408.180 4     -3547.770          29.000
R23  20219573.891 7 108161079.765 7     -1776.844          46.000    20219579.852 5  84125291.837 5     -1381.990          34.000
C12  24683639.820 4 128534182.542 4     -3128.879          29.000    24683639.453 5  99390745.885 5     -2419.312          32.000
C21  21830270.469 8 113675926.357 8        94.641          49.000
C22  24020844.367 6 125082774.642 6     -2146.238          37.000
E26  25442937.703 5 133703540.198 5     -3121.070          34.000    25442945.273 6 102448208.203 6     -2391.850          36.000
E33  24264465.969 8 127510639.876 8     -1244.297          51.000    24264466.992 8  97702958.002 8      -953.410          51.000
> 2020 05 16 22 58 30.0000000  0 14        .000000000000
G03  22440162.586 5 117923839.320 5     -2519.648          34.000    22440163.039 5  91888710.964 5     -1963.362          34.000
G04  20689272.992 8 108722891.970 8     -1461.465          51.000    20689273.023 8  84719175.533 8     -1138.804          51.000
G07  23792579.672 5 125030863.633 5      3351.297          34.000    23792573.328 5  97426610.453 5      2611.403          35.000
G09  20415956.852 8 107286618.702 8       855.262          51.000    20415957.281 8  83599975.109 8       666.438          51.000
G19  23618084.648 7 124113873.767 7     -2822.555          46.000    23618081.086 7  96712094.235 7     -2199.393          45.000
R08  19697135.867 5 105477215.589 5      -186.715          34.000    19697130.250 5  82037848.731 5      -145.223          33.000
R10  22116581.328 6 117893822.225 6      3459.918          40.000
R22  23472990.961 4 125300486.445 4     -4567.137          29.000    23472994.461 4  97455934.114 4     -3552.220          27.000
R23  20229631.180 7 108214876.436 7     -1807.359          44.000    20229635.305 5  84167133.638 5     -1405.727          31.000
C12  24701701.367 5 128628229.241 5     -3137.543          30.000    24701697.227 5  99463460.962 5     -2426.374          30.000
C21  21829765.867 8 113673301.144 8        82.500          48.000
E26                                                                  25460796.531 6 102520086.567 6     -2398.536          38.000
E30  25942269.523 5 136327538.393 5      1139.129          32.000
E33  24271628.648 8 127548280.258 8     -1262.770          51.000    24271629.070 8  97731799.324 8      -967.598          51.000
> 2020 05 16 22 59  0.0000000  0 13        .000000000000
G03  22454528.648 6 117999331.997 6     -2524.891          36.000    22454529.062 6  91947536.415 6     -1967.444          36.000
G04  20697614.469 8 108766726.935 8     -1472.480          51.000    20697614.773 8  84753332.667 8     -1147.387          51.000
G07  23773416.914 6 124930182.401 6      3348.508          36.000    23773413.703 6  97348157.579 6      2609.227          36.000
G09  20411078.391 8 107260982.806 8       842.148          51.000    20411078.641 8  83579999.089 8       656.220          51.000
G19  23634189.906 7 124198508.661 7     -2831.570          45.000    23634186.641 7  96778043.503 7     -2206.421          44.000
R08  19698172.508 5 105482769.798 5      -195.918          33.000    19698164.461 5  82042168.627 5      -152.381          30.000
R10  22097110.414 6 117790032.048 6      3447.645          37.000
R23  20239803.156 7 108269292.026 7     -1832.078          45.000    20239805.125 5  84209456.864 5     -1424.950          32.000
C12  24719763.039 4 128722259.682 4     -3141.305          29.000    24719755.312 5  99536207.309 5     -2429.564          30.000
C21  21829275.734 8 113670751.396 8        75.953          48.000
E26                                                                  25478640.930 6 102591937.364 6     -2400.464          37.000
E30  25935768.250 5 136293366.924 5      1127.863          33.000    25935767.492 5 104432593.791 5       863.902          32.000
E33  24278840.398 8 127586179.197 8     -1275.414          51.000    24278840.359 8  97760838.751 8      -977.259          51.000
> 2020 05 16 22 59 30.0000000  0 14        .000000000000
G03  22468973.602 6 118075269.091 6     -2538.227          39.000    22468976.523 6  92006697.608 6     -1977.836          39.000
G04  20706062.008 8 108811119.091 8     -1490.297          51.000    20706062.305 8  84787923.973 8     -1161.270          51.000
G07  23754317.844 6 124829821.369 6      3338.797          37.000    23754315.805 6  97269954.172 6      2601.660          37.000
G09  20406317.922 8 107235966.890 8       822.125          51.000    20406317.844 8  83560506.159 8       640.617          51.000
G19  23650388.242 7 124283633.490 7     -2847.051          44.000    23650385.406 7  96844374.506 7     -2218.484          43.000
R08  19699305.344 5 105488842.191 5      -212.602          32.000    19699294.117 4  82046891.551 4      -165.360          29.000
R10  22077752.750 5 117686849.842 5      3427.609          35.000
R22  23524317.484 5 125574407.390 5     -4575.492          32.000
R23  20250157.508 7 108324680.368 7     -1863.703          47.000    20250159.688 5  84252536.676 5     -1449.547          35.000
C12  24737889.398 5 128816676.017 5     -3152.703          31.000    24737879.305 5  99609178.786 5     -2437.719          31.000
C21  21828867.039 8 113668623.815 8        62.500          49.000
C22  24058102.594 4 125276734.811 4     -2167.801          26.000
E26                                                                  25496545.609 6 102664027.322 6     -2407.905          37.000
E33  24286167.492 8 127624685.731 8     -1294.938          51.000    24286167.680 8  97790343.748 8      -992.228          51.000
