     3.02           OBSERVATION DATA    M (MIXED)           RINEX VERSION / TYPE
SAVERINEX           SC600               20200504 035930 LCL PGM / RUN BY / DATE
       G = GPS       R = GLONASS       C = COMPASS          COMMENT
       S = SBAS      J = QZSS          E = GALILEO          COMMENT
BEAN                                                        MARKER NAME
1                                                           MARKER NUMBER
GEODETIC                                                    MARKER TYPE
Unige DICCA         GTER                                    OBSERVER / AGENCY
SC60291900056       SC600               2.12(191226)        REC # / TYPE / VERS
                    HEMA45          NONE                    ANT # / TYPE
  4509407.8091   693652.4678  4442337.6214                  APPROX POSITION XYZ
        0.0000        0.0000        0.0000                  ANTENNA: DELTA H/E/N
G    8 C1C L1C D1C S1C C2Y L2Y D2Y S2Y                      SYS / # / OBS TYPES
R    8 C1C L1C D1C S1C C2P L2P D2P S2P                      SYS / # / OBS TYPES
C    8 C1I L1I D1I S1I C7I L7I D7I S7I                      SYS / # / OBS TYPES
E    8 C1C L1C D1C S1C C7Q L7Q D7Q S7Q                      SYS / # / OBS TYPES
DBHZ                                                        COMMENT
     30.000                                                 INTERVAL
  2020    05    04    01    00    0.0000000     GPS         TIME OF FIRST OBS
  2020    05    04    01    59   30.0000000     GPS         TIME OF LAST OBS
     0                                                      RCV CLOCK OFFS APPL
G L1C  0.00000                                              SYS / PHASE SHIFT
G L2Y  0.00000                                              SYS / PHASE SHIFT
R L1C  0.00000                                              SYS / PHASE SHIFT
R L2P  0.25000                                              SYS / PHASE SHIFT
C L1I  0.00000                                              SYS / PHASE SHIFT
C L7I  0.00000                                              SYS / PHASE SHIFT
E L1C  0.50000                                              SYS / PHASE SHIFT
E L7Q -0.25000                                              SYS / PHASE SHIFT
 14 R01  1 R02 -4 R03  5 R04  6 R10 -5 R11  0 R12 -1 R13 -2 GLONASS SLOT / FRQ #
    R14 -7 R15  0 R17  4 R18 -3 R19  3 R23  3               GLONASS SLOT / FRQ #
 C1C   71.950 C2C   71.950 C2P   71.950                     GLONASS COD/PHS/BIS
    18                                                      LEAP SECONDS
*** Above antenna height is from mark to ANTENNA BOTTOM.    COMMENT
    17     4        0.0000        ANT MEASURE TYPE/HEIGT    COMMENT
    0.0000    0.0000    0.0458    0.0405    0.0000          COMMENT
                    BASE STATION                            COMMENT
                                                            END OF HEADER
> 2020 05 04 01 00  0.0000000  0 11        .000000000000
G06  21283216.914 8 111844067.613 8     -1216.098          51.000    21283219.164 8  87151201.788 8      -947.612          51.000
G07  21582393.602 8 113416231.018 8      2083.340          50.000    21582392.227 8  88376263.120 8      1623.382          50.000
G09  20470307.492 8 107572188.994 8      -926.863          51.000    20470308.188 8  83822487.118 8      -722.231          51.000
R03  20278031.586 6 108549923.319 6     -1460.715          41.000    20278036.070 5  84427708.208 5     -1136.109          31.000
R14  21866852.609 8 116562711.494 8      3963.234          50.000    21866855.734 7  90659872.950 7      3082.516          43.000
C05  39766168.156 6 207072871.690 6       -18.410          37.000    39766164.203 6 160121858.390 6       -14.024          38.000
C12  24966847.867 6 130008953.747 6     -2411.883          41.000    24966852.570 7 100531198.797 7     -1864.891          46.000
C22  22066994.734 8 114908620.483 8      -626.648          51.000
E07  24233948.875 7 127350281.212 7     -1264.965          43.000    24233950.844 7  97580178.659 7      -969.238          42.000
E26  25233219.703 5 132601464.924 5     -2961.008          31.000    25233220.617 6 101603732.033 6     -2268.740          36.000
E27  26870725.773 7 141206617.262 7      2975.656          46.000    26870730.023 8 108197294.956 8      2280.135          51.000
> 2020 05 04 01 00 30.0000000  0 12        .000000000000
G06  21290204.969 8 111880789.683 8     -1235.332          51.000    21290208.125 8  87179816.398 8      -962.596          51.000
G07  21570530.523 8 113353890.519 8      2069.227          51.000    21570529.578 8  88327686.128 8      1612.384          51.000
G09  20475620.992 8 107600111.989 8      -937.812          51.000    20475621.875 8  83844245.284 8      -730.763          51.000
R03  20286235.328 7 108593836.355 7     -1470.055          43.000    20286239.883 5  84461862.853 5     -1143.376          32.000
R12  22883288.000 5 122238362.361 5     -3120.457          34.000    22883288.875 4  95074316.237 4     -2427.025          29.000
R14  21844570.266 8 116443930.099 8      3952.254          49.000    21844570.969 6  90567487.402 6      3073.975          40.000
C05  39766264.039 6 207073370.578 6       -18.039          37.000    39766260.070 6 160122244.164 6       -13.934          38.000
C12  24980758.117 6 130081391.240 6     -2420.594          39.000    24980761.891 7 100587212.045 7     -1871.748          46.000
C22  22070619.711 8 114927498.637 8      -635.105          51.000
E07  24241172.477 7 127388242.228 7     -1269.152          43.000    24241174.562 7  97609265.668 7      -972.485          42.000
E26                                                                  25250126.609 5 101671813.057 5     -2272.592          35.000
E27  26853735.609 7 141117333.976 7      2973.301          47.000    26853739.367 8 108128883.060 8      2278.211          50.000
> 2020 05 04 01 01  0.0000000  0 14        .000000000000
G06  21297336.125 8 111918263.104 8     -1257.062          51.000    21297339.484 8  87209016.473 8      -979.526          51.000
G07  21558780.539 8 113292143.052 8      2052.824          51.000    21558779.664 8  88279571.234 8      1599.603          51.000
G09  20481030.430 8 107628538.996 8      -951.262          51.000    20481031.312 8  83866396.194 8      -741.243          51.000
G30  23416522.023 5 123054627.172 5      3508.359          35.000    23416526.406 5  95886749.720 5      2733.787          35.000
R03  20294525.141 7 108638212.993 7     -1482.461          42.000    20294530.219 5  84496378.028 5     -1153.028          33.000
R04  20146375.703 4 107882925.661 4      1496.070          29.000
R12  22900888.938 4 122332373.884 4     -3140.977          29.000    22900888.547 4  95147436.195 4     -2442.985          28.000
R14  21822383.234 8 116325660.660 8      3938.395          48.000    21822382.156 6  90475500.095 6      3063.199          39.000
C05  39766392.867 6 207074041.384 6       -21.207          37.000    39766388.852 6 160122762.868 6       -15.952          38.000
C12  24994752.242 6 130154266.232 6     -2431.930          40.000    24994755.055 7 100643563.594 7     -1880.528          46.000
C22  22074327.289 8 114946807.688 8      -646.359          51.000
E07  24248454.047 7 127426507.410 7     -1276.086          42.000    24248456.102 7  97638585.729 7      -977.607          43.000
E26                                                                  25267093.898 6 101740136.661 6     -2278.073          36.000
E27  26836793.938 7 141028305.054 7      2967.953          47.000    26836796.875 8 108060666.049 8      2274.143          49.000
> 2020 05 04 01 01 30.0000000  0 13        .000000000000
G06  21304563.570 8 111956242.431 8     -1275.785          51.000    21304566.430 8  87238610.758 8      -994.118          51.000
G07  21547097.266 8 113230745.914 8      2039.262          51.000    21547096.250 8  88231729.329 8      1589.035          51.000
G09  20486489.188 8 107657224.915 8      -961.977          51.000    20486489.898 8  83888748.865 8      -749.592          51.000
G30  23396507.688 5 122949444.194 5      3502.945          35.000    23396510.664 5  95804788.962 5      2729.568          34.000
R03  20302856.031 7 108682804.438 7     -1491.430          43.000    20302861.188 5  84531060.220 5     -1160.001          31.000
R14  21800246.789 8 116207660.078 8      3927.340          49.000    21800245.555 6  90383721.903 6      3054.598          41.000
C05  39766508.234 6 207074642.218 6       -20.164          37.000    39766504.320 6 160123227.510 6       -15.773          38.000
C12  25008783.766 6 130227334.332 6     -2440.309          39.000    25008786.055 7 100700064.482 7     -1886.980          47.000
C19  24960180.781 4 129974167.732 4     -2521.047          29.000
C22  22078071.484 8 114966305.977 8      -654.551          51.000
E07  24255747.266 7 127464832.384 7     -1280.012          42.000    24255749.508 7  97667951.620 7      -980.854          44.000
E26  25284076.578 6 132868715.023 6     -2977.527          39.000    25284075.023 5 101808514.298 5     -2281.434          35.000
E27  26819854.562 7 140939288.381 7      2965.512          47.000    26819856.898 8 107992458.453 8      2272.209          49.000
> 2020 05 04 01 02  0.0000000  0 12        .000000000000
G06  21311895.266 8 111994769.536 8     -1298.113          51.000    21311897.125 8  87268631.860 8     -1011.517          51.000
G07  21535489.195 8 113169743.525 8      2021.832          51.000    21535487.734 8  88184195.004 8      1575.454          51.000
G09  20492005.258 8 107686211.907 8      -976.082          51.000    20492005.867 8  83911336.147 8      -760.583          51.000
G30  23376520.055 5 122844409.019 5      3494.070          34.000    23376523.656 5  95722943.339 5      2722.649          35.000
R03  20311235.523 7 108727654.049 7     -1504.297          45.000    20311239.055 5  84565943.294 5     -1170.006          30.000
R14  21778169.227 7 116089976.508 7      3912.574          47.000    21778169.688 7  90292190.262 7      3043.113          45.000
C05  39766618.359 6 207075215.935 6       -23.312          37.000    39766614.516 6 160123671.142 6       -18.199          38.000
C12  25022860.805 7 130300635.666 7     -2452.047          42.000    25022862.609 8 100756745.717 8     -1896.039          48.000
C22  22081860.531 8 114986036.548 8      -666.367          51.000
E07  24263059.977 6 127503260.044 6     -1287.430          40.000    24263062.961 7  97697396.192 7      -986.436          45.000
E26  25301079.328 6 132958065.416 6     -2985.078          40.000    25301078.016 5 101876977.543 5     -2287.325          32.000
E27  26802926.086 7 140850329.234 7      2959.523          46.000    26802928.219 8 107924294.950 8      2267.693          48.000
> 2020 05 04 01 02 30.0000000  0 12        .000000000000
G06  21319347.344 8 112033929.545 8     -1313.047          51.000    21319348.406 8  87299146.139 8     -1023.153          51.000
G07  21523972.805 8 113109223.876 8      2012.148          51.000    21523971.078 8  88137036.827 8      1567.908          51.000
G09  20497594.898 8 107715585.566 8      -982.695          51.000    20497595.609 8  83934224.720 8      -765.737          51.000
G30  23356577.117 5 122739610.274 5      3492.160          33.000    23356581.758 5  95641282.007 5      2721.167          34.000
R03  20319678.156 6 108772850.463 6     -1509.445          41.000    20319682.820 4  84601095.975 4     -1174.019          29.000
R14  21756167.695 6 115972702.108 6      3905.234          41.000    21756170.719 7  90200976.868 7      3037.408          47.000
C05  39766739.750 6 207075848.264 6       -19.191          37.000    39766735.969 6 160124160.079 6       -14.695          38.000
C12  25036999.312 7 130374253.465 7     -2456.598          43.000    25037000.188 7 100813671.676 7     -1899.380          47.000
C22  22085710.797 8 115006085.383 8      -670.699          51.000
E07  24270408.656 6 127541876.723 6     -1287.602          40.000    24270411.742 7  97726985.571 7      -986.529          45.000
E26  25318119.055 6 133047612.057 6     -2985.199          40.000
E27  26786025.492 7 140761516.253 7      2960.727          47.000    26786027.703 8 107856243.465 8      2268.678          48.000
> 2020 05 04 01 03  0.0000000  0 13        .000000000000
G04  22434129.641 5 117892149.082 5     -2643.906          31.000
G06  21326898.078 8 112073608.640 8     -1332.500          51.000    21326899.227 8  87330064.894 8     -1038.312          51.000
G07  21512526.812 8 113049075.864 8      1997.773          51.000    21512525.227 8  88090168.245 8      1556.710          51.000
G09  20503236.516 8 107745232.429 8      -994.070          51.000    20503237.367 8  83957326.180 8      -774.600          51.000
G30  23336658.836 6 122634937.957 6      3485.570          37.000    23336663.344 6  95559719.143 6      2716.029          37.000
R03  20328163.773 7 108818278.900 7     -1519.363          42.000
R14  21734222.383 6 115855727.321 6      3893.125          36.000    21734227.328 8  90109996.472 8      3027.983          49.000
C05  39766850.984 6 207076427.742 6       -19.562          37.000    39766847.305 6 160124608.200 6       -15.311          39.000
C12  25051176.867 7 130448073.751 7     -2465.188          44.000    25051176.758 7 100870754.205 7     -1906.267          47.000
C22  22089600.727 8 115026341.339 8      -679.824          51.000
E07  24277771.836 6 127580569.618 6     -1292.145          39.000    24277774.430 7  97756633.366 7      -990.145          45.000
E26  25335173.945 6 133137240.526 6     -2990.078          39.000
E27  26769131.719 7 140672739.041 7      2957.352          47.000    26769134.227 8 107788219.393 8      2266.091          48.000
> 2020 05 04 01 03 30.0000000  0 13        .000000000000
G06  21334546.906 8 112113803.505 8     -1352.656          51.000    21334548.734 8  87361385.566 8     -1054.018          51.000
G07  21501151.391 8 112989299.348 8      1981.953          50.000    21501150.289 8  88043589.139 8      1544.379          50.000
G09  20508929.578 8 107775149.636 8     -1006.137          51.000    20508930.430 8  83980638.295 8      -784.006          51.000
G30  23316765.094 6 122530392.404 6      3478.684          38.000    23316768.039 6  95478255.045 6      2710.663          38.000
R03  20336692.938 6 108863937.361 6     -1530.176          41.000
R14  21712329.195 6 115739054.747 6      3879.547          37.000    21712340.219 8  90019250.970 8      3017.422          49.000
C05  39766951.773 6 207076952.519 6       -20.695          37.000    39766948.094 6 160125013.973 6       -15.979          39.000
C12  25065392.211 7 130522091.993 7     -2474.840          45.000    25065390.734 7 100927989.788 7     -1913.751          45.000
C21  22969523.109 5 119608296.376 5      1860.113          30.000
C22  22093530.203 8 115046802.751 8      -689.754          51.000
E07  24285149.336 6 127619336.703 6     -1297.684          38.000    24285151.133 7  97786337.950 7      -994.389          45.000
E26  25352243.594 6 133226946.932 6     -2995.773          38.000
E27  26752244.500 7 140583997.771 7      2953.164          47.000    26752247.867 8 107720222.879 8      2262.709          48.000
> 2020 05 04 01 04  0.0000000  0 13        .000000000000
G04  22464356.375 6 118050965.738 6     -2653.070          37.000
G06  21342326.117 8 112154683.504 8     -1370.746          51.000    21342328.438 8  87393240.135 8     -1068.114          51.000
G07  21489879.344 8 112930066.843 8      1968.648          49.000    21489879.125 8  87997433.927 8      1534.009          49.000
G09  20514706.367 8 107805506.977 8     -1015.898          51.000    20514707.102 8  84004293.357 8      -791.609          51.000
G30  23296928.648 6 122426146.720 6      3473.320          36.000    23296930.203 5  95397024.625 5      2706.483          35.000
R03  20345297.219 6 108909999.724 6     -1538.562          41.000    20345318.195 4  84707791.028 4     -1196.663          29.000
R14  21690531.914 7 115622861.681 7      3868.355          45.000    21690543.164 8  89928878.574 8      3008.721          50.000
C05  39767074.539 6 207077591.791 6       -20.066          37.000    39767070.898 6 160125508.309 6       -15.544          39.000
C12  25079677.219 7 130596474.910 7     -2482.203          44.000    25079673.656 7 100985507.318 7     -1919.439          44.000
C22  22097531.703 8 115067639.108 8      -697.434          51.000
E07  24292572.945 6 127658348.439 6     -1301.355          37.000    24292574.453 7  97816230.004 7      -996.948          45.000
E26  25369359.891 6 133316900.091 6     -2999.156          39.000    25369352.188 5 102151865.176 5     -2298.213          34.000
E27  26735396.789 7 140495465.339 7      2950.898          47.000    26735401.188 7 107652386.367 7      2261.072          47.000
> 2020 05 04 01 04 30.0000000  0 12        .000000000000
G06  21350202.344 8 112196073.836 8     -1388.707          51.000    21350204.680 8  87425492.362 8     -1082.109          51.000
G07  21478677.977 8 112871206.110 8      1955.152          48.000    21478678.500 8  87951568.416 8      1523.492          48.000
G09  20520533.727 8 107836130.158 8     -1025.750          51.000    20520534.453 8  84028155.555 8      -799.286          51.000
G30  23277116.625 5 122322029.798 5      3467.754          34.000    23277115.812 5  95315894.635 5      2702.152          34.000
R03  20353944.805 6 108956289.539 6     -1547.539          40.000    20353957.516 4  84743794.095 4     -1203.645          27.000
R14  21668793.977 8 115506976.708 8      3857.105          49.000    21668803.898 8  89838745.847 8      2999.971          50.000
C05  39767186.328 6 207078173.835 6       -18.758          37.000    39767182.734 6 160125958.386 6       -14.665          39.000
C12  25093998.039 7 130671048.257 7     -2489.551          44.000    25093993.617 7 101043172.096 7     -1924.985          45.000
C22  22101572.242 8 115088678.917 8      -705.254          51.000
E07  24300009.969 6 127697431.190 6     -1304.504          39.000    24300011.398 7  97846176.496 7      -999.459          46.000
E26  25386489.984 6 133406924.645 6     -3002.594          40.000    25386490.367 6 102220845.051 6     -2300.665          37.000
E27  26718556.141 7 140406970.490 7      2948.629          47.000    26718561.266 7 107584578.642 7      2259.381          46.000
> 2020 05 04 01 05  0.0000000  0 12        .000000000000
G06  21358186.594 8 112238032.454 8     -1408.672          51.000    21358188.758 8  87458187.379 8     -1097.666          51.000
G07  21467558.852 8 112812777.772 8      1939.914          48.000    21467559.594 8  87906039.835 8      1511.621          48.000
G09  20526422.773 8 107867077.523 8     -1037.512          51.000    20526423.641 8  84052270.375 8      -808.451          51.000
G30  23257340.812 6 122218103.399 6      3460.469          37.000    23257336.578 6  95234913.194 6      2696.472          37.000
R03  20362646.109 6 109002866.830 6     -1557.863          40.000    20362651.078 4  84780020.909 4     -1211.671          26.000
R14  21647126.172 8 115391464.577 8      3843.664          50.000    21647134.164 8  89748903.109 8      2989.520          48.000
C05  39767298.375 6 207078757.542 6       -20.305          37.000    39767294.859 6 160126409.755 6       -15.650          39.000
C12  25108366.172 7 130745868.133 7     -2498.605          44.000    25108361.844 7 101101027.588 7     -1932.071          46.000
C22  22105663.289 8 115109981.248 8      -714.922          51.000
E07  24307471.703 6 127736644.108 6     -1310.031          38.000    24307473.141 7  97876222.750 7     -1003.533          46.000
E26  25403644.961 6 133497077.999 6     -3007.785          40.000    25403649.055 6 102289923.606 6     -2304.625          40.000
E27  26701734.617 7 140318574.700 7      2944.305          47.000    26701739.125 7 107516846.840 7      2256.127          45.000
> 2020 05 04 01 05 30.0000000  0 13        .000000000000
G06  21366278.562 8 112280557.343 8     -1427.008          51.000    21366280.312 8  87491323.624 8     -1111.957          51.000
G07  21456522.461 8 112754782.705 8      1925.695          49.000    21456522.320 8  87860848.890 8      1500.542          49.000
G09  20532373.242 8 107898347.620 8     -1047.855          51.000    20532374.328 8  84076636.672 8      -816.511          51.000
G30  23237602.336 6 122114369.330 6      3454.574          39.000    23237595.461 6  95154081.442 6      2691.873          40.000
R03  20371400.453 6 109049731.592 6     -1567.141          40.000
R12  23063485.805 5 123201000.632 5     -3293.559          32.000
R14  21625528.688 8 115276329.087 8      3831.543          50.000    21625534.656 7  89659353.279 7      2980.089          47.000
C05  39767410.672 6 207079342.367 6       -19.430          37.000    39767407.180 6 160126861.995 6       -15.266          39.000
C12  25122781.281 7 130820931.602 7     -2506.363          43.000    25122777.367 7 101159071.406 7     -1938.013          47.000
C22  22109804.594 8 115131545.859 8      -723.293          51.000
E07  24314958.094 5 127775986.529 5     -1313.133          35.000    24314959.961 7  97906368.220 7     -1006.523          47.000
E26  25420824.305 6 133587357.684 6     -3011.258          40.000    25420830.406 6 102359098.961 6     -2307.489          41.000
E27  26684932.430 8 140230279.547 8      2941.371          48.000    26684934.812 7 107449192.182 7      2253.796          44.000
> 2020 05 04 01 06  0.0000000  0 13        .000000000000
G06  21374448.000 8 112323489.851 8     -1439.090          51.000    21374449.789 8  87524777.488 8     -1121.372          51.000
G07  21445539.328 8 112697065.570 8      1918.000          50.000    21445537.727 8  87815874.566 8      1494.548          51.000
G09  20538355.062 8 107929782.328 8     -1051.875          51.000    20538356.164 8  84101131.238 8      -819.643          51.000
G30  23217870.484 6 122010672.652 6      3454.352          40.000    23217863.016 6  95073278.847 6      2691.703          40.000
R03  20380179.695 6 109096723.366 6     -1569.980          41.000
R12  23082029.273 5 123300000.797 5     -3303.184          32.000    23082040.484 4  95900087.819 4     -2569.149          27.000
R14  21603972.375 8 115161415.244 8      3825.352          51.000    21603976.719 7  89569975.824 7      2975.273          46.000
C05  39767493.289 6 207079772.610 6       -12.832          37.000    39767489.812 6 160127194.698 6       -10.122          39.000
C12  25137212.781 7 130896080.331 7     -2507.762          44.000    25137209.266 7 101217181.149 7     -1939.157          47.000
C22  22113966.477 8 115153217.313 8      -725.484          51.000
E07  24322438.703 6 127815301.035 6     -1311.359          40.000    24322441.648 7  97936492.300 7     -1004.808          47.000
E26  25437997.227 6 133677604.630 6     -3009.262          37.000    25438005.336 7 102428249.168 7     -2305.585          42.000
E27  26668120.016 8 140141929.967 8      2944.621          48.000    26668120.742 7 107381495.810 7      2256.190          44.000
> 2020 05 04 01 06 30.0000000  0 16        .000000000000
G02  22494534.508 5 118209571.304 5       824.461          33.000
G04  22540377.711 5 118450482.183 5     -2680.840          30.000
G06  21382752.602 8 112367131.640 8     -1468.398          51.000    21382754.586 8  87558784.067 8     -1144.204          51.000
G07  21434667.391 8 112639930.872 8      1892.980          51.000    21434665.109 8  87771354.043 8      1475.050          51.000
G09  20544425.781 8 107961683.899 8     -1072.961          51.000    20544426.531 8  84125989.599 8      -836.073          51.000
G30  23198202.812 6 121907318.867 6      3437.887          40.000    23198196.836 6  94992743.455 6      2678.873          39.000
R03  20389040.078 6 109144150.690 6     -1590.211          39.000    20389034.141 4  84889855.359 4     -1236.831          27.000
R12  23100663.195 5 123399535.252 5     -3329.879          31.000    23100672.445 4  95977503.522 4     -2589.906          29.000
R14  21582516.281 8 115047035.163 8      3801.957          51.000    21582519.164 7  89481013.494 7      2957.075          46.000
C05  39767603.914 6 207080348.828 6       -23.680          37.000    39767600.430 6 160127640.237 6       -18.108          39.000
C12  25151717.930 7 130971612.166 7     -2525.785          43.000    25151714.859 7 101275587.145 7     -1953.248          47.000
C21  22905722.875 6 119276115.350 6      1824.965          36.000
C22  22118206.508 8 115175296.296 8      -744.559          51.000
E07  24329971.945 6 127854890.660 6     -1326.211          39.000    24329975.430 7  97966827.171 7     -1016.071          46.000
E26  25455221.594 5 133768120.053 5     -3023.969          32.000    25455230.734 7 102497605.074 7     -2316.777          42.000
E27  26651355.508 8 140053831.280 8      2930.609          48.000    26651355.703 7 107313991.648 7      2245.520          45.000
> 2020 05 04 01 07  0.0000000  0 14        .000000000000
G06  21391215.273 8 112411603.271 8     -1482.762          51.000    21391217.633 8  87593437.276 8     -1155.399          51.000
G07  21423929.539 8 112583501.367 8      1882.648          49.000    21423927.531 8  87727383.003 8      1466.999          49.000
G09  20550608.375 8 107994173.479 8     -1079.352          51.000    20550608.828 8  84151306.157 8      -841.053          51.000
G30  23178623.570 6 121804432.475 6      3435.223          40.000    23178619.836 6  94912572.276 6      2676.797          40.000
R03  20398003.445 6 109192138.471 6     -1595.301          38.000    20398002.914 4  84927186.135 4     -1240.789          29.000
R04  20049323.344 4 107363169.972 4      1392.066          28.000
R14  21561184.023 8 114933316.834 8      3793.309          51.000    21561186.320 7  89392565.907 7      2950.351          45.000
C05  39767765.867 6 207081191.940 6       -19.660          37.000    39767762.344 6 160128292.188 6       -14.970          39.000
C12  25166319.328 7 131047645.576 7     -2529.543          43.000    25166317.086 7 101334380.949 7     -1955.834          47.000
C21  22895257.695 5 119221600.647 5      1822.871          35.000
C22  22122548.016 8 115197904.061 8      -749.062          51.000
E07  24337581.336 6 127894877.221 6     -1325.773          40.000    24337584.719 7  97997466.226 7     -1016.047          46.000
E26                                                                  25472529.234 7 102567258.694 7     -2316.459          43.000
E27  26634662.523 8 139966107.711 8      2931.234          48.000    26634662.711 7 107246774.883 7      2245.978          46.000
> 2020 05 04 01 07 30.0000000  0 12        .000000000000
G06  21399713.695 8 112456262.061 8     -1500.504          51.000    21399716.109 8  87628236.335 8     -1169.224          51.000
G07  21413203.930 8 112527138.246 8      1868.984          49.000    21413202.484 8  87683463.707 8      1456.355          48.000
G09  20556780.672 8 108026608.956 8     -1088.992          51.000    20556781.227 8  84176580.563 8      -848.565          51.000
G30  23159011.891 6 121701374.592 6      3429.332          38.000    23159009.438 6  94832267.406 6      2672.207          38.000
R03  20406951.312 6 109240033.455 6     -1603.914          41.000    20406955.883 5  84964437.706 5     -1247.489          34.000
R14  21539854.367 8 114819614.651 8      3780.883          49.000    21539856.219 7  89304130.918 7      2940.687          42.000
C05  39767856.977 6 207081666.657 6       -18.504          37.000    39767853.508 6 160128659.284 6       -14.160          39.000
C12  25180894.289 7 131123542.651 7     -2536.148          43.000    25180893.094 8 101393069.384 8     -1961.301          48.000
C22  22126869.008 8 115220405.595 8      -756.902          51.000
E07  24345144.539 6 127934619.515 6     -1329.398          41.000    24345147.555 7  98027918.044 7     -1018.732          46.000
E26                                                                  25489778.734 7 102636717.290 7     -2318.806          43.000
E27  26617919.148 8 139878120.225 8      2928.445          48.000    26617920.445 8 107179355.894 8      2243.853          48.000
> 2020 05 04 01 08  0.0000000  0 12        .000000000000
G06  21408339.094 8 112501587.863 8     -1520.055          51.000    21408341.086 8  87663555.138 8     -1184.458          51.000
G07  21402582.945 8 112471323.960 8      1853.273          50.000    21402581.852 8  87639972.062 8      1444.109          50.000
G09  20563034.094 8 108059470.807 8     -1100.594          51.000    20563034.852 8  84202187.200 8      -857.606          51.000
G30  23139460.289 6 121598628.926 6      3421.168          36.000    23139458.219 6  94752205.838 6      2665.845          37.000
R03  20415973.039 6 109288325.598 6     -1614.457          37.000    20415974.438 5  85001998.339 5     -1255.686          31.000
R14  21518618.172 6 114706420.964 6      3766.570          39.000    21518619.148 6  89216091.537 6      2929.564          39.000
C05  39767968.953 6 207082250.130 6       -19.422          37.000    39767965.641 6 160129110.460 6       -15.109          39.000
C12  25195534.211 7 131199777.919 7     -2544.918          44.000    25195534.070 8 101452019.313 8     -1967.832          49.000
C22  22131261.234 8 115243278.182 8      -766.707          51.000
E07  24352752.953 7 127974598.585 7     -1334.578          42.000    24352754.930 7  98058551.346 7     -1022.617          46.000
E26                                                                  25507070.648 7 102706348.199 7     -2322.332          43.000
E27  26601217.203 7 139790352.329 7      2923.895          47.000    26601220.242 8 107112105.165 8      2240.393          49.000
> 2020 05 04 01 08 30.0000000  0 13        .000000000000
G06  21417065.047 8 112547442.148 8     -1532.887          51.000    21417066.664 8  87699285.747 8     -1194.457          51.000
G07  21392040.914 8 112415922.943 8      1844.246          51.000    21392039.594 8  87596802.453 8      1437.075          51.000
G09  20569342.352 8 108092621.172 8     -1105.301          51.000    20569343.281 8  84228018.653 8      -861.273          51.000
G30  23119942.945 5 121496060.766 5      3420.980          34.000    23119940.906 5  94672282.613 5      2665.702          35.000
R03  20425041.359 6 109336875.814 6     -1618.035          39.000    20425043.859 5  85039759.555 5     -1258.475          32.000
R12  23176125.922 5 123802641.633 5     -3384.531          31.000
R14  21497448.344 7 114593601.780 7      3758.633          42.000    21497452.477 7  89128343.200 7      2923.378          42.000
C05  39768075.844 6 207082806.697 6       -13.668          37.000    39768072.547 6 160129540.829 6       -10.351          39.000
C12  25210212.766 7 131276213.005 7     -2546.867          43.000    25210213.484 8 101511123.761 8     -1969.212          49.000
C22  22135698.906 8 115266386.457 8      -769.824          51.000
E07  24360380.258 6 128014677.432 6     -1333.141          41.000    24360381.117 7  98089261.098 7     -1021.506          46.000
E26                                                                  25524377.992 7 102776045.038 7     -2320.901          42.000
E27  26584531.109 7 139702669.332 7      2925.762          47.000    26584535.289 8 107044919.474 8      2241.895          48.000
> 2020 05 04 01 09  0.0000000  0 13        .000000000000
G06  21425894.281 8 112593839.259 8     -1567.410          51.000    21425895.938 8  87735439.330 8     -1221.359          51.000
G07  21381580.609 8 112360952.511 8      1813.340          51.000    21381578.789 8  87553968.364 8      1412.995          50.000
G09  20575708.234 8 108126075.031 8     -1132.008          51.000    20575709.453 8  84254086.581 8      -882.084          51.000
G30  23100462.227 5 121393749.508 5      3396.559          33.000    23100462.414 5  94592512.040 5      2646.669          33.000
R03  20434161.625 6 109385700.418 6     -1644.250          38.000    20434164.977 5  85077734.212 5     -1278.864          32.000
R12  23195205.938 5 123904625.579 5     -3417.008          30.000
R14  21476358.227 8 114481177.021 8      3728.992          48.000    21476363.336 7  89040901.757 7      2900.330          46.000
C05  39768180.594 6 207083352.165 6       -29.773          37.000    39768177.359 6 160129962.633 6       -23.086          39.000
C12  25224932.383 7 131352861.276 7     -2570.199          44.000    25224933.430 8 101570393.076 8     -1987.511          48.000
C22  22140185.047 8 115289746.455 8      -794.613          51.000
E07  24368029.367 6 128054871.849 6     -1353.598          41.000    24368029.562 7  98120059.368 7     -1037.029          46.000
E26                                                                  25541703.422 6 102845818.506 6     -2336.151          41.000
E27  26567864.656 7 139615089.219 7      2905.934          47.000    26567868.914 8 106977812.642 8      2226.595          48.000
> 2020 05 04 01 09 30.0000000  0 14        .000000000000
G06  21434827.930 8 112640785.783 8     -1573.484          51.000    21434830.047 8  87772021.035 8     -1226.092          51.000
G07  21371203.836 8 112306422.338 8      1810.863          50.000    21371201.648 8  87511477.345 8      1411.062          50.000
G09  20582133.203 8 108159839.657 8     -1129.938          51.000    20582134.711 8  84280396.672 8      -880.471          51.000
G30  23081018.336 6 121291583.652 6      3402.871          38.000    23081023.469 6  94512902.280 6      2651.588          36.000
R03  20443337.031 7 109434807.460 7     -1640.914          42.000    20443338.164 5  85115928.554 5     -1276.266          31.000
R12  23214367.953 5 124006992.413 5     -3419.141          34.000
R14  21455345.469 8 114369159.787 8      3727.637          50.000    21455350.633 8  88953777.269 8      2899.273          48.000
C05  39768284.836 6 207083894.801 6       -17.219          37.000    39768281.594 6 160130382.236 6       -13.508          39.000
C12  25239693.906 7 131429728.219 7     -2565.324          44.000    25239694.891 8 101629831.478 8     -1983.699          48.000
C21  22843096.805 5 118949995.461 5      1797.496          31.000
C22  22144721.023 8 115313366.615 8      -791.094          51.000
E07  24375701.859 7 128095189.743 7     -1345.273          43.000    24375702.188 7  98150952.316 7     -1031.018          46.000
E26  25559057.695 5 134313750.693 5     -3040.438          33.000    25559049.188 6 102915673.438 6     -2329.614          41.000
E27  26551220.453 8 139527622.355 8      2914.137          49.000    26551223.359 7 106910792.592 7      2232.886          46.000
> 2020 05 04 01 10  0.0000000  0 16        .000000000000
G02  22463850.430 5 118048331.939 5       708.992          34.000
G04  22647936.523 6 119015684.025 6     -2705.262          37.000
G06  21443853.633 8 112688217.289 8     -1591.809          50.000    21443856.398 8  87808980.665 8     -1240.367          50.000
G07  21360898.961 8 112252270.811 8      1796.105          49.000    21360896.898 8  87469281.366 8      1399.563          49.000
G09  20588605.281 8 108193851.379 8     -1140.473          51.000    20588606.742 8  84306899.315 8      -888.680          51.000
G30  23061601.781 6 121189563.869 6      3395.535          40.000    23061609.164 6  94433406.241 6      2645.869          40.000
R03  20452551.766 6 109484133.065 6     -1650.555          40.000    20452553.070 5  85154292.899 5     -1283.768          32.000
R12  23233607.602 5 124109756.648 5     -3434.598          33.000    23233612.555 4  96529832.202 4     -2671.351          27.000
R14  21434397.992 8 114257490.646 8      3713.676          51.000    21434402.922 8  88866923.515 8      2888.414          50.000
C05  39768376.508 6 207084372.456 6       -17.598          37.000    39768373.281 6 160130751.576 6       -13.451          39.000
C12  25254484.883 7 131506749.156 7     -2572.605          43.000    25254485.750 8 101689388.919 8     -1989.175          48.000
C21  22832748.586 5 118896114.338 5      1792.141          34.000
C22  22149294.914 8 115337185.020 8      -799.902          51.000
E07  24383385.672 7 128135568.294 7     -1349.562          43.000    24383386.750 7  98181891.702 7     -1034.134          46.000
E26  25576416.516 5 134404968.877 5     -3043.484          34.000    25576403.781 6 102985560.193 6     -2332.098          39.000
E27  26534586.602 8 139440208.079 8      2910.277          48.000    26534587.672 7 106843812.851 7      2229.896          47.000
> 2020 05 04 01 10 30.0000000  0 12        .000000000000
G06  21453036.867 8 112736477.636 8     -1621.203          49.000    21453040.242 8  87846586.146 8     -1263.275          49.000
G07  21350731.945 8 112198844.341 8      1770.156          50.000    21350730.430 8  87427650.349 8      1379.343          50.000
G09  20595190.188 8 108228454.743 8     -1161.914          51.000    20595191.156 8  84333862.968 8      -905.388          51.000
G30  23042279.383 6 121088037.856 6      3377.098          40.000    23042287.086 6  94354295.004 6      2631.505          40.000
R03  20461871.258 6 109534029.333 6     -1671.535          37.000    20461873.180 5  85193101.024 5     -1300.086          30.000
R14  21413582.109 8 114146524.634 8      3688.438          51.000    21413586.688 8  88780616.629 8      2868.785          50.000
C05  39768521.586 6 207085127.473 6       -28.602          37.000    39768518.344 6 160131335.418 6       -22.147          39.000
C12  25269370.758 7 131584263.823 7     -2590.738          43.000    25269371.586 8 101749328.155 8     -2003.402          48.000
C22  22153972.656 8 115361544.273 8      -819.660          51.000
E07  24391146.391 7 128176352.842 7     -1365.016          43.000    24391148.062 7  98213142.166 7     -1045.870          46.000
E26                                                                  25593832.023 6 103055742.068 6     -2343.415          38.000
E27  26518028.492 7 139353194.018 7      2894.992          47.000    26518029.352 8 106777139.793 8      2218.310          48.000
> 2020 05 04 01 11  0.0000000  0 13        .000000000000
G06  21462285.047 8 112785079.763 8     -1628.668          48.000    21462288.609 8  87884457.919 8     -1269.095          48.000
G07  21340611.164 8 112145659.448 8      1765.836          51.000    21340610.117 8  87386207.551 8      1375.976          51.000
G09  20601795.258 8 108263163.426 8     -1161.699          51.000    20601795.953 8  84360908.695 8      -905.220          51.000
G30  23022959.609 6 120986522.507 6      3380.676          40.000    23022967.828 6  94275192.123 6      2634.293          39.000
R03  20471206.414 6 109584001.738 6     -1670.199          40.000    20471206.555 5  85231968.409 5     -1299.044          30.000
R14  21392806.023 8 114035773.701 8      3685.016          51.000    21392810.117 8  88694477.000 8      2866.120          49.000
C05  39768627.586 6 207085678.970 6       -17.477          37.000    39768624.312 6 160131761.884 6       -13.704          39.000
C12  25284258.477 7 131661788.707 7     -2587.395          42.000    25284259.375 8 101809275.295 8     -2000.547          48.000
C19  25239956.148 4 131431078.207 4     -2590.066          28.000
C22  22158662.070 8 115385963.730 8      -817.953          51.000
E07  24398891.820 7 128217057.770 7     -1358.453          43.000    24398893.812 7  98244331.676 7     -1040.860          46.000
E26                                                                  25611240.750 6 103125845.691 6     -2337.878          36.000
E27  26501454.133 7 139266096.937 7      2901.711          45.000    26501456.438 8 106710403.115 8      2223.404          50.000
> 2020 05 04 01 11 30.0000000  0 14        .000000000000
G04  22694431.523 5 119260036.506 5     -2712.242          33.000
G06  21471644.758 8 112834265.576 8     -1640.809          50.000    21471647.555 8  87922784.503 8     -1278.552          50.000
G07  21330583.266 8 112092960.921 8      1756.879          51.000    21330582.273 8  87345143.752 8      1368.997          51.000
G09  20608466.516 8 108298220.104 8     -1165.809          51.000    20608467.328 8  84388225.591 8      -908.422          51.000
G30  23003689.422 6 120885263.770 6      3379.348          41.000    23003696.820 6  94196289.159 6      2633.255          40.000
R03  20480601.688 6 109634298.391 6     -1673.504          37.000    20480600.523 4  85271092.013 4     -1301.611          29.000
R14  21372116.961 8 113925489.413 8      3676.887          51.000    21372120.719 8  88608700.317 8      2859.801          49.000
C05  39768740.766 6 207086268.380 6       -11.801          37.000    39768737.477 6 160132217.651 6        -9.204          39.000
C12  25299193.812 7 131739562.627 7     -2588.207          42.000    25299195.211 8 101869415.033 8     -2001.375          49.000
C21  22802000.914 5 118735991.728 5      1780.309          31.000
C22  22163409.438 8 115410685.066 8      -820.707          51.000
E07  24406668.688 6 128257926.619 6     -1356.668          41.000    24406670.664 7  98275646.772 7     -1039.597          46.000
E26                                                                  25628675.938 6 103196056.155 6     -2335.531          36.000
E27  26484910.328 7 139179162.634 7      2903.555          44.000    26484914.875 8 106643791.140 8      2224.733          51.000
> 2020 05 04 01 12  0.0000000  0 16        .000000000000
G04  22709937.695 5 119341519.192 5     -2718.828          35.000
G06  21481073.914 8 112883814.389 8     -1661.305          51.000    21481075.570 8  87961393.958 8     -1294.523          51.000
G07  21320606.281 8 112040530.698 8      1739.539          51.000    21320605.492 8  87304289.075 8      1355.488          51.000
G09  20615162.047 8 108333404.957 8     -1178.695          51.000    20615162.992 8  84415642.368 8      -918.464          51.000
G30  22984427.461 7 120784045.008 7      3369.594          43.000    22984434.039 7  94117417.344 7      2625.657          42.000
R03  20490016.891 6 109684696.520 6     -1685.355          37.000    20490015.422 5  85310290.536 5     -1310.832          34.000
R04  19973866.789 5 106959112.712 5      1305.289          31.000    19973846.688 4  83190366.860 4      1015.219          25.000
R14  21351474.578 8 113815453.944 8      3659.961          51.000    21351477.914 8  88523117.180 8      2846.636          48.000
C05  39768819.539 6 207086678.838 6       -14.242          37.000    39768816.312 6 160132535.029 6       -10.937          39.000
C12  25314134.812 6 131817366.084 6     -2597.527          41.000    25314136.789 8 101929577.570 8     -2008.540          49.000
C19  25269846.844 5 131586633.275 5     -2594.105          35.000
C21  22791774.367 5 118682727.014 5      1772.012          32.000
C22  22168173.211 8 115435491.597 8      -831.914          51.000
E07  24414434.812 6 128298740.309 6     -1363.234          40.000    24414437.219 7  98306919.554 7     -1044.541          47.000
E26                                                                  25646095.977 6 103266204.259 6     -2339.740          36.000
E27  26468355.930 7 139092174.303 7      2896.973          44.000    26468362.656 8 106577137.730 8      2219.698          51.000
> 2020 05 04 01 12 30.0000000  0 17        .000000000000
G02  22444921.719 5 117948859.511 5       619.547          31.000
G04  22725499.156 5 119423299.270 5     -2727.945          34.000
G06  21490639.180 8 112934077.108 8     -1683.871          51.000    21490640.148 8  88000559.694 8     -1312.107          51.000
G07  21310747.711 8 111988723.151 8      1719.941          51.000    21310747.148 8  87263919.592 8      1340.214          51.000
G09  20621948.867 8 108369069.652 8     -1193.453          51.000    20621949.781 8  84443433.039 8      -929.963          51.000
G30  22965241.352 7 120683221.136 7      3357.773          45.000    22965247.570 7  94038853.262 7      2616.447          45.000
R03  20499517.406 5 109735555.069 5     -1699.527          35.000    20499519.938 5  85349847.097 5     -1321.861          35.000
R14  21330946.758 8 113706029.263 8      3640.695          50.000    21330949.516 7  88438009.092 7      2831.652          47.000
R19  21848756.492 6 116876118.120 6     -3169.754          36.000    21848762.391 6  90903661.334 6     -2465.364          40.000
C05  39768931.062 6 207087259.898 6       -18.602          37.000    39768927.977 6 160132984.352 6       -14.565          39.000
C12  25329148.344 7 131895545.913 7     -2608.914          42.000    25329150.359 8 101990031.168 8     -2017.348          49.000
C19  25284826.672 5 131664658.204 5     -2601.898          34.000
C21  22781607.578 4 118629805.743 4      1761.785          29.000
C22  22173020.609 8 115460733.059 8      -845.258          51.000
E07  24422258.164 7 128339851.288 7     -1371.977          42.000    24422260.891 7  98338420.121 7     -1051.279          47.000
E26                                                                  25663568.125 6 103336558.688 6     -2345.834          37.000
E27  26451859.266 7 139005486.722 7      2887.938          44.000    26451867.234 8 106510714.762 8      2212.865          51.000
> 2020 05 04 01 13  0.0000000  0 15        .000000000000
G06  21500306.961 8 112984878.762 8     -1717.711          51.000    21500307.852 8  88040145.379 8     -1338.479          51.000
G07  21300974.922 8 111937366.105 8      1689.082          51.000    21300974.156 8  87223901.098 8      1316.168          51.000
G09  20628793.914 8 108405040.046 8     -1219.441          51.000    20628794.750 8  84471461.912 8      -950.214          51.000
G30  22946098.320 7 120582621.218 7      3334.188          47.000    22946104.328 7  93960463.720 7      2598.071          47.000
R03  20509072.047 6 109786697.637 6     -1725.266          36.000    20509074.008 5  85389624.626 5     -1341.873          32.000
R14  21310501.336 8 113597044.162 8      3609.906          49.000    21310504.062 7  88353242.892 7      2807.705          47.000
R19  21866585.016 6 116971481.784 6     -3202.820          36.000    21866590.570 6  90977833.021 6     -2491.082          39.000
C05  39769042.414 6 207087839.862 6       -34.434          37.000    39769039.398 6 160133432.826 6       -26.774          39.000
C12  25344200.844 7 131973927.938 7     -2631.395          42.000    25344202.109 7 102050641.098 7     -2034.622          47.000
C19  25299834.500 5 131742791.956 5     -2622.039          31.000
C21  22771474.625 4 118577047.403 4      1739.918          28.000
C22  22177918.812 8 115486238.060 8      -869.836          51.000
E07  24430105.180 7 128381086.199 7     -1392.098          43.000    24430107.867 7  98370015.671 7     -1066.535          47.000
E26                                                                  25681059.602 6 103406985.208 6     -2360.455          38.000
E27  26435388.156 7 138918928.713 7      2867.805          46.000    26435396.242 8 106444391.115 8      2197.328          51.000
> 2020 05 04 01 13 30.0000000  0 16        .000000000000
G06  21510096.688 8 113036322.850 8     -1716.305          50.000    21510097.945 8  88080231.679 8     -1337.380          50.000
G07  21291308.016 8 111886565.703 8      1693.121          51.000    21291306.922 8  87184316.373 8      1319.315          51.000
G09  20635717.000 8 108441420.564 8     -1210.363          51.000    20635717.758 8  84499810.357 8      -943.140          51.000
G30  22927018.609 7 120482352.847 7      3345.695          47.000    22927023.672 7  93882332.554 7      2607.038          47.000
R03  20518698.133 5 109838231.787 5     -1715.105          35.000    20518701.016 6  85429706.696 6     -1333.977          36.000
R13  20450274.789 5 109203325.183 5      -178.797          32.000    20450280.883 5  84935943.057 5      -139.064          35.000
R14  21290158.742 8 113488609.704 8      3614.488          49.000    21290161.828 7  88268904.954 7      2811.269          47.000
R19  21884527.758 6 117067458.997 6     -3200.273          36.000    21884530.531 6  91052481.909 6     -2489.105          37.000
C05  39769173.617 6 207088523.201 6       -15.605          37.000    39769170.672 6 160133961.219 6       -12.152          39.000
C12  25359312.031 7 132052613.922 7     -2618.840          42.000    25359311.578 7 102111486.084 7     -2024.996          45.000
C19  25314871.742 5 131821185.608 5     -2606.598          30.000
C21  22761386.398 4 118524521.200 4      1753.809          27.000
C22  22182887.719 8 115512111.254 8      -859.547          51.000
E07  24437995.484 7 128422550.153 7     -1376.859          43.000    24437998.086 7  98401786.757 7     -1055.017          47.000
E26  25698592.594 5 135047029.010 5     -3064.312          35.000    25698589.234 6 103477563.031 6     -2347.872          38.000
E27  26418963.125 8 138832607.825 8      2882.434          48.000    26418970.188 8 106378249.118 8      2208.651          51.000
> 2020 05 04 01 14  0.0000000  0 15        .000000000000
G06  21519941.625 8 113088059.708 8     -1736.148          49.000    21519942.984 8  88120546.140 8     -1352.843          49.000
G07  21281681.023 8 111835975.872 8      1676.211          51.000    21281679.625 8  87144895.741 8      1306.141          51.000
G09  20642651.711 8 108477862.372 8     -1222.336          51.000    20642652.359 8  84528206.561 8      -952.470          51.000
G30  22907936.188 7 120382070.433 7      3336.332          46.000    22907936.672 7  93804190.539 7      2599.745          43.000
R03  20528333.195 5 109889802.606 5     -1726.625          33.000    20528336.523 6  85469817.365 6     -1342.928          36.000
R13  20451353.328 5 109209071.803 5      -207.637          31.000    20451355.766 5  84940412.664 5      -161.495          34.000
R14  21269854.008 8 113380377.423 8      3597.641          48.000    21269857.336 7  88184724.260 7      2798.165          46.000
R19  21902518.039 6 117163692.118 6     -3218.855          38.000    21902515.555 5  91127329.855 5     -2503.554          34.000
C05  39769258.547 6 207088965.264 6       -17.105          37.000    39769255.570 6 160134303.053 6       -13.321          40.000
C12  25374414.766 6 132131256.461 6     -2627.223          40.000    25374412.430 7 102172297.523 7     -2031.562          44.000
C19  25329900.711 6 131899399.656 6     -2611.199          36.000
C22  22187861.008 8 115538008.195 8      -870.254          51.000
E07  24445862.977 7 128463895.210 7     -1382.984          43.000    24445865.617 8  98433466.729 8     -1059.609          48.000
E26  25716090.000 5 135138967.826 5     -3070.062          34.000    25716090.055 6 103548024.192 6     -2351.984          39.000
E27  26402517.555 8 138746178.267 8      2876.191          49.000    26402523.180 8 106312023.859 8      2203.790          51.000
> 2020 05 04 01 14 30.0000000  0 17        .000000000000
G06  21529916.133 8 113140477.252 8     -1755.668          50.000    21529917.328 8  88161390.992 8     -1368.053          50.000
G07  21272168.555 8 111785987.685 8      1659.203          51.000    21272167.094 8  87105943.916 8      1292.886          51.000
G09  20649671.992 8 108514754.269 8     -1234.293          51.000    20649672.586 8  84556953.486 8      -961.787          51.000
G30  22888925.273 7 120282166.066 7      3326.598          43.000    22888920.148 7  93726343.110 7      2592.157          43.000
R03  20538050.422 5 109941793.650 5     -1737.594          31.000    20538051.828 5  85510289.197 5     -1351.462          34.000
R04  19938091.469 4 106767541.332 4      1253.266          29.000    19938090.883 4  83041443.559 4       974.762          28.000
R13  20452613.469 5 109215809.128 5      -237.871          32.000    20452617.156 5  84945652.875 5      -185.008          34.000
R14  21249662.398 8 113272746.985 8      3580.613          50.000    21249666.078 7  88101011.673 7      2784.918          46.000
R19  21920629.281 6 117260572.666 6     -3236.961          37.000    21920624.172 5  91202681.354 5     -2517.636          35.000
C05  39769371.227 6 207089552.316 6       -18.859          37.000    39769368.289 6 160134757.021 6       -14.807          39.000
C12  25389582.703 6 132210239.352 6     -2635.727          37.000    25389579.305 7 102233372.140 7     -2037.945          44.000
C19  25344962.758 6 131977867.515 6     -2617.336          37.000
C21  22741293.094 5 118419895.341 5      1737.559          30.000
C22  22192913.102 8 115564315.313 8      -880.789          51.000
E07  24453782.156 7 128505510.959 7     -1388.668          42.000    24453784.820 8  98465354.102 8     -1064.155          48.000
E26  25733632.375 5 135231161.071 5     -3074.219          34.000    25733636.219 6 103618665.782 6     -2355.531          38.000
E27  26386125.453 8 138660031.898 8      2869.789          48.000    26386130.016 8 106246015.598 8      2198.887          51.000
> 2020 05 04 01 15  0.0000000  0 17        .000000000000
G04  22803643.625 5 119833955.990 5     -2748.434          35.000
G06  21539992.672 8 113193429.381 8     -1774.164          51.000    21539993.969 8  88202652.385 8     -1382.466          51.000
G07  21262743.188 8 111736457.542 8      1643.148          51.000    21262741.930 8  87067349.005 8      1280.375          51.000
G09  20656750.266 8 108551951.085 8     -1245.180          51.000    20656750.992 8  84585938.014 8      -970.270          51.000
G30  22869957.875 6 120182497.775 6      3317.891          40.000    22869953.922 6  93648679.499 6      2585.366          40.000
R03  20547820.055 5 109994089.024 5     -1748.070          33.000    20547818.820 5  85550952.669 5     -1359.610          32.000
R13  20454033.984 5 109223389.716 5      -267.270          31.000    20454037.484 5  84951548.912 5      -207.876          32.000
R14  21229557.375 8 113165576.419 8      3564.508          50.000    21229561.281 7  88017656.805 7      2772.395          46.000
R19  21938832.930 6 117357949.605 6     -3254.180          38.000    21938828.961 6  91278418.937 6     -2531.029          38.000
C05  39769484.414 6 207090141.411 6       -19.902          37.000    39769481.438 6 160135212.534 6       -15.408          39.000
C12  25404788.109 6 132289416.914 6     -2642.906          37.000    25404784.453 7 102294597.263 7     -2043.445          44.000
C19  25360044.383 4 132056445.788 4     -2620.672          29.000
C21  22731282.180 5 118367750.430 5      1731.230          32.000
C22  22198016.727 8 115590889.944 8      -890.488          51.000
E07  24461725.180 7 128547253.030 7     -1393.809          42.000    24461728.578 8  98497338.241 8     -1067.920          48.000
E26  25751192.234 5 135323428.591 5     -3077.645          32.000    25751200.180 6 103689375.760 6     -2358.291          38.000
E27  26369759.469 7 138574026.630 7      2864.258          46.000    26369763.773 8 106180115.450 8      2194.709          51.000
> 2020 05 04 01 15 30.0000000  0 13        .000000000000
G06  21550168.219 8 113246903.124 8     -1788.711          49.000    21550170.344 8  88244320.208 8     -1393.801          49.000
G07  21253403.164 8 111687375.811 8      1631.000          51.000    21253402.070 8  87029103.498 8      1270.909          51.000
G09  20663884.289 8 108589440.811 8     -1252.086          51.000    20663885.211 8  84615150.781 8      -975.651          51.000
G30  22851033.680 7 120083056.677 7      3313.320          43.000    22851032.844 7  93571192.903 7      2581.808          43.000
R13  20455609.289 5 109231802.102 5      -291.973          32.000    20455614.117 5  84958092.027 5      -227.084          31.000
R14  21209537.711 8 113058858.739 8      3552.117          51.000    21209541.016 7  87934654.172 7      2762.758          46.000
R19  21957126.023 6 117455807.249 6     -3267.363          37.000    21957124.797 6  91354530.426 6     -2541.283          41.000
C05  39769595.789 6 207090721.654 6       -16.793          36.000    39769592.875 6 160135661.209 6       -12.952          39.000
C12  25420028.055 5 132368775.698 5     -2646.047          35.000    25420024.711 7 102355962.518 7     -2045.955          44.000
C22  22203169.422 8 115617721.393 8      -896.277          51.000
E07  24469690.484 7 128589110.142 7     -1394.648          43.000    24469693.680 8  98529410.556 8     -1068.579          48.000
E26  25768768.305 5 135415791.292 5     -3077.133          31.000    25768779.008 6 103760144.150 6     -2358.177          39.000
E27  26353417.328 7 138488153.508 7      2862.766          45.000    26353422.617 8 106114316.539 8      2193.527          51.000
> 2020 05 04 01 16  0.0000000  0 15        .000000000000
G06  21560436.680 7 113300866.351 7     -1807.789          47.000    21560439.375 8  88286369.444 8     -1408.667          48.000
G07  21244142.680 8 111638712.766 8      1614.227          50.000    21244141.930 8  86991184.229 8      1257.839          50.000
G09  20671068.141 8 108627192.242 8     -1263.574          51.000    20671069.109 8  84644567.485 8      -984.603          51.000
G30  22832148.594 7 119983814.750 7      3303.949          45.000    22832149.391 7  93493861.513 7      2574.506          45.000
R03  20567522.305 5 110099470.220 5     -1765.340          34.000
R04  19917276.297 5 106656067.030 5      1225.750          30.000
R14  21189598.180 8 112952567.422 8      3534.965          51.000    21189601.156 7  87851983.191 7      2749.417          46.000
R19  21975501.922 6 117554110.102 6     -3285.254          38.000    21975502.977 7  91430988.186 7     -2555.201          42.000
C05  39769699.844 6 207091263.113 6       -18.438          37.000    39769696.930 6 160136079.899 6       -14.021          40.000
C12  25435295.859 5 132448282.987 5     -2653.613          35.000    25435293.188 7 102417442.645 7     -2051.870          43.000
C19  25390295.656 5 132213901.830 5     -2626.789          31.000
C22  22208365.789 8 115644779.900 8      -906.617          51.000
E07  24477671.789 7 128631051.955 7     -1400.352          42.000    24477674.539 8  98561547.750 8     -1072.988          48.000
E26                                                                  25786366.000 6 103830946.279 6     -2361.404          39.000
E27  26337094.734 7 138402384.422 7      2856.254          45.000    26337100.797 8 106048597.304 8      2188.582          49.000
> 2020 05 04 01 16 30.0000000  0 16        .000000000000
G06  21570809.969 8 113355379.980 8     -1825.836          48.000    21570812.930 8  88328847.599 8     -1422.729          48.000
G07  21234974.086 8 111590533.282 8      1598.371          50.000    21234974.008 8  86953641.785 8      1245.487          50.000
G09  20678313.570 8 108665267.337 8     -1274.102          51.000    20678314.375 8  84674236.390 8      -992.806          51.000
G30  22813314.211 7 119884837.135 7      3295.191          46.000    22813315.484 7  93416736.107 7      2567.682          45.000
R03  20577424.562 5 110152554.193 5     -1775.594          30.000
R13  20459222.516 5 109251055.287 5      -350.137          30.000    20459224.062 4  84973090.678 4      -272.326          25.000
R14  21169751.367 8 112846770.614 8      3518.754          51.000    21169753.508 7  87769696.805 7      2736.812          46.000
R19  21993972.617 6 117652917.946 6     -3301.562          37.000    21993974.602 7  91507838.721 7     -2567.882          42.000
C05  39769808.375 6 207091828.137 6       -18.684          37.000    39769805.445 6 160136516.811 6       -14.414          39.000
C12  25450603.625 5 132527998.674 5     -2660.473          35.000    25450602.180 7 102479083.897 7     -2057.032          44.000
C19  25405446.203 4 132292779.778 4     -2631.211          28.000
C21  22701517.938 5 118212758.349 5      1714.180          31.000
C22  22213617.633 8 115672128.025 8      -916.000          51.000
E07  24485680.797 7 128673141.159 7     -1405.027          43.000    24485683.727 8  98593797.901 8     -1076.505          48.000
E26                                                                  25803972.789 6 103901828.794 6     -2363.714          39.000
E27  26320805.492 7 138316784.266 7      2851.117          46.000    26320810.195 7 105983007.545 7      2184.503          46.000
> 2020 05 04 01 17  0.0000000  0 14        .000000000000
G06  21581277.836 7 113410390.656 7     -1842.395          47.000    21581281.164 7  88371713.037 7     -1435.635          47.000
G07  21225888.109 8 111542786.648 8      1583.781          51.000    21225888.336 8  86916436.616 8      1234.112          51.000
G09  20685610.609 8 108703613.680 8     -1283.328          51.000    20685611.070 8  84704116.659 8      -999.996          51.000
G30  22794520.664 7 119786074.640 7      3287.793          47.000    22794522.188 7  93339778.338 7      2561.917          47.000
R03  20587405.102 5 110205932.531 5     -1783.863          35.000    20587406.008 4  85715777.734 4     -1387.446          27.000
R14  21149987.961 8 112741420.314 8      3503.633          51.000    21149989.516 7  87687757.755 7      2725.051          45.000
R19  22012526.523 6 117752173.684 6     -3316.535          36.000    22012528.648 6  91585037.620 6     -2579.527          40.000
C05  39769911.602 6 207092365.713 6       -18.086          37.000    39769908.711 6 160136932.511 6       -13.882          39.000
C12  25465941.367 5 132607869.056 5     -2665.246          34.000    25465941.320 7 102540844.758 7     -2061.100          45.000
C21  22691648.250 5 118161388.359 5      1708.902          30.000
C22  22218915.141 8 115699715.031 8      -924.125          51.000
E07  24493708.531 7 128715326.159 7     -1408.270          44.000    24493711.461 7  98626121.459 7     -1079.070          47.000
E26                                                                  25821588.570 6 103972750.826 6     -2365.073          38.000
E27  26304539.742 8 138231303.717 8      2846.816          49.000    26304541.758 7 105917509.467 7      2181.369          45.000
> 2020 05 04 01 17 30.0000000  0 13        .000000000000
G06  21591846.703 8 113465931.054 8     -1856.523          49.000    21591850.258 8  88414991.249 8     -1446.642          50.000
G07  21216891.328 8 111495508.338 8      1571.688          51.000    21216891.391 8  86879596.381 8      1224.692          51.000
G09  20692965.695 8 108742264.989 8     -1289.887          51.000    20692966.008 8  84734234.566 8     -1005.107          51.000
G30  22775774.875 7 119687564.117 7      3282.887          47.000    22775776.641 7  93263016.908 7      2558.094          47.000
R14  21130315.594 8 112636556.209 8      3491.012          51.000    21130316.852 7  87606196.823 7      2715.231          45.000
R19  22031170.242 6 117851907.960 6     -3328.652          37.000    22031172.008 6  91662608.713 6     -2588.952          40.000
C05  39770016.164 6 207092910.279 6       -14.766          37.000    39770013.305 6 160137353.614 6       -11.276          40.000
C12  25481314.664 5 132687925.915 5     -2668.434          33.000    25481316.125 7 102602749.725 7     -2063.076          45.000
C19  25435768.812 5 132450716.892 5     -2634.059          30.000
C22  22224265.531 8 115727575.467 8      -929.719          51.000
E07  24501760.961 7 128757641.467 7     -1409.062          43.000    24501763.930 8  98658544.869 8     -1079.567          48.000
E26                                                                  25839218.602 6 104043737.411 6     -2364.469          38.000
E27  26288303.984 8 138145979.556 8      2845.113          51.000    26288302.289 7 105852131.255 7      2180.169          45.000
> 2020 05 04 01 18  0.0000000  0 16        .000000000000
G02  22412010.516 5 117775906.597 5       431.914          34.000
G04  22898135.117 5 120330497.279 5     -2765.215          34.000
G06  21602489.664 8 113521859.352 8     -1872.273          51.000    21602493.164 8  88458571.725 8     -1458.917          51.000
G07  21207957.148 8 111448559.559 8      1557.824          51.000    21207956.820 8  86843012.936 8      1213.889          51.000
G09  20700352.000 8 108781080.518 8     -1298.176          51.000    20700352.422 8  84764480.447 8     -1011.566          51.000
G30  22757050.594 7 119589168.050 7      3276.422          46.000    22757052.391 7  93186344.672 7      2553.056          46.000
R03  20607483.031 5 110313435.002 5     -1798.023          35.000    20607479.312 5  85799352.537 5     -1398.463          30.000
R14  21110708.367 8 112532040.446 8      3476.348          50.000    21110710.391 7  87524906.805 7      2703.826          46.000
R19  22049876.125 6 117951974.120 6     -3342.500          38.000    22049878.195 6  91740437.901 6     -2599.725          40.000
C05  39770095.477 6 207093323.310 6       -12.879          37.000    39770092.641 6 160137673.020 6       -10.354          40.000
C12  25496696.836 5 132768027.997 5     -2672.484          35.000    25496698.383 6 102664689.723 6     -2066.610          41.000
C19  25450954.836 5 132529763.761 5     -2636.074          33.000
C22  22229641.914 8 115755571.044 8      -937.004          51.000
E07  24509811.430 7 128799947.184 7     -1411.680          43.000    24509814.148 7  98690960.912 7     -1081.692          47.000
E26                                                                  25856837.148 6 104114679.898 6     -2365.190          38.000
E27  26272071.742 8 138060674.080 8      2841.527          51.000    26272066.484 7 105786767.394 7      2177.145          44.000
> 2020 05 04 01 18 30.0000000  0 17        .000000000000
G02  22409638.570 5 117763439.744 5       409.223          35.000
G04  22913974.961 5 120413748.020 5     -2774.266          31.000
G06  21613270.234 8 113578509.271 8     -1894.336          51.000    21613273.281 8  88502714.507 8     -1476.106          51.000
G07  21199150.109 8 111402277.751 8      1537.504          51.000    21199149.359 8  86806949.182 8      1198.055          51.000
G09  20707833.266 8 108820395.063 8     -1312.898          51.000    20707833.945 8  84795115.161 8     -1023.035          51.000
G30  22738412.219 7 119491224.340 7      3263.207          45.000    22738413.273 7  93110024.908 7      2542.759          45.000
R03  20617620.164 5 110367745.758 5     -1812.449          32.000    20617625.711 5  85841594.328 5     -1409.683          32.000
R13  20468309.992 4 109299632.444 4      -461.453          27.000
R14  21091231.469 8 112428217.781 8      3455.184          51.000    21091234.055 7  87444155.830 7      2687.365          47.000
R19  22068707.344 6 118052709.148 6     -3362.824          38.000    22068710.375 6  91818787.338 6     -2615.533          41.000
C05  39770213.469 6 207093937.594 6       -18.246          37.000    39770210.617 6 160138147.990 6       -13.762          40.000
C12  25512151.703 6 132848505.379 6     -2682.770          36.000    25512151.484 6 102726919.862 6     -2074.482          39.000
C19  25466192.758 5 132609118.123 5     -2644.496          33.000
C22  22235108.234 8 115784034.653 8      -950.680          51.000
E07  24517924.312 7 128842578.852 7     -1420.664          44.000    24517926.336 7  98723626.708 7     -1088.399          47.000
E26                                                                  25874508.008 6 104185834.017 6     -2370.841          37.000
E27  26255907.180 8 137975725.100 8      2831.629          51.000    26255899.430 7 105721676.666 7      2169.699          44.000
> 2020 05 04 01 19  0.0000000  0 15        .000000000000
G02  22407350.406 5 117751403.408 5       388.926          35.000
G06  21624129.844 8 113635574.027 8     -1914.391          51.000    21624131.820 8  88547180.548 8     -1491.733          51.000
G07  21190412.039 8 111356358.527 8      1519.359          50.000    21190411.273 8  86771167.975 8      1183.916          50.000
G09  20715351.305 8 108859902.850 8     -1325.434          51.000    20715352.078 8  84825900.454 8     -1032.805          51.000
G30  22719802.383 7 119393430.398 7      3252.113          45.000    22719802.680 7  93033821.856 7      2534.117          45.000
R03  20627800.305 6 110422237.236 6     -1824.820          40.000    20627807.961 5  85883976.499 5     -1419.302          31.000
R13  20470973.359 4 109313855.106 4      -492.273          29.000    20470980.711 5  85021906.931 5      -382.879          31.000
R14  21071827.688 8 112324783.334 8      3436.008          51.000    21071830.719 8  87363706.785 8      2672.454          49.000
R19  22087604.969 6 118153798.122 6     -3380.863          38.000    22087608.781 7  91897412.088 7     -2629.563          42.000
C05  39770312.047 6 207094450.995 6       -20.473          37.000    39770309.250 6 160138545.013 6       -16.033          39.000
C12  25527620.195 6 132929053.462 6     -2690.992          37.000    25527618.531 6 102789204.683 6     -2080.867          37.000
C22  22240606.336 8 115812664.525 8      -962.289          51.000
E07  24526040.898 7 128885231.478 7     -1427.449          43.000    24526042.602 7  98756308.624 7     -1093.664          46.000
E26                                                                  25892171.797 5 104256964.694 5     -2374.606          35.000
E27  26239752.586 8 137890829.956 8      2823.691          51.000    26239744.711 7 105656627.176 7      2163.572          45.000
> 2020 05 04 01 19 30.0000000  0 15        .000000000000
G06  21635113.125 8 113693290.123 8     -1929.098          51.000    21635114.383 8  88592154.113 8     -1503.196          51.000
G07  21181788.391 8 111311041.721 8      1506.117          49.000    21181787.961 8  86735856.190 8      1173.598          49.000
G09  20722951.336 8 108899841.566 8     -1332.961          51.000    20722951.953 8  84857021.522 8     -1038.671          51.000
G30  22701267.055 7 119296027.027 7      3245.754          47.000    22701267.930 7  92957923.154 7      2529.159          47.000
R03  20638058.102 6 110477152.770 6     -1831.980          36.000    20638061.852 5  85926688.664 5     -1424.874          32.000
R13  20473820.719 5 109329030.057 5      -516.777          30.000    20473821.055 4  85033717.590 4      -401.938          27.000
R14  21052542.680 8 112221983.309 8      3421.676          50.000    21052546.555 8  87283751.196 8      2661.303          49.000
R19  22106613.484 6 118255479.539 6     -3393.793          38.000    22106617.234 6  91976497.614 6     -2639.617          41.000
C05  39770436.602 6 207095100.113 6       -18.949          37.000    39770433.898 6 160139046.917 6       -14.163          40.000
C12  25543147.367 6 133009906.148 6     -2694.672          37.000    25543145.516 6 102851725.030 6     -2083.700          40.000
C21  22642854.219 5 117907253.925 5      1678.809          30.000
C22  22246181.734 8 115841697.281 8      -968.988          51.000
E07  24534206.430 6 128928143.638 6     -1429.176          41.000    24534208.297 7  98789189.349 7     -1095.050          47.000
E26                                                                  25909874.359 5 104328253.271 5     -2374.496          35.000
E27  26223653.969 8 137806229.289 8      2820.660          51.000    26223647.750 8 105591803.343 8      2161.288          48.000
> 2020 05 04 01 20  0.0000000  0 17        .000000000000
G06  21646157.281 8 113751327.825 8     -1949.160          51.000    21646158.305 8  88637378.273 8     -1518.826          51.000
G07  21173217.219 8 111266000.530 8      1487.492          49.000    21173217.070 8  86700759.158 8      1159.085          49.000
G09  20730570.797 8 108939882.517 8     -1345.559          51.000    20730571.320 8  84888222.241 8     -1048.490          51.000
G30  22682744.367 8 119198688.698 8      3234.137          48.000    22682746.469 8  92882075.121 8      2520.107          49.000
R03  20648333.531 6 110532158.370 6     -1844.500          39.000    20648337.969 5  85969470.696 5     -1434.611          33.000
R13  20476787.305 4 109344868.866 4      -547.859          29.000    20476781.789 4  85046006.122 4      -426.113          27.000
R14  21033314.594 8 112119489.459 8      3401.887          48.000    21033319.312 8  87204033.796 8      2645.915          49.000
R19  22125669.250 6 118357415.177 6     -3411.660          38.000    22125672.734 6  92055780.888 6     -2653.516          41.000
C05  39770524.984 6 207095560.101 6       -21.430          37.000    39770522.242 6 160139402.645 6       -16.610          40.000
C12  25558669.750 5 133090735.853 5     -2703.254          35.000    25558668.867 7 102914227.683 7     -2090.167          42.000
C19  25512009.195 5 132847632.318 5     -2658.473          30.000
C21  22633196.070 5 117856915.559 5      1669.164          32.000
C22  22251772.328 8 115870808.392 8      -980.852          51.000
E07  24542359.039 7 128970987.411 7     -1436.266          43.000    24542361.125 7  98822017.677 7     -1100.506          46.000
E26                                                                  25927552.117 5 104399447.150 5     -2378.752          33.000
E27  26207549.391 8 137721597.476 8      2812.238          51.000    26207545.172 8 105526955.634 8      2154.835          50.000
E30  24425508.648 6 128356910.154 6       658.012          40.000
> 2020 05 04 01 20 30.0000000  0 16        .000000000000
G06  21657318.938 8 113809983.315 8     -1962.223          51.000    21657320.398 8  88683083.831 8     -1529.005          51.000
G07  21164755.469 8 111221533.767 8      1475.863          49.000    21164755.406 8  86666109.720 8      1150.023          49.000
G09  20738266.297 8 108980323.089 8     -1351.570          51.000    20738266.867 8  84919734.351 8     -1053.172          51.000
G30  22664291.289 8 119101715.938 8      3229.527          49.000    22664294.250 8  92806511.931 8      2516.515          49.000
R03  20658682.836 6 110587557.699 6     -1849.867          40.000    20658686.109 5  86012559.073 5     -1438.786          34.000
R13  20479929.398 5 109361644.316 5      -572.133          30.000    20479927.852 5  85059076.575 5      -444.992          30.000
R14  21014201.508 7 112017608.483 7      3388.934          47.000    21014206.375 8  87124793.067 8      2635.837          49.000
R19  22144828.383 6 118459903.945 6     -3422.371          38.000    22144831.523 6  92135494.349 6     -2661.844          40.000
C05  39770633.602 6 207096126.648 6       -17.535          37.000    39770631.016 6 160139840.734 6       -13.381          40.000
C12  25574243.484 5 133171835.713 5     -2704.664          34.000    25574244.438 7 102976939.208 7     -2091.330          44.000
C21  22623585.656 4 117806949.557 4      1665.398          29.000
C22  22257434.695 8 115900293.704 8      -985.934          51.000
E07  24550555.773 7 129014061.005 7     -1436.414          45.000    24550557.742 7  98855022.095 7     -1100.506          46.000
E26                                                                  25945261.805 5 104470817.317 5     -2377.234          32.000
E27  26191495.617 8 137637234.936 8      2810.770          50.000    26191493.758 8 105462314.242 8      2153.736          51.000
E30  24421777.969 5 128337311.153 5       647.824          35.000    24421781.898 5  98336402.810 5       496.391          32.000
> 2020 05 04 01 21  0.0000000  0 15        .000000000000
G06  21668573.820 8 113869127.743 8     -1979.656          51.000    21668575.859 8  88729170.363 8     -1542.589          51.000
G07  21156379.180 8 111177516.548 8      1459.699          49.000    21156379.219 8  86631810.576 8      1137.428          49.000
G09  20746013.539 8 109021035.529 8     -1361.715          51.000    20746014.273 8  84951458.312 8     -1061.077          51.000
G30  22645884.031 8 119004984.103 8      3220.336          50.000    22645886.945 8  92731136.482 8      2509.353          50.000
R03  20669081.875 6 110643221.807 6     -1860.074          38.000    20669086.094 5  86055853.371 5     -1446.724          35.000
R13  20483222.453 5 109379264.479 5      -600.621          31.000    20483220.539 5  85072753.464 5      -467.150          30.000
R14  20995179.828 7 111916216.113 7      3371.547          46.000    20995185.172 8  87045932.298 8      2622.311          49.000
R19  22164066.148 6 118562812.245 6     -3437.105          39.000    22164068.039 6  92215534.106 6     -2673.307          39.000
C05  39770738.734 6 207096674.138 6       -18.133          37.000    39770736.125 6 160140264.106 6       -13.985          40.000
C12  25589844.711 5 133253077.388 5     -2710.098          34.000    25589847.258 7 103039760.393 7     -2095.897          44.000
C22  22263144.875 8 115930027.750 8      -995.355          51.000
E07  24558772.008 7 129057237.436 7     -1440.902          45.000    24558774.352 7  98888105.342 7     -1104.071          47.000
E26  25962985.352 5 136436411.638 5     -3104.887          35.000    25962979.461 5 104542169.136 5     -2379.503          31.000
E27  26175468.758 8 137553016.978 8      2804.773          48.000    26175469.617 8 105397783.607 8      2149.100          51.000
E30  24418125.719 5 128318115.951 5       632.234          34.000    24418122.203 5  98321707.261 5       484.170          33.000
> 2020 05 04 01 21 30.0000000  0 16        .000000000000
G06  21679922.062 8 113928761.901 8     -1996.770          51.000    21679924.516 8  88775638.522 8     -1555.924          51.000
G07  21148089.164 8 111133952.353 8      1443.742          49.000    21148089.008 8  86597864.454 8      1124.994          49.000
G09  20753812.953 8 109062021.866 8     -1371.672          51.000    20753813.805 8  84983395.717 8     -1068.835          51.000
G30  22627523.586 8 118908498.393 8      3211.188          51.000    22627525.766 8  92655952.830 8      2502.224          51.000
R03  20679530.727 6 110699153.414 6     -1869.473          37.000    20679534.289 6  86099355.702 6     -1454.034          37.000
R04  19845044.250 5 106269236.984 5      1118.312          33.000
R13  20486668.445 4 109397665.629 4      -628.055          29.000    20486667.938 4  85087069.615 4      -488.484          29.000
R14  20976251.148 8 111815319.456 8      3354.086          51.000    20976256.758 8  86967457.035 8      2608.734          48.000
R19  22183382.438 6 118666138.637 6     -3451.820          39.000    22183382.250 6  92295899.041 6     -2684.749          38.000
C05  39770840.797 6 207097205.594 6       -18.133          37.000    39770838.273 6 160140675.069 6       -14.112          40.000
C12  25605474.273 6 133334461.265 6     -2715.957          36.000    25605476.805 7 103102691.559 7     -2100.141          43.000
C22  22268903.398 8 115960013.705 8     -1004.590          51.000
E07  24567008.758 7 129100519.630 7     -1445.453          43.000    24567010.953 7  98921269.571 7     -1107.372          46.000
E26  25980714.758 6 136529587.253 6     -3107.211          36.000    25980705.648 5 104613535.445 5     -2381.251          31.000
E27  26159469.938 7 137468948.652 7      2798.961          47.000    26159473.164 8 105333367.580 8      2144.628          51.000
E30                                                                  24414549.914 5  98307277.236 5       472.871          33.000
> 2020 05 04 01 22  0.0000000  0 14        .000000000000
G06  21691363.203 8 113988884.567 8     -2011.918          51.000    21691366.242 8  88822487.353 8     -1567.728          51.000
G07  21139885.766 8 111090842.731 8      1429.707          49.000    21139885.102 8  86564272.543 8      1114.057          49.000
G09  20761664.555 8 109103282.069 8     -1379.430          51.000    20761665.359 8  85015546.513 8     -1074.880          51.000
G30  22609210.703 8 118812261.903 8      3204.129          51.000    22609211.828 8  92580963.386 8      2496.727          51.000
R03  20690030.359 5 110755353.736 5     -1877.344          34.000    20690034.211 6  86143067.041 6     -1460.159          38.000
R14  20957418.305 8 111714923.375 8      3338.625          51.000    20957421.953 7  86889371.176 7      2596.708          46.000
R19  22202775.484 6 118769878.881 6     -3464.562          38.000    22202775.148 6  92376585.906 6     -2694.660          40.000
C05  39770939.961 6 207097719.890 6       -16.633          37.000    39770937.477 6 160141074.303 6       -12.904          40.000
C12  25621131.414 6 133415985.568 6     -2719.430          36.000    25621133.055 7 103165731.318 7     -2102.742          42.000
C22  22274710.367 8 115990252.651 8     -1011.715          51.000
E07  24575265.781 7 129143908.287 7     -1447.629          44.000    24575267.852 7  98954515.416 7     -1109.228          47.000
E26  25998453.078 5 136622806.799 5     -3107.523          35.000    25998441.867 5 104684953.391 5     -2381.550          32.000
E27  26143500.242 8 137385032.954 8      2795.043          48.000    26143505.016 8 105269068.506 8      2141.668          50.000
E30  24411076.930 6 128281077.060 6       604.449          38.000    24411061.758 5  98293227.954 5       462.820          33.000
> 2020 05 04 01 22 30.0000000  0 14        .000000000000
G06  21702899.086 8 114049505.630 8     -2028.363          51.000    21702902.273 8  88869724.580 8     -1580.540          51.000
G07  21131771.312 8 111048200.638 8      1414.203          50.000    21131770.141 8  86531044.936 8      1101.976          49.000
G09  20769570.422 8 109144827.294 8     -1389.020          51.000    20769571.188 8  85047919.409 8     -1082.353          51.000
G30  22590947.961 8 118716288.843 8      3195.289          51.000    22590948.250 8  92506179.228 8      2489.836          51.000
R03  20700583.070 6 110811834.719 6     -1886.727          40.000    20700585.211 6  86186996.651 6     -1467.451          38.000
R14  20938682.508 8 111615044.142 8      3321.207          51.000    20938683.250 7  86811687.365 7      2583.164          43.000
R19  22222247.164 6 118874041.223 6     -3478.777          39.000    22222248.438 6  92457601.056 6     -2705.716          41.000
C05  39771038.430 6 207098233.003 6       -16.664          37.000    39771036.039 6 160141471.075 6       -12.717          40.000
C12  25636816.961 6 133497659.615 6     -2724.465          36.000    25636817.797 6 103228886.870 6     -2106.693          41.000
C22  22280568.305 8 116020756.777 8     -1020.742          51.000
E07  24583545.102 7 129187415.352 7     -1451.547          43.000    24583547.633 7  98987851.982 7     -1112.293          47.000
E26  26016202.500 5 136716080.374 5     -3109.516          34.000    26016190.719 5 104756420.717 5     -2382.134          32.000
E27  26127562.883 8 137301283.992 8      2789.375          49.000    26127568.383 8 105204897.220 8      2137.256          49.000
E30  24407668.586 5 128263165.856 5       589.605          33.000    24407659.406 5  98279521.221 5       451.482          34.000
> 2020 05 04 01 23  0.0000000  0 16        .000000000000
G02  22392731.117 5 117674571.780 5       248.297          35.000
G06  21714533.258 8 114110643.621 8     -2047.309          51.000    21714536.156 8  88917364.597 8     -1595.305          51.000
G07  21123750.000 8 111006047.797 8      1396.090          51.000    21123748.258 8  86498198.588 8      1087.862          51.000
G09  20777534.250 8 109186677.270 8     -1400.887          51.000    20777534.984 8  85080529.768 8     -1091.597          51.000
G30  22572739.445 8 118620602.035 8      3184.012          49.000    22572739.172 8  92431618.129 8      2481.051          49.000
R03  20711191.805 5 110868617.463 5     -1898.504          35.000    20711192.094 6  86231161.083 6     -1476.614          37.000
R14  20920047.945 8 111515707.211 8      3301.414          51.000    20920046.711 7  86734425.394 7      2567.773          44.000
R19  22241801.320 6 118978641.880 6     -3494.645          38.000    22241803.648 6  92538957.111 6     -2718.060          41.000
C05  39771140.297 6 207098763.381 6       -18.383          37.000    39771137.867 6 160141881.220 6       -14.456          40.000
C12  25652534.125 5 133579501.299 5     -2731.168          35.000    25652534.359 6 103292172.036 6     -2112.335          39.000
C21  22576030.227 5 117559306.613 5      1633.629          31.000
C22  22286481.258 8 116051546.722 8     -1031.855          51.000
E07  24591850.672 7 129231061.351 7     -1457.883          42.000    24591853.734 7  99021295.029 7     -1117.052          47.000
E26  26033965.680 5 136809426.659 5     -3113.641          35.000    26033954.945 5 104827947.698 5     -2385.292          32.000
E27  26111662.078 8 137217724.512 8      2781.395          49.000    26111667.695 7 105140871.127 7      2131.183          47.000
E30                                                                  24404343.023 5  98266163.302 5       438.863          34.000
> 2020 05 04 01 23 30.0000000  0 14        .000000000000
G06  21726262.117 8 114172280.378 8     -2064.312          50.000    21726264.727 8  88965393.255 8     -1608.555          50.000
G07  21115819.078 8 110964369.587 8      1380.004          51.000    21115816.555 8  86465722.087 8      1075.331          51.000
G09  20785552.797 8 109228815.003 8     -1410.715          51.000    20785553.562 8  85113364.367 8     -1099.258          51.000
G30  22554582.141 7 118525187.713 7      3174.559          46.000    22554581.992 7  92357269.315 7      2473.682          46.000
R14  20901512.406 8 111416900.153 8      3283.320          51.000    20901511.203 7  86657575.503 7      2553.694          46.000
R19  22261433.930 6 119083659.780 6     -3508.539          39.000    22261435.875 6  92620637.663 6     -2728.864          40.000
C05  39771242.445 6 207099295.315 6       -18.980          37.000    39771240.078 6 160142292.534 6       -14.610          40.000
C12  25668279.594 5 133661492.099 5     -2736.805          34.000    25668279.156 6 103355572.510 6     -2116.446          37.000
C21  22566631.562 5 117510373.773 5      1626.703          34.000
C22  22292446.062 8 116082606.860 8     -1041.246          51.000
E07  24600179.094 6 129274830.265 6     -1462.473          39.000    24600182.539 7  99054832.242 7     -1120.458          47.000
E26  26051739.109 5 136902812.730 5     -3115.738          34.000    26051729.758 5 104899514.711 5     -2386.642          31.000
E27  26095794.773 8 137134340.602 8      2775.141          50.000    26095799.367 7 105076979.604 7      2126.374          44.000
E30                                                                  24401109.297 5  98253145.492 5       427.457          33.000
> 2020 05 04 01 24  0.0000000  0 16        .000000000000
G06  21738077.352 8 114234372.204 8     -2079.652          49.000    21738079.969 8  89013776.503 8     -1620.508          49.000
G07  21107970.656 8 110923125.000 8      1365.301          51.000    21107967.422 8  86433583.480 8      1063.871          51.000
G09  20793618.008 8 109271198.162 8     -1419.242          51.000    20793619.008 8  85146390.210 8     -1105.903          51.000
G30  22536468.188 7 118430006.597 7      3166.582          44.000    22536469.547 7  92283102.171 7      2467.467          45.000
R03  20732556.562 5 110983033.170 5     -1917.086          31.000    20732562.984 6  86320110.128 6     -1491.067          38.000
R14  20883068.672 8 111318585.297 8      3266.590          51.000    20883069.094 8  86581108.405 8      2540.681          48.000
R19  22281135.688 6 119189048.028 6     -3521.547          38.000    22281136.695 6  92702606.248 6     -2738.984          41.000
C05  39771336.953 6 207099787.653 6       -18.109          37.000    39771334.625 6 160142673.258 6       -14.073          40.000
C12  25684044.711 5 133743588.334 5     -2740.891          34.000    25684045.617 6 103419054.461 6     -2119.020          38.000
C19  25634978.117 4 133488053.902 4     -2682.578          29.000
C21  22557262.406 5 117461595.840 5      1620.480          31.000
C22  22298454.727 8 116113896.323 8     -1049.191          51.000
E07  24608522.250 6 129318680.480 6     -1465.281          40.000    24608526.445 7  99088431.740 7     -1122.868          47.000
E26  26069514.602 5 136996225.091 5     -3116.266          35.000    26069510.578 5 104971118.439 5     -2387.917          32.000
E27  26079953.461 8 137051092.921 8      2770.289          49.000    26079955.961 7 105013192.450 7      2122.725          45.000
E30                                                                  24397953.484 5  98240436.479 5       416.888          35.000
> 2020 05 04 01 24 30.0000000  0 15        .000000000000
G06  21749998.586 8 114297019.668 8     -2094.211          49.000    21750000.914 8  89062592.720 8     -1631.853          49.000
G07  21100224.414 8 110882417.263 8      1351.188          51.000    21100221.117 8  86401863.197 8      1052.876          51.000
G09  20801749.352 8 109313928.598 8     -1426.953          51.000    20801750.562 8  85179686.665 8     -1111.912          51.000
G30  22518419.375 7 118335163.552 7      3159.059          46.000    22518421.531 7  92209198.490 7      2461.604          46.000
R04  19808421.734 5 106073152.028 5      1059.984          31.000
R14  20864737.539 8 111220870.677 8      3250.410          51.000    20864739.094 8  86505108.130 8      2528.094          48.000
R19  22300924.805 6 119294906.720 6     -3533.211          37.000    22300925.609 6  92784940.760 6     -2748.053          40.000
C05  39771443.523 6 207100342.418 6       -16.711          37.000    39771441.211 6 160143102.229 6       -12.656          40.000
C12  25699849.398 5 133825889.246 5     -2743.621          34.000    25699852.695 6 103482694.757 6     -2121.614          40.000
C21  22547943.289 5 117413057.549 5      1616.301          30.000
C22  22304526.891 8 116145517.165 8     -1056.344          51.000
E07  24616901.500 6 129362714.690 6     -1467.699          37.000    24616905.680 8  99122172.190 8     -1124.601          48.000
E26  26087311.859 5 137089749.668 5     -3116.047          32.000    26087306.469 5 105042773.056 5     -2387.354          30.000
E27  26064157.680 8 136968086.323 8      2766.059          48.000    26064158.977 7 104949590.016 7      2119.424          47.000
E30  24394890.234 5 128196047.170 5       530.574          32.000    24394894.484 5  98228115.532 5       406.601          35.000
> 2020 05 04 01 25  0.0000000  0 15        .000000000000
G06  21762002.578 8 114360100.052 8     -2110.219          51.000    21762004.562 8  89111746.238 8     -1644.326          50.000
G07  21092557.602 8 110842127.126 8      1335.594          51.000    21092554.594 8  86370468.316 8      1040.722          51.000
G09  20809923.742 8 109356884.862 8     -1436.082          51.000    20809925.000 8  85213159.076 8     -1119.025          51.000
G30  22500413.328 7 118240540.190 7      3150.137          47.000    22500415.156 7  92135466.030 7      2454.652          47.000
R03  20754150.133 5 111098575.183 5     -1933.551          34.000    20754144.914 5  86409993.658 5     -1503.873          34.000
R04  19802502.344 4 106041515.307 4      1050.367          28.000
R14  20846497.016 8 111123638.102 8      3232.590          51.000    20846499.336 8  86429482.795 8      2514.234          49.000
R19  22320777.016 6 119401108.440 6     -3546.215          36.000    22320778.633 6  92867542.122 6     -2758.167          41.000
C05  39771539.195 6 207100840.105 6       -16.051          37.000    39771536.828 6 160143487.091 6       -12.475          40.000
C12  25715670.781 6 133908272.765 6     -2747.461          36.000    25715675.992 6 103546398.904 6     -2124.671          40.000
C22  22310640.102 8 116177350.111 8     -1065.047          51.000
E07  24625293.070 6 129406812.161 6     -1471.469          41.000    24625297.289 7  99155961.151 7     -1127.486          47.000
E26  26105107.719 5 137183265.954 5     -3117.145          33.000
E27  26048385.125 8 136885202.341 8      2760.266          48.000    26048386.766 8 104886081.512 8      2115.060          49.000
E30  24391910.422 5 128180328.749 5       516.387          32.000    24391907.086 4  98216102.664 4       395.679          29.000
> 2020 05 04 01 25 30.0000000  0 14        .000000000000
G06  21774093.547 8 114423636.440 8     -2129.148          51.000    21774094.594 8  89161255.092 8     -1659.077          51.000
G07  21084975.141 8 110802281.041 8      1317.074          51.000    21084972.320 8  86339419.434 8      1026.292          51.000
G09  20818145.781 8 109400091.384 8     -1448.066          51.000    20818146.859 8  85246826.504 8     -1128.363          51.000
G30  22482454.586 7 118146164.067 7      3137.957          47.000    22482455.836 7  92061926.242 7      2445.164          47.000
R03  20765003.805 5 111156710.403 5     -1945.641          32.000    20765006.445 5  86455210.040 5     -1513.273          33.000
R14  20828352.562 8 111026917.473 8      3211.734          51.000    20828355.484 8  86354255.639 8      2498.016          48.000
R19  22340698.281 6 119507674.429 6     -3561.805          39.000    22340699.609 6  92950426.749 6     -2770.293          40.000
C05  39771628.586 6 207101305.914 6       -18.664          37.000    39771626.273 6 160143847.291 6       -14.342          40.000
C12  25731513.305 6 133990761.520 6     -2755.152          38.000    25731519.000 6 103610184.421 6     -2130.446          41.000
C19  25681412.297 5 133729867.200 5     -2693.492          30.000
C22  22316799.094 8 116209420.522 8     -1076.730          51.000
E07  24633701.273 6 129450998.201 6     -1478.246          41.000    24633705.594 7  99189818.004 7     -1132.598          47.000
E26  26122906.188 5 137276797.328 5     -3121.840          33.000
E27  26032641.711 8 136802468.415 8      2751.477          49.000    26032643.633 8 104822687.990 8      2108.292          50.000
> 2020 05 04 01 26  0.0000000  0 15        .000000000000
G02  22385975.453 4 117639094.543 4       141.730          28.000
G06  21786294.859 8 114487753.162 8     -2144.086          51.000    21786295.359 8  89211216.146 8     -1670.716          51.000
G07  21077501.359 8 110763005.888 8      1302.348          51.000    21077498.719 8  86308815.409 8      1014.816          51.000
G09  20826439.375 8 109443673.879 8     -1456.262          51.000    20826440.156 8  85280786.886 8     -1134.749          51.000
G30  22464567.258 7 118052163.907 7      3129.781          46.000    22464568.117 7  91988679.414 7      2438.794          47.000
R03  20775941.281 5 111215221.820 5     -1954.004          35.000    20775927.570 4  86500708.830 4     -1519.781          25.000
R14  20810328.789 8 110930841.240 8      3194.527          51.000    20810331.758 8  86279529.682 8      2484.632          48.000
R19  22360711.797 6 119614728.715 6     -3573.660          39.000    22360712.203 6  93033691.158 6     -2779.513          41.000
C05  39771735.938 6 207101865.341 6       -17.281          36.000    39771733.656 6 160144279.896 6       -13.523          40.000
C12  25747399.523 6 134073478.248 6     -2758.320          38.000    25747404.828 7 103674146.232 7     -2133.077          42.000
C22  22323027.680 8 116241854.062 8     -1084.414          51.000
E07  24642150.406 6 129495399.340 6     -1481.066          40.000    24642154.812 7  99223839.682 7     -1134.726          47.000
E26  26140730.461 5 137370465.428 5     -3121.152          32.000
E27  26016951.828 8 136720013.216 8      2746.484          49.000    26016953.312 8 104759508.025 8      2104.515          51.000
E30  24386193.898 5 128150321.986 5       485.258          33.000
> 2020 05 04 01 26 30.0000000  0 15        .000000000000
G04  23169811.039 4 121758176.319 4     -2824.875          29.000
G06  21798573.102 8 114552275.578 8     -2157.262          51.000    21798573.250 8  89261493.345 8     -1680.983          51.000
G07  21070103.719 8 110724130.306 8      1289.398          51.000    21070101.273 8  86278522.731 8      1004.726          51.000
G09  20834771.500 8 109487459.086 8     -1462.789          51.000    20834772.117 8  85314905.223 8     -1139.836          51.000
G30  22446718.625 7 117958369.575 7      3123.266          45.000    22446719.906 7  91915592.948 7      2433.717          45.000
R03  20786912.695 5 111273941.246 5     -1960.434          34.000    20786914.516 5  86546403.679 5     -1524.785          32.000
R04  19785121.977 5 105948407.216 5      1020.945          32.000
R14  20792393.750 8 110835238.477 8      3179.062          51.000    20792396.719 8  86205172.018 8      2472.604          48.000
R19  22380782.305 6 119722091.518 6     -3583.695          37.000    22380783.250 6  93117195.593 6     -2787.316          41.000
C05  39771828.508 6 207102347.651 6       -14.723          37.000    39771826.258 6 160144652.825 6       -11.085          40.000
C12  25763295.711 6 134156249.566 6     -2759.258          37.000    25763299.875 6 103738150.251 6     -2134.011          41.000
C22  22329293.109 8 116274480.147 8     -1090.566          51.000
E07  24650607.531 6 129539843.220 6     -1481.926          39.000    24650612.086 7  99257894.048 7     -1135.499          47.000
E26  26158547.023 5 137464092.137 5     -3121.062          31.000
E27  26001282.555 8 136637666.495 8      2743.309          50.000    26001283.477 8 104696411.204 8      2102.016          51.000
> 2020 05 04 01 27  0.0000000  0 14        .000000000000
G02  22384563.008 5 117631689.698 5       105.754          35.000
G06  21810944.125 8 114617287.289 8     -2177.613          51.000    21810944.719 8  89312151.813 8     -1696.842          51.000
G07  21062798.469 8 110685741.015 8      1269.195          51.000    21062796.406 8  86248609.000 8       988.983          51.000
G09  20843158.281 8 109531531.940 8     -1476.148          51.000    20843158.781 8  85349247.693 8     -1150.246          51.000
G30  22428925.625 7 117864869.021 7      3109.684          45.000    22428927.875 7  91842735.363 7      2423.130          45.000
R04  19779442.641 5 105917986.637 5      1006.871          34.000
R14  20774564.078 8 110740200.429 8      3156.215          50.000    20774568.039 8  86131253.548 8      2454.834          49.000
R19  22400924.539 6 119829845.303 6     -3600.613          38.000    22400928.062 7  93201004.136 7     -2800.477          42.000
C05  39771922.625 6 207102836.872 6       -18.590          36.000    39771920.438 6 160145031.923 6       -14.589          40.000
C12  25779217.398 5 134239157.905 5     -2768.137          33.000    25779220.211 6 103802260.248 6     -2140.429          40.000
C22  22335611.844 8 116307384.020 8     -1103.703          51.000
E07  24659088.906 6 129584415.510 6     -1490.266          40.000    24659094.203 7  99292046.818 7     -1141.889          47.000
E26  26176370.281 5 137557749.165 5     -3125.828          32.000
E27  25985650.367 8 136555516.216 8      2732.738          49.000    25985650.883 8 104633464.890 8      2093.901          51.000
> 2020 05 04 01 27 30.0000000  0 13        .000000000000
G06  21823413.867 8 114682817.689 8     -2191.199          50.000    21823415.195 8  89363214.459 8     -1707.428          50.000
G07  21055591.914 8 110647870.217 8      1255.480          51.000    21055590.008 8  86219099.297 8       978.296          51.000
G09  20851605.602 8 109575923.285 8     -1483.449          51.000    20851606.094 8  85383838.327 8     -1155.934          51.000
G30  22411195.492 7 117771696.105 7      3102.035          47.000    22411198.188 7  91770133.091 7      2417.170          47.000
R03  20809038.016 5 111392340.627 5     -1981.652          30.000
R14  20756846.562 8 110645763.207 8      3139.531          50.000    20756852.258 8  86057802.353 8      2441.855          51.000
R19  22421146.266 6 119938017.664 6     -3610.945          38.000    22421150.742 7  93285138.191 7     -2808.513          42.000
C05  39772024.359 6 207103366.634 6       -16.383          37.000    39772022.133 6 160145441.573 6       -12.949          40.000
C12  25795170.117 4 134322232.202 4     -2771.316          29.000    25795172.141 6 103866498.527 6     -2142.058          40.000
C22  22341990.172 8 116340597.343 8     -1110.586          51.000
E07  24667601.633 7 129629147.855 7     -1492.105          43.000    24667606.969 7  99326322.251 7     -1143.293          47.000
E27  25970061.227 8 136473596.141 8      2728.500          48.000    25970062.016 8 104570694.972 8      2090.699          51.000
E30  24378254.461 5 128108607.565 5       441.098          34.000
> 2020 05 04 01 28  0.0000000  0 14        .000000000000
G04  23218334.820 5 122013144.995 5     -2834.645          34.000
G06  21835967.789 8 114748790.595 8     -2205.441          49.000    21835970.000 8  89414621.922 8     -1718.526          49.000
G07  21048470.234 8 110610444.791 8      1241.070          51.000    21048468.289 8  86189936.639 8       967.068          51.000
G09  20860099.289 8 109620558.291 8     -1490.883          50.000    20860099.906 8  85418618.851 8     -1161.724          50.000
G30  22393514.672 8 117678779.041 8      3093.980          49.000    22393516.914 8  91697730.204 8      2410.894          49.000
R14  20739229.375 8 110551855.633 8      3122.336          51.000    20739235.914 8  85984763.113 8      2428.484          50.000
R19  22441431.977 6 120046528.616 6     -3621.695          38.000    22441435.469 6  93369535.537 6     -2816.877          41.000
C05  39772119.750 6 207103862.720 6       -15.270          37.000    39772117.383 6 160145825.157 6       -11.460          40.000
C12                                                                  25811141.625 6 103930806.517 6     -2144.081          39.000
C19  25759189.438 5 134134867.929 5     -2707.035          30.000
C22  22348414.031 8 116374047.073 8     -1117.980          51.000
E07  24676131.492 6 129673966.251 6     -1494.309          41.000    24676136.195 7  99360663.659 7     -1145.074          47.000
E27  25954502.047 8 136391834.476 8      2723.762          49.000    25954503.656 8 104508046.432 8      2086.972          51.000
E30  24375776.789 5 128095571.421 5       428.027          34.000    24375785.156 5  98151191.959 5       328.134          35.000
> 2020 05 04 01 28 30.0000000  0 15        .000000000000
G02  22383183.797 5 117624423.023 5        52.668          34.000
G06  21848610.836 8 114815231.684 8     -2224.121          49.000    21848613.797 8  89466394.197 8     -1733.081          49.000
G07  21041438.578 8 110573493.903 8      1222.164          51.000    21041436.742 8  86161143.772 8       952.336          51.000
G09  20868644.508 8 109665464.132 8     -1502.957          49.000    20868645.375 8  85453610.394 8     -1171.135          50.000
G30  22375888.516 8 117586147.969 8      3081.285          51.000    22375889.805 8  91625550.174 8      2401.001          51.000
R03  20831330.461 5 111511736.537 5     -2001.422          32.000
R14  20721717.867 8 110458510.252 8      3100.438          51.000    20721724.484 8  85912161.182 8      2411.454          49.000
R19  22461784.938 6 120155402.266 6     -3636.793          37.000    22461786.930 6  93454215.000 6     -2828.620          39.000
C05  39772213.906 6 207104352.933 6       -18.391          36.000    39772211.539 6 160146204.224 6       -13.768          40.000
C12                                                                  25827133.617 6 103995203.598 6     -2149.352          39.000
C22  22354888.383 8 116407761.181 8     -1129.777          51.000
E07  24684682.484 6 129718898.782 6     -1501.336          39.000    24684687.078 7  99395092.466 7     -1150.279          46.000
E27  25938979.055 8 136310261.291 8      2714.309          50.000    25938981.188 8 104445542.291 8      2079.882          51.000
E30  24373385.648 6 128082992.962 6       410.152          36.000    24373387.055 5  98141553.872 5       314.368          34.000
E33  25563139.633 7 134335204.355 7     -1717.586          42.000    25563144.734 6 102932181.851 6     -1316.255          38.000
> 2020 05 04 01 29  0.0000000  0 17        .000000000000
G02  22382931.906 6 117623094.002 6        37.473          36.000
G06  21861346.367 8 114882158.410 8     -2237.039          49.000    21861349.461 8  89518544.898 8     -1743.147          49.000
G07  21034501.141 8 110537037.870 8      1208.902          51.000    21034499.648 8  86132736.497 8       942.002          51.000
G09  20877244.875 8 109710659.695 8     -1509.336          49.000    20877246.023 8  85488827.711 8     -1176.106          49.000
G30  22358320.906 8 117493824.856 8      3074.199          51.000    22358321.188 8  91553610.117 8      2395.483          51.000
R03  20842571.219 5 111571878.903 5     -2008.637          31.000
R04  19757307.438 5 105799479.844 5       968.812          31.000    19757314.719 4  82288496.507 4       753.524          26.000
R14  20704316.484 8 110365751.084 8      3084.113          50.000    20704322.383 7  85840015.246 7      2398.758          47.000
R19  22482208.094 5 120264654.063 5     -3646.008          35.000    22482209.039 6  93539188.612 6     -2835.784          40.000
C05  39772310.625 6 207104856.906 6       -15.312          37.000    39772308.398 6 160146593.950 6       -11.656          40.000
C12                                                                  25843151.383 6 104059702.966 6     -2150.128          38.000
C21  22465713.633 5 116984837.894 5      1557.113          32.000
C22  22361417.359 8 116441759.473 8     -1136.078          51.000
E07  24693258.320 6 129763965.184 6     -1502.555          37.000    24693262.656 7  99429623.800 7     -1151.200          45.000
E27  25923496.250 8 136228898.475 8      2710.516          51.000    25923498.266 8 104383199.370 8      2076.835          51.000
E30                                                                  24371079.758 5  98132269.671 5       304.802          35.000
E33  25572975.805 7 134386888.586 7     -1727.258          42.000    25572983.305 6 102971784.093 6     -1323.438          39.000
> 2020 05 04 01 29 30.0000000  0 15        .000000000000
G06  21874179.594 8 114949596.883 8     -2256.449          51.000    21874182.469 8  89571094.354 8     -1758.275          51.000
G07  21027663.383 8 110501105.495 8      1189.047          51.000    21027662.320 8  86104737.264 8       926.530          51.000
G09  20885905.664 8 109756172.548 8     -1522.457          50.000    20885907.023 8  85524292.291 8     -1186.327          50.000
G30  22340817.367 8 117401840.281 8      3060.488          51.000    22340816.969 8  91481933.859 8      2384.796          51.000
R04  19751934.742 5 105770673.943 5       953.930          31.000    19751929.508 4  82266088.873 4       741.942          24.000
R14  20687031.258 8 110273611.030 8      3060.879          48.000    20687036.617 7  85768350.836 7      2380.687          46.000
R19  22502706.914 5 120374308.394 5     -3661.957          35.000    22502706.773 6  93624475.265 6     -2848.189          39.000
C05  39772415.492 6 207105402.936 6       -18.562          37.000    39772413.234 6 160147016.191 6       -14.565          40.000
C12                                                                  25859199.445 6 104124324.395 6     -2156.082          36.000
C21  22456780.430 5 116938316.588 5      1546.434          32.000
C22  22368006.477 8 116476070.362 8     -1148.957          51.000
E07  24701865.570 6 129809193.696 6     -1510.277          38.000    24701868.984 7  99464279.411 7     -1157.252          44.000
E27  25908059.367 8 136147776.565 8      2700.012          51.000    25908061.273 8 104321041.015 8      2068.825          51.000
E30  24368876.789 5 128059312.351 5       379.547          35.000    24368869.070 6  98123361.556 6       290.567          38.000
E33  25582888.297 7 134438980.185 7     -1743.031          42.000    25582895.875 6 103011698.437 6     -1335.779          36.000
> 2020 05 04 01 30  0.0000000  0 16        .000000000000
G02  22382720.195 5 117621987.822 5          .852          30.000
G06  21887087.477 8 115017426.202 8     -2269.316          51.000    21887089.867 8  89623948.333 8     -1768.302          51.000
G07  21020902.805 8 110465579.200 8      1175.559          51.000    21020901.805 8  86077054.447 8       916.020          51.000
G09  20894604.156 8 109801883.256 8     -1528.863          50.000    20894605.648 8  85559911.036 8     -1191.322          50.000
G30  22323355.656 8 117310077.773 8      3053.211          51.000    22323355.398 8  91410430.618 8      2379.122          51.000
R03  20865212.156 4 111693055.352 4     -2028.109          29.000    20865197.641 4  86872370.174 4     -1577.418          25.000
R14  20669839.594 7 110181973.690 7      3044.383          47.000    20669845.477 8  85697077.293 8      2367.853          48.000
R19  22523258.062 5 120484239.602 5     -3670.453          35.000    22523256.672 6  93709977.281 6     -2854.797          38.000
C05  39772505.836 6 207105873.583 6       -16.395          37.000    39772503.555 6 160147380.127 6       -12.698          40.000
C12                                                                  25875253.836 5 104188975.057 5     -2156.592          33.000
C21  22447869.742 5 116891925.802 5      1543.035          30.000
C22  22374632.930 8 116510576.497 8     -1155.340          51.000
E07  24710481.086 7 129854465.755 7     -1511.961          42.000    24710484.008 7  99498968.385 7     -1158.375          44.000
E27  25892645.906 8 136066779.048 8      2695.914          50.000    25892648.727 8 104258977.991 8      2065.697          51.000
E30  24366733.359 5 128048059.321 5       367.043          33.000    24366730.211 6  98114739.063 6       281.292          40.000
E33  25592855.406 7 134491359.145 7     -1752.629          42.000    25592857.992 6 103051832.910 6     -1343.178          36.000
> 2020 05 04 01 30 30.0000000  0 14        .000000000000
G04  23299513.469 5 122439708.191 5     -2859.875          33.000    23299511.578 5  95407603.599 5     -2228.477          31.000
G06  21900081.648 8 115085708.044 8     -2294.172          51.000    21900083.148 8  89677154.937 8     -1787.669          51.000
G07  21014231.922 8 110430523.682 8      1150.160          51.000    21014230.625 8  86049738.455 8       896.229          51.000
G09  20903352.320 8 109847855.028 8     -1547.199          50.000    20903353.797 8  85595733.208 8     -1205.610          50.000
G30  22305948.445 8 117218603.540 8      3033.867          50.000    22305948.625 8  91339152.003 8      2364.052          50.000
R14  20652756.180 8 110090907.666 8      3015.449          51.000    20652761.391 8  85626248.100 8      2345.349          49.000
R19  22543871.977 5 120594508.476 5     -3691.918          32.000    22543870.359 6  93795741.975 6     -2871.492          39.000
C05  39772593.914 6 207106332.455 6       -25.352          37.000    39772591.633 6 160147734.966 6       -19.833          40.000
C12                                                                  25891326.398 5 104253702.017 5     -2166.551          31.000
C22  22381309.062 8 116545341.630 8     -1173.590          51.000
E07  24719117.180 6 129899845.326 6     -1524.969          41.000    24719119.922 7  99533739.769 7     -1168.285          42.000
E27  25877268.773 8 135985972.126 8      2679.883          49.000    25877272.992 8 104197061.009 8      2053.486          50.000
E30                                                                  24364673.000 6  98106451.601 6       262.707          39.000
E33  25602889.594 7 134544088.092 7     -1773.938          43.000    25602886.758 6 103092235.551 6     -1359.353          38.000
> 2020 05 04 01 31  0.0000000  0 13        .000000000000
G06  21913176.344 8 115154518.618 8     -2298.875          51.000    21913176.961 8  89730773.564 8     -1791.331          51.000
G07  21007665.742 8 110396018.290 8      1144.645          51.000    21007664.336 8  86022851.135 8       891.931          51.000
G09  20912164.961 8 109894165.669 8     -1545.855          49.000    20912166.250 8  85631819.434 8     -1204.563          49.000
G30  22288611.461 8 117127498.319 8      3034.254          50.000    22288611.664 8  91268160.942 8      2364.357          50.000
R03  20888045.656 5 111815314.817 5     -2045.941          33.000    20888034.883 4  86967454.841 4     -1591.282          27.000
R14  20635796.320 8 110000496.773 8      3006.363          51.000    20635800.555 8  85555928.517 8      2338.286          51.000
R19  22564560.703 4 120705190.285 4     -3692.527          29.000    22564561.883 6  93881827.885 6     -2871.963          41.000
C05  39772694.781 6 207106857.572 6       -15.270          37.000    39772692.531 6 160148141.002 6       -11.668          40.000
C22  22388050.023 8 116580443.860 8     -1172.094          51.000
E07  24727787.969 5 129945411.185 5     -1518.711          35.000    24727789.703 6  99568653.915 6     -1163.433          39.000
E27  25861943.406 7 135905436.532 7      2683.578          47.000    25861948.297 7 104135351.919 7      2056.248          47.000
E30                                                                  24362713.898 6  98098559.810 6       259.116          39.000
E33  25613005.328 7 134597244.200 7     -1775.441          44.000    25612999.641 6 103132965.498 6     -1360.280          40.000
> 2020 05 04 01 31 30.0000000  0 15        .000000000000
G02  22383155.922 6 117624263.493 6       -53.242          37.000
G06  21926339.188 8 115223688.328 8     -2315.707          51.000    21926339.414 8  89784672.017 8     -1804.447          51.000
G07  21001172.539 8 110361896.662 8      1126.863          51.000    21001171.031 8  85996262.879 8       878.075          51.000
G09  20921010.180 8 109940647.004 8     -1556.238          50.000    20921011.305 8  85668038.654 8     -1212.653          50.000
G30  22271313.164 8 117036596.957 8      3022.660          50.000    22271313.281 8  91197328.722 8      2355.323          50.000
R03  20899529.414 5 111876806.856 5     -2057.363          33.000    20899527.406 5  87015275.048 5     -1600.174          32.000
R14  20618928.055 8 109910575.276 8      2985.152          51.000    20618931.688 8  85485989.621 8      2321.785          50.000
R19  22585294.734 5 120816110.044 5     -3705.254          31.000    22585298.273 7  93968098.779 7     -2881.867          42.000
C05  39772776.484 6 207107283.177 6       -16.668          37.000    39772774.312 6 160148470.104 6       -12.587          40.000
C19  25868864.766 5 134705962.311 5     -2731.488          31.000
C22  22394824.117 8 116615717.668 8     -1182.668          51.000
E07  24736461.898 6 129990996.031 6     -1523.812          36.000    24736463.250 6  99603582.514 6     -1167.638          39.000
E27  25846637.852 7 135825007.105 7      2675.098          45.000    25846642.766 6 104073724.163 6      2049.717          41.000
E30                                                                  24360819.133 6  98090935.806 6       246.560          37.000
E33  25623170.273 7 134650658.705 7     -1788.836          43.000    25623163.227 6 103173893.451 6     -1370.601          40.000
> 2020 05 04 01 32  0.0000000  0 17        .000000000000
G02  22383517.695 5 117626164.810 5       -72.105          35.000
G06  21939610.180 8 115293427.395 8     -2332.332          51.000    21939610.398 8  89839014.130 8     -1817.402          51.000
G07  20994792.977 8 110328372.012 8      1109.320          51.000    20994791.086 8  85970139.765 8       864.402          51.000
G09  20929928.180 8 109987510.916 8     -1566.734          50.000    20929929.086 8  85704555.966 8     -1220.832          50.000
G30  22254094.039 8 116946114.258 8      3010.977          49.000    22254095.055 8  91126822.720 8      2346.216          49.000
R03  20911085.570 5 111938695.859 5     -2066.574          30.000    20911088.820 5  87063410.901 5     -1607.339          30.000
R14  20602192.672 8 109821362.950 8      2963.691          51.000    20602195.445 8  85416602.244 8      2305.090          50.000
R19  22606114.492 5 120927479.665 5     -3717.434          33.000    22606118.797 7  94054719.568 7     -2891.337          42.000
C05  39772879.516 6 207107820.062 6       -18.031          37.000    39772877.453 6 160148885.277 6       -13.916          40.000
C12                                                                  25939692.500 5 104448394.290 5     -2168.829          32.000
C19  25884617.297 4 134787994.348 4     -2736.363          29.000
C21  22412657.234 5 116708540.080 5      1512.898          31.000
C22  22401671.789 8 116651373.980 8     -1193.156          51.000
E07  24745180.938 6 130036812.232 6     -1529.156          39.000    24745183.648 6  99638688.486 6     -1171.655          40.000
E27  25831391.617 7 135744898.642 7      2666.824          45.000    25831392.305 6 104012342.514 6      2043.288          39.000
E30                                                                  24359032.109 6  98083742.891 6       233.743          38.000
E33  25633424.789 7 134704542.758 7     -1802.188          42.000    25633417.312 7 103215181.202 7     -1380.807          42.000
> 2020 05 04 01 32 30.0000000  0 16        .000000000000
G06  21952968.898 8 115363629.414 8     -2344.012          49.000    21952969.633 8  89893717.013 8     -1826.500          49.000
G07  20988507.484 8 110295340.758 8      1096.602          51.000    20988505.531 8  85944401.117 8       854.495          51.000
G09  20938898.992 8 110034652.533 8     -1572.164          50.000    20938899.422 8  85741289.685 8     -1225.063          50.000
G30  22236935.164 8 116855948.369 8      3004.035          48.000    22236937.453 8  91056563.562 8      2340.807          48.000
R03  20922702.891 6 112000876.335 6     -2073.586          36.000    20922704.641 5  87111773.441 5     -1612.789          35.000
R14  20585570.492 8 109732757.808 8      2947.137          51.000    20585573.164 8  85347687.136 8      2292.217          49.000
R19  22626998.281 5 121039188.818 5     -3725.371          34.000    22627002.250 7  94141604.464 7     -2897.511          42.000
C05  39772984.289 6 207108365.329 6       -14.312          37.000    39772982.180 6 160149306.917 6       -11.282          40.000
C12                                                                  25955865.383 5 104513509.702 5     -2169.378          32.000
C19  25900384.516 4 134870088.797 4     -2735.949          29.000
C21  22403965.523 5 116663270.515 5      1508.730          34.000
C22  22408573.016 8 116687309.959 8     -1198.840          51.000
E07  24753924.469 6 130082756.050 6     -1529.656          36.000    24753927.844 6  99673892.200 6     -1172.347          39.000
E27  25816187.727 7 135665009.127 7      2663.043          47.000    25816188.906 7 103951128.523 7      2040.606          46.000
E30                                                                  24357334.320 6  98076901.757 6       225.033          38.000
E33  25643748.438 6 134758790.843 6     -1810.555          40.000    25643741.039 7 103256747.909 7     -1387.287          42.000
> 2020 05 04 01 33  0.0000000  0 15        .000000000000
G04  23381106.117 5 122868514.328 5     -2861.555          32.000
G06  21966390.922 7 115434167.198 7     -2356.363          47.000    21966393.000 7  89948681.559 7     -1836.127          47.000
G07  20982292.227 8 110262678.975 8      1083.000          51.000    20982290.547 8  85918950.402 8       843.899          51.000
G09  20947898.648 8 110081946.276 8     -1578.598          48.000    20947898.797 8  85778141.925 8     -1230.076          48.000
G30  22219814.094 8 116765976.540 8      2996.152          50.000    22219816.672 8  90986455.632 8      2334.664          50.000
R03  20934349.164 5 112063220.648 5     -2080.078          35.000    20934353.484 5  87160263.385 5     -1617.839          35.000
R14  20569039.039 8 109644637.398 8      2929.621          51.000    20569041.695 8  85279149.042 8      2278.594          48.000
R19  22647920.430 5 121151105.465 5     -3733.570          35.000    22647923.344 6  94228650.734 6     -2903.891          40.000
C05  39773066.930 6 207108795.480 6       -11.738          36.000    39773064.836 6 160149639.541 6        -9.358          40.000
C21  22395289.164 5 116618098.037 5      1504.992          34.000
C22  22415504.086 8 116723402.189 8     -1205.281          51.000
E07  24762667.430 5 130128702.606 5     -1531.113          35.000    24762669.953 6  99709098.031 6     -1173.295          39.000
E27  25801003.328 8 135585215.868 8      2658.539          48.000    25801008.594 8 103889988.265 8      2037.089          50.000
E30  24355690.789 6 127990021.190 6       281.367          36.000    24355698.242 6  98070317.090 6       215.683          37.000
E33  25654114.508 5 134813281.769 5     -1819.816          32.000    25654109.273 7 103298496.831 7     -1394.297          42.000
> 2020 05 04 01 33 30.0000000  0 15        .000000000000
G02  22385187.562 6 117634980.707 6      -126.086          36.000
G06  21979916.094 8 115505243.616 8     -2377.480          49.000    21979918.930 8  90004065.794 8     -1852.582          49.000
G07  20976186.297 8 110230592.078 8      1060.598          51.000    20976184.594 8  85893947.650 8       826.443          51.000
G09  20956965.977 7 110129596.500 7     -1593.668          46.000    20956966.359 7  85815271.966 7     -1241.819          47.000
G30  22202769.953 8 116676406.085 8      2979.574          51.000    22202772.188 8  90916660.502 8      2321.746          51.000
R03  20946065.680 5 112125938.223 5     -2096.195          34.000    20946068.516 5  87209043.702 5     -1630.374          35.000
R14  20552638.930 8 109557213.543 8      2903.059          51.000    20552640.656 7  85211152.728 7      2257.934          46.000
R19  22668919.609 6 121263434.247 6     -3750.703          36.000    22668921.250 6  94316017.522 6     -2917.217          41.000
C05  39773166.406 6 207109313.987 6       -18.219          36.000    39773164.430 6 160150040.477 6       -13.916          40.000
C21  22386670.664 6 116573227.220 6      1491.164          36.000
C22  22422504.328 8 116759854.221 8     -1220.453          51.000
E07  24771450.461 6 130174857.028 6     -1541.172          37.000    24771451.625 6  99744463.204 6     -1180.982          41.000
E27  25785877.453 8 135505726.251 8      2645.234          48.000    25785885.172 8 103829080.631 8      2026.871          51.000
E30                                                                  24354165.227 6  98064146.505 6       199.170          38.000
E33                                                                  25664561.148 7 103340584.066 7     -1408.056          42.000
> 2020 05 04 01 34  0.0000000  0 14        .000000000000
G02  22385940.977 5 117638929.779 5      -140.273          34.000
G06  21993512.867 8 115576693.495 8     -2388.996          50.000    21993515.633 8  90059741.013 8     -1861.558          50.000
G07  20970158.852 8 110198918.470 8      1047.773          51.000    20970157.086 8  85869266.925 8       816.447          51.000
G09  20966070.070 7 110177439.701 7     -1599.137          47.000    20966070.695 7  85852552.378 7     -1246.078          47.000
G30  22185771.789 8 116587076.424 8      2972.387          51.000    22185773.422 8  90847053.022 8      2316.149          51.000
R14  20536339.312 8 109470324.947 8      2886.172          51.000    20536339.859 7  85143572.735 7      2244.803          45.000
R19  22689963.906 5 121376004.595 5     -3757.609          35.000    22689965.336 7  94403572.229 7     -2922.585          42.000
C05  39773251.844 6 207109758.600 6       -14.488          36.000    39773249.945 6 160150385.080 6       -11.403          40.000
C21  22378078.055 5 116528529.969 5      1487.621          30.000
C22  22429542.531 8 116796505.014 8     -1226.180          51.000
E07  24780242.336 5 130221056.711 5     -1541.730          35.000    24780243.352 7  99779863.041 7     -1181.488          42.000
E27  25770778.703 7 135426379.565 7      2641.348          47.000    25770787.508 8 103768282.564 8      2023.878          51.000
E30  24352701.211 5 127974302.907 5       248.438          35.000    24352707.445 6  98058265.588 6       190.218          38.000
E33                                                                  25675065.758 6 103382883.775 6     -1414.390          41.000
> 2020 05 04 01 34 30.0000000  0 14        .000000000000
G02  22386795.328 5 117643414.315 5      -158.383          34.000
G06  22007194.422 8 115648588.811 8     -2403.734          51.000    22007196.422 8  90115763.303 8     -1873.040          51.000
G07  20964224.094 8 110167732.801 8      1031.410          50.000    20964222.820 8  85844966.422 8       803.696          49.000
G09  20975225.086 7 110225549.525 7     -1607.820          46.000    20975225.664 7  85890040.556 7     -1252.844          46.000
G30  22168833.906 8 116498064.106 8      2961.891          51.000    22168834.875 8  90777692.826 8      2307.970          51.000
R03  20969634.562 4 112252095.019 4     -2112.152          28.000    20969630.102 5  87307166.131 5     -1642.785          33.000
R14  20520154.539 8 109384050.935 8      2865.590          51.000    20520154.531 7  85076470.742 7      2228.792          45.000
R19  22711065.672 5 121488888.046 5     -3767.871          35.000    22711068.648 7  94491370.476 7     -2930.566          42.000
C05  39773337.625 6 207110205.316 6       -14.891          37.000    39773335.711 6 160150730.486 6       -11.463          40.000
C22  22436632.930 8 116833428.567 8     -1235.266          51.000
E07  24789056.945 5 130267376.141 5     -1546.152          33.000    24789058.430 7  99815354.615 7     -1184.433          43.000
E27  25755722.219 8 135347252.450 8      2634.008          50.000    25755730.094 8 103707652.707 8      2018.287          51.000
E30                                                                  24351335.781 5  98052731.666 5       178.943          32.000
E33                                                                  25685637.430 6 103425451.855 6     -1423.306          41.000
> 2020 05 04 01 35  0.0000000  0 15        .000000000000
G06  22020975.648 8 115721008.655 8     -2418.871          51.000    22020976.891 8  90172194.338 8     -1884.835          51.000
G07  20958397.875 8 110137117.488 8      1014.711          49.000    20958397.242 8  85821110.326 8       790.684          49.000
G09  20984446.250 7 110274006.761 7     -1617.172          45.000    20984447.109 7  85927799.442 7     -1260.134          45.000
G30  22151971.828 8 116409452.859 8      2950.832          49.000    22151972.445 8  90708645.139 8      2299.350          49.000
R03  20981502.891 5 112315669.243 5     -2121.895          31.000    20981509.352 5  87356612.825 5     -1650.362          34.000
R04  19696562.312 5 105474158.644 5       840.270          30.000    19696557.719 5  82035443.686 5       653.543          32.000
R13  20637682.266 5 110204071.049 5     -1356.918          31.000
R14  20504100.922 8 109298478.300 8      2844.543          51.000    20504101.297 7  85009914.209 7      2212.422          47.000
R19  22732240.484 6 121602162.368 6     -3778.312          37.000    22732244.992 6  94579472.727 6     -2938.688          41.000
C05  39773439.164 6 207110733.990 6       -15.086          37.000    39773437.227 6 160151139.298 6       -11.801          40.000
C22  22443791.594 8 116870705.920 8     -1244.652          51.000
E07  24797906.906 6 130313876.136 6     -1550.180          36.000    24797911.602 7  99851000.421 7     -1187.704          44.000
E27  25740723.773 8 135268428.568 8      2626.133          50.000    25740729.336 8 103647255.160 8      2012.247          51.000
E30  24350053.367 6 127960392.035 6       217.680          37.000    24350061.297 5  98047604.436 5       166.578          33.000
E33  25696291.258 5 135034914.948 5     -1869.332          34.000    25696291.789 6 103468349.645 6     -1432.537          41.000
> 2020 05 04 01 35 30.0000000  0 16        .000000000000
G02  22388817.461 6 117653974.622 6      -191.273          37.000    22388815.531 5  91678457.835 5      -149.026          32.000
G04  23463071.391 4 123299272.259 4     -2874.809          28.000
G06  22034815.453 8 115793737.499 8     -2430.422          51.000    22034817.039 8  90228866.154 8     -1893.835          51.000
G07  20952639.648 8 110106859.309 8      1001.664          50.000    20952639.258 8  85797532.522 8       780.517          49.000
G09  20993692.789 7 110322597.462 7     -1623.035          45.000    20993694.047 7  85965662.345 7     -1264.703          45.000
G30  22135144.961 7 116321031.707 7      2943.145          47.000    22135146.055 7  90639745.546 7      2293.359          46.000
R03  20993408.844 6 112379392.734 6     -2128.094          37.000    20993415.758 5  87406175.465 5     -1655.184          31.000
R14  20488138.828 8 109213394.401 8      2826.883          51.000    20488140.914 8  84943737.860 8      2198.687          49.000
R19  22753447.719 6 121715606.736 6     -3785.418          39.000    22753452.492 6  94667707.213 6     -2944.214          40.000
C05  39773515.969 6 207111133.645 6       -12.129          36.000    39773513.984 6 160151448.337 6        -9.463          40.000
C21  22352559.742 4 116395644.206 4      1468.527          29.000
C22  22450977.750 8 116908126.198 8     -1250.770          51.000
E07  24806762.797 7 130360385.191 7     -1551.086          42.000    24806761.648 7  99886637.272 7     -1188.530          44.000
E27  25725742.617 8 135189696.980 8      2621.859          49.000    25725746.102 8 103586928.301 8      2008.942          51.000
E30  24348840.391 5 127954026.727 5       205.602          34.000    24348854.195 5  98042733.152 5       157.736          33.000
E33  25706986.133 6 135091119.913 6     -1877.555          36.000    25706987.930 7 103511412.716 7     -1438.894          42.000
> 2020 05 04 01 36  0.0000000  0 16        .000000000000
G02  22389984.609 5 117660087.801 5      -212.914          35.000    22389978.961 5  91683221.364 5      -165.913          30.000
G06  22048752.461 8 115866977.803 8     -2448.875          51.000    22048755.172 8  90285936.505 8     -1908.214          51.000
G07  20946989.023 8 110077164.748 8       981.441          51.000    20946988.289 8  85774393.895 8       764.760          51.000
G09  21003003.523 7 110371525.832 7     -1635.598          45.000    21003005.008 7  86003788.358 7     -1274.495          45.000
G30  22118393.383 7 116233007.620 7      2928.371          47.000    22118395.609 8  90571155.328 8      2281.848          48.000
R03  21005380.250 6 112443474.369 6     -2140.996          38.000
R04  19687247.547 5 105424341.154 5       817.633          30.000    19687255.617 5  81996725.771 5       635.934          32.000
R13  20653215.391 4 110287007.978 4     -1411.766          28.000    20653216.898 5  85778790.807 5     -1098.037          30.000
R14  20472308.266 8 109129010.726 8      2802.102          50.000    20472311.633 8  84878106.125 8      2179.415          50.000
R19  22774725.422 6 121829424.529 6     -3799.246          39.000    22774729.414 6  94756232.108 6     -2954.969          40.000
C05  39773606.969 6 207111607.437 6       -16.391          36.000    39773604.906 6 160151814.685 6       -12.260          40.000
C22  22458230.367 8 116945892.634 8     -1263.703          51.000
E07  24815653.570 7 130407087.440 7     -1559.000          42.000    24815647.969 7  99922422.178 7     -1194.582          44.000
E27  25710817.414 8 135111264.716 8      2610.531          48.000    25710820.344 8 103526830.766 8      2000.202          51.000
E30  24347728.156 5 127948173.660 5       186.906          35.000
E33  25717766.258 6 135147739.887 6     -1893.402          37.000    25717764.156 7 103554796.931 7     -1450.723          43.000
> 2020 05 04 01 36 30.0000000  0 16        .000000000000
G02  22391254.867 5 117666760.573 5      -230.621          34.000
G06  22062777.188 8 115940678.647 8     -2462.824          51.000    22062780.898 8  90343365.744 8     -1919.084          51.000
G07  20941436.852 8 110047985.779 8       965.617          51.000    20941435.750 8  85751657.006 8       752.426          51.000
G09  21012369.203 7 110420742.634 7     -1643.734          46.000    21012370.508 7  86042139.115 7     -1280.829          46.000
G30  22101709.547 8 116145334.181 8      2918.148          49.000    22101712.391 8  90502838.365 8      2273.882          49.000
R03  21017409.836 6 112507864.588 6     -2150.070          37.000    21017409.711 4  87506094.809 4     -1672.277          26.000
R04  19682701.758 5 105399993.214 5       807.211          30.000    19682708.352 5  81977788.441 5       627.831          31.000
R13  20661213.398 5 110329746.594 5     -1436.652          30.000    20661215.359 5  85812037.597 5     -1117.396          31.000
R14  20456600.500 8 109045281.857 8      2781.590          51.000    20456604.758 8  84812983.673 8      2163.459          49.000
R19  22796062.719 5 121943561.968 5     -3808.402          35.000    22796066.062 6  94845005.656 6     -2962.094          40.000
C05  39773702.930 6 207112107.500 6       -15.574          36.000    39773700.914 6 160152201.375 6       -11.992          40.000
C22  22465540.523 8 116983957.457 8     -1272.246          51.000
E07  24824566.000 5 130453934.552 5     -1561.922          34.000    24824562.602 7  99958318.038 7     -1197.165          45.000
E27  25695940.453 8 135033085.369 8      2603.348          50.000    25695943.453 8 103466927.037 8      1994.734          51.000
E30  24346708.312 6 127942815.022 6       172.340          38.000    24346716.867 5  98034123.019 5       132.124          32.000
E33  25728614.008 6 135204777.162 6     -1904.367          36.000    25728610.719 7 103598463.976 7     -1459.128          45.000
> 2020 05 04 01 37  0.0000000  0 17        .000000000000
G02  22392610.242 5 117673973.168 5      -253.078          32.000
G04  23512434.516 4 123558676.380 4     -2891.902          29.000
G06  22076876.469 8 116014771.008 8     -2482.430          51.000    22076880.672 8  90401100.074 8     -1934.361          51.000
G07  20935969.977 8 110019255.641 8       943.949          51.000    20935968.617 8  85729269.913 8       735.545          51.000
G09  21021777.133 7 110470180.537 7     -1657.699          46.000    21021778.188 7  86080662.162 7     -1291.714          46.000
G30  22085080.719 8 116057946.988 8      2901.887          50.000    22085083.703 8  90434744.468 8      2261.210          50.000
R03  21029483.336 6 112572495.872 6     -2164.637          37.000    21029484.914 5  87556363.503 5     -1683.603          32.000
R04  19678206.820 5 105375934.645 5       790.961          30.000    19678215.664 5  81959076.286 5       615.195          30.000
R13  20669355.547 5 110373214.997 5     -1467.496          30.000    20669355.312 5  85845832.461 5     -1141.386          32.000
R14  20441003.984 8 108962144.199 8      2755.078          51.000    20441008.781 8  84748321.030 8      2142.839          49.000
R19  22817444.586 5 122057947.135 5     -3823.051          34.000    22817449.039 6  94933971.899 6     -2973.484          40.000
C05  39773791.352 6 207112568.625 6       -20.980          37.000    39773789.422 6 160152557.573 6       -16.317          40.000
C22  22472895.453 8 117022254.978 8     -1286.625          51.000
E07  24833490.203 6 130500880.157 6     -1571.664          38.000    24833492.836 7  99994273.899 7     -1204.238          46.000
E27  25681100.070 8 134955094.487 8      2590.387          51.000    25681102.969 8 103407167.759 8      1984.800          51.000
E30  24345767.039 5 127937868.584 5       151.910          31.000    24345781.484 5  98030371.804 5       116.339          30.000
E33  25739520.281 5 135262067.394 5     -1920.777          34.000    25739513.062 7 103642361.692 7     -1471.908          44.000
> 2020 05 04 01 37 30.0000000  0 15        .000000000000
G06  22091070.945 8 116089363.173 8     -2493.609          51.000    22091075.266 8  90459223.829 8     -1943.072          51.000
G07  20930609.852 8 109991086.208 8       930.758          51.000    20930608.070 8  85707319.704 8       725.266          51.000
G09  21031248.047 7 110519949.575 7     -1663.359          46.000    21031249.047 7  86119443.235 7     -1296.124          46.000
G30  22068527.953 8 115970958.903 8      2893.891          50.000    22068530.734 8  90366961.559 8      2254.980          50.000
R03  21041623.961 6 112637481.041 6     -2170.941          36.000    21041625.930 5  87606907.525 5     -1688.510          33.000
R04  19673786.352 4 105352279.888 4       782.730          28.000    19673794.164 4  81940678.108 4       608.781          27.000
R13  20677648.867 4 110417517.395 4     -1490.590          29.000    20677653.016 5  85880287.274 5     -1159.348          32.000
R14  20425540.281 8 108879713.673 8      2736.973          51.000    20425545.195 8  84684208.419 8      2128.760          49.000
R19  22838892.953 6 122172687.768 6     -3829.492          36.000    22838897.594 6  95023214.598 6     -2978.494          37.000
C05  39773893.312 6 207113099.069 6       -17.918          37.000    39773891.383 6 160152968.123 6       -13.659          40.000
C22  22480316.227 8 117060895.118 8     -1292.625          51.000
E07  24842455.641 6 130547994.768 6     -1573.012          38.000    24842458.852 7 100030374.687 7     -1205.055          46.000
E27  25666316.664 8 134877404.925 8      2585.656          51.000    25666319.930 8 103347639.407 8      1981.271          51.000
E30                                                                  24344960.188 5  98026984.281 5       107.192          34.000
E33  25750501.141 6 135319768.020 6     -1928.973          40.000    25750492.547 7 103686573.791 7     -1478.146          45.000
> 2020 05 04 01 38  0.0000000  0 14        .000000000000
G06  22105335.844 8 116164324.745 8     -2505.215          51.000    22105338.961 8  90517635.411 8     -1952.115          51.000
G07  20925332.125 8 109963350.102 8       917.062          51.000    20925330.141 8  85685707.156 8       714.594          51.000
G09  21040757.328 7 110569921.082 7     -1669.430          46.000    21040758.555 7  86158382.068 7     -1300.857          46.000
G30  22052026.977 8 115884244.092 8      2885.625          50.000    22052029.305 8  90299391.586 8      2248.539          49.000
R03  21053804.500 5 112702689.674 5     -2177.402          31.000    21053806.898 5  87657625.302 5     -1693.541          34.000
R13  20686085.438 5 110462562.683 5     -1513.305          32.000    20686090.211 5  85915328.579 5     -1177.015          33.000
R14  20410185.742 8 108797864.168 8      2718.305          51.000    20410190.047 8  84620547.699 8      2114.237          50.000
R19  22860383.758 6 122287649.260 6     -3835.922          37.000    22860385.852 5  95112629.046 5     -2983.498          34.000
C05  39773984.461 6 207113573.835 6       -15.227          37.000    39773982.562 6 160153335.244 6       -11.708          40.000
C22  22487778.398 8 117099751.415 8     -1299.086          51.000
E07  24851433.477 6 130595170.697 6     -1573.875          36.000    24851435.258 7 100066522.458 7     -1205.818          45.000
E27  25651565.984 8 134799890.889 8      2580.656          51.000    25651569.992 8 103288245.580 8      1977.386          51.000
E30  24344160.844 5 127929484.172 5       127.707          35.000    24344198.695 4  98023999.486 4        97.973          28.000
E33  25761535.844 7 135377749.518 7     -1937.684          42.000    25761525.922 7 103731001.074 7     -1484.635          46.000
> 2020 05 04 01 38 30.0000000  0 16        .000000000000
G06  22119679.242 8 116239699.128 8     -2519.172          49.000    22119680.602 8  90576368.652 8     -1962.991          49.000
G07  20920145.258 8 109936093.211 8       900.691          51.000    20920143.422 8  85664468.048 8       701.837          51.000
G09  21050313.531 7 110620140.200 7     -1677.816          44.000    21050314.852 7  86197513.850 7     -1307.389          44.000
G30  22035586.578 8 115797850.573 8      2874.672          48.000    22035588.062 8  90232071.971 8      2240.004          48.000
R03  21066038.609 5 112768168.376 5     -2186.586          32.000    21066040.312 5  87708553.275 5     -1700.672          34.000
R04  19665117.000 5 105305795.381 5       763.113          32.000
R13  20694665.398 4 110508366.745 4     -1539.441          29.000    20694668.227 5  85950953.941 5     -1197.343          33.000
R14  20394949.250 8 108716646.091 8      2696.867          51.000    20394953.188 8  84557378.089 8      2097.563          49.000
R19  22881924.188 6 122402873.686 6     -3845.297          37.000    22881924.492 5  95202248.010 5     -2990.786          35.000
C05  39774073.461 6 207114037.958 6       -15.066          36.000    39774071.773 6 160153694.165 6       -11.892          41.000
C21  22302705.859 5 116136099.312 5      1420.629          30.000
C22  22495290.625 8 117138869.573 8     -1308.125          51.000
E07  24860429.656 5 130642439.987 5     -1578.230          31.000    24860431.922 7 100102752.467 7     -1208.937          45.000
E27  25636857.906 8 134722600.461 8      2572.680          51.000    25636861.797 8 103229023.107 8      1971.274          50.000
E30                                                                  24343480.867 5  98021106.225 5        85.980          33.000
E33  25772631.781 6 135436056.233 6     -1948.820          41.000    25772622.016 7 103775677.601 7     -1493.285          47.000
> 2020 05 04 01 39  0.0000000  0 16        .000000000000
G06  22134099.055 8 116315476.557 8     -2532.227          48.000    22134100.086 8  90635415.966 8     -1973.164          49.000
G07  20915048.406 8 109909309.237 8       885.203          51.000    20915046.469 8  85643597.423 8       689.769          51.000
G09  21059915.414 7 110670598.989 7     -1685.371          44.000    21059916.781 7  86236832.367 7     -1313.276          43.000
G30  22019205.867 8 115711773.243 8      2864.156          48.000    22019206.008 8  90164998.711 8      2231.810          48.000
R03  21078329.273 5 112833929.494 5     -2195.762          32.000    21078324.547 5  87759700.008 5     -1707.812          35.000
R04  19660872.227 5 105283054.552 5       753.152          35.000
R13  20703384.258 4 110554900.620 4     -1563.699          28.000    20703386.086 5  85987162.000 5     -1216.211          32.000
R14  20379830.203 8 108636055.406 8      2676.156          51.000    20379834.531 8  84494696.478 8      2081.458          50.000
R19  22903511.773 6 122518349.036 6     -3852.832          38.000    22903512.664 5  95292062.200 5     -2996.644          35.000
C05  39774159.328 6 207114484.585 6       -14.223          36.000    39774157.516 6 160154039.509 6       -11.119          40.000
C21  22294537.844 5 116093572.045 5      1413.641          30.000
C22  22502851.742 8 117178242.633 8     -1316.398          51.000
E07  24869446.289 5 130689820.360 5     -1580.730          34.000    24869448.961 7 100139059.190 7     -1211.311          46.000
E27  25622191.484 8 134645528.474 8      2565.602          51.000    25622193.648 7 103169968.023 7      1965.913          47.000
E30                                                                  24342889.336 5  98018695.600 5        74.935          35.000
E33  25783787.148 6 135494679.309 6     -1959.203          40.000    25783778.375 8 103820596.586 8     -1501.100          48.000
> 2020 05 04 01 39 30.0000000  0 16        .000000000000
G02  22400957.289 6 117717786.441 6      -334.098          37.000
G06  22148592.969 7 116391644.658 7     -2544.973          47.000    22148594.461 7  90694767.715 7     -1983.096          47.000
G07  20910039.688 8 109882988.786 8       869.961          51.000    20910037.766 8  85623087.995 8       677.892          51.000
G09  21069560.922 7 110721286.803 7     -1693.012          43.000    21069562.766 7  86276329.383 7     -1319.230          43.000
G30  22002884.312 8 115626004.198 8      2853.965          50.000    22002883.352 8  90098165.721 8      2223.869          50.000
R03  21090651.812 5 112899924.186 5     -2203.965          31.000    21090652.984 5  87811029.377 5     -1714.189          34.000
R04  19656685.375 6 105260621.722 6       742.992          36.000    19656680.242 4  81869388.376 4       577.886          25.000
R13  20712239.641 5 110602209.801 5     -1589.414          30.000    20712245.453 5  86023954.939 5     -1236.211          32.000
R14  20364828.219 8 108556085.955 8      2655.566          51.000    20364832.531 8  84432498.028 8      2065.441          50.000
R19  22925143.680 6 122634060.724 6     -3860.793          38.000    22925145.539 6  95382060.189 6     -3002.839          36.000
C05                                                                  39774238.047 6 160154363.850 6       -10.231          40.000
C22  22510459.992 8 117217861.092 8     -1324.383          51.000
E07  24878481.336 5 130737300.028 5     -1583.492          33.000    24878483.656 7 100175435.172 7     -1213.514          45.000
E27  25607565.484 8 134568667.301 8      2558.723          51.000    25607564.867 7 103111074.423 7      1960.586          47.000
E30                                                                  24342374.078 5  98016611.693 5        64.163          35.000
E33  25794997.914 6 135553607.535 6     -1969.043          39.000    25794992.930 8 103865749.337 8     -1508.762          48.000
> 2020 05 04 01 40  0.0000000  0 15        .000000000000
G02  22402939.477 5 117728243.305 5      -357.328          30.000
G06  22163178.781 8 116468295.028 8     -2564.926          48.000    22163180.062 8  90754495.252 8     -1998.643          48.000
G07  20905137.055 8 109857226.488 8       847.242          51.000    20905135.344 8  85603013.499 8       660.189          51.000
G09  21079267.859 7 110772297.071 7     -1707.926          43.000    21079269.477 7  86316077.659 7     -1330.851          43.000
G30  21986640.203 8 115540639.634 8      2836.859          51.000    21986639.414 8  90031647.898 8      2210.543          51.000
R04  19652572.977 6 105238593.818 6       725.527          36.000    19652572.125 4  81852255.090 4       564.299          29.000
R13  20721255.891 4 110650348.436 4     -1620.992          29.000    20721259.148 5  86061399.198 5     -1260.772          32.000
R14  20349961.727 8 108476836.679 8      2627.531          51.000    20349965.711 8  84370859.703 8      2043.635          50.000
R19  22946837.297 6 122750100.081 6     -3875.395          37.000    22946838.898 6  95472313.008 6     -3014.196          36.000
C05  39774333.242 6 207115388.716 6       -19.250          37.000    39774331.352 6 160154739.388 6       -14.888          41.000
C22  22518133.398 8 117257818.415 8     -1339.578          51.000
E07                                                                  24887552.141 7 100211952.576 7     -1221.047          45.000
E27  25592997.633 8 134492113.045 8      2544.668          51.000    25592995.688 8 103052415.977 8      1949.858          49.000
E30  24341949.047 5 127917790.415 5        62.422          34.000    24341953.062 5  98014926.708 5        48.000          34.000
E33  25806283.000 6 135612933.254 6     -1986.152          39.000    25806282.305 8 103911206.736 8     -1521.842          48.000
> 2020 05 04 01 40 30.0000000  0 15        .000000000000
G06  22177843.250 8 116545357.298 8     -2574.863          50.000    22177843.961 8  90814543.754 8     -2006.387          50.000
G07  20900327.797 8 109831954.835 8       834.801          51.000    20900326.250 8  85583321.300 8       650.494          51.000
G09  21089023.289 7 110823561.273 7     -1712.535          43.000    21089024.039 7  86356023.789 7     -1334.443          43.000
G30  21970460.742 8 115455613.824 8      2829.168          51.000    21970460.898 8  89965394.025 8      2204.546          51.000
R04  19648522.641 6 105216903.352 6       718.156          36.000    19648523.531 5  81835384.685 5       558.566          31.000
R13  20730415.109 5 110699258.685 5     -1642.391          30.000    20730418.961 5  86099439.761 5     -1277.412          32.000
R14  20335218.062 8 108398242.371 8      2609.469          51.000    20335221.789 8  84309730.820 8      2029.587          49.000
R19  22968577.484 5 122866393.486 5     -3879.980          33.000    22968578.734 6  95562763.396 6     -3017.766          36.000
C05  39774426.359 6 207115873.574 6       -15.660          36.000    39774424.562 6 160155114.332 6       -12.097          40.000
C21  22270317.039 5 115967344.421 5      1390.910          30.000
C22  22525858.812 8 117298047.648 8     -1344.906          51.000
E07  24896673.555 5 130832902.397 5     -1594.223          31.000    24896643.188 7 100248559.538 7     -1221.287          45.000
E27  25578475.625 8 134415800.036 8      2540.391          51.000    25578473.602 8 102993942.396 8      1946.536          49.000
E30                                                                  24341614.516 5  98013588.926 5        38.922          34.000
E33  25817630.328 6 135672587.288 6     -1993.160          41.000    25817633.266 7 103956915.665 7     -1527.334          47.000
> 2020 05 04 01 41  0.0000000  0 15        .000000000000
G06  22192578.297 8 116622789.009 8     -2587.793          51.000    22192578.586 8  90874880.136 8     -2016.465          51.000
G07  20895604.438 8 109807134.235 8       819.219          51.000    20895603.125 8  85563980.562 8       638.352          51.000
G09  21098819.289 7 110875038.698 7     -1720.152          44.000    21098819.352 7  86396136.062 7     -1340.378          45.000
G30  21954338.422 8 115370888.881 8      2818.488          50.000    21954339.555 8  89899374.581 8      2196.225          51.000
R03  21127978.211 5 113099725.358 5     -2233.062          35.000    21127986.102 4  87966468.787 4     -1736.826          29.000
R04  19644528.641 6 105195510.716 6       707.621          36.000    19644529.258 5  81818745.983 5       550.372          31.000
R13  20739710.367 5 110748894.478 5     -1666.504          32.000    20739712.773 5  86138043.050 5     -1296.170          32.000
R14  20320590.023 8 108320266.103 8      2588.195          50.000    20320593.562 7  84249082.628 7      2013.038          47.000
R19  22990354.906 5 122982895.902 5     -3887.312          32.000    22990356.227 6  95653376.355 6     -3023.465          37.000
C05  39774511.758 6 207116319.283 6       -14.504          36.000    39774509.977 6 160155458.181 6       -11.264          40.000
C22  22533628.836 8 117338509.452 8     -1353.191          51.000
E07                                                                  24905749.867 7 100285225.471 7     -1223.648          45.000
E27  25563992.148 8 134339690.390 8      2533.066          50.000    25563990.117 8 102935624.625 8      1940.912          48.000
E30  24341360.258 6 127914697.980 6        37.422          36.000    24341359.820 5  98012567.988 5        28.189          35.000
E33  25829034.648 6 135732528.026 6     -2003.164          41.000    25829038.508 7 104002844.271 7     -1534.973          47.000
> 2020 05 04 01 41 30.0000000  0 16        .000000000000
G02  22409440.516 5 117762386.589 5      -405.285          31.000
G06  22207391.422 8 116700630.189 8     -2600.102          51.000    22207391.883 8  90935535.592 8     -2026.053          51.000
G07  20890975.117 8 109782807.585 8       803.965          51.000    20890974.125 8  85545024.745 8       626.466          51.000
G09  21108663.812 7 110926771.235 7     -1727.332          43.000    21108663.648 7  86436447.100 7     -1345.976          42.000
G30  21938281.422 8 115286509.390 8      2808.379          49.000    21938283.078 8  89833624.330 8      2188.347          49.000
R03  21140515.609 5 113166874.900 5     -2241.348          30.000    21140520.734 4  88018664.365 4     -1743.270          25.000
R04  19640597.570 5 105174460.743 5       697.570          35.000    19640597.664 4  81802373.751 4       542.555          28.000
R13  20749148.688 4 110799292.089 4     -1691.465          29.000    20749152.203 5  86177241.149 5     -1315.584          34.000
R14  20306086.578 8 108242954.692 8      2567.254          51.000    20306090.195 8  84188951.529 8      1996.750          48.000
R19  23012179.273 5 123099645.962 5     -3894.590          34.000    23012179.859 6  95744181.925 6     -3029.125          37.000
C05  39774597.555 6 207116766.169 6       -13.469          36.000    39774595.727 6 160155803.767 6       -10.563          41.000
C22  22541452.219 8 117379246.212 8     -1361.117          51.000
E07                                                                  24914878.570 7 100321983.100 7     -1225.702          45.000
E27  25549555.734 8 134263828.829 8      2525.965          48.000    25549553.711 8 102877496.935 8      1935.441          49.000
E30  24341199.984 5 127913821.973 5        22.938          32.000    24341195.148 5  98011896.716 5        17.641          34.000
E33  25840502.789 7 135792796.494 7     -2013.051          43.000    25840505.891 7 104049024.025 7     -1542.444          47.000
> 2020 05 04 01 42  0.0000000  0 14        .000000000000
G02  22411808.164 5 117774825.117 5      -423.109          35.000    22411795.430 5  91772554.798 5      -329.696          32.000
G06  22222278.578 8 116778860.560 8     -2614.113          51.000    22222279.469 8  90996494.318 8     -2036.968          51.000
G07  20886436.562 8 109758957.743 8       787.055          51.000    20886435.680 8  85526440.435 8       613.286          51.000
G09  21118553.414 7 110978740.467 7     -1736.227          44.000    21118552.859 7  86476942.573 7     -1352.904          44.000
G30  21922286.797 8 115202459.752 8      2795.996          48.000    21922289.000 8  89768131.094 8      2178.698          48.000
R04  19636727.062 5 105153736.752 5       685.102          34.000
R14  20291704.859 8 108166293.525 8      2544.430          51.000    20291708.773 8  84129326.167 8      1978.998          49.000
R19  23034047.414 5 123216621.172 5     -3902.809          35.000    23034047.328 6  95835162.601 6     -3035.518          38.000
C05  39774680.453 6 207117197.800 6       -14.027          37.000    39774678.633 6 160156137.541 6       -11.004          40.000
C22  22549324.906 8 117420240.614 8     -1370.805          51.000
E07                                                                  24924026.320 7 100358818.966 7     -1229.216          44.000
E27  25535163.117 7 134188199.726 7      2517.016          47.000    25535162.195 8 102819547.387 8      1928.604          48.000
E30                                                                  24341110.234 5  98011561.650 5         4.989          33.000
E33  25852030.453 7 135853373.415 7     -2024.547          43.000    25852032.500 7 104095440.092 7     -1551.109          46.000
> 2020 05 04 01 42 30.0000000  0 17        .000000000000
G02  22414278.516 6 117787800.849 6      -440.590          36.000
G04  23694527.414 5 124515581.941 5     -2910.602          31.000
G06  22237243.805 8 116857502.590 8     -2627.449          51.000    22237245.305 8  91057773.829 8     -2047.363          51.000
G07  20881993.695 8 109735609.833 8       770.754          51.000    20881992.664 8  85508247.270 8       600.587          51.000
G09  21128492.570 7 111030970.731 7     -1744.555          45.000    21128492.336 7  86517641.466 7     -1359.393          45.000
G30  21906360.109 8 115118767.026 8      2784.621          49.000    21906362.820 8  89702915.960 8      2169.832          48.000
R03  21165765.008 5 113301995.373 5     -2260.418          32.000    21165763.875 4  88123770.599 4     -1758.103          26.000
R04  19632922.609 5 105133365.470 5       673.992          34.000
R13  20768451.133 5 110902370.437 5     -1742.082          31.000    20768448.641 5  86257387.479 5     -1354.953          31.000
R14  20277451.047 8 108090311.408 8      2522.312          51.000    20277454.797 8  84070228.969 8      1961.796          49.000
R19  23055961.969 5 123333842.207 5     -3910.812          35.000    23055962.148 6  95926334.505 6     -3041.743          40.000
C05  39774765.195 6 207117639.255 6       -14.543          36.000    39774763.352 6 160156478.869 6       -10.998          41.000
C22  22557251.469 8 117461517.691 8     -1379.773          51.000
E07                                                                  24933199.320 7 100395752.297 7     -1232.206          44.000
E27  25520819.656 7 134112830.280 7      2508.688          46.000    25520820.156 8 102761796.751 8      1922.247          49.000
E30  24341116.039 6 127913404.439 6        -8.031          37.000    24341114.883 5  98011582.131 5        -6.025          35.000
E33  25863621.477 6 135914282.211 6     -2035.141          41.000    25863622.633 7 104142110.484 7     -1559.247          46.000
> 2020 05 04 01 43  0.0000000  0 14        .000000000000
G02  22416851.102 6 117801309.351 6      -459.137          37.000
G06  22252285.883 8 116936549.605 8     -2641.492          51.000    22252287.977 8  91119368.911 8     -2058.306          51.000
G07  20877645.578 8 109712760.518 8       753.379          51.000    20877644.508 8  85490442.627 8       587.048          51.000
G09  21138480.359 7 111083457.235 7     -1753.777          43.000    21138480.891 7  86558540.045 7     -1366.580          43.000
G30  21890501.453 8 115035429.130 8      2771.938          49.000    21890504.125 8  89637977.332 8      2159.954          49.000
R04  19629183.516 6 105113344.262 6       661.730          36.000    19629179.070 4  81754835.747 4       514.679          25.000
R14  20263324.773 8 108015007.618 8      2498.906          51.000    20263327.945 8  84011659.346 8      1943.594          48.000
R19  23077920.398 5 123451300.640 5     -3919.141          34.000    23077921.492 6  96017691.105 6     -3048.217          40.000
C05  39774850.977 6 207118085.628 6       -15.070          36.000    39774849.289 6 160156824.817 6       -11.566          41.000
C22  22565231.867 8 117503073.615 8     -1389.754          51.000
E07                                                                  24942395.375 7 100432780.083 7     -1235.881          43.000
E27  25506524.219 7 134037718.480 7      2499.336          43.000    25506527.711 8 102704243.498 8      1915.159          50.000
E30                                                                  24341209.766 5  98011955.326 5       -18.177          35.000
E33  25875273.570 6 135975517.295 6     -2046.754          36.000    25875274.797 7 104189030.831 7     -1568.172          45.000
> 2020 05 04 01 43 30.0000000  0 15        .000000000000
G02  22419519.898 5 117815328.526 5      -477.043          33.000
G06  22267400.406 8 117015977.537 8     -2654.863          51.000    22267402.555 8  91181260.805 8     -2068.722          51.000
G07  20873388.430 8 109690388.521 8       736.734          51.000    20873387.219 8  85473009.902 8       574.079          51.000
G09  21148512.578 7 111136177.804 7     -1761.980          42.000    21148513.977 7  86599620.983 7     -1372.969          42.000
G30  21874707.016 8 114952426.563 8      2760.266          51.000    21874708.969 8  89573300.031 8      2150.856          51.000
R04  19625507.289 6 105093652.480 6       649.949          36.000    19625501.992 4  81739519.949 4       505.519          29.000
R13  20788313.680 4 111008425.711 4     -1793.246          29.000    20788317.547 5  86339910.505 5     -1394.744          32.000
R14  20249322.336 8 107940363.860 8      2476.094          51.000    20249324.852 8  83953603.102 8      1925.851          48.000
R19  23099916.852 5 123568970.042 5     -3927.191          35.000    23099919.367 6  96109211.775 6     -3054.482          39.000
C05  39774933.922 6 207118517.772 6       -15.062          36.000    39774932.289 6 160157158.995 6       -11.801          41.000
C22  22573261.875 8 117544887.282 8     -1399.023          51.000
E07                                                                  24951609.391 7 100469885.917 7     -1238.871          43.000
E27  25492274.898 7 133962844.848 7      2490.852          44.000    25492281.281 8 102646872.777 8      1908.578          51.000
E30  24341396.898 6 127914909.162 6       -39.055          36.000    24341386.961 5  98012664.809 5       -29.787          31.000
E33                                                                  25886984.305 7 104236183.454 7     -1576.415          45.000
> 2020 05 04 01 44  0.0000000  0 16        .000000000000
G02  22422286.961 5 117829870.174 5      -498.672          34.000
G06  22282589.438 8 117095796.497 8     -2672.410          50.000    22282591.359 8  91243457.397 8     -2082.398          50.000
G07  20869224.648 8 109668507.069 8       715.957          51.000    20869223.430 8  85455959.428 8       557.889          51.000
G09  21158591.555 7 111189144.453 7     -1774.707          43.000    21158593.211 7  86640893.689 7     -1382.886          43.000
G30  21858979.328 8 114869774.095 8      2743.953          51.000    21858979.688 8  89508895.545 8      2138.145          51.000
R03  21204019.219 4 113506813.872 4     -2293.406          29.000    21204011.648 4  88283062.394 4     -1783.760          26.000
R04  19621895.234 5 105074304.567 5       633.859          35.000    19621892.570 5  81724471.529 5       492.999          30.000
R13  20798456.656 5 111062578.614 5     -1822.820          31.000    20798456.602 5  86382029.426 5     -1417.749          31.000
R14  20235446.719 8 107866396.353 8      2448.922          51.000    20235447.914 7  83896072.845 7      1904.720          47.000
R19  23121954.414 5 123686858.916 5     -3937.863          34.000    23121956.727 6  96200903.097 6     -3062.786          38.000
C05  39775016.445 6 207118947.453 6       -19.457          36.000    39775014.805 6 160157491.239 6       -15.054          40.000
C22  22581343.648 8 117586971.550 8     -1412.465          51.000
E07                                                                  24960846.141 7 100507079.651 7     -1245.160          43.000
E27  25478075.695 7 133888224.214 7      2477.945          46.000    25478082.742 8 102589695.893 8      1898.679          51.000
E30  24341667.898 6 127916287.005 6       -58.922          41.000
E33  25898752.508 6 136098859.890 6     -2072.301          36.000    25898754.750 7 104283576.833 7     -1587.738          46.000
> 2020 05 04 01 44 30.0000000  0 16        .000000000000
G02  22425161.641 5 117844975.748 5      -510.582          33.000
G06  22297860.078 8 117176045.230 8     -2680.164          48.000    22297862.242 8  91305988.880 8     -2088.440          48.000
G07  20865161.914 8 109647157.684 8       704.859          51.000    20865160.820 8  85439323.568 8       549.241          51.000
G09  21168725.227 7 111242397.831 7     -1777.836          44.000    21168726.773 7  86682389.827 7     -1385.327          43.000
G30  21843326.453 8 114787515.029 8      2737.410          51.000    21843325.859 8  89444797.611 8      2133.047          51.000
R03  21216871.750 5 113575660.915 5     -2298.375          33.000    21216872.703 4  88336557.060 4     -1787.625          28.000
R04  19618353.594 5 105055343.488 5       627.688          33.000    19618352.195 4  81709724.026 4       488.201          28.000
R13  20808743.734 5 111117518.531 5     -1842.578          31.000    20808746.023 5  86424754.981 5     -1433.116          30.000
R14  20221706.297 8 107793150.472 8      2431.426          51.000    20221706.148 7  83839103.865 7      1891.112          45.000
R19  23144040.352 5 123805004.703 5     -3940.363          34.000    23144041.992 6  96292794.238 6     -3064.727          39.000
C05  39775106.438 6 207119415.908 6       -14.676          36.000    39775104.781 6 160157853.465 6       -11.155          41.000
C22  22589485.266 8 117629367.578 8     -1416.441          51.000
E07                                                                  24970113.539 7 100544393.061 7     -1244.181          43.000
E27  25463933.430 8 133813899.964 8      2474.555          49.000    25463940.672 8 102532746.166 8      1896.078          51.000
E30  24342029.734 5 127918158.165 5       -68.984          33.000
E33  25910588.297 6 136161066.303 6     -2077.273          37.000    25910593.008 7 104331241.491 7     -1591.818          46.000
> 2020 05 04 01 45  0.0000000  0 15        .000000000000
G02  22428134.391 5 117860595.971 5      -528.418          34.000
G06  22313202.312 7 117256672.518 7     -2692.910          46.000    22313205.133 7  91368815.352 7     -2098.369          46.000
G07  20861191.391 8 109626292.099 8       688.379          51.000    20861190.320 8  85423064.664 8       536.399          51.000
G09  21178904.141 7 111295888.716 7     -1785.980          42.000    21178905.289 6  86724071.041 6     -1391.676          41.000
G30  21827739.289 8 114705602.841 8      2725.543          51.000    21827738.977 8  89380969.950 8      2123.800          51.000
R03  21229782.180 6 113644777.570 6     -2307.574          36.000    21229784.469 4  88390320.413 4     -1794.774          27.000
R04  19614876.203 6 105036721.639 6       616.012          36.000    19614872.898 4  81695240.351 4       479.123          28.000
R14  20208092.352 8 107720580.225 8      2408.598          51.000    20208091.883 7  83782660.388 7      1873.354          46.000
R19  23166164.211 5 123923353.511 5     -3947.465          35.000    23166166.172 6  96384843.307 6     -3070.250          40.000
C05                                                                  39775193.008 6 160158208.528 6       -10.856          41.000
C21  22199988.227 4 115601172.113 4      1321.785          29.000
C22  22597677.625 8 117672027.473 8     -1425.543          51.000
E07  24979404.258 5 131267651.009 5     -1627.965          33.000    24979401.141 7 100581789.050 7     -1247.084          42.000
E27  25449838.992 8 133739825.687 8      2465.902          50.000    25449845.875 8 102475987.972 8      1889.434          51.000
E33  25922485.477 6 136223576.546 6     -2087.820          40.000    25922489.430 8 104379138.946 8     -1599.734          48.000
> 2020 05 04 01 45 30.0000000  0 14        .000000000000
G02  22431195.406 5 117876673.598 5      -544.766          34.000
G06  22328605.359 7 117337619.191 7     -2705.141          45.000    22328608.305 7  91431890.741 7     -2107.902          46.000
G07  20857302.141 8 109605853.703 8       672.539          51.000    20857301.414 8  85407138.652 8       524.056          51.000
G09  21189117.555 7 111349559.920 7     -1793.758          42.000    21189118.766 6  86765892.750 6     -1397.733          41.000
G30  21812207.203 8 114623982.964 8      2714.387          50.000    21812207.867 8  89317370.034 8      2115.107          50.000
R04  19611450.250 5 105018382.488 5       605.289          33.000    19611447.555 4  81680987.583 4       470.777          25.000
R14  20194594.523 8 107648631.551 8      2386.328          51.000    20194595.000 8  83726700.361 8      1856.033          48.000
R19  23188314.805 5 124041843.290 5     -3953.762          35.000    23188317.125 6  96477002.037 6     -3075.148          40.000
C05  39775270.242 6 207120269.291 6       -13.707          36.000    39775268.703 6 160158513.361 6       -10.545          41.000
C22  22605909.969 8 117714895.373 8     -1433.977          51.000
E07                                                                  24988698.555 7 100619224.392 7     -1249.617          42.000
E27  25435781.266 8 133665946.883 8      2457.785          51.000    25435787.734 8 102419379.579 8      1883.262          51.000
E30  24342966.680 6 127923159.173 6       -97.840          39.000
E33  25934428.281 7 136286332.467 7     -2097.406          42.000    25934431.992 7 104427224.626 7     -1607.163          47.000
> 2020 05 04 01 46  0.0000000  0 15        .000000000000
G02  22434363.445 5 117893312.226 5      -563.598          35.000
G06  22344089.211 7 117418986.818 7     -2719.258          47.000    22344091.391 7  91495294.063 7     -2118.905          47.000
G07  20853514.031 8 109585947.288 8       654.648          51.000    20853513.531 8  85391627.171 8       510.116          51.000
G09  21199384.867 7 111403514.768 7     -1803.305          42.000    21199385.773 6  86807935.485 6     -1405.172          41.000
G30  21796750.711 8 114542761.482 8      2700.656          50.000    21796752.344 8  89254080.540 8      2104.407          50.000
R03  21255746.320 5 113783738.608 5     -2327.211          32.000
R04  19608096.953 5 105000433.679 5       591.969          34.000    19608093.602 4  81667020.444 4       460.420          24.000
R14  20181233.641 8 107577413.448 8      2361.680          51.000    20181235.219 8  83671308.470 8      1836.862          49.000
R19  23210510.109 5 124160575.121 5     -3962.191          33.000    23210513.109 6  96569349.049 6     -3081.704          39.000
C05  39775353.180 6 207120700.693 6       -15.289          36.000    39775351.672 6 160158847.701 6       -11.665          40.000
C22  22614202.211 8 117758074.654 8     -1444.547          51.000
E07  24998026.758 5 131365509.230 5     -1636.324          34.000    24998025.367 6 100656778.917 6     -1253.819          41.000
E27  25421780.922 8 133592369.723 8      2447.453          51.000    25421786.344 8 102363002.309 8      1875.294          51.000
E30  24343574.039 6 127926356.456 6      -115.230          37.000    24343593.797 5  98021507.409 5       -88.030          33.000
E33  25946437.602 6 136349436.467 6     -2109.348          41.000    25946439.461 7 104475577.056 7     -1616.191          47.000
> 2020 05 04 01 46 30.0000000  0 16        .000000000000
G02  22437608.906 5 117910362.807 5      -579.500          30.000
G04  23827912.820 5 125216511.196 5     -2928.844          31.000
G06  22359624.750 8 117500624.576 8     -2730.902          49.000    22359626.328 8  91558907.857 8     -2127.976          49.000
G07  20849799.008 8 109566424.736 8       639.082          51.000    20849798.320 8  85376414.789 8       497.986          51.000
G09  21209677.852 6 111457604.494 6     -1810.371          40.000    21209678.305 6  86850083.343 6     -1410.679          40.000
G30  21781342.602 8 114461792.188 8      2689.539          51.000    21781343.547 8  89190987.583 8      2095.745          51.000
R04  19604789.453 5 104982725.543 5       581.312          35.000    19604792.742 4  81653256.496 4       452.129          26.000
R14  20167981.172 8 107506778.567 8      2339.500          49.000    20167984.992 8  83616370.212 8      1819.608          50.000
R19  23232721.180 5 124279394.352 5     -3967.195          32.000    23232725.055 6  96661764.055 6     -3085.596          38.000
C05  39775415.367 6 207121024.759 6       -14.156          36.000    39775413.930 6 160159098.301 6       -11.146          40.000
C21  22177334.664 4 115483211.985 4      1297.391          29.000
C22  22622526.156 8 117801418.722 8     -1452.770          51.000
E07  25007354.922 6 131414528.635 6     -1639.156          36.000    25007352.734 6 100694339.240 6     -1256.180          41.000
E27  25407809.797 8 133518948.161 8      2439.473          49.000    25407814.008 8 102306744.239 8      1869.227          51.000
E30                                                                  24344269.008 5  98024221.328 5       -98.605          33.000
E33  25958483.922 7 136412738.894 7     -2118.617          42.000    25958485.070 7 104524081.448 7     -1623.263          47.000
> 2020 05 04 01 47  0.0000000  0 13        .000000000000
G06  22375284.961 8 117582917.562 8     -2753.402          49.000    22375286.680 8  91623032.239 8     -2145.508          49.000
G07  20846231.031 8 109547674.354 8       612.648          51.000    20846230.109 8  85361804.100 8       477.388          51.000
G09  21220070.273 6 111512216.280 6     -1828.730          41.000    21220070.227 6  86892637.946 6     -1424.982          41.000
G30  21766057.016 8 114381464.755 8      2667.379          51.000    21766055.758 8  89128394.830 8      2078.477          51.000
R04  19601600.477 6 104965654.489 6       559.031          36.000    19601606.078 5  81639979.030 5       434.805          30.000
R14  20154913.055 8 107437123.792 8      2306.102          51.000    20154918.188 8  83562194.249 8      1793.635          50.000
R19  23255021.406 5 124398691.072 5     -3983.918          32.000    23255025.648 6  96754550.415 6     -3098.600          36.000
C05  39775530.656 6 207121624.954 6       -24.043          36.000    39775529.258 6 160159562.400 6       -18.459          40.000
C22  22630955.500 8 117845311.978 8     -1471.629          51.000
E07  25016756.797 6 131463943.460 6     -1652.996          37.000    25016756.375 6 100732202.548 6     -1266.617          41.000
E27  25393941.344 7 133446072.050 7      2420.770          44.000    25393945.219 8 102250904.085 8      1854.860          51.000
E30  24345081.195 6 127934279.310 6      -154.258          38.000
E33  25970640.391 6 136476625.764 6     -2138.797          40.000    25970642.102 7 104573033.707 7     -1638.735          47.000
> 2020 05 04 01 47 30.0000000  0 13        .000000000000
G02  22444460.297 5 117946451.624 5      -610.738          32.000
G06  22390979.023 8 117665389.219 8     -2751.145          50.000    22390981.336 8  91687295.854 8     -2143.749          50.000
G07  20842719.688 8 109529222.177 8       610.980          51.000    20842718.742 8  85347425.818 8       476.092          51.000
G09  21230471.688 7 111566875.405 7     -1821.824          43.000    21230471.672 7  86935229.476 7     -1419.603          43.000
G30  21750803.844 8 114301307.369 8      2669.941          51.000    21750800.828 8  89065934.570 8      2080.474          51.000
R04  19598440.781 5 104948739.042 5       562.484          34.000    19598448.898 5  81626822.553 5       437.491          30.000
R14  20141939.953 8 107367971.651 8      2297.602          50.000    20141945.430 8  83508409.247 8      1787.023          50.000
R19  23277320.523 5 124517978.204 5     -3974.711          32.000    23277324.078 5  96847329.289 5     -3091.442          35.000
C05  39775608.820 6 207122031.858 6        -9.523          36.000    39775607.406 6 160159877.058 6        -7.470          41.000
C22  22639400.070 8 117889285.048 8     -1466.227          51.000
E07  25026145.422 5 131513280.935 5     -1641.816          32.000    25026145.898 6 100770005.873 6     -1258.308          40.000
E27  25380085.664 7 133373269.587 7      2426.273          45.000    25380090.180 8 102195120.312 8      1859.179          51.000
E33  25982817.539 7 136540621.455 7     -2134.074          42.000    25982820.742 8 104622069.409 8     -1635.236          48.000
> 2020 05 04 01 48  0.0000000  0 14        .000000000000
G02  22448020.773 5 117965122.134 5      -630.051          33.000
G06  22406744.273 8 117748235.027 8     -2766.238          51.000    22406746.945 8  91751851.016 8     -2155.510          51.000
G07  20839303.016 8 109511266.796 8       591.727          51.000    20839301.750 8  85333434.622 8       461.086          51.000
G09  21240919.758 7 111621779.443 7     -1832.633          44.000    21240919.742 7  86978011.861 7     -1428.026          44.000
G30  21735620.875 8 114221520.055 8      2654.961          51.000    21735618.148 8  89003762.653 8      2068.801          51.000
R04  19595346.977 5 104932182.236 5       547.406          30.000    19595353.117 4  81613945.200 4       425.766          27.000
R14  20129099.883 8 107299526.231 8      2271.270          50.000    20129105.219 8  83455173.914 8      1766.540          49.000
R19  23299655.672 5 124637452.914 5     -3984.203          32.000    23299657.047 5  96940254.062 5     -3098.825          32.000
C05  39775687.602 6 207122441.958 6       -12.355          36.000    39775686.102 6 160160194.157 6        -9.460          41.000
C22  22647897.672 8 117933534.460 8     -1478.016          51.000
E07                                                                  25035557.117 6 100807901.172 6     -1263.546          38.000
E27  25366283.891 8 133300740.785 8      2414.633          48.000    25366286.664 8 102139546.270 8      1850.173          51.000
E30  24346866.492 6 127943638.256 6      -172.520          36.000
E33  25995053.703 7 136604922.574 7     -2146.945          44.000    25995058.031 8 104671339.140 8     -1645.071          49.000
> 2020 05 04 01 48 30.0000000  0 16        .000000000000
G02  22451678.898 5 117984347.723 5      -649.828          34.000
G06  22422581.312 8 117831458.737 8     -2780.328          51.000    22422584.008 8  91816700.627 8     -2166.489          51.000
G07  20835982.023 8 109493814.464 8       573.352          51.000    20835980.211 8  85319835.388 8       446.767          51.000
G09  21251415.375 7 111676934.150 7     -1842.750          42.000    21251415.211 7  87020989.571 7     -1435.912          43.000
G30  21720509.711 8 114142111.166 8      2640.645          50.000    21720508.094 8  88941885.578 8      2057.645          50.000
R03  21321590.555 4 114136123.539 4     -2372.574          29.000    21321584.133 4  88772528.894 4     -1845.336          27.000
R04  19592323.055 4 104915971.497 4       533.625          29.000    19592333.398 4  81601350.091 4       415.033          28.000
R14  20116394.258 8 107231796.794 8      2245.684          50.000    20116399.422 8  83402495.481 8      1746.643          49.000
R19  23322027.273 5 124757117.539 5     -3991.980          33.000    23322023.672 4  97033301.014 4     -3104.877          29.000
C05  39775768.188 6 207122861.865 6       -13.996          36.000    39775766.719 6 160160518.870 6       -11.010          41.000
C21  22147840.500 5 115329615.903 5      1264.277          32.000
C22  22656449.438 8 117978066.737 8     -1489.055          51.000
E07                                                                  25044991.992 6 100845893.409 6     -1268.216          37.000
E27  25352536.289 8 133228494.145 8      2403.406          50.000    25352537.406 8 102084188.478 8      1841.538          51.000
E30  24347905.695 6 127949091.597 6      -189.684          36.000
E33  26007349.797 7 136669533.895 7     -2159.008          47.000    26007354.055 8 104720846.503 8     -1654.263          49.000
> 2020 05 04 01 49  0.0000000  0 13        .000000000000
G02  22455438.578 6 118004094.096 6      -664.113          36.000    22455428.789 5  91951226.265 5      -517.491          35.000
G06  22438488.195 8 117915050.999 8     -2789.621          50.000    22438490.797 8  91881837.425 8     -2173.734          50.000
G07  20832755.406 8 109476859.128 8       559.871          51.000    20832753.633 8  85306623.450 8       436.266          51.000
G09  21261957.094 6 111732332.259 6     -1847.594          40.000    21261957.305 6  87064156.873 6     -1439.686          39.000
G30  21705469.648 8 114063075.971 8      2631.223          51.000    21705469.328 8  88880299.696 8      2050.303          51.000
R04  19589374.594 5 104900142.832 5       524.734          34.000    19589375.273 4  81589038.844 4       408.130          29.000
R14  20103822.922 8 107164780.069 8      2224.949          51.000    20103827.156 8  83350371.364 8      1730.516          50.000
R19  23344433.773 5 124876960.789 5     -3995.062          32.000    23344419.047 4  97126472.346 4     -3107.271          26.000
C05  39775849.477 6 207123285.120 6       -11.352          36.000    39775848.031 6 160160846.144 6        -8.618          41.000
C22  22665054.203 8 118022875.474 8     -1495.309          51.000
E07                                                                  25054449.969 5 100883977.607 5     -1268.988          35.000
E27  25338841.508 8 133156525.105 8      2397.309          51.000    25338841.469 8 102029043.401 8      1836.890          51.000
E33  26019703.109 7 136734447.051 7     -2165.754          46.000    26019706.234 7 104770585.134 7     -1659.480          47.000
> 2020 05 04 01 49 30.0000000  0 14        .000000000000
G06  22454464.938 8 117999012.497 8     -2808.816          48.000    22454467.758 8  91947261.969 8     -2188.688          48.000
G07  20829624.062 8 109460404.257 8       536.180          51.000    20829622.625 8  85293801.483 8       417.802          51.000
G09  21272545.891 6 111787976.473 6     -1862.930          41.000    21272546.008 6  87107515.948 6     -1451.637          41.000
G30  21690501.922 8 113984419.755 8      2611.508          51.000    21690502.672 8  88819009.146 8      2034.941          51.000
R03  21348275.992 5 114278970.732 5     -2395.391          31.000    21348280.188 4  88883669.015 4     -1863.085          28.000
R04  19586492.500 6 104884680.442 6       505.355          40.000    19586489.367 4  81577012.561 4       393.057          29.000
R14  20091386.680 8 107098482.486 8      2193.832          51.000    20091390.023 8  83298806.608 8      1706.314          50.000
R19  23366873.516 5 124996981.724 5     -4007.434          30.000    23366864.109 5  97219859.348 5     -3116.896          30.000
C05  39775932.086 6 207123715.375 6       -18.430          36.000    39775930.688 6 160161178.850 6       -14.372          41.000
C22  22673713.047 8 118067964.280 8     -1511.547          51.000
E07  25063931.336 6 131711853.184 6     -1666.984          36.000    25063930.961 5 100922156.476 5     -1277.497          30.000
E27  25325200.336 8 133084839.136 8      2380.734          51.000    25325200.312 8 101974115.207 8      1824.214          51.000
E30  24350240.516 5 127961375.874 5      -224.062          35.000
E33  26032113.359 7 136799663.812 7     -2182.996          45.000    26032114.898 7 104820556.422 7     -1672.655          47.000
> 2020 05 04 01 50  0.0000000  0 14        .000000000000
G06  22470517.195 8 118083369.744 8     -2816.086          48.000    22470520.227 8  92012994.911 8     -2194.350          48.000
G07  20826593.562 8 109444479.236 8       524.465          51.000    20826592.250 8  85281392.374 8       408.674          51.000
G09  21283187.031 6 111843895.241 6     -1865.848          40.000    21283186.172 6  87151089.016 6     -1453.910          41.000
G30  21675612.430 8 113906173.575 8      2603.848          51.000    21675613.594 8  88758038.121 8      2028.975          51.000
R03  21361709.906 5 114350876.952 5     -2399.555          30.000
R04  19583684.266 6 104869615.248 6       497.957          38.000    19583677.633 4  81565295.303 4       387.306          26.000
R14  20079091.359 8 107032936.547 8      2174.797          51.000    20079094.016 8  83247826.463 8      1691.509          50.000
C05  39776021.602 6 207124182.119 6       -13.652          36.000    39776020.164 6 160161539.379 6       -10.723          41.000
C21  22126196.227 4 115216909.808 4      1241.449          28.000
C22  22682431.562 8 118113362.160 8     -1515.938          51.000
E07  25073438.469 6 131761832.743 6     -1665.953          38.000
E27  25311618.711 8 133013467.400 8      2376.246          51.000    25311619.562 8 101919427.792 8      1820.751          51.000
E30                                                                  24351546.758 5  98053579.740 5      -179.556          33.000
E33  26044586.016 7 136865211.650 7     -2187.973          45.000    26044586.594 7 104870781.340 7     -1676.502          46.000
> 2020 05 04 01 50 30.0000000  0 14        .000000000000
G04  23962066.039 5 125921478.225 5     -2937.016          33.000
G06  22486613.539 8 118167956.016 8     -2821.148          49.000    22486616.531 8  92078906.296 8     -2198.297          49.000
G07  20823632.492 8 109428919.515 8       514.594          51.000    20823631.211 8  85269267.918 8       400.982          51.000
G09  21293849.141 6 111899923.980 6     -1867.359          41.000    21293848.297 6  87194747.754 6     -1455.085          41.000
G30  21660770.070 8 113828175.329 8      2597.879          51.000    21660771.250 8  88697260.291 8      2024.321          51.000
R03  21375171.953 5 114422942.619 5     -2402.379          32.000    21375177.250 4  88995656.854 4     -1868.514          25.000
R04  19580916.695 6 104854781.608 6       492.426          36.000    19580909.141 5  81553758.109 5       382.998          31.000
R14  20066905.961 8 106967979.002 8      2157.562          51.000    20066907.773 8  83197303.930 8      1678.104          49.000
C05  39776086.812 6 207124521.540 6        -7.316          36.000    39776085.438 6 160161802.222 6        -5.497          40.000
C22  22691178.242 8 118158906.771 8     -1518.570          51.000
E07  25082944.812 6 131811801.429 6     -1663.227          40.000
E27  25298066.109 8 132942247.885 8      2373.430          51.000    25298068.000 8 101864857.007 8      1818.617          51.000
E30                                                                  24352923.906 5  98059099.271 5      -186.090          33.000
E33  26057090.836 7 136930924.827 7     -2191.109          47.000    26057090.086 7 104921132.975 7     -1678.893          44.000
> 2020 05 04 01 51  0.0000000  0 13        .000000000000
G04  23978877.250 6 126009825.017 6     -2948.883          36.000
G06  22502787.414 8 118252948.489 8     -2841.832          51.000    22502790.008 8  92145134.183 8     -2214.415          51.000
G07  20820775.391 8 109413905.761 8       489.406          51.000    20820774.180 8  85257568.890 8       381.356          51.000
G09  21304566.164 7 111956241.951 7     -1884.168          42.000    21304565.766 7  87238631.865 7     -1468.183          42.000
G30  21646009.281 8 113750606.759 8      2576.539          51.000    21646010.281 8  88636817.277 8      2007.693          51.000
R04  19578207.758 5 104840413.203 5       471.922          32.000    19578216.609 4  81542578.498 4       367.047          29.000
R14  20054865.141 8 106903795.440 8      2124.508          51.000    20054866.719 8  83147383.408 8      1652.398          49.000
C05  39776162.062 6 207124913.549 6       -15.812          36.000    39776160.680 6 160162105.352 6       -12.333          41.000
C22  22699987.281 8 118204776.513 8     -1536.367          51.000
E07  25092486.320 7 131861939.109 7     -1676.223          44.000    25092487.062 5 101037045.044 5     -1283.980          33.000
E27  25284577.312 8 132871362.483 8      2355.180          51.000    25284579.984 8 101810542.240 8      1804.663          51.000
E30  24354372.961 5 127983123.897 5      -266.754          35.000    24354402.086 5  98064992.112 5      -204.785          33.000
E33  26069661.414 8 136996981.559 8     -2209.574          48.000    26069660.656 7 104971747.835 7     -1693.134          46.000
> 2020 05 04 01 51 30.0000000  0 13        .000000000000
G04  23995705.430 6 126098254.899 6     -2948.957          36.000    23995699.531 3  98258383.206 3     -2297.889          22.000
G06  22519033.039 8 118338318.180 8     -2851.387          50.000    22519034.719 8  92211656.000 8     -2221.860          50.000
G07  20818017.297 8 109399411.770 8       474.969          51.000    20818016.320 8  85246274.873 8       370.109          51.000
G09  21315332.867 7 112012822.223 7     -1890.086          42.000    21315332.898 7  87282720.371 7     -1472.794          42.000
G30  21631325.281 8 113673443.552 8      2565.848          50.000    21631326.289 8  88576690.109 8      1999.362          50.000
R04  19575592.633 6 104826386.511 6       461.441          38.000    19575595.812 5  81531668.835 5       358.902          30.000
R14  20042964.812 8 106840361.861 8      2102.473          51.000    20042966.586 8  83098046.194 8      1635.253          49.000
C05  39776242.305 6 207125330.888 6       -13.953          36.000    39776241.039 6 160162428.812 6       -10.599          41.000
C22  22708853.445 8 118250945.541 8     -1543.457          51.000
E07  25102055.008 7 131912219.732 7     -1677.949          42.000    25102057.742 6 101075571.758 6     -1285.827          37.000
E27  25271147.734 8 132800786.990 8      2347.906          51.000    25271150.266 8 101756464.914 8      1799.045          51.000
E30  24355927.914 5 127991271.173 5      -279.746          33.000    24355928.617 5  98071229.267 5      -214.123          34.000
E33  26082292.242 8 137063353.868 8     -2217.125          49.000    26082292.195 7 105022604.492 7     -1698.794          46.000
> 2020 05 04 01 52  0.0000000  0 14        .000000000000
G04  24012549.227 6 126186766.431 6     -2961.273          37.000    24012550.141 5  98327378.420 5     -2307.486          32.000
G06  22535349.305 8 118424061.348 8     -2874.016          50.000    22535350.328 8  92278468.818 8     -2239.493          50.000
G07  20815357.812 8 109385436.383 8       447.484          51.000    20815356.984 8  85235384.973 8       348.689          51.000
G09  21326149.164 7 112069663.068 7     -1908.828          42.000    21326149.484 7  87327011.962 7     -1487.399          43.000
G30  21616718.469 8 113596686.518 8      2542.102          50.000    21616719.586 8  88516879.433 8      1980.858          50.000
R04  19573048.453 6 104812750.948 6       438.094          37.000    19573047.469 5  81521063.411 5       340.740          30.000
R14  20031205.227 8 106777680.305 8      2066.988          51.000    20031207.633 8  83049293.870 8      1607.658          48.000
C05  39776327.477 6 207125774.636 6       -24.574          36.000    39776326.266 6 160162771.974 6       -19.150          41.000
C21  22097972.852 5 115069929.721 5      1195.355          34.000
C22  22717776.898 8 118297413.007 8     -1563.508          51.000
E07  25111650.289 6 131962642.498 6     -1692.684          40.000    25111655.602 6 101114207.332 6     -1297.192          40.000
E27  25257777.023 8 132730522.385 8      2327.262          50.000    25257779.039 8 101702625.796 8      1783.286          51.000
E30                                                                  24357579.297 6  98077855.000 6      -234.105          37.000
E33  26094982.227 8 137130039.027 8     -2237.676          49.000    26094982.461 7 105073700.896 7     -1714.601          46.000
> 2020 05 04 01 52 30.0000000  0 14        .000000000000
G04  24029387.172 5 126275247.334 5     -2950.664          35.000
G06  22551714.688 8 118510063.287 8     -2872.848          50.000    22551715.688 8  92345483.278 8     -2238.583          50.000
G07  20812775.906 8 109371867.627 8       443.641          51.000    20812774.992 8  85224811.921 8       345.694          51.000
G09  21336993.539 7 112126652.013 7     -1904.117          42.000    21336994.273 7  87371418.941 7     -1483.728          42.000
G30  21602168.109 8 113520225.537 8      2541.844          51.000    21602169.523 8  88457299.444 8      1980.657          51.000
R04  19570552.633 6 104799393.631 6       438.758          37.000    19570549.375 4  81510674.360 4       341.256          29.000
R14  20019566.109 8 106715640.314 8      2055.367          51.000    20019568.695 7  83001040.552 7      1598.619          47.000
C05  39776396.297 6 207126132.175 6       -12.617          36.000    39776395.148 6 160163049.195 6        -9.539          41.000
C21  22091038.312 4 115033790.137 4      1199.703          28.000
C22  22726736.680 8 118344068.088 8     -1560.203          51.000
E07  25121251.469 7 132013095.572 7     -1684.262          42.000    25121258.328 6 101152866.123 6     -1290.317          41.000
E27  25244443.688 8 132660458.714 8      2330.238          49.000    25244445.469 8 101648940.633 8      1785.519          49.000
E30                                                                  24359296.234 6  98084761.078 6      -236.326          37.000
E33  26107709.992 8 137196923.386 8     -2234.715          48.000    26107710.008 7 105124949.947 7     -1712.275          46.000
> 2020 05 04 01 53  0.0000000  0 14        .000000000000
G02  22488998.875 5 118180498.049 5      -806.668          35.000
G06  22568153.602 8 118596451.852 8     -2889.039          50.000    22568155.422 8  92412799.013 8     -2251.202          50.000
G07  20810296.211 8 109358836.060 8       422.332          51.000    20810295.391 8  85214657.469 8       329.090          51.000
G09  21347890.812 7 112183918.962 7     -1916.523          43.000    21347891.375 7  87416042.539 7     -1493.395          43.000
G30  21587699.648 8 113444193.036 8      2524.121          51.000    21587701.289 8  88398053.319 8      1966.848          51.000
R04  19568133.211 6 104786449.349 6       421.168          38.000    19568131.523 4  81500606.518 4       327.575          29.000
R14  20008072.930 8 106654376.849 8      2025.980          51.000    20008075.297 7  82953391.191 7      1575.763          47.000
C05  39776473.719 5 207126535.998 5       -16.480          35.000    39776472.484 6 160163360.717 6       -13.227          41.000
C21  22084128.695 5 114997899.709 5      1186.328          30.000
C22  22735757.070 8 118391040.374 8     -1574.141          51.000
E07  25130883.242 6 132063709.631 6     -1692.730          41.000    25130889.188 7 101191648.351 7     -1297.129          42.000
E27  25231173.500 8 132590728.602 8      2315.816          49.000    25231174.711 8 101595511.013 8      1774.475          48.000
E30  24361097.602 5 128018433.569 5      -328.203          32.000    24361104.398 6  98092047.468 6      -251.687          37.000
E33  26120499.898 8 137264135.831 8     -2248.844          49.000    26120499.000 7 105176450.390 7     -1723.143          46.000
> 2020 05 04 01 53 30.0000000  0 15        .000000000000
G02  22493641.875 5 118204909.482 5      -817.629          35.000
G04  24063122.375 5 126452539.973 5     -2953.023          30.000
G06  22584670.984 8 118683252.129 8     -2894.582          50.000    22584673.992 8  92480435.574 8     -2255.518          50.000
G07  20807924.094 8 109346370.069 8       411.734          51.000    20807923.422 8  85204943.732 8       320.832          51.000
G09  21358846.375 7 112241491.119 7     -1918.406          43.000    21358846.195 7  87460903.984 7     -1494.859          43.000
G30  21573318.664 8 113368618.597 8      2517.133          51.000    21573320.344 8  88339164.168 8      1961.405          51.000
R04  19565797.008 6 104773947.603 6       414.953          38.000    19565795.344 4  81490882.962 4       322.744          28.000
R14  19996730.805 8 106593921.143 8      2007.438          51.000    19996734.000 8  82906370.107 8      1561.340          49.000
C05  39776564.984 5 207127010.904 5       -11.141          35.000    39776563.664 6 160163727.923 6        -8.874          41.000
C21  22077314.898 5 114962387.270 5      1183.504          34.000
C22  22744843.617 8 118438357.557 8     -1577.359          51.000
E07  25140551.352 6 132114512.771 6     -1690.977          40.000    25140555.836 7 101230575.385 7     -1295.734          42.000
E27  25217973.172 8 132521361.738 8      2311.754          51.000    25217973.617 8 101542359.792 8      1771.383          48.000
E30                                                                  24363013.594 6  98099735.447 6      -258.783          37.000
E33  26133357.211 8 137331702.419 8     -2252.508          48.000    26133355.227 7 105228222.193 7     -1725.921          47.000
> 2020 05 04 01 54  0.0000000  0 15        .000000000000
G06  22601247.375 8 118770360.944 8     -2910.406          50.000    22601251.305 8  92548312.555 8     -2267.849          50.000
G07  20805640.555 8 109334368.959 8       390.668          51.000    20805639.789 8  85195592.212 8       304.417          51.000
G09  21369841.031 6 112299267.504 6     -1931.340          39.000    21369840.727 6  87505924.560 6     -1504.943          39.000
G30  21559006.031 8 113293403.680 8      2499.488          51.000    21559007.695 8  88280555.178 8      1947.656          51.000
R03  21470946.828 5 114935627.982 5     -2476.098          31.000    21470954.367 4  89394420.446 4     -1925.848          25.000
R04  19563526.523 6 104761787.500 6       398.000          39.000    19563524.109 5  81481425.107 5       309.559          31.000
R14  19985522.102 8 106534173.924 8      1978.000          51.000    19985525.617 8  82859900.021 8      1538.444          50.000
R15  22858246.469 6 122147543.350 6      4502.684          37.000    22858249.539 4  95003652.921 4      3502.084          28.000
C05  39776651.109 5 207127459.646 5       -16.488          35.000    39776649.633 6 160164074.130 6       -12.457          41.000
C21  22070545.312 6 114927105.548 6      1170.438          37.000
C22  22753977.578 8 118485920.288 8     -1591.152          51.000
E07  25150236.047 6 132165404.654 6     -1699.531          41.000    25150239.203 6 101269570.488 6     -1302.439          41.000
E27  25204824.047 8 132452259.762 8      2297.199          51.000    25204823.586 8 101489411.542 8      1760.198          50.000
E30  24365012.102 6 128038993.017 6      -357.105          37.000    24365002.414 6  98107747.983 6      -273.985          36.000
E33  26146262.336 8 137399521.089 8     -2266.566          48.000    26146260.305 8 105280187.111 8     -1736.681          48.000
> 2020 05 04 01 54 30.0000000  0 14        .000000000000
G06  22617879.648 8 118857762.040 8     -2917.238          50.000    22617883.906 8  92616417.301 8     -2273.173          50.000
G07  20803442.578 8 109322818.555 8       378.469          51.000    20803441.938 8  85186591.921 8       294.914          51.000
G09  21380871.867 6 112357234.012 6     -1934.230          40.000    21380871.344 6  87551093.199 6     -1507.196          40.000
G30  21544759.641 8 113218536.614 8      2490.754          51.000    21544761.062 8  88222217.248 8      1940.850          51.000
R04  19561317.484 6 104749956.572 6       389.832          40.000    19561314.406 4  81472223.292 4       303.203          29.000
R14  19974444.672 8 106475124.595 8      1957.656          51.000    19974448.312 8  82813972.763 8      1522.622          50.000
R15  22832968.914 6 122012458.796 6      4501.969          40.000    22832970.039 4  94898587.060 4      3501.528          29.000
C05  39776729.312 6 207127866.926 6       -11.746          36.000    39776727.859 6 160164389.067 6        -9.128          41.000
C21  22063814.984 6 114892041.821 6      1165.938          38.000
C22  22763156.055 8 118533715.304 8     -1596.059          51.000
E07  25159935.398 6 132216371.960 6     -1699.328          38.000    25159936.328 7 101308623.396 7     -1302.065          43.000
E27  25191723.273 8 132383411.125 8      2291.676          51.000    25191723.086 8 101436657.435 8      1755.950          51.000
E30  24367083.836 5 128049860.351 5      -368.164          33.000    24367068.719 6  98116074.647 6      -281.875          37.000
E33  26159212.781 8 137467576.531 8     -2271.473          49.000    26159211.070 8 105332333.484 8     -1740.473          48.000
> 2020 05 04 01 55  0.0000000  0 16        .000000000000
G02  22508097.312 5 118280877.853 5      -873.559          35.000
G04  24113782.094 5 126718776.443 5     -2963.086          34.000
G06  22634564.586 8 118945439.166 8     -2932.320          50.000    22634568.477 8  92684737.157 8     -2284.925          50.000
G07  20801328.109 8 109311706.578 8       357.887          51.000    20801327.508 8  85177933.247 8       278.873          51.000
G09  21391936.336 6 112415376.456 6     -1945.977          40.000    21391935.594 6  87596399.010 6     -1516.345          40.000
G30  21530577.078 8 113144005.767 8      2473.598          50.000    21530578.188 8  88164141.264 8      1927.479          50.000
R04  19559166.312 6 104738442.562 6       373.418          40.000    19559163.305 5  81463267.988 5       290.439          31.000
R14  19963496.516 8 106416761.776 8      1928.672          51.000    19963499.758 8  82768579.461 8      1500.081          51.000
R15  22807707.539 6 121877474.688 6      4492.371          38.000    22807710.875 4  94793599.438 4      3494.066          29.000
C05  39776797.273 6 207128221.211 6       -16.086          36.000    39776795.812 6 160164662.629 6       -12.351          41.000
C21  22057122.320 6 114857184.004 6      1153.453          36.000
C22  22772376.531 8 118581729.393 8     -1609.254          51.000
E07  25169647.305 5 132267401.370 5     -1707.004          35.000    25169647.414 7 101347723.859 7     -1307.943          44.000
E27  25178668.219 8 132314804.309 8      2277.809          51.000    25178668.492 8 101384088.612 8      1745.316          51.000
E30                                                                  24369212.891 6  98124705.122 6      -296.712          38.000
E33  26172205.695 8 137535853.583 8     -2284.645          49.000    26172204.664 8 105384649.635 8     -1750.584          49.000
> 2020 05 04 01 55 30.0000000  0 17        .000000000000
G02  22513106.289 6 118307189.744 6      -887.496          38.000
G04  24130679.500 5 126807570.877 5     -2962.941          30.000
G06  22651311.727 8 119033443.312 8     -2940.844          49.000    22651314.906 8  92753311.821 8     -2291.567          49.000
G07  20799307.148 8 109301086.066 8       343.918          51.000    20799306.391 8  85169657.512 8       267.988          51.000
G09  21403043.953 6 112473748.035 6     -1951.883          37.000    21403043.500 6  87641883.321 6     -1520.951          36.000
G30  21516468.125 8 113069866.621 8      2462.754          49.000    21516469.352 8  88106370.476 8      1919.029          49.000
R03  21512737.898 5 115159388.406 5     -2500.578          31.000    21512742.289 4  89568411.249 4     -1944.894          25.000
R04  19557083.664 6 104727301.723 6       363.027          38.000    19557083.695 5  81454602.860 5       282.355          32.000
R14  19952687.867 8 106359142.984 8      1906.203          51.000    19952690.969 8  82723764.868 8      1482.602          51.000
R15  22782475.203 6 121742649.651 6      4489.691          36.000    22782477.844 4  94688735.502 4      3491.982          27.000
C05  39776865.148 6 207128574.315 6       -13.348          36.000    39776863.750 6 160164936.091 6       -10.626          41.000
C21  22050479.688 6 114822586.704 6      1147.066          36.000
C22  22781649.383 8 118630015.915 8     -1616.078          51.000
E07                                                                  25179381.773 7 101386913.224 7     -1309.302          45.000
E27  25165669.570 8 132246495.040 8      2270.055          51.000    25165670.500 8 101331747.749 8      1739.381          51.000
E30  24371458.695 6 128072875.054 6      -399.938          37.000    24371443.812 6  98133680.374 6      -306.610          38.000
E33  26185250.812 8 137604404.173 8     -2291.520          50.000    26185250.625 8 105437175.401 8     -1755.858          49.000
> 2020 05 04 01 56  0.0000000  0 16        .000000000000
G02  22518217.117 6 118334046.121 6      -903.828          38.000
G04  24147593.406 5 126896458.868 5     -2963.277          31.000
G06  22668128.258 8 119121813.372 8     -2950.992          48.000    22668130.844 8  92822171.598 8     -2299.474          48.000
G07  20797387.398 8 109290998.407 8       328.102          51.000    20797386.766 8  85161797.006 8       255.667          51.000
G09  21414203.547 6 112532389.843 6     -1958.957          38.000    21414203.008 6  87687578.146 6     -1526.460          36.000
G30  21502441.820 8 112996162.627 8      2450.270          50.000    21502443.055 8  88048938.762 8      1909.301          50.000
R03  21526775.758 5 115234531.649 5     -2509.348          35.000    21526785.141 4  89626855.926 4     -1951.712          27.000
R04  19555079.438 6 104716577.527 6       351.258          38.000    19555082.492 5  81446261.784 5       273.197          34.000
R14  19942026.883 8 106302313.051 8      1881.906          51.000    19942030.031 8  82679563.843 8      1463.708          49.000
R15  22757282.109 6 121608030.427 6      4484.645          37.000    22757285.641 4  94584026.537 4      3488.057          25.000
C05  39776941.078 6 207128969.378 6       -12.988          36.000    39776939.688 6 160165241.539 6       -10.119          41.000
C22  22790982.500 8 118678616.313 8     -1624.543          51.000
E07                                                                  25189144.969 7 101426223.579 7     -1311.885          43.000
E27  25152735.656 8 132178526.976 8      2260.562          51.000    25152737.305 8 101279668.315 8      1732.170          51.000
E30                                                                  24373765.148 5  98143032.180 5      -317.454          35.000
E33  26198355.578 8 137673268.290 8     -2299.891          51.000    26198356.250 8 105489941.405 8     -1762.296          49.000
> 2020 05 04 01 56 30.0000000  0 14        .000000000000
G02  22523434.164 5 118361464.125 5      -923.680          33.000
G06  22685016.977 8 119210564.617 8     -2964.934          48.000    22685019.062 8  92891328.412 8     -2310.338          48.000
G07  20795572.508 8 109281462.091 8       308.379          50.000    20795572.281 8  85154366.094 8       240.295          50.000
G09  21425417.750 6 112591319.167 6     -1968.996          37.000    21425416.562 6  87733497.058 6     -1534.286          36.000
G30  21488503.094 8 112922913.578 8      2433.836          51.000    21488504.133 8  87991861.603 8      1896.496          51.000
R03  21540875.625 5 115310010.361 5     -2521.777          33.000
R04  19553158.430 6 104706290.050 6       335.180          41.000    19553163.375 5  81438260.395 5       260.695          35.000
R14  19931517.711 8 106246292.809 8      1853.574          51.000    19931520.734 8  82635992.549 8      1441.669          48.000
R15  22732132.555 6 121473639.296 6      4475.613          38.000    22732143.836 4  94479534.443 4      3481.030          27.000
C05  39777028.320 6 207129423.908 6       -16.391          36.000    39777026.977 6 160165593.016 6       -12.692          41.000
C22  22800379.562 8 118727548.627 8     -1636.828          51.000
E27  25139870.414 8 132110920.126 8      2247.230          51.000    25139872.422 8 101227865.637 8      1721.946          51.000
E30                                                                  24376182.203 5  98152774.305 5      -331.435          35.000
E33  26211523.148 8 137742462.248 8     -2312.207          51.000    26211524.203 8 105542960.146 8     -1771.730          49.000
> 2020 05 04 01 57  0.0000000  0 16        .000000000000
G02  22528736.773 6 118389330.777 6      -936.836          36.000    22528742.242 5  92251402.882 5      -729.999          33.000
G06  22701956.211 8 119299582.380 8     -2971.723          49.000    22701957.484 8  92960692.900 8     -2315.628          49.000
G07  20793840.938 8 109272364.690 8       295.887          49.000    20793841.133 8  85147277.197 8       230.561          50.000
G09  21436664.086 5 112650423.608 5     -1972.035          32.000    21436664.891 5  87779552.469 5     -1536.651          32.000
G30  21474630.391 8 112850009.347 8      2424.391          51.000    21474631.633 8  87935053.130 8      1889.139          51.000
R03  21555015.383 6 115385710.576 6     -2527.094          36.000    21555022.898 4  89744437.761 4     -1965.520          29.000
R04  19551298.047 7 104696326.530 7       326.770          43.000    19551303.758 6  81430511.012 6       254.157          37.000
R14  19921139.391 8 106190971.401 8      1832.332          51.000    19921142.547 8  82592964.816 8      1425.150          48.000
R15  22707004.922 6 121339366.653 6      4474.066          36.000    22707015.875 5  94375099.666 5      3479.829          30.000
C05  39777105.742 6 207129827.252 6       -12.637          36.000    39777104.430 6 160165904.872 6        -9.479          41.000
C21  22030870.648 5 114720530.722 5      1122.164          32.000
C22  22809819.219 8 118776702.072 8     -1642.152          51.000
E07  25208745.367 6 132472843.168 6     -1718.840          36.000    25208749.516 7 101505182.585 7     -1317.213          42.000
E27  25127053.086 8 132043564.548 8      2240.953          51.000    25127055.312 8 101176255.499 8      1717.115          51.000
E30                                                                  24378678.539 6  98162820.909 6      -339.879          36.000
E33  26224731.711 8 137811872.386 8     -2317.301          51.000    26224732.359 8 105596144.519 8     -1775.507          48.000
> 2020 05 04 01 57 30.0000000  0 16        .000000000000
G02  22534113.117 6 118417581.566 6      -953.223          37.000    22534118.344 5  92273416.552 5      -742.762          35.000
G04  24198390.766 5 127163405.161 5     -2968.371          32.000
G06  22718933.609 8 119388800.381 8     -2982.559          48.000    22718933.609 8  93030213.399 8     -2324.075          48.000
G07  20792180.969 8 109263643.356 8       279.270          49.000    20792181.305 8  85140481.338 8       217.613          49.000
G09  21447931.289 5 112709639.136 5     -1980.805          35.000    21447933.242 5  87825694.481 5     -1543.484          35.000
G30  21460811.625 8 112777388.179 8      2410.719          51.000    21460812.883 8  87878465.229 8      1878.485          51.000
R03  21569186.883 5 115461566.931 5     -2536.234          32.000
R04  19549485.992 7 104686623.692 7       313.773          42.000    19549492.930 6  81422964.334 6       244.043          38.000
R14  19910880.445 8 106136286.915 8      1806.941          50.000    19910884.211 8  82550432.473 8      1405.402          49.000
R15  22681888.641 6 121205152.029 6      4467.324          36.000    22681899.828 4  94270710.510 4      3474.582          29.000
C05  39777161.227 6 207130115.617 6       -13.004          36.000    39777159.953 6 160166128.672 6       -10.001          41.000
C22  22819289.070 8 118826013.848 8     -1651.512          51.000
E07  25218554.398 6 132524388.164 6     -1723.453          37.000    25218558.133 7 101544678.073 7     -1320.523          42.000
E27  25114271.570 8 131976398.621 8      2230.469          51.000    25114274.164 8 101124790.703 8      1709.084          51.000
E30                                                                  24381238.227 5  98173123.155 5      -351.656          35.000
E33  26237969.047 8 137881433.406 8     -2326.387          51.000    26237968.922 8 105649444.500 8     -1782.502          48.000
> 2020 05 04 01 58  0.0000000  0 16        .000000000000
G02  22539626.656 6 118446549.923 6      -969.844          37.000    22539629.695 5  92295989.226 5      -755.725          34.000
G06  22736012.086 7 119478550.349 7     -2992.914          47.000    22736011.102 7  93100148.391 7     -2332.144          47.000
G07  20790656.328 8 109255632.006 8       262.824          50.000    20790656.672 8  85134238.735 8       204.798          50.000
G09  21459284.180 6 112769299.574 6     -1988.555          38.000    21459285.781 6  87872183.190 6     -1549.526          38.000
G30  21447110.375 8 112705386.339 8      2397.234          51.000    21447111.773 8  87822359.917 8      1867.975          51.000
R03  21583452.711 5 115537904.734 5     -2545.820          31.000    21583463.195 4  89862863.729 4     -1980.082          25.000
R04  19547787.258 6 104677523.864 6       300.961          41.000    19547794.055 6  81415886.656 6       234.078          39.000
R14  19900805.062 8 106082581.438 8      1781.527          49.000    19900809.469 8  82508661.532 8      1385.629          50.000
R15  22656847.711 5 121071339.776 5      4462.148          32.000    22656859.680 5  94166634.186 5      3470.557          31.000
C05  39777258.508 5 207130622.791 5       -13.281          35.000    39777257.305 6 160166520.841 6       -10.164          41.000
C21  22018055.891 5 114653796.740 5      1103.457          31.000
C22  22828852.844 8 118875815.511 8     -1660.742          51.000
E07  25228426.164 6 132576268.874 6     -1727.480          39.000    25228430.969 6 101584430.823 6     -1323.474          41.000
E27  25101590.250 8 131909758.844 8      2220.062          51.000    25101593.031 8 101073729.066 8      1701.078          51.000
E30                                                                  24383923.375 5  98183937.197 5      -363.318          35.000
E33  26251297.969 8 137951478.092 8     -2335.340          50.000    26251297.484 8 105703115.074 8     -1789.428          48.000
> 2020 05 04 01 58 30.0000000  0 15        .000000000000
G02  22545204.945 6 118475859.337 6      -985.258          38.000    22545206.547 5  92318827.732 5      -767.730          35.000
G06  22753119.492 7 119568453.760 7     -3001.848          43.000    22753118.547 7  93170202.965 7     -2339.102          44.000
G07  20789195.422 8 109247954.917 8       247.742          51.000    20789195.594 8  85128256.595 8       193.046          51.000
G09  21470650.703 6 112829028.851 6     -1994.684          41.000    21470653.078 6  87918725.474 6     -1554.302          40.000
G30  21433455.398 8 112633629.874 8      2385.117          51.000    21433457.250 8  87766445.806 8      1858.533          51.000
R04  19546130.547 7 104668645.386 7       289.582          44.000    19546136.008 6  81408981.114 6       225.227          39.000
R14  19890842.328 8 106029475.970 8      1757.551          51.000    19890847.070 8  82467357.275 8      1366.984          50.000
R15  22631811.469 5 120937551.833 5      4456.332          33.000    22631821.883 5  94062576.942 5      3466.036          34.000
C05  39777326.305 6 207130975.598 6       -11.883          36.000    39777325.062 6 160166793.643 6        -9.071          41.000
C21  22011714.562 5 114620785.514 5      1095.758          32.000
C22  22838439.188 8 118925734.881 8     -1668.504          51.000
E07  25238291.727 6 132628109.881 6     -1729.949          41.000    25238296.984 6 101624153.131 6     -1325.456          39.000
E27  25088937.812 8 131843271.463 8      2211.090          51.000    25088940.516 8 101022784.178 8      1694.200          51.000
E30  24386692.469 5 128152868.830 5      -488.234          33.000    24386670.656 6  98195017.993 6      -373.608          36.000
E33  26264646.547 8 138021628.943 8     -2342.629          49.000    26264646.289 8 105756867.035 8     -1795.106          48.000
> 2020 05 04 01 59  0.0000000  0 16        .000000000000
G02  22550878.875 6 118505672.975 6     -1001.812          37.000    22550878.852 5  92342059.154 5      -780.627          30.000
G06  22770287.055 7 119658672.240 7     -3011.461          44.000    22770287.250 7  93240503.071 7     -2346.593          44.000
G07  20787829.445 8 109240776.072 8       232.070          51.000    20787829.312 8  85122662.697 8       180.837          51.000
G09  21482061.672 6 112888990.648 6     -2001.688          40.000    21482064.891 6  87965448.952 6     -1559.763          40.000
G30  21419878.594 8 112562284.962 8      2372.371          51.000    21419880.852 8  87710852.373 8      1848.601          51.000
R03  21612079.539 6 115691144.081 6     -2561.746          36.000    21612069.625 4  89981968.803 4     -1992.463          26.000
R04  19544545.797 7 104660157.365 7       277.516          42.000    19544549.859 6  81402379.322 6       215.845          37.000
R14  19881024.484 8 105977139.790 8      1732.691          51.000    19881029.180 8  82426651.367 8      1347.649          51.000
R15  22606813.633 5 120803959.672 5      4450.559          35.000    22606820.672 5  93958671.900 5      3461.543          30.000
C05  39777395.805 5 207131337.259 5       -11.336          35.000    39777394.508 6 160167073.302 6        -8.603          41.000
C21  22005427.984 4 114588051.485 4      1088.695          28.000
C22  22848078.898 8 118975935.006 8     -1677.035          49.000
E07  25248180.727 6 132680075.772 6     -1733.195          41.000    25248183.703 5 101663971.166 5     -1328.057          33.000
E27  25076345.688 8 131777102.835 8      2201.406          50.000    25076349.016 8 100972083.545 8      1686.756          51.000
E30  24389515.023 5 128167760.695 5      -501.062          31.000    24389502.633 6  98206440.445 6      -384.598          36.000
E33  26278045.812 8 138092048.667 8     -2350.672          48.000    26278046.867 8 105810824.997 8     -1801.167          50.000
> 2020 05 04 01 59 30.0000000  0 15        .000000000000
G02  22556644.594 5 118535973.766 5     -1014.727          30.000    22556644.711 5  92365670.048 5      -790.711          31.000
G04  24266251.891 5 127520014.038 5     -2970.078          34.000
G06  22787511.547 7 119749187.295 7     -3018.547          45.000    22787513.375 7  93311034.251 7     -2352.117          45.000
G07  20786555.461 8 109234079.750 8       218.516          51.000    20786554.750 8  85117444.790 8       170.272          51.000
G09  21493513.602 6 112949168.651 6     -2005.871          38.000    21493515.086 6  88012340.934 6     -1563.019          39.000
G30  21406377.430 8 112491337.552 8      2361.555          51.000    21406379.859 8  87655568.648 8      1840.169          51.000
R04  19543030.781 7 104652045.090 7       267.656          42.000    19543033.625 6  81396069.760 6       208.177          37.000
R14  19871348.492 8 105925559.529 8      1710.164          51.000    19871353.125 8  82386533.409 8      1330.128          51.000
R15  22581851.023 5 120670551.286 5      4447.055          32.000    22581851.992 5  93854909.703 5      3458.820          32.000
C05  39777463.898 6 207131692.296 6        -8.242          36.000    39777462.703 6 160167347.849 6        -6.449          41.000
C22  22857769.445 8 119026400.369 8     -1683.266          50.000
E07  25258090.984 6 132732150.964 6     -1734.598          40.000    25258092.062 5 101703867.931 5     -1328.877          30.000
E27  25063811.523 8 131711239.066 8      2193.680          50.000    25063815.523 8 100921616.513 8      1680.883          51.000
E30  24392434.680 6 128183096.908 6      -514.129          36.000
E33  26291493.672 8 138162719.677 8     -2356.516          50.000    26291494.945 8 105864975.523 8     -1805.678          49.000
