     3.02           OBSERVATION DATA    M (MIXED)           RINEX VERSION / TYPE
SAVERINEX           SC600               20200502 145931 LCL PGM / RUN BY / DATE
       G = GPS       R = GLONASS       C = COMPASS          COMMENT
       S = SBAS      J = QZSS          E = GALILEO          COMMENT
BEAN                                                        MARKER NAME
1                                                           MARKER NUMBER
GEODETIC                                                    MARKER TYPE
Unige DICCA         GTER                                    OBSERVER / AGENCY
SC60291900056       SC600               2.12(191226)        REC # / TYPE / VERS
                    HEMA45          NONE                    ANT # / TYPE
  4509407.8091   693652.4678  4442337.6214                  APPROX POSITION XYZ
        0.0000        0.0000        0.0000                  ANTENNA: DELTA H/E/N
G    8 C1C L1C D1C S1C C2Y L2Y D2Y S2Y                      SYS / # / OBS TYPES
R    8 C1C L1C D1C S1C C2P L2P D2P S2P                      SYS / # / OBS TYPES
C    4 C1I L1I D1I S1I                                      SYS / # / OBS TYPES
E    8 C1C L1C D1C S1C C7Q L7Q D7Q S7Q                      SYS / # / OBS TYPES
DBHZ                                                        COMMENT
     30.000                                                 INTERVAL
  2020    05    02    12    00    0.0000000     GPS         TIME OF FIRST OBS
  2020    05    02    12    59   30.0000000     GPS         TIME OF LAST OBS
     0                                                      RCV CLOCK OFFS APPL
G L1C  0.00000                                              SYS / PHASE SHIFT
G L2Y  0.00000                                              SYS / PHASE SHIFT
R L1C  0.00000                                              SYS / PHASE SHIFT
R L2P  0.25000                                              SYS / PHASE SHIFT
C L1I  0.00000                                              SYS / PHASE SHIFT
E L1C  0.50000                                              SYS / PHASE SHIFT
E L7Q -0.25000                                              SYS / PHASE SHIFT
 13 R04  6 R05  1 R06 -4 R07  5 R09 -2 R10 -5 R14 -7 R15  0 GLONASS SLOT / FRQ #
    R16 -1 R17  4 R18 -3 R19  3 R20  2                      GLONASS SLOT / FRQ #
 C1C   71.950 C2C   71.950 C2P   71.950                     GLONASS COD/PHS/BIS
    18                                                      LEAP SECONDS
*** Above antenna height is from mark to ANTENNA BOTTOM.    COMMENT
    17     4        0.0000        ANT MEASURE TYPE/HEIGT    COMMENT
    0.0000    0.0000    0.0458    0.0405    0.0000          COMMENT
                    BASE STATION                            COMMENT
                                                            END OF HEADER
> 2020 05 02 12 00  0.0000000  0 15        .000000000000
G14  23654586.828 6 124305690.872 6     -2108.863          38.000    23654582.320 5  96861555.239 5     -1643.267          33.000
G18  23149994.930 6 121654055.758 6      3553.059          37.000
G21  22996495.164 6 120847391.487 6      3234.652          36.000    22996497.820 5  94166824.520 5      2520.520          35.000
G25  20797419.070 8 109291221.626 8     -1592.512          51.000    20797421.375 8  85161961.771 8     -1240.918          51.000
G29  20206549.359 8 106186142.400 8        -6.547          51.000    20206550.234 8  82742472.281 8        -5.101          51.000
R09  19321135.070 7 103173804.745 7      1283.262          43.000    19321136.203 6  80246300.847 6       998.092          40.000
R16  21235606.469 7 113436792.222 7     -3100.715          46.000    21235608.914 7  88228597.040 7     -2411.667          43.000
R19  19247632.555 6 102961890.030 6      -561.121          38.000    19247634.641 7  80081485.030 7      -436.428          45.000
R20  21384124.789 6 114350527.436 6      3651.801          41.000    21384129.414 7  88939314.713 7      2840.293          45.000
C27  21487990.227 8 111893710.768 8      -175.582          51.000
C30  23370832.758 8 121698111.073 8      2599.531          50.000
E13  24925174.672 7 130982687.425 7      2605.293          45.000    24925180.852 8 100363431.917 8      1996.192          51.000
E15  23446036.641 8 123209770.096 8       -17.465          50.000    23446040.984 8  94407527.206 8       -13.364          51.000
E27  23289748.367 8 122388452.797 8      -407.191          51.000    23289751.391 8  93778181.581 8      -311.971          51.000
E30  25265829.695 6 132772806.785 6     -2342.195          36.000    25265831.648 5 101735034.026 5     -1795.001          35.000
> 2020 05 02 12 00 30.0000000  0 16        .000000000000
G14  23666638.359 6 124369022.045 6     -2116.453          39.000    23666632.969 5  96910904.225 5     -1649.175          30.000
G18  23129711.406 6 121547447.516 6      3550.578          37.000
G21  22978033.766 5 120750373.248 5      3230.250          33.000    22978035.891 5  94091216.023 5      2517.081          33.000
G25  20806522.492 8 109339060.582 8     -1600.156          51.000    20806525.000 8  85199238.876 8     -1246.875          51.000
G29  20206610.602 8 106186463.922 8       -18.516          51.000    20206611.547 8  82742722.847 8       -14.428          51.000
R09  19313958.586 7 103135482.340 7      1267.887          43.000    19313960.352 6  80216494.569 6       986.134          41.000
R16  21253036.859 7 113529902.916 7     -3110.551          46.000    21253040.250 7  88301016.432 7     -2419.317          44.000
R18  21842110.430 5 116594642.634 5     -3752.121          31.000
R19  19250828.758 6 102978986.490 6      -582.457          39.000    19250830.648 7  80094782.271 7      -453.022          45.000
R20  21363658.086 6 114241083.030 6      3640.898          40.000    21363661.625 7  88854191.396 7      2831.813          44.000
C27  21489023.719 8 111899091.467 8      -186.727          51.000
C30  23355862.055 8 121620160.958 8      2593.539          48.000
E13  24910307.008 8 130904557.875 8      2599.898          48.000    24910313.539 8 100303566.445 8      1992.157          51.000
E15  23446158.133 8 123210406.125 8       -28.453          51.000    23446161.836 8  94408014.577 8       -21.808          51.000
E27  23292078.422 8 122400696.761 8      -412.645          51.000    23292081.352 8  93787563.313 8      -316.155          51.000
E30  25279193.695 5 132843058.896 5     -2343.582          34.000    25279197.438 5 101788852.793 5     -1795.872          35.000
> 2020 05 02 12 01  0.0000000  0 16        .000000000000
G14  23678756.422 6 124432702.380 6     -2133.652          39.000    23678751.055 5  96960525.182 5     -1662.589          35.000
G18  23109466.289 5 121441041.610 5      3538.285          35.000
G25  20815691.156 8 109387242.219 8     -1616.938          51.000    20815693.711 8  85236783.003 8     -1259.951          51.000
G29  20206761.859 8 106187257.663 8       -39.445          51.000    20206762.648 8  82743341.377 8       -30.734          51.000
R09  19306888.977 7 103097732.744 7      1243.605          42.000    19306891.562 6  80187133.718 6       967.246          41.000
R16  21270545.664 7 113623433.795 7     -3129.832          45.000    21270549.906 7  88373762.651 7     -2434.314          44.000
R18  21863240.461 5 116707413.987 5     -3768.727          34.000
R19  19254167.180 6 102996844.517 6      -613.387          38.000    19254168.992 7  80108671.878 7      -477.079          45.000
R20  21343276.969 6 114132096.679 6      3619.898          39.000    21343279.383 7  88769424.332 7      2815.480          43.000
C27  21490143.352 8 111904921.488 8      -206.867          51.000
C28  24227870.492 5 126160909.506 5     -2769.816          33.000
C30  23340946.555 7 121542501.962 7      2578.730          46.000
E13  24895492.039 8 130826702.276 8      2585.430          49.000    24895498.328 8 100243910.912 8      1981.085          51.000
E15  23446364.242 8 123211486.027 8       -48.500          51.000    23446367.320 8  94408842.060 8       -37.213          51.000
E27  23294461.406 8 122413218.666 8      -427.207          51.000    23294464.172 8  93797158.020 8      -327.320          51.000
E30  25292589.273 5 132913455.605 5     -2354.391          35.000    25292593.625 5 101842796.172 5     -1804.295          34.000
> 2020 05 02 12 01 30.0000000  0 16        .000000000000
G14  23690946.672 6 124496761.070 6     -2137.430          39.000    23690941.984 5  97010440.974 5     -1665.530          34.000
G18  23089266.078 5 121334872.792 5      3539.273          35.000
G25  20824931.047 8 109435797.982 8     -1620.297          51.000    20824933.625 8  85274618.678 8     -1262.569          51.000
G29  20207008.711 8 106188554.461 8       -47.242          51.000    20207009.109 8  82744351.883 8       -36.812          51.000
R09  19299933.172 6 103060590.859 6      1232.379          41.000    19299936.242 7  80158245.592 7       958.517          42.000
R16  21288138.969 7 113717415.756 7     -3135.707          46.000    21288143.391 7  88446859.689 7     -2438.886          42.000
R18  21884429.312 5 116820515.059 5     -3770.957          32.000
R19  19257653.688 6 103015494.222 6      -630.414          38.000    19257655.070 7  80123177.194 7      -490.322          45.000
R20  21322987.789 6 114023603.030 6      3612.684          38.000    21322990.570 7  88685040.476 7      2809.868          46.000
C27  21491355.164 8 111911231.531 8      -214.020          51.000
C28  24243819.570 5 126243937.690 5     -2768.660          30.000
C30  23326094.242 8 121465166.551 8      2576.691          48.000
E13  24880735.484 8 130749153.800 8      2584.086          50.000    24880741.430 8 100184490.727 8      1980.035          51.000
E15  23446660.562 8 123213041.153 8       -55.383          51.000    23446663.094 8  94410033.687 8       -42.499          51.000
E27  23296903.281 8 122426050.872 8      -428.598          51.000    23296906.070 8  93806990.484 8      -328.391          51.000
E30  25306022.578 6 132984050.496 6     -2352.523          37.000    25306025.031 5 101896876.288 5     -1802.586          30.000
> 2020 05 02 12 02  0.0000000  0 14        .000000000000
G14  23703220.516 6 124561259.974 6     -2139.480          40.000    23703215.461 5  97060699.770 5     -1667.131          34.000
G25  20834254.172 8 109484791.986 8     -1622.484          50.000    20834256.789 8  85312795.817 8     -1264.274          50.000
G29  20207363.312 8 106190417.969 8       -53.555          51.000    20207363.805 8  82745803.963 8       -41.731          51.000
R09  19293103.836 7 103024124.273 7      1222.543          44.000    19293107.344 7  80129882.674 7       950.867          42.000
R16  21305829.250 7 113811912.407 7     -3140.207          46.000    21305832.828 6  88520357.054 6     -2442.386          39.000
R19  19261299.797 6 103034999.554 6      -645.996          39.000    19261301.625 7  80138348.044 7      -502.438          45.000
R20  21302803.070 6 113915670.782 6      3606.551          37.000    21302807.633 7  88601093.231 7      2805.095          47.000
C27  21492671.211 8 111918084.565 8      -219.605          51.000
C28  24259820.242 5 126327285.318 5     -2764.977          33.000
C30  23311318.281 8 121388219.523 8      2576.195          50.000
E13  24866049.914 8 130671978.193 8      2584.289          50.000    24866055.242 8 100125356.246 8      1980.152          51.000
E15  23447059.250 8 123215135.464 8       -60.793          51.000    23447061.383 8  94411638.449 8       -46.585          51.000
E27  23299416.680 8 122439258.311 8      -428.504          51.000    23299419.492 8  93817110.461 8      -328.376          51.000
E30  25319505.898 6 133054903.611 6     -2348.016          38.000
> 2020 05 02 12 02 30.0000000  0 15        .000000000000
G14  23715511.609 7 124625848.830 7     -2163.457          42.000    23715506.352 5  97111028.761 5     -1685.811          34.000
G21  22904666.234 5 120364828.811 5      3194.480          34.000
G25  20843594.438 8 109533876.394 8     -1646.477          49.000    20843596.945 8  85351043.411 8     -1282.969          49.000
G29  20207759.445 8 106192500.182 8       -82.008          51.000    20207760.328 8  82747426.473 8       -63.902          51.000
R09  19286335.922 7 102987982.680 7      1190.305          45.000    19286338.594 7  80101772.563 7       925.793          42.000
R16  21323549.352 7 113906569.302 7     -3167.027          43.000    21323551.570 6  88593979.004 6     -2463.247          36.000
R19  19265039.742 6 103055004.786 6      -684.176          39.000    19265041.289 7  80153907.683 7      -532.134          44.000
R20  21282658.172 6 113807949.292 6      3578.121          37.000    21282663.938 8  88517309.911 8      2782.986          48.000
C27  21494025.336 8 111925135.438 8      -247.086          51.000
C28  24275811.672 5 126410567.367 5     -2784.414          33.000
C30  23296551.711 8 121311317.588 8      2553.785          51.000
E13  24851369.359 8 130594829.335 8      2562.254          51.000    24851374.023 8 100066242.243 8      1963.300          51.000
E15  23447494.320 8 123217421.035 8       -88.273          51.000    23447496.258 8  94413389.762 8       -67.674          51.000
E27  23301935.531 8 122452494.072 8      -450.621          51.000    23301938.398 8  93827252.139 8      -345.242          51.000
E30  25332972.445 6 133125667.357 6     -2366.285          39.000
> 2020 05 02 12 03  0.0000000  0 16        .000000000000
G12  23007130.008 6 120903293.641 6     -2855.312          36.000    23007128.281 5  94210334.458 5     -2224.928          33.000
G14  23727889.922 6 124690896.655 6     -2172.699          41.000    23727884.781 5  97161715.309 5     -1693.022          35.000
G21  22886446.469 5 120269087.979 5      3188.113          34.000
G25  20853022.836 8 109583423.087 8     -1656.148          50.000    20853025.141 8  85389651.200 8     -1290.508          50.000
G29  20208267.859 8 106195171.754 8       -95.652          51.000    20208268.484 8  82749508.229 8       -74.534          51.000
R09  19279699.664 7 102952546.607 7      1172.680          43.000    19279702.445 7  80074211.163 7       912.084          43.000
R16  21341368.852 6 114001762.880 6     -3178.844          40.000    21341370.711 6  88668018.351 6     -2472.437          37.000
R19  19268943.453 6 103075886.963 6      -707.477          39.000    19268944.805 7  80170149.389 7      -550.260          44.000
R20  21262624.258 6 113700819.799 6      3564.418          37.000    21262630.734 8  88433987.069 8      2772.328          48.000
C27  21495488.070 8 111932752.035 8      -260.113          51.000
C28  24291860.820 5 126494150.697 5     -2788.082          34.000
C30  23281864.820 8 121234830.569 8      2545.848          50.000
E13  24836764.828 8 130518080.687 8      2554.777          51.000    24836768.758 8 100007434.872 8      1957.652          51.000
E15  23448036.406 8 123220269.516 8      -101.109          51.000    23448038.594 8  94415572.380 8       -77.432          51.000
E27  23304530.602 8 122466130.797 8      -458.027          51.000    23304533.336 8  93837701.061 8      -350.935          51.000
E30  25346492.750 6 133196713.504 6     -2369.594          38.000    25346491.609 5 102059817.578 5     -1816.073          32.000
> 2020 05 02 12 03 30.0000000  0 17        .000000000000
G12  23023445.070 5 120989035.310 5     -2861.434          32.000    23023444.086 5  94277153.898 5     -2229.689          31.000
G14  23740323.742 7 124756236.532 7     -2184.059          43.000    23740319.234 6  97212629.459 6     -1701.864          36.000
G18  23008815.922 5 120912136.654 5      3509.000          32.000    23008816.406 5  94217256.777 5      2734.286          33.000
G21  22868269.438 5 120173567.728 5      3179.160          33.000
G25  20862507.977 8 109633267.366 8     -1667.414          50.000    20862510.125 8  85428490.862 8     -1299.284          50.000
G29  20208857.180 8 106198267.797 8      -111.320          51.000    20208857.250 8  82751920.740 8       -86.740          51.000
R09  19273164.812 7 102917651.352 7      1153.047          46.000    19273167.758 7  80047070.378 7       896.814          44.000
R16  21359257.086 7 114097324.424 7     -3192.520          42.000    21359261.078 6  88742343.959 6     -2483.074          39.000
R19  19272979.492 6 103097476.875 6      -732.406          40.000    19272980.766 7  80186941.557 7      -569.646          45.000
R20  21242670.242 6 113594118.046 6      3548.539          37.000    21242677.102 7  88350996.888 7      2759.978          47.000
C27  21497028.039 8 111940770.762 8      -275.059          51.000
C28  24307938.164 6 126577870.744 6     -2793.684          37.000
C30  23267224.938 7 121158596.695 7      2535.781          47.000
E13  24822205.281 8 130441569.346 8      2545.309          51.000    24822208.648 8  99948809.341 8      1950.316          51.000
E15  23448654.266 8 123223516.143 8      -115.930          51.000    23448656.750 8  94418060.074 8       -88.808          51.000
E27  23307170.781 8 122480004.786 8      -467.484          51.000    23307173.102 8  93848331.778 8      -358.184          51.000
E30  25360035.047 6 133267877.559 6     -2375.023          38.000    25360037.594 6 102114345.774 6     -1819.730          37.000
> 2020 05 02 12 04  0.0000000  0 17        .000000000000
G12  23039794.375 5 121074930.784 5     -2865.906          34.000
G14  23752817.570 7 124821891.264 7     -2193.594          42.000    23752813.977 6  97263788.907 6     -1709.300          39.000
G18  22988801.594 5 120806941.346 5      3503.234          35.000    22988799.508 5  94135283.508 5      2729.802          33.000
G21  22850138.789 5 120078290.468 5      3171.199          30.000
G25  20872054.555 8 109683434.480 8     -1677.426          50.000    20872056.523 8  85467582.073 8     -1307.085          50.000
G29  20209531.859 8 106201812.972 8      -125.434          51.000    20209531.797 8  82754683.232 8       -97.740          51.000
R09  19266736.914 7 102883325.834 7      1135.074          46.000    19266739.391 7  80020372.781 7       882.839          44.000
R16  21377220.047 7 114193278.559 7     -3204.762          45.000    21377224.992 6  88816974.927 6     -2492.592          40.000
R19  19277152.227 6 103119798.353 6      -755.758          40.000    19277153.727 7  80204302.726 7      -587.812          44.000
R20  21222802.336 6 113487872.783 6      3534.270          38.000    21222808.305 7  88268361.745 7      2748.876          45.000
C27  21498649.781 8 111949215.980 8      -288.406          51.000
C28  24324048.430 6 126661751.030 6     -2797.973          37.000
C30  23252637.039 7 121082642.213 7      2527.402          47.000
E13  24807695.930 8 130365322.104 8      2537.590          51.000    24807698.789 8  99890386.183 8      1944.354          51.000
E15  23449352.523 8 123227185.933 8      -129.000          51.000    23449355.336 8  94420871.997 8       -98.811          51.000
E27  23309861.023 8 122494142.037 8      -475.242          51.000    23309863.031 8  93859164.218 8      -364.111          51.000
E30  25373605.109 5 133339184.613 5     -2378.734          35.000    25373610.734 6 102168983.650 6     -1822.700          40.000
> 2020 05 02 12 04 30.0000000  0 17        .000000000000
G12  23056184.586 5 121161069.668 5     -2872.648          30.000    23056189.383 4  94411240.417 4     -2238.427          27.000
G14  23765386.039 7 124887938.300 7     -2204.742          43.000    23765383.539 6  97315254.066 6     -1717.981          37.000
G18  22968839.016 5 120702030.598 5      3495.609          33.000    22968837.211 5  94053535.085 5      2723.864          33.000
G21  22832072.008 5 119983348.799 5      3162.867          35.000    22832083.406 5  93493568.489 5      2464.572          31.000
G25  20881677.562 8 109734004.212 8     -1689.160          49.000    20881679.633 8  85506987.015 8     -1316.232          49.000
G29  20210307.125 8 106205886.338 8      -141.340          51.000    20210306.875 8  82757857.283 8      -110.135          51.000
R09  19260431.289 7 102849653.379 7      1114.781          47.000    19260433.422 7  79994183.104 7       867.052          44.000
R16  21395271.961 7 114289705.008 7     -3218.770          45.000    21395276.812 6  88891973.203 6     -2503.490          39.000
R19  19281476.375 6 103142931.138 6      -781.250          41.000    19281478.133 7  80222294.923 7      -607.639          44.000
R20  21203036.320 6 113382168.062 6      3517.953          38.000    21203039.688 7  88186147.063 7      2736.192          43.000
C27  21500368.500 8 111958166.204 8      -303.414          51.000
C28  24340205.562 5 126745869.282 5     -2804.727          35.000
C30  23238118.445 8 121007047.497 8      2516.992          48.000
E13  24793252.195 8 130289420.430 8      2527.621          50.000    24793254.719 8  99832227.814 8      1936.749          50.000
E15  23450146.367 8 123231358.472 8      -144.082          51.000    23450149.641 8  94424069.159 8      -110.383          51.000
E27  23312616.734 8 122508623.232 8      -485.090          51.000    23312618.539 8  93870260.206 8      -371.680          51.000
E30  25387214.797 5 133410713.711 5     -2384.852          32.000    25387224.172 6 102223792.370 6     -1827.093          38.000
> 2020 05 02 12 05  0.0000000  0 18        .000000000000
G12  23072573.797 5 121247193.749 5     -2878.293          35.000
G14  23777974.367 7 124954089.446 7     -2215.316          42.000    23777972.398 6  97366800.359 6     -1726.224          37.000
G18  22948875.625 5 120597156.738 5      3488.418          31.000    22948871.109 5  93971794.126 5      2718.257          32.000
G21  22814015.102 6 119888455.465 6      3153.906          39.000    22814025.102 5  93419625.741 5      2457.589          33.000
G25  20891322.828 8 109784690.779 8     -1700.043          49.000    20891325.195 8  85546483.018 8     -1324.709          49.000
G29  20211128.422 8 106210201.276 8      -156.316          51.000    20211127.797 8  82761219.555 8      -121.805          51.000
R09  19254194.172 7 102816346.793 7      1095.473          47.000    19254196.125 7  79968277.978 7       852.034          45.000
R16  21413357.766 7 114386311.887 7     -3231.738          46.000    21413361.711 6  88967111.838 6     -2513.577          39.000
R18  22034137.055 5 117619653.677 5     -3836.363          34.000    22034144.250 4  91482035.307 4     -2983.841          27.000
R19  19285897.695 6 103166582.327 6      -805.551          40.000    19285899.492 7  80240690.319 7      -626.536          44.000
R20  21183317.273 6 113276716.662 6      3502.477          37.000    21183319.047 7  88104129.417 7      2724.151          44.000
C27  21502129.680 8 111967337.793 8      -317.809          51.000
C28  24356353.672 5 126829940.903 5     -2810.539          35.000
C30  23223616.242 8 120931530.737 8      2507.535          50.000
E13  24778820.117 8 130213580.248 8      2518.527          50.000    24778822.352 8  99774116.559 8      1929.820          50.000
E15  23450981.539 8 123235747.877 8      -158.328          51.000    23450985.195 8  94427432.491 8      -121.325          51.000
E27  23315383.664 8 122523163.507 8      -494.121          51.000    23315385.516 8  93881401.448 8      -378.579          51.000
E30                                                                  25400823.477 5 102278553.065 5     -1830.784          34.000
> 2020 05 02 12 05 30.0000000  0 15        .000000000000
G14  23790625.789 7 125020573.311 7     -2228.379          43.000    23790624.688 6  97418605.891 6     -1736.405          37.000
G18  22928956.195 6 120492484.394 6      3478.414          39.000    22928951.672 6  93890231.380 6      2710.459          38.000
G21  22796011.930 6 119793844.168 6      3142.504          38.000    22796018.875 4  93345902.713 4      2448.689          29.000
G25  20901034.305 8 109835725.284 8     -1713.543          50.000    20901036.891 8  85586250.163 8     -1335.228          50.000
G29  20212039.547 8 106214988.398 8      -173.957          51.000    20212038.641 8  82764949.800 8      -135.548          51.000
R09  19248069.820 7 102783643.291 7      1073.488          47.000    19248071.586 7  79942841.916 7       834.935          45.000
R16  21431521.039 7 114483332.819 7     -3247.516          46.000    21431523.844 6  89042572.535 6     -2525.845          40.000
R19  19290459.602 6 103190985.831 6      -832.633          40.000    19290461.469 7  80259670.850 7      -647.603          45.000
R20  21163688.734 5 113171756.489 5      3484.027          35.000    21163691.047 7  88022493.782 7      2709.799          44.000
C27  21503977.117 8 111976959.181 8      -334.598          51.000
C28  24372536.555 5 126914193.292 5     -2817.184          33.000
C30  23209173.625 8 120856322.226 8      2495.355          51.000
E13  24764443.977 8 130138034.307 8      2506.789          51.000    24764446.258 8  99716230.767 8      1920.736          50.000
E15  23451901.906 8 123240585.052 8      -175.273          51.000    23451905.688 8  94431138.904 8      -134.199          51.000
E27  23318205.789 8 122537994.813 8      -505.719          51.000    23318207.930 8  93892765.689 8      -387.487          51.000
> 2020 05 02 12 06  0.0000000  0 15        .000000000000
G12  23105509.211 5 121420247.853 5     -2882.059          35.000
G14  23803392.133 7 125087659.669 7     -2228.680          43.000    23803391.789 6  97470880.951 6     -1736.634          38.000
G18  22909133.219 6 120388323.892 6      3481.090          41.000    22909129.898 6  93809067.461 6      2712.541          40.000
G21  22778114.641 6 119699790.519 6      3143.164          37.000    22778121.695 5  93272614.310 5      2449.225          34.000
G25  20910863.781 8 109887379.997 8     -1714.434          50.000    20910866.406 8  85626500.580 8     -1335.922          50.000
G29  20213092.195 8 106220519.490 8      -178.922          51.000    20213090.969 8  82769259.763 8      -139.420          51.000
R09  19242110.672 7 102751822.566 7      1063.965          46.000    19242112.445 7  79918092.470 7       827.525          46.000
R16  21449813.117 7 114581043.339 7     -3250.375          46.000    21449815.430 6  89118569.513 6     -2528.072          40.000
R19  19295213.703 6 103216416.703 6      -846.746          40.000    19295215.812 7  80279450.430 7      -658.580          45.000
R20  21144202.312 5 113067567.801 5      3478.148          33.000    21144207.641 7  87941458.125 7      2705.227          45.000
C27  21505962.945 8 111987299.495 8      -339.035          51.000
C30  23194842.586 8 120781693.040 8      2495.582          51.000
E13  24750176.094 8 130063056.464 8      2507.539          51.000    24750178.648 8  99658780.267 8      1921.361          50.000
E15  23452959.328 8 123246142.006 8      -179.430          51.000    23452963.016 8  94435396.841 8      -137.476          51.000
E27  23321135.133 8 122553390.271 8      -504.773          51.000    23321137.680 8  93904562.199 8      -386.810          51.000
> 2020 05 02 12 06 30.0000000  0 15        .000000000000
G14  23816177.312 7 125154844.810 7     -2248.398          44.000    23816177.602 6  97523232.949 6     -1752.002          36.000
G18  22889311.750 7 120284177.192 7      3463.789          42.000    22889311.016 7  93727914.284 7      2699.059          42.000
G21  22760226.766 5 119605795.426 5      3124.812          30.000    22760235.766 5  93199359.344 5      2434.916          31.000
G25  20920716.055 8 109939153.661 8     -1735.148          50.000    20920718.734 8  85666843.679 8     -1352.064          50.000
G29  20214190.930 8 106226292.844 8      -203.812          51.000    20214189.242 8  82773758.489 8      -158.815          51.000
R09  19236222.266 8 102720378.030 8      1034.363          48.000    19236224.086 7  79893635.617 7       804.508          46.000
R16  21468138.438 7 114678932.557 7     -3273.457          45.000    21468140.523 6  89194705.512 6     -2546.022          39.000
R19  19300064.102 6 103242363.069 6      -881.074          40.000    19300066.117 7  80299630.943 7      -685.280          44.000
R20  21124765.133 5 112963643.490 5      3452.309          35.000    21124773.680 7  87860628.090 7      2685.129          47.000
C27  21507991.094 8 111997861.481 8      -363.102          51.000
C30  23180527.469 8 120707147.814 8      2476.078          51.000
E13  24735921.547 8 129988147.137 8      2488.496          51.000    24735923.820 8  99601382.276 8      1906.761          50.000
E15  23454058.219 8 123251917.303 8      -203.488          51.000    23454062.078 8  94439822.092 8      -155.932          51.000
E27  23324076.555 8 122568849.500 8      -523.766          51.000    23324079.305 8  93916407.561 8      -401.279          51.000
E30  25441869.547 5 133697922.488 5     -2406.844          35.000
> 2020 05 02 12 07  0.0000000  0 18        .000000000000
G02  24438973.539 5 128427655.908 5     -2648.766          33.000
G12  23138504.562 5 121593679.275 5     -2890.434          33.000    23138502.367 5  94748287.985 5     -2252.295          31.000
G14  23828987.344 7 125222161.709 7     -2246.062          44.000    23828988.602 6  97575687.623 6     -1750.179          41.000
G18  22869500.953 7 120180082.745 7      3468.879          44.000    22869501.977 7  93646801.792 7      2703.023          43.000
G21  22742357.531 6 119511897.116 6      3128.203          37.000    22742368.570 5  93126193.715 5      2437.564          34.000
G25  20930597.773 8 109991081.568 8     -1733.527          51.000    20930600.367 8  85707306.971 8     -1350.801          51.000
G29  20215342.141 8 106232343.048 8      -206.414          51.000    20215340.398 8  82778472.937 8      -160.842          51.000
R09  19230411.352 8 102689348.066 8      1027.449          48.000    19230413.312 7  79869501.194 7       799.127          47.000
R16  21486503.469 7 114777034.906 7     -3273.660          45.000    21486505.633 6  89271007.323 6     -2546.180          40.000
R19  19305017.539 6 103268859.280 6      -892.535          40.000    19305019.211 7  80320239.117 7      -694.194          45.000
R20  21105387.414 6 112860022.624 6      3448.859          39.000    21105396.727 8  87780034.099 8      2682.446          48.000
C27  21510068.797 8 112008679.584 8      -364.918          51.000
C28  24421313.289 5 127168190.540 5     -2821.340          31.000
C30  23166234.977 8 120632722.833 8      2478.836          50.000
E13  24721687.219 8 129913343.278 8      2491.676          51.000    24721688.773 8  99544065.080 8      1909.104          50.000
E15  23455205.391 8 123257946.029 8      -205.270          51.000    23455209.305 8  94444441.520 8      -157.243          51.000
E27  23327037.102 8 122584408.690 8      -520.461          51.000    23327040.047 8  93928329.526 8      -398.714          51.000
E30  25455567.992 5 133769912.482 5     -2399.461          34.000
> 2020 05 02 12 07 30.0000000  0 17        .000000000000
G02  24454161.266 5 128507468.211 5     -2666.387          33.000
G14  23841883.156 7 125289929.417 7     -2265.246          43.000    23841885.180 6  97628493.608 6     -1765.127          39.000
G18  22849762.805 7 120076365.473 7      3452.160          45.000    22849764.625 7  93565983.218 7      2689.995          43.000
G21  22724570.461 7 119418420.414 7      3110.211          43.000    22724581.359 4  93053354.721 4      2423.532          28.000
G25  20940570.047 8 110043485.431 8     -1753.469          50.000    20940572.359 8  85748141.140 8     -1366.339          50.000
G29  20216607.094 8 106238990.973 8      -230.309          51.000    20216605.555 8  82783653.145 8      -179.461          51.000
R09  19224739.820 8 102659062.457 8       998.418          49.000    19224741.852 7  79845945.723 7       776.547          47.000
R16  21504968.945 7 114875676.058 7     -3295.836          45.000    21504971.711 6  89347728.178 6     -2563.431          38.000
R19  19310134.227 6 103296230.711 6      -925.738          41.000    19310136.047 7  80341528.024 7      -720.019          44.000
R20  21086129.586 7 112757035.393 7      3423.539          42.000    21086138.109 8  87699932.968 8      2662.756          48.000
C27  21512256.469 8 112020071.983 8      -388.102          51.000
C28  24437626.664 5 127253130.500 5     -2835.488          32.000
C30  23152025.820 8 120558738.173 8      2459.992          48.000
E13  24707534.516 8 129838968.188 8      2473.242          51.000    24707535.477 8  99487076.439 8      1895.019          50.000
E15  23456462.016 8 123264549.677 8      -228.473          51.000    23456465.578 8  94449501.467 8      -175.028          51.000
E27  23330078.172 8 122600390.351 8      -538.504          51.000    23330081.562 8  93940575.204 8      -412.581          51.000
E30  25469323.992 6 133842200.057 6     -2413.121          36.000
> 2020 05 02 12 08  0.0000000  0 17        .000000000000
G02  24469405.227 5 128587577.876 5     -2673.617          31.000
G14  23854837.914 7 125358007.471 7     -2273.516          43.000    23854840.875 6  97681541.399 6     -1771.571          41.000
G18  22830071.242 7 119972890.499 7      3446.238          46.000    22830073.461 6  93485353.468 6      2685.387          41.000
G21  22706838.008 7 119325230.350 7      3102.668          45.000    22706850.719 4  92980739.103 4      2417.663          28.000
G25  20950606.617 8 110096227.212 8     -1762.457          50.000    20950608.984 8  85789238.612 8     -1373.343          50.000
G29  20217959.469 8 106246097.977 8      -243.312          51.000    20217958.094 8  82789191.064 8      -189.594          51.000
R09  19219181.984 8 102629383.540 8       980.391          49.000    19219183.859 7  79822862.125 7       762.529          47.000
R16  21523509.188 7 114974714.409 7     -3306.543          46.000    21523511.547 6  89424757.908 6     -2571.759          37.000
R19  19315388.016 6 103324334.964 6      -947.859          41.000    19315389.750 7  80363386.893 7      -737.224          44.000
R20  21066964.992 7 112654544.684 7      3409.414          42.000    21066972.117 8  87620218.044 8      2651.770          48.000
C27  21514528.117 8 112031901.307 8      -400.371          51.000
C28  24453970.414 5 127338234.561 5     -2838.766          33.000
C30  23137875.109 8 120485058.339 8      2452.160          48.000
E13  24693437.312 8 129764885.526 8      2465.824          51.000    24693437.961 8  99430311.854 8      1889.323          50.000
E15  23457801.719 8 123271589.946 8      -240.695          51.000    23457805.094 8  94454895.973 8      -184.471          51.000
E27  23333173.453 8 122616657.380 8      -545.719          51.000    23333177.656 8  93953039.547 8      -418.211          51.000
E30  25483110.375 6 133914646.327 6     -2416.352          36.000    25483114.641 5 102609939.947 5     -1851.170          32.000
> 2020 05 02 12 08 30.0000000  0 16        .000000000000
G14  23867845.000 7 125426360.289 7     -2290.211          43.000    23867848.703 6  97734803.296 6     -1784.580          41.000
G18  22810420.367 7 119869627.789 7      3431.078          45.000    22810422.188 6  93404889.129 6      2673.570          39.000
G21  22689153.844 7 119232295.871 7      3086.441          45.000    22689168.531 5  92908322.604 5      2405.019          32.000
G25  20960701.148 8 110149273.614 8     -1780.707          49.000    20960703.586 8  85830573.450 8     -1387.564          49.000
G29  20219392.734 8 106253630.493 8      -265.441          51.000    20219391.336 8  82795060.559 8      -206.834          51.000
R09  19213731.789 8 102600280.169 8       952.973          49.000    19213733.820 8  79800226.155 8       741.201          48.000
R16  21542117.172 7 115074114.711 7     -3326.836          45.000    21542119.469 6  89502069.081 6     -2587.545          38.000
R19  19320772.492 6 103353136.553 6      -978.949          41.000    19320774.008 7  80385788.152 7      -761.405          44.000
R20  21047887.008 6 112552519.353 6      3385.590          41.000    21047892.859 8  87540865.097 8      2633.240          48.000
C27  21516877.125 8 112044133.962 8      -421.758          51.000
C28  24470338.648 5 127423468.299 5     -2850.445          32.000
C30  23123778.430 8 120411651.644 8      2435.133          49.000
E13  24679389.492 8 129691063.693 8      2448.945          51.000    24679390.039 8  99373747.123 8      1876.399          50.000
E15  23459218.156 8 123279033.383 8      -262.277          51.000    23459221.688 8  94460599.400 8      -201.050          51.000
E27  23336316.867 8 122633177.369 8      -562.371          51.000    23336321.844 8  93965697.707 8      -430.995          51.000
E30  25496920.148 6 133987218.139 6     -2428.668          38.000
> 2020 05 02 12 09  0.0000000  0 15        .000000000000
G14  23880947.117 7 125495213.224 7     -2291.277          44.000    23880951.422 6  97788454.877 6     -1785.411          39.000
G18  22790853.789 7 119766808.132 7      3431.719          42.000    22790855.000 6  93324770.062 6      2674.070          41.000
G21  22671562.070 7 119139847.804 7      3085.359          46.000    22671576.250 5  92836285.071 5      2404.173          30.000
G25  20970897.008 8 110202852.254 8     -1782.844          49.000    20970899.344 8  85872323.026 8     -1389.229          50.000
G29  20220950.148 8 106261815.142 8      -271.711          51.000    20220948.961 8  82801438.215 8      -211.723          51.000
R09  19208433.234 8 102571986.357 8       941.812          49.000    19208435.523 8  79778219.869 8       732.521          48.000
R16  21560835.883 7 115174107.242 7     -3330.777          44.000    21560839.375 6  89579840.976 6     -2590.608          40.000
R19  19326330.039 6 103382864.872 6      -994.207          41.000    19326331.320 7  80408910.174 7      -773.272          44.000
R20  21028938.656 6 112451193.962 6      3377.766          39.000    21028943.977 7  87462056.525 7      2627.154          47.000
C27  21519346.914 8 112056994.909 8      -427.391          51.000
C30  23109778.578 8 120338744.865 8      2433.656          50.000
E13  24665434.578 8 129617731.829 8      2448.180          51.000    24665435.258 8  99317557.815 8      1875.821          49.000
E15  23460754.531 8 123287107.276 8      -267.656          51.000    23460758.008 8  94466785.905 8      -205.120          51.000
E27  23339552.078 8 122650178.741 8      -562.781          51.000    23339557.539 8  93978724.718 8      -431.231          51.000
E30  25510797.109 6 134060143.110 6     -2424.938          38.000    25510801.039 5 102721424.424 5     -1858.255          31.000
> 2020 05 02 12 09 30.0000000  0 15        .000000000000
G14  23894056.961 7 125564106.236 7     -2302.137          44.000    23894061.758 6  97842137.708 6     -1793.873          38.000
G18  22771284.422 6 119663977.608 6      3422.758          39.000    22771286.805 6  93244642.423 6      2667.081          40.000
G21  22653976.227 7 119047431.960 7      3074.852          47.000    22653985.391 5  92764272.635 5      2395.988          33.000
G25  20981107.102 8 110256505.840 8     -1794.832          48.000    20981109.305 8  85914131.018 8     -1398.570          48.000
G29  20222544.578 8 106270194.126 8      -287.613          51.000    20222543.781 8  82807967.298 8      -224.114          51.000
R09  19203199.688 8 102544040.296 8       920.555          49.000    19203202.336 8  79756484.030 8       715.987          49.000
R16  21579577.562 7 115274225.288 7     -3344.582          42.000    21579581.773 6  89657710.604 6     -2601.342          41.000
R19  19331973.211 6 103413053.018 6     -1019.277          40.000    19331974.742 7  80432389.853 7      -792.771          44.000
R20  21010033.953 6 112350106.552 6      3360.359          37.000    21010039.844 7  87383433.030 7      2613.613          47.000
C27  21521850.273 8 112070030.405 8      -442.473          51.000
C30  23095787.742 8 120265886.227 8      2422.758          50.000
E13  24651486.125 8 129544434.309 8      2437.582          51.000    24651487.008 8  99261394.848 8      1867.707          49.000
E15  23462323.836 8 123295354.143 8      -282.848          51.000    23462327.117 8  94473104.951 8      -216.772          51.000
E27  23342792.188 8 122667205.133 8      -573.070          51.000    23342797.617 8  93991770.913 8      -439.136          51.000
E30  25524654.141 6 134132964.051 6     -2430.492          38.000    25524658.320 5 102777223.231 5     -1862.529          35.000
> 2020 05 02 12 10  0.0000000  0 15        .000000000000
G14  23907227.414 7 125633317.131 7     -2311.500          45.000    23907232.125 6  97896068.234 6     -1801.169          39.000
G18  22751767.375 7 119561419.713 7      3415.188          43.000    22751770.945 7  93164727.124 7      2661.185          42.000
G21  22636450.367 7 118955331.249 7      3065.664          47.000    22636453.680 5  92692505.837 5      2388.829          35.000
G25  20991384.523 7 110310514.706 7     -1805.211          47.000    20991386.633 7  85956215.834 7     -1406.661          46.000
G29  20224229.156 8 106279046.968 8      -301.902          51.000    20224228.352 8  82814865.608 8      -235.249          51.000
R09  19198085.273 8 102516729.149 8       900.797          50.000    19198087.984 8  79735242.032 8       700.620          49.000
R16  21598395.039 6 115374752.677 6     -3356.305          40.000    21598400.523 7  89735898.543 7     -2610.462          42.000
R19  19337755.297 6 103443984.029 6     -1042.328          40.000    19337756.984 7  80456447.312 7      -810.700          44.000
R20  20991228.000 6 112249545.045 6      3344.605          38.000    20991234.125 7  87305218.582 7      2601.360          46.000
C27  21524440.320 8 112083517.540 8      -456.043          50.000
C30  23081858.734 8 120193354.739 8      2413.305          48.000
E13  24637597.852 8 129471453.021 8      2428.496          51.000    24637599.172 8  99205474.181 8      1860.733          49.000
E15  23463979.352 8 123304053.982 8      -296.449          51.000    23463982.664 8  94479771.071 8      -227.200          51.000
E27  23346090.609 8 122684537.653 8      -581.781          51.000    23346095.719 8  94005051.677 8      -445.810          51.000
E30  25538544.617 6 134205961.307 6     -2435.078          41.000    25538548.070 6 102833156.090 6     -1865.932          36.000
> 2020 05 02 12 10 30.0000000  0 15        .000000000000
G14  23920451.156 7 125702807.822 7     -2320.887          44.000    23920455.500 6  97950216.774 6     -1808.486          39.000
G18  22732297.531 7 119459101.524 7      3406.926          47.000    22732301.047 7  93084998.725 7      2654.747          43.000
G21  22618977.914 7 118863512.624 7      3056.270          47.000    22618978.734 6  92620958.926 6      2381.512          37.000
G25  21001722.656 8 110364842.913 8     -1816.008          48.000    21001724.695 8  85998549.503 8     -1415.071          48.000
G29  20225997.172 8 106288337.329 8      -316.617          51.000    20225996.305 8  82822104.841 8      -246.715          51.000
R09  19193083.320 8 102490019.233 8       880.797          50.000    19193086.242 8  79714467.655 8       685.064          50.000
R16  21617282.859 7 115475651.695 7     -3369.270          42.000    21617289.180 7  89814375.545 7     -2620.543          42.000
R19  19343669.258 6 103475619.602 6     -1065.723          39.000    19343670.688 7  80481052.745 7      -828.895          44.000
R20  20972514.734 6 112149476.146 6      3327.824          39.000    20972520.461 7  87227387.267 7      2588.311          45.000
C27  21527110.344 8 112097420.161 8      -470.000          51.000
C30  23067985.664 8 120121116.119 8      2403.367          48.000
E13  24623763.312 8 129398753.780 8      2418.859          50.000    24623765.133 8  99149769.607 8      1853.361          50.000
E15  23465714.156 8 123313170.653 8      -310.547          51.000    23465717.555 8  94486756.588 8      -237.990          51.000
E27  23349440.617 8 122702141.350 8      -591.000          51.000    23349445.438 8  94018540.228 8      -452.892          51.000
E30  25552461.969 6 134279098.992 6     -2439.816          40.000    25552465.969 6 102889196.616 6     -1869.622          36.000
> 2020 05 02 12 11  0.0000000  0 15        .000000000000
G14  23933724.758 7 125772560.314 7     -2329.273          44.000    23933728.594 6  98004569.307 6     -1815.018          38.000
G18  22712871.305 8 119357011.278 8      3399.199          49.000    22712874.320 7  93005447.938 7      2648.730          43.000
G21  22601556.414 7 118771963.804 7      3047.070          45.000    22601556.273 6  92549622.254 6      2374.341          38.000
G25  21012118.656 8 110419475.277 8     -1826.234          48.000    21012120.898 8  86041120.173 8     -1423.040          48.000
G29  20227845.273 8 106298049.376 8      -330.770          51.000    20227844.578 8  82829672.674 8      -257.742          51.000
R09  19188191.734 8 102463897.843 8       860.867          51.000    19188194.734 8  79694151.014 8       669.566          50.000
R16  21636238.062 7 115576905.404 7     -3380.934          43.000    21636244.344 6  89893128.341 6     -2629.618          40.000
R19  19349711.422 6 103507942.009 6     -1088.805          41.000    19349713.117 7  80506192.405 7      -846.851          44.000
R20  20953891.844 6 112049887.097 6      3311.312          41.000    20953896.805 7  87149929.201 7      2575.468          46.000
C27  21529857.062 8 112111722.660 8      -483.484          51.000
C30  23054166.125 8 120049156.673 8      2394.094          48.000
E13  24609980.047 8 129326323.031 8      2409.758          50.000    24609982.352 8  99094270.743 8      1846.408          50.000
E15  23467525.461 8 123322688.785 8      -324.031          51.000    23467528.852 8  94494049.702 8      -248.370          51.000
E27  23352839.531 8 122720001.920 8      -599.785          51.000    23352844.297 8  94032225.599 8      -459.594          51.000
E30  25566403.086 6 134352362.036 6     -2444.383          37.000    25566408.164 6 102945333.171 6     -1873.067          36.000
> 2020 05 02 12 11 30.0000000  0 15        .000000000000
G14  23947050.750 7 125842588.093 7     -2339.344          44.000    23947053.828 6  98059136.380 6     -1822.865          39.000
G18  22693492.086 8 119255168.123 8      3390.023          49.000    22693494.172 7  92926089.690 7      2641.580          44.000
G21  22584189.281 7 118680703.657 7      3036.812          43.000    22584189.289 6  92478510.505 6      2366.350          38.000
G25  21022575.414 8 110474427.845 8     -1837.504          48.000    21022578.242 8  86083940.328 8     -1431.821          48.000
G29  20229776.500 8 106308198.240 8      -345.992          51.000    20229775.633 8  82837580.853 8      -269.604          51.000
R09  19183413.844 8 102438383.613 8       839.910          51.000    19183416.906 8  79674306.613 8       653.263          50.000
R16  21655263.328 7 115678528.532 7     -3394.035          45.000    21655268.438 6  89972168.455 6     -2639.811          39.000
R19  19355884.898 6 103540965.637 6     -1112.789          40.000    19355886.312 7  80531877.446 7      -865.503          44.000
R20  20935362.336 6 111950796.998 6      3294.113          41.000    20935366.523 7  87072859.217 7      2562.091          45.000
C27  21532683.742 8 112126440.158 8      -497.852          51.000
C30  23040403.641 8 119977493.422 8      2383.422          50.000
E13  24596251.539 8 129254178.286 8      2399.684          51.000    24596254.172 8  99038991.027 8      1838.695          51.000
E15  23469415.945 8 123332623.973 8      -338.582          51.000    23469419.680 8  94501662.382 8      -259.370          51.000
E27  23356290.609 8 122738136.170 8      -609.430          51.000    23356295.117 8  94046120.662 8      -466.921          51.000
E30  25580369.828 5 134425750.394 5     -2449.582          33.000    25580376.648 5 103001577.903 5     -1876.809          32.000
> 2020 05 02 12 12  0.0000000  0 16        .000000000000
G14  23960421.336 7 125912851.428 7     -2344.188          42.000    23960423.492 6  98113886.978 6     -1826.643          38.000
G18  22674153.188 8 119153537.944 8      3386.125          50.000    22674154.234 7  92846897.386 7      2638.539          43.000
G21  22566870.078 7 118589697.677 7      3031.242          44.000    22566871.164 7  92407596.782 7      2362.007          42.000
G25  21033086.250 8 110529663.192 8     -1843.918          48.000    21033088.992 8  86126980.818 8     -1436.819          49.000
G29  20231783.570 8 106318745.874 8      -356.262          51.000    20231782.672 8  82845799.779 8      -277.607          51.000
R09  19178742.789 8 102413441.184 8       823.902          51.000    19178745.836 8  79654906.945 8       640.813          50.000
R16  21674350.531 7 115780481.644 7     -3401.852          46.000    21674354.789 6  90051465.246 6     -2645.888          38.000
R18  22340197.773 5 119253489.291 5     -3936.309          30.000
R19  19362181.977 6 103574650.548 6     -1131.789          40.000    19362183.344 7  80558076.808 7      -880.280          45.000
R20  20916918.703 6 111852170.813 6      3281.703          40.000    20916922.648 7  86996150.042 7      2552.439          45.000
C27  21535582.641 8 112141534.969 8      -507.480          51.000
C30  23026691.930 8 119906090.524 8      2377.699          51.000
E13  24582570.820 8 129182283.768 8      2394.328          51.000    24582573.703 8  98983903.046 8      1834.582          51.000
E15  23471378.609 8 123342938.512 8      -348.164          51.000    23471382.617 8  94509565.742 8      -266.784          51.000
E27  23359786.820 8 122756507.586 8      -614.375          51.000    23359790.898 8  94060197.472 8      -470.746          51.000
E30  25594357.141 5 134499254.713 5     -2449.918          35.000    25594363.289 5 103057902.310 5     -1877.216          31.000
> 2020 05 02 12 12 30.0000000  0 17        .000000000000
G14  23973843.734 6 125983388.257 6     -2356.516          41.000    23973844.906 6  98168850.667 6     -1836.246          37.000
G18  22654862.938 8 119052164.161 8      3374.016          49.000    22654862.805 7  92767904.906 7      2629.106          42.000
G21  22549607.781 7 118498988.834 7      3017.914          44.000    22549609.922 7  92336914.595 7      2351.621          43.000
G25  21043658.820 8 110585221.547 8     -1858.305          49.000    21043660.758 8  86170273.026 8     -1448.030          49.000
G29  20233874.117 8 106329731.797 8      -374.309          51.000    20233873.148 8  82854360.249 8      -291.669          51.000
R09  19174187.266 8 102389114.310 8       799.773          51.000    19174189.961 8  79635986.050 8       622.046          51.000
R16  21693506.281 7 115882804.511 7     -3417.629          44.000    21693510.844 6  90131049.584 6     -2658.159          39.000
R18  22362351.852 5 119371756.015 5     -3946.312          34.000
R19  19368609.664 6 103609035.559 6     -1158.594          38.000    19368611.547 7  80584820.724 7      -901.125          45.000
R20  20898569.320 6 111754052.297 6      3261.348          39.000    20898573.492 7  86919835.681 7      2536.607          44.000
C27  21538561.695 8 112157046.359 8      -524.816          51.000
C28  24602269.148 5 128110464.235 5     -2879.707          33.000
C30  23013038.758 8 119834989.132 8      2364.184          51.000
E13  24568945.602 8 129110681.375 8      2380.984          50.000    24568948.484 8  98929038.906 8      1824.462          51.000
E15  23473421.336 8 123353672.430 8      -365.605          51.000    23473425.055 8  94517790.435 8      -280.154          51.000
E27  23363335.930 8 122775157.258 8      -627.102          51.000    23363339.547 8  94074487.482 8      -480.584          51.000
E30  25608372.742 5 134572907.430 5     -2458.359          35.000    25608379.336 6 103114337.432 6     -1883.843          36.000
> 2020 05 02 12 13  0.0000000  0 17        .000000000000
G14  23987302.820 6 126054118.199 6     -2348.094          39.000    23987303.539 6  98223964.834 6     -1829.686          36.000
G18  22635606.984 8 118950972.228 8      3382.688          49.000    22635605.297 6  92689054.143 6      2635.863          41.000
G21  22532388.523 7 118408502.322 7      3025.391          46.000    22532391.117 7  92266405.666 7      2357.447          45.000
G25  21054278.133 8 110641025.115 8     -1851.359          49.000    21054280.141 8  86213756.300 8     -1442.621          49.000
G29  20236033.250 8 106341077.686 8      -371.395          51.000    20236031.984 8  82863201.205 8      -289.395          51.000
R09  19169732.523 8 102365326.347 8       796.977          51.000    19169735.258 8  79617484.306 8       619.871          51.000
R16  21712715.258 7 115985415.911 7     -3412.078          42.000    21712720.320 6  90210858.307 6     -2653.842          40.000
R18  22384530.961 6 119490146.242 6     -3935.473          36.000
R19  19375152.984 6 103644039.310 6     -1163.887          39.000    19375154.891 7  80612045.838 7      -905.248          44.000
R20  20880300.195 6 111656365.648 6      3262.254          39.000    20880304.602 7  86843857.176 7      2537.309          42.000
C27  21541605.758 8 112172896.564 8      -521.273          51.000
C28  24618850.070 5 128196820.694 5     -2867.324          34.000
C30  22999428.977 8 119764113.419 8      2371.500          51.000
E13  24555361.008 8 129039294.905 8      2388.789          50.000    24555363.875 8  98874340.204 8      1830.338          51.000
E15  23475528.961 8 123364747.574 8      -361.980          51.000    23475532.438 8  94526276.590 8      -277.353          51.000
E27  23366923.250 8 122794008.322 8      -618.883          51.000    23366926.406 8  94088931.785 8      -474.191          51.000
E30  25622401.469 6 134646626.756 6     -2445.617          36.000    25622408.375 6 103170823.580 6     -1873.876          39.000
> 2020 05 02 12 13 30.0000000  0 18        .000000000000
G02  24640437.273 5 129486420.070 5     -2773.191          30.000
G14  24000810.086 6 126125101.633 6     -2375.258          38.000    24000810.562 6  98279276.546 6     -1850.850          36.000
G18  22616397.992 8 118850028.195 8      3355.660          48.000    22616395.891 7  92610396.527 7      2614.803          43.000
G21  22515224.523 8 118318303.633 8      2996.855          48.000    22515227.164 7  92196120.992 7      2335.212          44.000
G25  21064955.969 8 110697136.721 8     -1880.453          49.000    21064958.320 8  86257479.587 8     -1465.291          49.000
G29  20238272.578 8 106352845.735 8      -404.230          51.000    20238271.258 8  82872371.127 8      -314.985          51.000
R09  19165390.930 8 102342143.496 8       757.668          51.000    19165393.953 8  79599453.175 8       589.294          51.000
R16  21731988.680 6 116088378.735 6     -3442.910          38.000    21731994.617 6  90290940.405 6     -2677.822          40.000
R18  22406744.203 6 119608721.110 6     -3960.578          36.000
R19  19381823.781 6 103679723.576 6     -1205.891          38.000    19381825.945 7  80639800.264 7      -937.915          45.000
R20  20862125.352 6 111559177.481 6      3226.004          40.000    20862128.539 6  86768266.406 6      2509.114          41.000
C27  21544726.477 8 112189147.202 8      -553.273          51.000
C28  24635455.477 5 128283297.114 5     -2889.371          32.000
C30  22985874.094 8 119693526.904 8      2343.238          51.000
E13  24541829.453 8 128968188.784 8      2360.598          50.000    24541832.094 8  98819856.320 8      1808.785          50.000
E15  23477713.328 8 123376226.493 8      -394.266          51.000    23477716.914 8  94535072.135 8      -302.049          51.000
E27  23370561.062 8 122813124.407 8      -646.516          51.000    23370563.820 8  94103579.154 8      -495.334          51.000
E30  25636454.734 6 134720475.582 6     -2468.562          37.000    25636462.281 6 103227409.027 6     -1891.520          39.000
> 2020 05 02 12 14  0.0000000  0 18        .000000000000
G02  24656288.102 5 129569651.400 5     -2777.047          31.000
G14  24014390.789 6 126196468.332 6     -2380.242          38.000    24014391.016 6  98334886.917 6     -1854.734          37.000
G18  22597261.484 7 118749467.657 7      3350.812          47.000    22597260.430 7  92532037.712 7      2611.023          45.000
G21  22498141.109 8 118228528.047 8      2990.684          48.000    22498143.727 7  92126166.049 7      2330.403          45.000
G25  21075717.578 7 110753688.651 7     -1887.168          47.000    21075719.672 7  86301546.007 7     -1470.520          47.000
G29  20240617.320 8 106365167.418 8      -414.707          51.000    20240615.992 8  82881972.438 8      -323.148          51.000
R09  19161188.680 8 102319702.883 8       740.898          51.000    19161191.203 8  79581999.379 8       576.254          51.000
R16  21751352.477 6 116191825.989 6     -3451.180          40.000    21751359.477 6  90371399.361 6     -2684.248          40.000
R18  22429015.766 5 119727611.635 5     -3962.445          34.000
R19  19388646.508 6 103716221.176 6     -1225.059          39.000    19388648.688 7  80668187.283 7      -952.823          45.000
R20  20844069.938 6 111462624.935 6      3212.953          39.000    20844071.930 7  86693170.060 7      2498.967          42.000
C27  21547949.172 8 112205928.681 8      -563.012          51.000
C28  24652108.023 4 128370023.198 4     -2889.352          29.000
C30  22972399.531 8 119623361.934 8      2336.949          50.000
E13  24528376.477 8 128897496.887 8      2354.781          49.000    24528378.773 8  98765689.833 8      1804.313          50.000
E15  23479999.727 8 123388241.113 8      -404.129          51.000    23480003.234 8  94544278.154 8      -309.642          51.000
E27  23374274.711 8 122832638.673 8      -651.828          51.000    23374277.039 8  94118531.624 8      -499.390          51.000
E30  25650558.242 5 134794586.226 5     -2469.457          35.000    25650565.844 6 103284195.067 6     -1892.092          39.000
> 2020 05 02 12 14 30.0000000  0 17        .000000000000
G02  24672178.188 5 129653170.980 5     -2786.363          30.000
G14  24028015.773 6 126268066.553 6     -2390.297          40.000    24028015.578 6  98390677.685 6     -1862.572          39.000
G18  22578169.734 7 118649144.683 7      3340.156          46.000    22578170.422 7  92453863.984 7      2602.719          46.000
G21  22481109.992 8 118139029.153 8      2978.660          48.000    22481112.531 7  92056426.707 7      2321.034          43.000
G25  21086534.602 8 110810531.754 8     -1899.582          48.000    21086536.516 8  86345839.334 8     -1480.191          48.000
G29  20243038.875 8 106377893.027 8      -430.898          51.000    20243037.516 8  82891888.508 8      -335.765          51.000
R09  19157097.578 8 102297855.461 8       718.367          51.000    19157099.578 8  79565006.946 8       558.730          51.000
R16  21770779.984 7 116295604.538 7     -3464.879          44.000    21770786.516 6  90452116.053 6     -2694.903          39.000
R18  22451317.953 6 119846663.180 6     -3971.172          36.000    22451327.141 4  93214104.411 4     -3088.683          25.000
R19  19395592.586 6 103753377.885 6     -1249.500          39.000    19395594.695 7  80697086.951 7      -971.833          45.000
R20  20826105.086 6 111366559.502 6      3194.191          38.000    20826107.609 7  86618452.595 7      2484.374          44.000
C27  21551244.953 8 112223092.590 8      -578.523          51.000
C30  22958977.086 8 119553471.990 8      2325.090          49.000
E13  24514974.305 8 128827071.688 8      2343.148          50.000    24514976.094 8  98711727.723 8      1795.379          50.000
E15  23482359.578 8 123400642.009 8      -419.758          51.000    23482362.859 8  94553780.153 8      -321.639          51.000
E27  23378035.867 8 122852402.923 8      -662.953          51.000    23378037.648 8  94133675.640 8      -508.001          51.000
E30  25664682.984 5 134868818.651 5     -2475.902          33.000    25664690.250 6 103341067.539 6     -1897.222          39.000
> 2020 05 02 12 15  0.0000000  0 17        .000000000000
G02  24688117.750 5 129736934.146 5     -2796.082          32.000
G14  24041688.273 7 126339914.307 7     -2398.852          42.000    24041688.133 5  98446662.883 5     -1869.238          35.000
G18  22559127.969 8 118549082.732 8      3331.109          48.000    22559129.750 7  92375893.668 7      2595.670          46.000
G21  22464135.539 7 118049829.993 7      2968.332          47.000    22464138.023 7  91986920.901 7      2312.989          42.000
G25  21097410.625 7 110867686.390 7     -1910.238          47.000    21097412.969 7  86390375.416 7     -1488.497          47.000
G29  20245541.062 8 106391042.232 8      -445.238          51.000    20245539.555 8  82902134.639 8      -346.939          51.000
R09  19153121.836 8 102276624.649 8       697.527          51.000    19153123.852 8  79548494.092 8       542.521          51.000
R16  21790274.570 7 116399733.978 7     -3476.758          46.000    21790279.555 6  90533105.613 6     -2704.148          40.000
R18  22473653.883 5 119965893.767 5     -3977.031          32.000    22473663.672 4  93306844.250 4     -3093.247          27.000
R19  19402665.336 6 103791212.315 6     -1272.383          40.000    19402667.445 7  80726513.734 7      -989.634          45.000
R20  20808235.133 6 111271004.380 6      3176.801          38.000    20808239.031 7  86544131.987 7      2470.845          46.000
C27  21554618.250 8 112240658.390 8      -592.145          51.000
C30  22945611.125 8 119483878.474 8      2314.914          49.000
E13  24501627.484 8 128756935.098 8      2333.148          51.000    24501629.086 8  98657986.747 8      1787.719          50.000
E15  23484796.688 8 123413449.154 8      -433.559          51.000    23484799.961 8  94563593.430 8      -332.210          51.000
E27  23381848.562 8 122872438.318 8      -672.344          51.000    23381849.859 8  94149027.417 8      -515.146          51.000
E30                                                                  25678838.961 6 103398042.027 6     -1900.906          36.000
> 2020 05 02 12 15 30.0000000  0 17        .000000000000
G02  24704103.781 5 129820941.559 5     -2803.414          32.000
G14  24055408.000 7 126412009.601 7     -2406.836          43.000    24055407.422 6  98502840.967 6     -1875.460          36.000
G18  22540137.141 8 118449285.608 8      3322.367          49.000    22540139.188 7  92298129.740 7      2588.861          46.000
G21  22447218.883 8 117960934.051 8      2958.234          48.000    22447220.328 6  91917651.409 6      2305.124          37.000
G25  21108346.078 8 110925153.097 8     -1920.547          48.000    21108348.531 8  86435154.672 8     -1496.530          48.000
G29  20248123.766 8 106404614.734 8      -459.145          51.000    20248122.422 8  82912710.637 8      -357.772          51.000
R09  19149262.289 8 102256013.040 8       677.035          51.000    19149264.055 8  79532462.851 8       526.583          51.000
R16  21809835.297 7 116504212.953 7     -3488.109          47.000    21809839.102 6  90614366.981 6     -2712.977          40.000
R18  22496022.672 5 120085300.771 5     -3982.953          33.000    22496033.461 5  93399716.285 5     -3097.855          30.000
R19  19409864.430 6 103829722.936 6     -1294.445          39.000    19409866.852 7  80756466.454 7     -1006.791          45.000
R20  20790462.219 6 111175963.238 6      3159.512          39.000    20790466.719 7  86470211.137 7      2457.401          47.000
C27  21558068.695 8 112258625.958 8      -605.285          51.000
C30  22932302.062 8 119414583.122 8      2305.238          49.000
E13  24488336.609 8 128687089.231 8      2323.559          51.000    24488338.312 8  98604468.540 8      1780.440          51.000
E15  23487311.172 8 123426662.787 8      -447.008          51.000    23487314.555 8  94573718.179 8      -342.509          51.000
E27  23385713.172 8 122892746.251 8      -681.285          51.000    23385714.297 8  94164588.031 8      -522.036          51.000
E30  25693007.805 5 135017662.679 5     -2485.035          35.000    25693012.375 5 103455118.969 5     -1904.142          33.000
> 2020 05 02 12 16  0.0000000  0 17        .000000000000
G02  24720145.250 5 129905240.454 5     -2829.402          30.000
G14  24069183.719 7 126484399.367 7     -2431.578          42.000    24069182.391 5  98559248.493 5     -1894.739          32.000
G18  22521206.812 8 118349806.111 8      3296.789          49.000    22521208.906 7  92220613.316 7      2568.930          46.000
G21  22430370.375 8 117872393.536 8      2931.504          50.000    22430368.047 5  91848658.938 5      2284.295          35.000
G25  21119350.625 8 110982981.429 8     -1947.457          49.000    21119353.031 8  86480215.702 8     -1517.499          49.000
G29  20250796.320 8 106418659.412 8      -489.941          51.000    20250795.289 8  82923654.554 8      -381.773          51.000
R09  19145528.500 8 102236073.681 8       639.328          51.000    19145529.875 8  79516954.474 8       497.258          51.000
R16  21829469.961 7 116609090.621 7     -3516.590          45.000    21829472.695 6  90695938.395 6     -2735.132          39.000
R18  22518433.539 5 120204931.140 5     -4005.043          34.000    22518445.305 5  93492762.095 5     -3115.033          31.000
R19  19417199.016 6 103868957.991 6     -1334.023          38.000    19417201.156 7  80786982.608 7     -1037.574          44.000
R20  20772795.523 6 111081489.163 6      3125.645          41.000    20772800.445 8  86396731.350 8      2431.060          48.000
C27  21561605.609 8 112277043.737 8      -635.148          51.000
C30  22919060.656 8 119345636.316 8      2278.602          50.000
E13  24475111.180 8 128617585.206 8      2297.203          51.000    24475113.273 8  98551212.272 8      1760.201          51.000
E15  23489912.312 8 123440332.132 8      -477.152          51.000    23489915.828 8  94584192.113 8      -365.574          51.000
E27  23389639.227 8 122913377.166 8      -706.934          51.000    23389640.430 8  94180396.135 8      -541.703          51.000
E30  25707220.016 6 135092336.512 6     -2506.301          37.000    25707220.469 5 103512336.499 5     -1920.667          32.000
> 2020 05 02 12 16 30.0000000  0 17        .000000000000
G02  24736209.703 5 129989666.178 5     -2818.012          31.000
G14  24082983.719 7 126556917.068 7     -2420.789          42.000    24082981.359 5  98615755.718 5     -1886.335          30.000
G18  22502305.938 7 118250482.856 7      3306.734          46.000    22502308.539 7  92143218.627 7      2576.676          46.000
G21  22413558.977 8 117784046.798 8      2940.105          51.000    22413554.859 6  91779817.490 6      2290.994          38.000
G25  21130392.695 8 111041006.753 8     -1938.918          50.000    21130394.961 8  86525430.238 8     -1510.845          50.000
G29  20253527.195 8 106433010.819 8      -484.938          51.000    20253526.469 8  82934837.476 8      -377.873          51.000
R09  19141889.477 8 102216641.851 8       637.711          51.000    19141890.562 8  79501840.827 8       495.997          51.000
R16  21849146.055 7 116714198.044 7     -3508.867          44.000    21849149.008 6  90777688.494 6     -2729.125          39.000
R18  22540854.758 5 120324615.087 5     -3991.367          33.000    22540866.398 5  93585849.596 5     -3104.394          31.000
R19  19424637.352 6 103908747.665 6     -1337.230          39.000    19424639.273 7  80817930.118 7     -1040.071          45.000
R20  20755204.125 6 110987417.439 6      3127.188          41.000    20755209.164 8  86323564.480 8      2432.257          48.000
C27  21565197.539 8 112295747.886 8      -629.723          51.000
C30  22905856.492 8 119276876.035 8      2287.508          51.000
E13  24461919.719 8 128548259.980 8      2306.348          51.000    24461922.320 8  98498093.004 8      1767.133          51.000
E15  23492568.695 8 123454292.185 8      -471.664          51.000    23492572.320 8  94594888.789 8      -361.399          51.000
E27  23393595.414 8 122934167.303 8      -697.180          51.000    23393596.828 8  94196326.238 8      -534.188          51.000
E30  25721435.102 6 135167029.028 6     -2491.469          38.000    25721434.180 5 103569568.350 5     -1909.257          35.000
> 2020 05 02 12 17  0.0000000  0 18        .000000000000
G02  24752333.070 5 130074389.659 5     -2827.297          31.000
G14  24096842.867 6 126629746.433 6     -2430.555          41.000    24096839.664 5  98672505.958 5     -1893.933          31.000
G18  22483470.539 7 118151505.508 7      3295.660          44.000    22483474.195 7  92066093.478 7      2568.047          44.000
G21  22396820.422 8 117696083.419 8      2927.875          51.000    22396817.656 7  91711274.727 7      2281.467          42.000
G25  21141507.508 8 111099415.495 8     -1950.977          50.000    21141509.664 8  86570943.521 8     -1520.241          50.000
G29  20256351.812 8 106447854.577 8      -500.762          51.000    20256351.352 8  82946404.049 8      -390.204          51.000
R09  19138381.773 8 102197909.287 8       615.020          51.000    19138382.492 8  79487271.073 8       478.352          51.000
R16  21868899.492 7 116819723.040 7     -3522.047          43.000    21868903.430 6  90859763.407 6     -2739.370          39.000
R18  22563320.562 5 120444539.068 5     -3999.336          33.000    22563331.594 5  93679123.778 5     -3110.598          31.000
R19  19432214.352 6 103949279.472 6     -1361.020          39.000    19432216.500 7  80849454.848 7     -1058.571          45.000
R20  20737723.867 6 110893940.699 6      3108.129          41.000    20737728.734 7  86250860.379 7      2417.434          47.000
C27  21568879.938 8 112314922.439 8      -644.742          51.000
C28  24752489.234 5 128892709.445 5     -2914.871          33.000
C30  22892724.359 8 119208488.285 8      2275.637          51.000
E13  24448797.852 8 128479301.567 8      2294.691          51.000    24448800.789 8  98445254.787 8      1758.309          51.000
E15  23495315.844 8 123468728.981 8      -486.934          51.000    23495319.414 8  94605950.763 8      -373.066          51.000
E27  23397617.586 8 122955303.908 8      -708.133          51.000    23397619.195 8  94212521.828 8      -542.550          51.000
E30  25735687.648 6 135241926.940 6     -2497.770          39.000    25735688.125 6 103626957.503 6     -1913.983          36.000
> 2020 05 02 12 17 30.0000000  0 18        .000000000000
G02  24768498.289 5 130159346.337 5     -2836.699          31.000
G14  24110743.828 6 126702795.965 6     -2438.758          40.000    24110739.930 5  98729427.630 5     -1900.340          35.000
G18  22464684.992 7 118052788.832 7      3285.984          44.000    22464689.359 7  91989171.427 7      2560.507          44.000
G21  22380138.078 8 117608417.096 8      2917.102          50.000    22380137.148 7  91642963.402 7      2273.066          43.000
G25  21152678.492 8 111158119.122 8     -1961.820          50.000    21152680.914 8  86616686.569 8     -1528.691          50.000
G29  20259253.242 8 106463101.986 8      -515.043          51.000    20259253.086 8  82958285.135 8      -401.332          51.000
R09  19134988.258 8 102179788.377 8       593.656          51.000    19134989.086 8  79473177.032 8       461.733          51.000
R16  21888713.945 6 116925574.411 6     -3533.633          41.000    21888719.266 6  90942092.160 6     -2748.384          39.000
R18  22585813.562 5 120564610.043 5     -4005.488          30.000    22585824.141 5  93772512.252 5     -3115.383          31.000
R19  19439912.992 6 103990460.932 6     -1383.477          38.000    19439914.742 7  80881484.877 7     -1076.037          44.000
R20  20720337.992 6 110800971.565 6      3090.414          40.000    20720342.898 7  86178551.094 7      2403.658          45.000
C27  21572635.617 8 112334479.028 8      -658.328          51.000
C28  24769298.789 6 128980227.314 6     -2919.254          36.000
C30  22879646.625 8 119140386.654 8      2265.070          50.000
E13  24435728.859 8 128410623.057 8      2284.477          51.000    24435732.000 8  98392631.040 8      1750.401          51.000
E15  23498136.766 8 123483553.693 8      -500.805          51.000    23498140.414 8  94617309.977 8      -383.733          51.000
E27  23401689.148 8 122976699.405 8      -717.746          51.000    23401690.938 8  94228915.786 8      -549.901          51.000
E30  25749962.891 6 135316941.660 6     -2502.832          38.000    25749963.664 6 103684436.270 6     -1917.581          37.000
> 2020 05 02 12 18  0.0000000  0 16        .000000000000
G14  24124691.273 6 126776090.323 6     -2445.219          39.000    24124687.547 5  98786540.025 5     -1905.368          32.000
G18  22445955.312 7 117954362.716 7      3278.051          45.000    22445959.914 7  91912475.808 7      2554.328          44.000
G21  22363517.477 8 117521077.434 8      2907.812          49.000    22363517.914 7  91574906.575 7      2265.831          45.000
G25  21163910.531 8 111217144.468 8     -1970.910          48.000    21163912.953 8  86662680.317 8     -1535.774          48.000
G29  20262236.359 8 106478778.724 8      -527.602          51.000    20262236.414 8  82970500.783 8      -411.118          51.000
R09  19131714.961 8 102162309.126 8       573.992          51.000    19131715.695 8  79459582.075 8       446.438          51.000
R16  21908595.414 7 117031777.709 7     -3543.879          42.000    21908601.102 6  91024694.666 6     -2756.350          38.000
R19  19447737.648 6 104032317.105 6     -1404.367          38.000    19447739.234 7  80914039.714 7     -1092.283          44.000
R20  20703052.430 6 110708540.025 6      3074.277          40.000    20703056.195 6  86106659.934 6      2391.108          41.000
C27  21576469.555 8 112354443.499 8      -670.180          51.000
C28  24786131.406 6 129067867.601 6     -2921.586          36.000
C30  22866627.805 8 119072598.860 8      2256.410          48.000
E13  24422718.125 8 128342252.824 8      2275.875          51.000    24422721.594 8  98340243.482 8      1743.807          51.000
E15  23501036.602 8 123498792.739 8      -512.871          51.000    23501040.430 8  94628986.667 8      -393.003          51.000
E27  23405815.391 8 122998381.406 8      -725.543          51.000    23405817.258 8  94245529.287 8      -555.947          51.000
E30  25764264.539 6 135392100.142 6     -2505.559          36.000    25764266.445 6 103742025.130 6     -1920.050          38.000
> 2020 05 02 12 18 30.0000000  0 16        .000000000000
G14  24138718.875 6 126849805.554 6     -2456.648          40.000    24138715.727 4  98843980.404 4     -1914.268          29.000
G18  22427316.039 8 117856409.327 8      3264.570          48.000    22427319.539 6  91836148.608 6      2543.827          40.000
G21  22346993.688 8 117434246.396 8      2893.234          50.000    22346994.906 7  91507246.065 7      2254.468          45.000
G25  21175237.594 7 111276670.443 7     -1985.191          47.000    21175240.055 7  86709064.144 7     -1546.905          47.000
G29  20265335.195 8 106495063.270 8      -545.637          51.000    20265335.336 8  82983190.046 8      -425.171          51.000
R09  19128596.195 8 102145655.485 8       548.828          51.000    19128596.906 8  79446629.257 8       426.866          51.000
R16  21928576.031 6 117138513.561 6     -3559.332          39.000    21928582.398 6  91107711.344 6     -2768.372          37.000
R19  19455721.766 6 104075027.913 6     -1430.352          40.000    19455723.648 7  80947259.268 7     -1112.493          44.000
R20  20685902.383 6 110616830.988 6      3052.016          40.000    20685903.727 6  86035330.781 6      2373.796          41.000
C27  21580415.688 8 112374992.475 8      -687.508          51.000
C28  24803020.711 5 129155806.450 5     -2928.727          33.000
C30  22853703.703 8 119005303.384 8      2242.203          48.000
E13  24409800.102 8 128274371.288 8      2261.836          51.000    24409803.969 8  98288230.387 8      1733.071          51.000
E15  23504049.438 8 123514624.657 8      -530.328          51.000    23504053.156 8  94641117.631 8      -406.397          51.000
E27  23410030.250 8 123020529.741 8      -738.820          51.000    23410032.164 8  94262500.089 8      -566.106          51.000
E30  25778626.938 6 135467581.213 6     -2513.855          36.000    25778630.047 6 103799861.243 6     -1926.829          37.000
> 2020 05 02 12 19  0.0000000  0 16        .000000000000
G14  24152748.984 6 126923535.018 6     -2461.336          40.000    24152746.688 5  98901431.827 5     -1917.921          31.000
G18  22408690.258 8 117758527.145 8      3258.102          49.000    22408690.758 6  91759876.984 6      2538.787          40.000
G21  22330490.656 8 117347521.979 8      2885.523          51.000    22330491.570 7  91439668.664 7      2248.463          44.000
G25  21186583.062 7 111336292.226 7     -1992.613          47.000    21186585.266 7  86755522.666 7     -1552.683          47.000
G29  20268472.453 8 106511549.625 8      -556.477          51.000    20268472.664 8  82996036.566 8      -433.618          51.000
R09  19125555.328 8 102129418.537 8       530.645          51.000    19125556.461 8  79434000.524 8       412.724          51.000
R16  21948578.383 6 117245368.876 6     -3567.586          39.000    21948586.234 6  91190820.912 6     -2774.792          38.000
R19  19463788.461 6 104118178.815 6     -1449.148          40.000    19463790.227 7  80980821.089 7     -1127.112          44.000
R20  20668810.609 6 110525435.068 6      3037.699          39.000    20668812.969 7  85964245.158 7      2362.655          44.000
C27  21584396.852 8 112395724.108 8      -697.613          51.000
C28  24819890.203 4 129243641.589 4     -2929.152          29.000
C30  22840798.180 8 118938100.355 8      2234.977          49.000
E13  24396898.367 8 128206575.272 8      2254.844          51.000    24396902.586 8  98236282.810 8      1727.785          51.000
E15  23507097.820 8 123530644.263 8      -540.648          51.000    23507101.422 8  94653392.406 8      -414.230          51.000
E27  23414256.875 8 123042740.485 8      -744.895          51.000    23414258.727 8  94279518.701 8      -570.772          51.000
E30  25792973.219 6 135542980.278 6     -2515.742          36.000    25792977.664 6 103857634.475 6     -1927.365          40.000
> 2020 05 02 12 19 30.0000000  0 15        .000000000000
G14  24166823.961 6 126997499.698 6     -2469.082          41.000    24166821.852 4  98959066.551 4     -1923.966          29.000
G18  22390120.992 8 117660942.915 8      3248.027          49.000    22390120.070 7  91683837.476 7      2530.936          42.000
G21  22314051.047 8 117261130.292 8      2874.438          51.000    22314051.328 7  91372350.566 7      2239.824          45.000
G25  21197989.273 7 111396233.310 7     -2003.004          46.000    21197991.812 7  86802229.999 7     -1560.785          46.000
G29  20271690.430 8 106528460.804 8      -570.488          51.000    20271690.711 8  83009214.124 8      -444.533          51.000
R09  19122635.586 8 102113827.764 8       509.133          50.000    19122636.984 8  79421874.372 8       395.992          51.000
R16  21968646.633 6 117352568.950 6     -3579.004          41.000    21968654.781 6  91274198.693 6     -2783.670          41.000
R19  19471979.734 6 104161995.239 6     -1471.578          39.000    19471981.594 7  81014900.554 7     -1144.561          44.000
R20  20651820.008 6 110434582.270 6      3019.844          40.000    20651824.328 7  85893581.902 7      2348.764          45.000
C27  21588455.695 8 112416859.183 8      -711.023          51.000
C30  22827953.500 8 118871212.410 8      2224.688          50.000
E13  24384056.109 8 128139089.789 8      2244.637          51.000    24384060.398 8  98184573.191 8      1719.878          51.000
E15  23510224.422 8 123547074.701 8      -554.266          51.000    23510228.055 8  94665981.966 8      -424.652          51.000
E27  23418538.172 8 123065237.995 8      -754.332          51.000    23418539.914 8  94296757.037 8      -577.998          51.000
E30  25807347.312 6 135618520.766 6     -2520.148          39.000    25807353.695 6 103915516.102 6     -1930.924          41.000
> 2020 05 02 12 20  0.0000000  0 15        .000000000000
G14  24180941.023 6 127071685.180 6     -2476.562          41.000    24180940.227 5  99016873.392 5     -1929.789          35.000
G18  22371606.648 8 117563648.304 8      3238.430          48.000    22371605.828 7  91608023.583 7      2523.452          43.000
G21  22297672.969 8 117175062.597 8      2863.672          51.000    22297672.648 7  91305284.928 7      2231.436          45.000
G25  21209454.328 7 111456482.182 7     -2013.309          47.000    21209457.344 7  86849177.171 7     -1568.812          47.000
G29  20274987.133 8 106545784.880 8      -584.109          51.000    20274987.125 8  83022713.402 8      -455.150          51.000
R09  19119835.023 8 102098873.780 8       488.012          50.000    19119836.609 8  79410243.507 8       379.565          51.000
R16  21988777.883 7 117460101.014 7     -3589.727          44.000    21988785.375 6  91357834.713 6     -2792.013          41.000
R19  19480292.609 6 104206463.063 6     -1492.941          39.000    19480294.188 7  81049486.638 7     -1161.177          44.000
R20  20634929.461 6 110344263.834 6      3001.855          41.000    20634935.086 7  85823334.242 7      2334.776          47.000
C27  21592589.492 8 112438385.536 8      -723.773          51.000
C30  22815167.305 8 118804629.335 8      2214.594          50.000
E13  24371271.312 8 128071904.827 8      2234.730          51.000    24371275.469 8  98133093.843 8      1712.326          51.000
E15  23513426.961 8 123563903.988 8      -567.348          51.000    23513430.492 8  94678877.154 8      -434.739          51.000
E27  23422871.883 8 123088011.543 8      -763.484          51.000    23422873.625 8  94314206.877 8      -585.028          51.000
E30  25821746.906 6 135694191.267 6     -2524.141          39.000    25821754.242 7 103973497.345 7     -1934.240          42.000
> 2020 05 02 12 20 30.0000000  0 17        .000000000000
G14  24195071.055 7 127145938.865 7     -2468.664          42.000    24195071.102 5  99074733.340 5     -1923.634          32.000
G18  22353119.047 8 117466496.287 8      3243.508          48.000    22353119.258 7  91532320.761 7      2527.412          44.000
G21  22281328.312 8 117089171.703 8      2867.512          49.000    22281328.156 7  91238357.043 7      2234.428          46.000
G25  21220949.430 8 111516888.571 8     -2008.480          48.000    21220952.578 8  86896247.083 8     -1565.050          48.000
G29  20278333.648 8 106563370.423 8      -583.059          51.000    20278333.367 8  83036416.435 8      -454.331          51.000
R09  19117125.664 8 102084406.280 8       481.660          50.000    19117127.375 8  79398991.018 8       374.625          51.000
R16  22008942.289 7 117567810.551 7     -3585.609          43.000    22008948.734 6  91441608.754 6     -2788.810          41.000
R18  22721395.875 5 121288291.483 5     -4019.805          31.000    22721399.062 5  94335349.434 5     -3126.515          31.000
R19  19488698.016 6 104251426.914 6     -1499.379          39.000    19488699.742 7  81084458.538 7     -1166.184          44.000
R20  20618111.789 6 110254329.464 6      2999.016          41.000    20618117.430 8  85753385.295 8      2332.568          48.000
C27  21596769.656 8 112460153.540 8      -722.215          51.000
C28  24870585.000 5 129507622.440 5     -2925.445          33.000
C30  22802411.633 8 118738203.395 8      2218.988          50.000
E13  24358515.477 8 128004871.644 8      2239.465          51.000    24358519.375 8  98081730.797 8      1715.939          51.000
E15  23516676.617 8 123580981.478 8      -565.855          51.000    23516679.945 8  94691962.513 8      -433.548          51.000
E27  23427229.656 8 123110911.758 8      -757.910          51.000    23427231.367 8  94331753.770 8      -580.709          51.000
E30  25836142.930 6 135769841.709 6     -2514.066          40.000    25836150.500 7 104031463.137 7     -1926.093          43.000
> 2020 05 02 12 21  0.0000000  0 17        .000000000000
G14  24209257.969 6 127220490.655 6     -2493.059          41.000    24209258.602 5  99132825.568 5     -1942.646          35.000
G18  22334703.070 7 117369722.356 7      3216.352          47.000    22334704.273 7  91456912.513 7      2506.251          46.000
G21  22265061.664 8 117003692.129 8      2839.480          48.000    22265062.352 7  91171749.642 7      2212.585          47.000
G25  21232518.789 8 111577684.736 8     -2036.043          49.000    21232521.734 8  86943620.730 8     -1586.527          49.000
G29  20281773.930 8 106581448.930 8      -613.824          51.000    20281773.586 8  83050503.593 8      -478.305          51.000
R09  19114551.891 8 102070663.290 8       443.016          50.000    19114554.125 8  79388302.021 8       344.568          51.000
R16  22029182.797 6 117675932.061 6     -3614.008          40.000    22029189.062 6  91525703.144 6     -2810.898          41.000
R18  22744074.008 5 121409339.340 5     -4041.809          35.000    22744076.000 5  94429497.733 5     -3143.635          32.000
R19  19497240.102 6 104297120.825 6     -1538.406          39.000    19497241.719 7  81119998.245 7     -1196.538          43.000
R20  20601410.664 6 110165018.135 6      2963.375          40.000    20601415.992 8  85683920.976 8      2304.847          48.000
C27  21601040.391 8 112482392.601 8      -752.172          51.000
C28  24887521.258 5 129595815.199 5     -2945.699          34.000
C30  22789730.617 8 118672165.837 8      2191.898          50.000
E13  24345832.977 8 127938224.051 8      2212.168          51.000    24345836.609 8  98030663.216 8      1695.011          51.000
E15  23520017.766 8 123598538.973 8      -596.273          51.000    23520021.062 8  94705415.666 8      -456.870          51.000
E27  23431655.734 8 123134171.721 8      -784.352          51.000    23431657.398 8  94349576.307 8      -600.979          51.000
E30  25850579.797 7 135845704.183 7     -2535.270          43.000    25850586.867 6 104089591.443 6     -1942.609          41.000
> 2020 05 02 12 21 30.0000000  0 18        .000000000000
G12  23630540.844 5 124179356.782 5     -3042.586          35.000
G14  24223501.781 6 127295340.786 6     -2497.848          40.000    24223502.883 5  99191150.299 5     -1946.375          32.000
G18  22316360.141 7 117273332.751 7      3208.590          46.000    22316361.938 7  91381803.736 7      2500.200          46.000
G21  22248874.469 8 116918630.268 8      2830.547          49.000    22248875.820 7  91105467.707 7      2205.621          46.000
G25  21244162.781 8 111638873.691 8     -2044.184          49.000    21244165.719 8  86991300.437 8     -1592.870          49.000
G29  20285308.547 8 106600023.035 8      -625.270          51.000    20285308.062 8  83064976.928 8      -487.223          51.000
R09  19112115.219 8 102057650.485 8       423.738          50.000    19112117.625 8  79378180.954 8       329.577          51.000
R16  22049499.805 6 117784467.133 6     -3622.547          38.000    22049506.883 6  91610119.259 6     -2817.539          39.000
R18  22766792.805 5 121530610.915 5     -4043.344          33.000    22766794.836 5  94523820.034 5     -3144.826          32.000
R19  19505918.570 6 104343545.447 6     -1557.461          38.000    19505920.203 7  81156106.292 7     -1211.359          43.000
R20  20584826.844 6 110076335.746 6      2947.801          40.000    20584831.508 7  85614945.855 7      2292.737          47.000
C27  21605402.094 8 112505105.060 8      -762.883          51.000
C28  24904493.086 5 129684192.862 5     -2946.902          35.000
C30  22777124.234 8 118606521.030 8      2183.723          49.000
E13  24333224.711 8 127871966.693 8      2204.250          51.000    24333228.039 8  97979894.635 8      1688.923          51.000
E15  23523450.703 8 123616579.155 8      -607.238          51.000    23523454.008 8  94719238.675 8      -465.251          51.000
E27  23436150.883 8 123157795.381 8      -791.395          51.000    23436152.906 8  94367677.528 8      -606.363          51.000
E30  25865058.016 7 135921781.909 7     -2537.387          44.000    25865063.555 6 104147884.706 6     -1944.198          41.000
> 2020 05 02 12 22  0.0000000  0 17        .000000000000
G14  24237782.297 6 127370384.019 6     -2504.508          40.000    24237783.594 5  99249625.506 5     -1951.558          33.000
G18  22298071.344 7 117177227.469 7      3198.750          47.000    22298073.453 7  91306916.495 7      2492.532          45.000
G21  22232748.016 8 116833885.318 8      2819.586          49.000    22232749.328 7  91039432.721 7      2197.080          46.000
G25  21255861.867 8 111700352.230 8     -2054.184          50.000    21255864.703 8  87039205.785 8     -1600.663          50.000
G29  20288917.508 8 106618988.646 8      -638.781          51.000    20288916.977 8  83079755.333 8      -497.752          51.000
R09  19109795.938 8 102045265.045 8       402.410          50.000    19109798.242 8  79368547.818 8       312.986          50.000
R16  22069875.047 6 117893309.423 6     -3632.969          41.000    22069882.594 6  91694774.308 6     -2825.642          38.000
R18  22789532.875 5 121651998.357 5     -4048.266          33.000    22789534.500 5  94618232.451 5     -3148.654          31.000
R19  19514713.719 6 104390593.284 6     -1578.570          39.000    19514715.141 6  81192699.040 6     -1227.777          41.000
R20  20568341.367 6 109988179.680 6      2929.695          40.000    20568345.250 7  85546380.111 7      2278.655          46.000
C27  21609834.945 8 112528187.914 8      -775.648          51.000
C28  24921480.961 5 129772652.087 5     -2949.715          35.000
C30  22764572.867 8 118541167.799 8      2173.523          49.000
E13  24320671.281 8 127805997.841 8      2194.133          51.000    24320674.359 8  97929347.097 8      1681.225          51.000
E15  23526955.688 8 123634998.347 8      -620.266          51.000    23526958.734 8  94733352.095 8      -475.301          51.000
E27  23440695.828 8 123181680.349 8      -800.508          51.000    23440698.016 8  94385978.975 8      -613.391          51.000
E30  25879557.469 7 135997971.702 7     -2541.559          43.000    25879561.281 6 104206263.784 6     -1947.539          40.000
> 2020 05 02 12 22 30.0000000  0 17        .000000000000
G14  24252102.594 6 127445637.138 6     -2512.445          40.000    24252104.016 5  99308264.238 5     -1957.753          31.000
G18  22279841.484 8 117081429.240 8      3187.711          49.000    22279843.125 7  91232268.517 7      2483.931          44.000
G21  22216686.344 8 116749479.154 8      2807.355          50.000    22216687.070 7  90973661.752 7      2187.553          45.000
G25  21267619.766 8 111762139.780 8     -2065.230          48.000    21267622.023 8  87087351.909 8     -1609.274          48.000
G29  20292604.492 8 106638364.403 8      -653.121          51.000    20292603.844 8  83094853.330 8      -508.922          51.000
R09  19107598.398 8 102033529.096 8       380.016          51.000    19107600.625 8  79359419.858 8       295.568          51.000
R16  22090312.250 7 118002476.800 7     -3644.891          43.000    22090319.102 6  91779682.205 6     -2834.918          38.000
R18  22812298.578 5 121773518.827 5     -4052.836          30.000    22812298.930 5  94712748.360 5     -3152.203          30.000
R19  19523628.336 6 104438281.820 6     -1600.582          39.000    19523629.914 6  81229790.140 6     -1244.894          41.000
R20  20551957.953 6 109900572.270 6      2910.590          39.000    20551961.977 7  85478241.065 7      2263.792          46.000
C27  21614342.352 8 112551659.662 8      -789.312          51.000
C28  24938487.602 5 129861210.987 5     -2953.891          31.000
C30  22752081.789 8 118476126.605 8      2162.359          50.000
E13  24308176.758 8 127740338.493 8      2183.004          51.000    24308179.922 8  97879036.710 8      1672.682          51.000
E15  23530536.562 8 123653815.641 8      -634.348          51.000    23530539.477 8  94747770.540 8      -486.059          51.000
E27  23445294.344 8 123205846.945 8      -810.707          51.000    23445297.109 8  94404496.212 8      -621.200          51.000
E30  25894081.023 7 136074293.092 7     -2546.641          44.000    25894083.250 6 104264743.690 6     -1951.367          39.000
> 2020 05 02 12 23  0.0000000  0 17        .000000000000
G14  24266464.523 6 127521110.560 6     -2518.172          39.000    24266465.672 5  99367074.655 5     -1962.212          34.000
G18  22261673.625 8 116985953.926 8      3178.625          51.000    22261674.523 7  91157872.210 7      2476.854          44.000
G21  22200692.297 8 116665427.628 8      2797.383          50.000    22200691.859 7  90908167.128 7      2179.779          44.000
G25  21279438.734 7 111824249.075 7     -2074.191          47.000    21279440.836 7  87135748.705 7     -1616.256          47.000
G29  20296371.891 8 106658162.457 8      -665.418          51.000    20296371.086 8  83110280.395 8      -518.508          51.000
R09  19105525.289 8 102022457.674 8       359.422          51.000    19105527.375 8  79350808.746 8       279.550          50.000
R16  22110812.141 6 118111980.917 6     -3654.203          41.000    22110818.039 6  91864852.013 6     -2842.158          37.000
R18  22835089.508 5 121895182.160 5     -4056.328          31.000    22835090.570 4  94807426.964 4     -3154.919          29.000
R19  19532664.969 6 104486621.401 6     -1620.395          38.000    19532666.414 6  81267387.596 6     -1260.307          40.000
R20  20535679.258 6 109813529.022 6      2893.766          38.000    20535684.203 7  85410540.758 7      2250.707          47.000
C27  21618926.805 8 112575532.232 8      -800.926          51.000
C28  24955514.883 4 129949914.726 4     -2956.898          28.000
C30  22739654.172 8 118411411.192 8      2153.332          51.000
E13  24295744.016 8 127675002.896 8      2174.047          51.000    24295747.078 8  97828974.387 8      1665.837          51.000
E15  23534195.461 8 123673043.282 8      -646.160          51.000    23534198.516 8  94762503.423 8      -495.089          51.000
E27  23449949.023 8 123230308.761 8      -818.711          51.000    23449952.281 8  94423239.657 8      -627.330          51.000
E30  25908631.609 7 136150758.828 7     -2549.691          43.000    25908633.188 6 104323334.221 6     -1953.519          40.000
> 2020 05 02 12 23 30.0000000  0 17        .000000000000
G12  23700270.102 5 124545757.982 5     -3060.109          33.000
G14  24280892.164 6 127596930.509 6     -2522.273          39.000    24280893.742 5  99426155.021 5     -1965.414          32.000
G18  22243592.602 8 116890933.722 8      3170.645          51.000    22243592.164 7  91083830.578 7      2470.635          43.000
G21  22184790.680 8 116581862.688 8      2788.266          48.000    22184789.211 7  90843051.681 7      2172.681          44.000
G25  21291343.461 7 111886809.061 7     -2082.023          47.000    21291345.148 7  87184496.678 7     -1622.356          47.000
G29  20300244.062 8 106678511.042 8      -676.543          51.000    20300243.273 8  83126136.441 8      -527.173          51.000
R09  19103601.477 8 102012183.976 8       340.156          51.000    19103603.305 8  79342818.082 8       264.566          50.000
R16  22131398.398 6 118221951.361 6     -3662.340          40.000    22131403.531 6  91950384.518 6     -2848.490          36.000
R18  22857924.484 5 122017152.836 5     -4057.965          30.000    22857933.172 4  94902265.589 4     -3156.192          29.000
R19  19541847.188 6 104535740.958 6     -1639.375          39.000    19541848.734 6  81305591.710 6     -1275.069          41.000
R20  20519531.875 6 109727183.939 6      2877.660          38.000    20519537.656 8  85343383.462 8      2238.180          48.000
C27  21623612.430 8 112599932.637 8      -811.391          51.000
C30  22727314.164 8 118347150.535 8      2145.180          51.000
E13  24283397.734 8 127610121.490 8      2165.980          51.000    24283400.438 8  97779260.099 8      1659.599          51.000
E15  23537956.750 8 123692809.795 8      -657.062          51.000    23537959.844 8  94777649.203 8      -503.410          51.000
E27  23454684.789 8 123255195.593 8      -825.922          51.000    23454688.359 8  94442308.774 8      -632.783          51.000
E30  25923233.578 6 136227497.939 6     -2551.926          41.000    25923236.391 6 104382134.230 6     -1955.162          41.000
> 2020 05 02 12 24  0.0000000  0 16        .000000000000
G14  24295319.773 6 127672750.212 6     -2531.852          39.000    24295321.359 4  99485235.203 4     -1972.871          28.000
G18  22225533.211 8 116796027.545 8      3156.965          51.000    22225531.344 7  91009877.835 7      2459.976          43.000
G21  22168916.258 8 116498442.097 8      2773.488          48.000    22168914.172 7  90778048.697 7      2161.160          43.000
G25  21303268.484 7 111949475.323 7     -2095.219          46.000    21303269.781 7  87233327.517 7     -1632.638          46.000
G29  20304155.336 8 106699064.822 8      -693.223          51.000    20304154.570 8  83142152.386 8      -540.173          51.000
R09  19101761.797 8 102002360.684 8       315.117          51.000    19101763.719 8  79335177.728 8       245.091          50.000
R16  22152006.367 6 118332036.681 6     -3676.234          40.000    22152010.234 5  92036006.271 5     -2859.303          35.000
R18  22880753.055 5 122139006.870 5     -4065.434          34.000    22880760.125 4  94997040.924 4     -3162.004          27.000
R19  19551109.617 6 104585287.551 6     -1663.285          39.000    19551110.555 6  81344127.949 6     -1293.663          40.000
R20  20503450.758 6 109641189.078 6      2855.980          38.000    20503456.555 8  85276498.612 8      2221.321          48.000
C27  21628333.898 8 112624518.978 8      -827.312          51.000
C30  22714995.859 8 118283004.617 8      2131.570          51.000
E13  24271072.367 8 127545351.484 8      2152.414          51.000    24271074.711 8  97729631.151 8      1649.273          51.000
E15  23541755.109 8 123712770.439 8      -673.273          51.000    23541758.227 8  94792943.714 8      -515.885          51.000
E27  23459436.023 8 123280163.962 8      -838.258          51.000    23459439.602 8  94461440.390 8      -642.346          51.000
E30  25937821.969 6 136304166.164 6     -2559.109          41.000    25937827.109 7 104440879.958 7     -1960.810          44.000
> 2020 05 02 12 24 30.0000000  0 16        .000000000000
G14  24309790.469 6 127748795.595 6     -2537.805          39.000    24309793.102 4  99544491.195 4     -1977.510          24.000
G18  22207539.219 8 116701466.730 8      3146.781          51.000    22207536.797 7  90936194.186 7      2452.040          44.000
G21  22153112.805 7 116415397.141 7      2762.496          46.000    22153110.773 7  90713338.407 7      2152.597          42.000
G25  21315257.133 7 112012476.137 7     -2104.984          45.000    21315258.195 7  87282419.043 7     -1640.248          45.000
G29  20308149.016 8 106720051.304 8      -706.168          51.000    20308148.266 8  83158505.487 8      -550.261          51.000
R09  19100050.430 8 101993221.620 8       293.875          51.000    19100052.109 8  79328069.565 8       228.569          50.000
R16  22172679.148 7 118442466.550 7     -3686.156          42.000    22172682.484 6  92121896.001 6     -2867.013          36.000
R18  22903608.914 5 122261008.631 5     -4069.141          33.000    22903614.727 4  95091928.182 4     -3164.887          26.000
R19  19560494.586 6 104635490.827 6     -1683.625          39.000    19560495.367 6  81383174.933 6     -1309.486          40.000
R20  20487478.789 6 109555779.229 6      2837.785          38.000    20487484.625 7  85210068.791 7      2207.166          47.000
C27  21633134.453 8 112649516.543 8      -839.500          51.000
C30  22702742.688 8 118219200.615 8      2121.629          51.000
E13  24258811.641 8 127480922.502 8      2142.551          51.000    24258813.859 8  97680263.509 8      1641.716          51.000
E15  23545633.797 8 123733152.857 8      -685.824          51.000    23545637.094 8  94808561.405 8      -525.460          51.000
E27  23464246.250 8 123305442.864 8      -847.105          51.000    23464249.930 8  94480809.942 8      -649.150          51.000
E30  25952440.812 7 136380991.664 7     -2562.621          42.000    25952448.250 7 104499746.174 7     -1963.648          46.000
> 2020 05 02 12 25  0.0000000  0 16        .000000000000
G14  24324296.828 6 127825028.275 6     -2544.113          37.000    24324300.625 5  99603893.221 5     -1982.423          34.000
G18  22189604.344 8 116607218.981 8      3136.695          49.000    22189602.812 7  90862754.443 7      2444.181          45.000
G21  22137374.320 7 116332694.760 7      2751.297          45.000    22137372.930 7  90648895.056 7      2143.868          43.000
G25  21327302.508 7 112075775.888 7     -2114.652          47.000    21327304.000 7  87331743.519 7     -1647.784          47.000
G29  20312218.039 8 106741434.529 8      -719.070          51.000    20312217.562 8  83175167.738 8      -560.315          51.000
R09  19098460.711 8 101984732.715 8       272.312          51.000    19098462.320 8  79321467.067 8       211.799          50.000
R16  22193410.469 7 118553203.906 7     -3696.023          43.000    22193413.273 6  92208024.986 6     -2874.688          38.000
R18  22926484.648 5 122383119.567 5     -4071.723          34.000
R19  19569995.820 6 104686312.297 6     -1703.840          38.000    19569996.148 6  81422702.749 6     -1325.209          39.000
R20  20471610.016 6 109470920.860 6      2819.781          37.000    20471615.055 7  85144067.876 7      2193.166          46.000
C27  21638006.836 8 112674889.402 8      -851.727          51.000
C30  22690548.500 8 118155704.470 8      2111.680          51.000
E13  24246609.430 8 127416800.541 8      2132.531          51.000    24246611.727 8  97631131.127 8      1634.029          51.000
E15  23549585.828 8 123753921.072 8      -698.492          51.000    23549589.234 8  94824474.723 8      -535.226          51.000
E27  23469109.078 8 123330997.635 8      -856.254          51.000    23469112.961 8  94500390.870 8      -656.100          51.000
E30  25967082.977 7 136457939.034 7     -2566.832          42.000    25967091.875 7 104558705.764 7     -1966.731          45.000
> 2020 05 02 12 25 30.0000000  0 16        .000000000000
G14  24338839.891 6 127901453.764 6     -2550.883          37.000    24338844.703 5  99663445.471 5     -1987.701          32.000
G18  22171730.211 7 116513295.444 7      3125.469          46.000    22171730.516 7  90789567.311 7      2435.430          45.000
G21  22121703.086 7 116250345.640 7      2739.023          46.000    22121702.703 6  90584726.960 6      2134.307          41.000
G25  21339406.484 8 112139382.485 8     -2125.387          48.000    21339408.852 8  87381307.082 8     -1656.145          48.000
G29  20316363.805 8 106763221.231 8      -732.969          51.000    20316363.555 8  83192144.377 8      -571.144          51.000
R09  19096994.406 8 101976904.117 8       249.906          51.000    19096996.086 8  79315378.131 8       194.372          50.000
R16  22214200.555 7 118664254.759 7     -3706.898          44.000    22214202.969 6  92294397.805 6     -2883.146          40.000
R18  22949381.703 5 122505345.063 5     -4076.199          35.000
R19  19579612.844 6 104737757.454 6     -1725.332          38.000    19579612.914 6  81462715.643 6     -1341.928          39.000
R20  20455846.094 6 109386624.112 6      2800.738          38.000    20455850.414 7  85078503.791 7      2178.355          45.000
C27  21642953.008 8 112700644.611 8      -864.910          51.000
C30  22678415.469 8 118092525.141 8      2100.711          51.000
E13  24234467.570 8 127352994.996 8      2121.543          51.000    24234470.188 8  97582241.189 8      1625.622          51.000
E15  23553612.805 8 123775082.541 8      -711.949          51.000    23553616.258 8  94840689.350 8      -545.496          51.000
E27  23474026.281 8 123356836.983 8      -866.031          51.000    23474030.070 8  94520189.853 8      -663.609          51.000
E30  25981750.352 7 136535016.195 7     -2571.387          43.000    25981759.445 7 104617764.797 7     -1970.367          43.000
> 2020 05 02 12 26  0.0000000  0 16        .000000000000
G14  24353419.242 6 127978070.547 6     -2557.461          38.000    24353425.172 5  99723146.828 5     -1992.830          32.000
G18  22153918.195 7 116419699.886 7      3114.438          47.000    22153920.156 7  90716635.721 7      2426.834          45.000
G21  22106099.797 7 116168353.122 7      2726.996          46.000    22106100.359 6  90520836.709 6      2124.932          41.000
G25  21351569.102 8 112203296.482 8     -2135.578          48.000    21351572.219 8  87431110.159 8     -1664.087          48.000
G29  20320586.461 8 106785411.270 8      -746.395          51.000    20320586.133 8  83209435.300 8      -581.606          51.000
R09  19095652.625 8 101969738.717 8       227.809          51.000    19095654.000 8  79309805.048 8       177.184          50.000
R16  22235048.695 7 118775618.440 7     -3717.172          43.000    22235051.188 6  92381013.941 6     -2891.134          39.000
R18  22972300.617 6 122627683.099 6     -4079.742          36.000
R19  19589346.438 6 104789824.214 6     -1746.004          36.000    19589347.359 6  81503212.023 6     -1358.003          40.000
R20  20440188.227 6 109302892.467 6      2781.562          39.000    20440192.031 7  85013379.250 7      2163.441          46.000
C27  21647972.766 8 112726782.040 8      -877.613          51.000
C30  22666343.844 8 118029664.420 8      2090.027          51.000
E13  24222386.406 8 127289507.945 8      2110.777          51.000    24222389.094 8  97533595.291 8      1617.352          51.000
E15  23557714.727 8 123796637.385 8      -725.109          51.000    23557718.148 8  94857205.398 8      -555.621          51.000
E27  23478997.961 8 123382962.384 8      -875.660          51.000    23479001.531 8  94540208.021 8      -671.014          51.000
E30  25996443.086 7 136612223.722 7     -2575.848          45.000    25996450.883 7 104676923.711 7     -1973.654          43.000
> 2020 05 02 12 26 30.0000000  0 17        .000000000000
G12  23805583.445 5 125099178.540 5     -3087.297          32.000
G14  24368031.094 6 128054857.071 6     -2561.961          38.000    24368037.500 5  99782980.399 5     -1996.339          34.000
G18  22136166.570 7 116326416.676 7      3104.727          47.000    22136168.961 7  90643947.550 7      2419.267          46.000
G21  22090562.023 8 116086701.143 8      2716.551          48.000    22090562.219 7  90457211.826 7      2116.796          42.000
G25  21363786.445 7 112267499.113 7     -2144.320          47.000    21363789.484 7  87481138.157 7     -1670.899          46.000
G29  20324882.141 8 106807984.983 8      -758.363          51.000    20324881.758 8  83227025.217 8      -590.932          51.000
R09  19094431.492 8 101963219.167 8       206.879          51.000    19094433.070 8  79304734.277 8       160.906          51.000
R16  22255950.820 7 118887273.840 7     -3726.016          43.000    22255953.656 6  92467856.977 6     -2898.015          38.000
R18  22995236.711 6 122750111.989 6     -4081.816          36.000
R19  19599191.555 6 104842491.084 6     -1765.250          36.000    19599192.453 6  81544175.139 6     -1372.975          38.000
R20  20424632.789 6 109219709.040 6      2764.020          39.000    20424637.172 7  84948681.090 7      2149.796          47.000
C27  21653062.031 8 112753282.287 8      -888.879          51.000
C30  22654330.000 8 117967104.829 8      2080.770          51.000
E13  24210362.586 8 127226322.076 8      2101.656          51.000    24210364.875 8  97485180.166 8      1610.423          50.000
E15  23561887.617 8 123818566.317 8      -736.703          51.000    23561891.234 8  94874008.096 8      -564.472          51.000
E27  23484020.625 8 123409355.902 8      -883.789          51.000    23484023.820 8  94560431.609 8      -677.156          51.000
E30  26011157.000 7 136689542.907 7     -2578.684          44.000    26011163.516 7 104736168.181 7     -1975.836          43.000
> 2020 05 02 12 27  0.0000000  0 16        .000000000000
G14  24382679.742 6 128131835.140 6     -2568.848          37.000    24382686.180 5  99842963.226 5     -2001.699          31.000
G18  22118480.312 8 116233473.186 8      3092.824          48.000    22118482.570 7  90571524.121 7      2409.996          47.000
G21  22075094.805 8 116005416.375 8      2703.973          51.000    22075093.891 7  90393873.094 7      2106.992          42.000
G25  21376063.406 7 112332014.478 7     -2155.066          47.000    21376065.891 7  87531409.868 7     -1679.273          46.000
G29  20329255.398 8 106830966.105 8      -772.297          51.000    20329255.117 8  83244932.594 8      -601.790          51.000
R09  19093336.508 8 101957372.309 8       184.184          51.000    19093338.109 8  79300186.712 8       143.254          50.000
R16  22276911.219 7 118999244.330 7     -3737.074          43.000    22276915.305 6  92554945.007 6     -2906.619          37.000
R18  23018193.484 5 122872653.533 5     -4086.109          34.000
R19  19609153.516 6 104895779.962 6     -1785.898          36.000    19609153.938 6  81585622.014 6     -1389.032          39.000
R20  20409185.102 6 109137101.086 6      2744.336          40.000    20409190.055 8  84884430.499 8      2134.487          48.000
C27  21658225.352 8 112780168.555 8      -902.125          51.000
C30  22642378.414 8 117904871.402 8      2069.508          51.000
E13  24198400.969 8 127163463.056 8      2090.344          51.000    24198402.359 8  97437015.496 8      1601.665          48.000
E15  23566136.242 8 123840893.090 8      -750.277          51.000    23566140.289 8  94891115.623 8      -574.903          51.000
E27  23489099.203 8 123436042.558 8      -893.961          51.000    23489101.828 8  94580879.808 8      -684.950          51.000
E30  26025896.344 7 136766998.034 7     -2583.469          42.000    26025902.406 7 104795516.828 7     -1979.565          43.000
> 2020 05 02 12 27 30.0000000  0 17        .000000000000
G14  24397325.461 5 128208798.191 5     -2573.121          34.000    24397332.148 5  99902934.386 5     -2005.026          32.000
G18  22100820.805 8 116140668.336 8      3083.250          50.000    22100822.969 7  90499208.732 7      2402.536          47.000
G21  22059659.359 8 115924297.362 8      2693.297          51.000    22059657.742 7  90330663.549 7      2098.676          42.000
G25  21388360.883 7 112396638.387 7     -2163.852          45.000    21388363.398 7  87581766.144 7     -1686.118          45.000
G29  20333667.109 8 106854149.543 8      -783.992          51.000    20333666.797 8  83262997.613 8      -610.903          51.000
R09  19092329.039 8 101951992.669 8       163.555          51.000    19092330.359 8  79296002.558 8       127.209          51.000
R16  22297891.281 7 119111320.210 7     -3745.512          42.000    22297895.547 5  92642114.976 5     -2913.182          34.000
R18  23041132.047 5 122995097.838 5     -4087.734          32.000
R19  19619192.094 5 104949480.673 5     -1805.391          35.000    19619192.828 6  81627389.245 6     -1404.193          38.000
R20  20393806.445 6 109054862.891 6      2726.918          38.000    20393811.320 8  84820467.467 8      2120.936          48.000
C27  21663423.875 8 112807237.652 8      -913.070          51.000
C28  25109494.148 5 130751719.604 5     -2980.734          33.000
C30  22630450.781 8 117842762.857 8      2060.395          51.000
E13  24186462.914 8 127100728.063 8      2081.230          51.000    24186463.445 7  97388945.865 7      1594.796          47.000
E15  23570421.711 8 123863412.908 8      -761.730          51.000    23570425.820 8  94908371.070 8      -583.634          51.000
E27  23494194.805 8 123462818.862 8      -901.832          51.000    23494197.008 8  94601396.701 8      -691.014          51.000
E30  26040622.234 6 136844384.859 6     -2586.324          41.000    26040628.727 7 104854813.138 7     -1981.585          43.000
> 2020 05 02 12 28  0.0000000  0 17        .000000000000
G14  24412047.789 5 128286162.733 5     -2583.277          33.000    24412054.305 4  99963280.344 4     -2012.946          29.000
G18  22083268.117 8 116048424.509 8      3067.418          51.000    22083270.141 7  90427330.507 7      2390.196          46.000
G21  22044335.523 8 115843766.081 8      2676.535          51.000    22044333.641 7  90267911.971 7      2085.615          43.000
G25  21400758.797 7 112461789.945 7     -2178.465          45.000    21400761.461 7  87632533.558 7     -1697.505          45.000
G29  20338196.773 8 106877953.738 8      -801.902          51.000    20338196.383 8  83281546.332 8      -624.859          51.000
R09  19091489.203 8 101947507.990 8       136.789          50.000    19091490.305 8  79292514.474 8       106.391          51.000
R16  22318971.039 7 119223926.394 7     -3760.121          42.000    22318974.750 5  92729697.396 5     -2924.545          33.000
R18  23064131.617 4 123117900.145 4     -4096.121          28.000
R19  19629387.383 6 105004016.834 6     -1829.637          36.000    19629388.367 6  81669806.241 6     -1423.051          39.000
R20  20378576.320 6 108973423.736 6      2703.359          37.000    20378581.898 7  84757125.914 7      2102.610          47.000
C27  21668736.938 8 112834904.211 8      -930.121          51.000
C28  25126691.594 5 130841271.151 5     -2987.965          34.000
C30  22618627.438 8 117781195.670 8      2045.129          51.000
E13  24174628.375 8 127038537.800 8      2066.020          51.000    24174628.492 7  97341293.629 7      1583.057          47.000
E15  23574823.414 8 123886544.473 8      -779.262          51.000    23574827.500 8  94926095.257 8      -596.881          51.000
E27  23499387.070 8 123490104.900 8      -915.812          51.000    23499389.305 8  94622304.151 8      -701.688          51.000
E30  26055415.242 7 136922122.604 7     -2595.207          43.000    26055421.891 7 104914378.337 7     -1988.203          44.000
> 2020 05 02 12 28 30.0000000  0 16        .000000000000
G14  24426836.336 5 128363876.889 5     -2586.047          31.000
G18  22065813.312 8 115956695.525 8      3059.465          50.000    22065814.758 7  90355853.459 7      2384.002          47.000
G21  22029114.180 8 115763775.727 8      2667.793          51.000    22029112.352 7  90205581.885 7      2078.803          43.000
G25  21413247.773 7 112527419.765 7     -2185.254          45.000    21413250.141 7  87683673.679 7     -1702.795          46.000
G29  20342835.086 8 106902328.573 8      -811.484          51.000    20342834.836 8  83300539.698 8      -632.325          51.000
R09  19090807.812 8 101943870.275 8       117.773          50.000    19090808.883 8  79289685.151 8        91.602          51.000
R16  22340140.281 6 119337010.914 6     -3766.895          40.000    22340145.078 5  92817651.886 5     -2929.807          33.000
R19  19639728.664 5 105059336.047 5     -1846.715          35.000    19639730.023 6  81712832.314 6     -1436.334          37.000
R20  20363486.148 6 108892735.711 6      2687.672          38.000    20363492.500 7  84694368.594 7      2090.411          46.000
C27  21674155.266 8 112863118.531 8      -939.219          51.000
C28  25143938.047 5 130931077.800 5     -2987.566          34.000
C30  22606899.172 8 117720122.064 8      2037.938          51.000
E13  24162888.359 8 126976844.340 8      2058.562          51.000    24162888.203 7  97294022.074 7      1577.328          47.000
E15  23579332.094 8 123910237.922 8      -788.668          51.000    23579336.328 8  94944249.985 8      -604.316          51.000
E27  23504666.844 8 123517852.139 8      -922.176          51.000    23504669.516 8  94643564.991 8      -706.572          51.000
E30  26070266.492 7 137000161.918 7     -2595.812          44.000    26070272.422 7 104974174.641 7     -1989.044          44.000
> 2020 05 02 12 29  0.0000000  0 16        .000000000000
G14  24441609.602 5 128441524.316 5     -2591.996          32.000    24441618.492 4 100084341.173 4     -2019.737          27.000
G18  22048375.508 8 115865057.860 8      3047.852          49.000    22048376.367 7  90284447.540 7      2374.952          46.000
G21  22013914.500 8 115683902.192 8      2655.277          50.000    22013913.023 7  90143342.810 7      2069.047          44.000
G25  21425746.461 7 112593101.055 7     -2195.391          45.000    21425748.805 7  87734853.867 7     -1710.697          45.000
G29  20347500.727 8 106926846.480 8      -824.809          51.000    20347500.641 8  83319644.557 8      -642.708          51.000
R09  19090204.383 8 101940647.781 8        95.137          50.000    19090205.469 8  79287178.772 8        73.995          51.000
R16  22361317.844 6 119450138.496 6     -3776.590          40.000    22361322.039 5  92905639.927 5     -2937.351          34.000
R19  19650135.094 5 105115001.313 5     -1866.484          33.000    19650135.602 6  81756127.467 6     -1451.710          37.000
R20  20348457.039 6 108812366.735 6      2668.160          39.000    20348461.961 7  84631859.435 7      2075.236          45.000
C27  21679597.500 8 112891456.970 8      -951.891          51.000
C28  25161151.531 5 131020715.684 5     -2990.336          32.000
C30  22595184.953 8 117659120.269 8      2026.980          51.000
E13  24151162.156 8 126915222.365 8      2047.590          51.000    24151161.539 7  97246805.293 7      1568.855          47.000
E15  23583866.508 8 123934065.980 8      -801.734          51.000    23583870.562 8  94962507.851 8      -614.307          51.000
E27  23509953.406 8 123545634.550 8      -931.961          51.000    23509956.188 8  94664852.810 8      -714.088          51.000
E30  26085094.039 7 137078076.202 7     -2600.312          44.000    26085099.180 7 105033875.080 7     -1992.423          44.000
> 2020 05 02 12 29 30.0000000  0 15        .000000000000
G14  24456420.352 5 128519354.344 5     -2597.320          34.000
G18  22031007.602 7 115773791.950 7      3036.312          47.000    22031008.594 7  90213331.258 7      2365.958          47.000
G21  21998789.961 8 115604425.139 8      2642.840          49.000    21998788.961 7  90081412.698 7      2059.356          44.000
G25  21438307.703 7 112659111.102 7     -2205.469          46.000    21438309.852 7  87786290.212 7     -1718.550          46.000
G29  20352246.266 8 106951783.899 8      -837.902          51.000    20352246.086 8  83339076.322 8      -652.911          51.000
R09  19089731.734 8 101938124.206 8        72.664          49.000    19089732.844 8  79285216.002 8        56.516          50.000
R16  22382556.180 6 119563589.022 6     -3786.938          40.000    22382560.578 6  92993879.119 6     -2945.402          37.000
R19  19660657.070 5 105171291.756 5     -1886.727          34.000    19660659.094 6  81799908.985 6     -1467.454          37.000
R20  20333540.836 6 108732601.255 6      2648.922          38.000    20333544.633 7  84569819.694 7      2060.276          45.000
C27  21685115.883 8 112920193.486 8      -964.379          51.000
C30  22583537.070 8 117598466.122 8      2016.305          51.000
E13  24139502.664 8 126853950.530 8      2036.742          51.000    24139502.000 8  97199856.828 8      1560.624          49.000
E15  23588478.977 8 123958305.403 8      -814.602          51.000    23588482.617 8  94981080.922 8      -624.199          51.000
E27  23515299.516 8 123573730.268 8      -941.516          50.000    23515302.594 8  94686380.704 8      -721.415          51.000
E30  26099950.352 7 137156142.712 7     -2604.441          43.000    26099954.703 7 105093692.160 7     -1995.605          42.000
> 2020 05 02 12 30  0.0000000  0 16        .000000000000
G12  23929620.734 5 125750991.888 5     -3117.387          31.000
G14  24471259.797 6 128597334.786 6     -2600.098          36.000
G18  22013702.438 7 115682858.598 7      3027.238          47.000    22013704.547 7  90142474.127 7      2358.887          47.000
G21  21983733.383 8 115525304.935 8      2633.078          48.000    21983732.797 7  90019760.643 7      2051.752          44.000
G25  21450923.492 7 112725407.532 7     -2213.098          46.000    21450924.789 7  87837949.745 7     -1724.495          46.000
G29  20357063.484 8 106977097.828 8      -848.340          51.000    20357063.070 8  83358801.460 8      -661.044          51.000
R09  19089382.211 8 101936258.526 8        53.039          50.000    19089383.297 8  79283764.914 8        41.250          50.000
R16  22403846.781 6 119677317.883 6     -3794.098          40.000    22403851.781 6  93082334.821 6     -2950.968          38.000
R19  19671288.617 5 105228162.171 5     -1903.723          34.000    19671289.359 6  81844141.482 6     -1480.673          36.000
R20  20318729.594 6 108653398.843 6      2632.520          39.000    20318732.797 7  84508217.863 7      2047.515          45.000
C27  21690702.688 8 112949285.338 8      -973.973          51.000
C30  22571947.266 8 117538118.771 8      2008.098          51.000
E13  24127902.141 8 126792988.049 8      2028.629          51.000    24127901.625 8  97153145.374 8      1554.398          50.000
E15  23593161.750 8 123982913.377 8      -824.652          51.000    23593165.047 8  94999936.370 8      -631.879          51.000
E27  23520697.391 8 123602097.866 8      -948.426          51.000    23520701.078 8  94708116.905 8      -726.737          51.000
E30  26114827.359 7 137234319.124 7     -2605.895          43.000    26114831.023 6 105153593.473 6     -1996.859          41.000
> 2020 05 02 12 30 30.0000000  0 15        .000000000000
G14  24486130.711 6 128675478.289 6     -2607.461          36.000
G18  21996464.695 8 115592275.866 8      3013.781          49.000    21996467.156 8  90071890.208 8      2348.404          48.000
G21  21968748.203 8 115446559.388 8      2618.766          49.000    21968748.133 7  89958400.554 7      2040.600          44.000
G25  21463596.492 7 112792005.245 7     -2224.641          45.000    21463597.820 7  87889844.018 7     -1733.486          45.000
G29  20361954.914 8 107002802.226 8      -863.074          51.000    20361954.430 8  83378830.877 8      -672.522          51.000
R09  19089159.367 8 101935067.834 8        28.625          51.000    19089160.578 8  79282838.824 8        22.264          50.000
R16  22425192.008 7 119791338.496 7     -3805.266          42.000    22425197.461 6  93171017.484 6     -2959.651          39.000
R19  19682030.820 5 105285624.803 5     -1925.922          35.000    19682031.773 6  81888834.666 6     -1497.939          36.000
R20  20304027.078 6 108574776.970 6      2611.637          38.000    20304030.195 7  84447067.516 7      2031.273          46.000
C27  21696360.461 8 112978746.569 8      -987.965          51.000
C30  22560419.477 8 117478094.105 8      1995.766          50.000
E13  24116363.656 8 126732351.239 8      2015.996          51.000    24116363.273 8  97106683.448 8      1544.712          51.000
E15  23597917.406 8 124007904.252 8      -839.191          51.000    23597920.820 8  95019085.239 8      -643.008          51.000
E27  23526150.383 8 123630753.025 8      -959.820          51.000    23526154.258 8  94730073.444 8      -735.393          51.000
E30  26129727.852 7 137312620.415 7     -2611.918          42.000    26129731.023 6 105213590.479 6     -2001.442          39.000
> 2020 05 02 12 31  0.0000000  0 15        .000000000000
G14  24501031.398 6 128753778.084 6     -2613.133          36.000    24501034.531 4 100327635.698 4     -2036.207          27.000
G18  21979293.836 8 115502042.465 8      3001.902          49.000    21979296.359 8  90001578.503 8      2339.148          48.000
G21  21953834.023 8 115368186.459 8      2606.148          48.000    21953834.195 7  89897330.803 7      2030.765          44.000
G25  21476326.086 7 112858899.694 7     -2234.863          45.000    21476327.875 7  87941969.536 7     -1741.452          45.000
G29  20366919.633 8 107028892.056 8      -876.152          51.000    20366919.258 8  83399160.622 8      -682.716          51.000
R09  19089062.078 8 101934549.129 8         6.000          51.000    19089063.406 8  79282435.362 8         4.667          49.000
R16  22446590.609 6 119905644.864 6     -3815.051          40.000    22446596.281 6  93259922.367 6     -2967.265          39.000
R19  19692882.680 5 105343672.731 5     -1945.027          33.000    19692883.133 5  81933983.045 5     -1512.799          35.000
R20  20289432.062 6 108496733.027 6      2591.965          38.000    20289436.070 7  84386366.679 7      2015.973          46.000
C27  21702088.023 8 113008571.968 8     -1000.238          51.000
C30  22548953.938 8 117418388.807 8      1984.773          50.000
E13  24104886.484 8 126672037.080 8      2005.074          51.000    24104886.258 8  97060468.718 8      1536.314          51.000
E15  23602744.672 8 124033273.059 8      -851.883          51.000    23602748.422 8  95038523.701 8      -652.780          51.000
E27  23531657.727 8 123659692.126 8      -969.340          51.000    23531661.477 8  94752247.552 8      -742.774          51.000
E30  26144650.703 6 137391042.102 6     -2616.016          40.000    26144653.266 6 105273679.779 6     -2004.608          38.000
> 2020 05 02 12 31 30.0000000  0 15        .000000000000
G14  24515960.812 5 128832229.542 5     -2616.965          35.000
G18  21962189.664 8 115412159.738 8      2990.371          49.000    21962192.320 8  89931540.057 8      2330.159          48.000
G21  21938991.086 8 115290186.855 8      2593.727          49.000    21938991.016 7  89836551.949 7      2021.089          44.000
G25  21489111.742 7 112926089.130 7     -2244.711          44.000    21489113.750 7  87994324.923 7     -1749.128          43.000
G29  20371957.125 8 107055364.605 8      -888.770          51.000    20371956.805 8  83419788.586 8      -692.548          51.000
R09  19089091.008 8 101934702.668 8       -16.422          51.000    19089091.961 8  79282554.779 8       -12.773          49.000
R16  22468042.117 6 120020233.434 6     -3824.234          41.000    22468047.891 6  93349046.740 6     -2974.408          41.000
R19  19703842.555 5 105402301.472 5     -1963.801          34.000    19703843.445 5  81979583.200 5     -1527.401          35.000
R20  20274945.734 6 108419267.646 6      2572.570          40.000    20274950.000 7  84326115.869 7      2000.891          46.000
C27  21707885.102 8 113038758.956 8     -1012.293          51.000
C30  22537549.680 8 117359002.110 8      1974.242          50.000
E13  24093470.344 8 126612045.189 8      1994.367          51.000    24093470.586 8  97014500.908 8      1528.095          51.000
E15  23607643.711 8 124059017.475 8      -864.477          51.000    23607647.141 8  95058249.932 8      -662.319          51.000
E27  23537218.906 8 123688914.203 8      -978.902          51.000    23537222.352 8  94774638.477 8      -750.020          51.000
E30  26159595.836 6 137469582.618 6     -2619.977          38.000    26159598.727 6 105333860.038 6     -2007.323          38.000
> 2020 05 02 12 32  0.0000000  0 14        .000000000000
G18  21945153.703 8 115322635.383 8      2977.715          48.000    21945156.367 8  89861780.870 8      2320.297          48.000
G21  21924220.984 8 115212567.933 8      2580.449          50.000    21924220.109 7  89776069.743 7      2010.743          43.000
G25  21501954.406 7 112993577.983 7     -2255.148          44.000    21501956.766 7  88046913.622 7     -1757.262          44.000
G29  20377068.172 8 107082223.679 8      -902.242          51.000    20377067.891 8  83440717.729 8      -703.049          51.000
R09  19089247.055 8 101935534.834 8       -39.590          51.000    19089247.875 8  79283202.005 8       -30.792          49.000
R16  22489547.797 7 120135107.145 7     -3834.383          44.000    22489553.641 7  93438392.830 7     -2982.301          42.000
R19  19714911.375 5 105461512.531 5     -1983.816          33.000    19714912.711 5  82025636.240 5     -1542.968          35.000
R20  20260569.320 6 108342387.574 6      2552.504          40.000    20260572.914 7  84266320.309 7      1985.284          45.000
C27  21713752.273 8 113069311.206 8     -1024.980          50.000
C30  22526207.375 8 117299939.608 8      1962.801          50.000
E13  24082116.289 8 126552381.521 8      1982.828          51.000    24082117.336 8  96968784.585 8      1519.316          51.000
E15  23612614.922 8 124085141.447 8      -877.629          50.000    23612618.266 8  95078267.021 8      -672.406          51.000
E27  23542834.969 8 123718424.534 8      -988.945          51.000    23542838.156 8  94797250.266 8      -757.772          51.000
E30  26174564.156 6 137548246.363 6     -2624.574          36.000    26174568.758 6 105394134.726 6     -2010.951          38.000
> 2020 05 02 12 32 30.0000000  0 14        .000000000000
G18  21928185.180 8 115233464.872 8      2967.281          49.000    21928187.398 7  89792297.412 7      2312.170          46.000
G21  21909522.438 8 115135324.634 8      2569.359          51.000    21909520.859 7  89715880.241 7      2002.101          43.000
G25  21514852.766 7 113061358.580 7     -2263.281          45.000    21514855.359 7  88099729.649 7     -1763.596          45.000
G29  20382251.180 8 107109460.777 8      -913.285          51.000    20382251.086 8  83461941.435 8      -711.651          51.000
R09  19089528.969 8 101937039.668 8       -60.363          51.000    19089530.031 8  79284372.383 8       -46.952          49.000
R16  22511105.312 7 120250256.505 7     -3841.898          45.000    22511110.898 7  93527953.341 7     -2988.146          43.000
R19  19726086.883 5 105521295.817 5     -2001.766          34.000    19726088.617 5  82072134.366 5     -1556.929          34.000
R20  20246301.156 6 108266087.642 6      2534.309          40.000    20246304.250 7  84206975.982 7      1971.132          45.000
C27  21719687.633 8 113100220.336 8     -1035.320          50.000
C30  22514926.070 8 117241194.741 8      1953.848          51.000
E13  24070823.500 8 126493039.792 8      1973.582          51.000    24070825.375 8  96923314.943 8      1512.318          51.000
E15  23617656.633 8 124111636.812 8      -888.508          51.000    23617660.383 8  95098568.696 8      -680.772          51.000
E27  23548504.562 8 123748216.295 8      -996.871          51.000    23548507.750 8  94820077.701 8      -763.830          51.000
E30  26189554.109 6 137627025.739 6     -2626.988          36.000    26189561.031 6 105454498.043 6     -2012.989          39.000
> 2020 05 02 12 33  0.0000000  0 15        .000000000000
G14  24560921.938 5 129068516.515 5     -2632.750          35.000
G18  21911286.859 8 115144662.840 8      2953.727          48.000    21911288.414 7  89723101.081 7      2301.605          45.000
G21  21894897.750 8 115058470.851 8      2555.176          50.000    21894896.273 7  89655994.247 7      1991.046          43.000
G25  21527808.789 7 113129442.353 7     -2274.520          45.000    21527811.531 7  88152781.945 7     -1772.353          45.000
G29  20387508.242 8 107137086.637 8      -927.406          51.000    20387508.188 8  83483468.090 8      -722.654          51.000
R09  19089939.406 8 101939230.602 8       -84.547          51.000    19089940.227 8  79286076.431 8       -65.759          48.000
R16  22532715.578 7 120365691.536 7     -3852.551          44.000    22532720.898 7  93617736.039 7     -2996.431          43.000
R19  19737371.469 5 105581660.330 5     -2021.773          33.000    19737372.648 5  82119084.522 5     -1572.490          34.000
R20  20232143.703 6 108190381.134 6      2513.535          39.000    20232146.625 7  84148093.198 7      1954.972          45.000
C27  21725693.867 8 113131496.969 8     -1048.754          50.000
C30  22503708.070 8 117182780.004 8      1941.586          51.000
E13  24059594.633 8 126434032.882 8      1961.281          51.000    24059597.344 8  96878101.874 8      1502.725          51.000
E15  23622771.398 8 124138514.484 8      -902.395          51.000    23622774.953 8  95119163.279 8      -691.385          50.000
E27  23554229.859 8 123778301.797 8     -1007.836          51.000    23554232.953 8  94843130.212 8      -772.208          51.000
E30  26204568.398 5 137705932.195 5     -2632.512          35.000    26204577.414 6 105514958.803 6     -2017.155          39.000
> 2020 05 02 12 33 30.0000000  0 16        .000000000000
G14  24575956.430 5 129147519.566 5     -2636.250          33.000
G18  21894455.250 8 115056212.608 8      2943.184          48.000    21894456.039 7  89654178.872 7      2293.393          44.000
G21  21880343.422 8 114981989.001 8      2543.906          49.000    21880342.805 7  89596398.066 7      1982.268          44.000
G25  21540818.586 7 113197809.494 7     -2282.930          45.000    21540821.672 7  88206054.991 7     -1778.906          45.000
G29  20392835.398 8 107165080.544 8      -938.602          51.000    20392835.086 8  83505281.522 8      -731.378          51.000
G31  21142949.227 6 111106960.151 6       164.320          36.000
R09  19090474.711 8 101942089.294 8      -105.828          51.000    19090475.477 8  79288299.834 8       -82.311          48.000
R16  22554374.820 7 120481390.315 7     -3860.488          45.000    22554379.820 6  93707723.916 6     -3002.605          41.000
R19  19748760.109 5 105642583.220 5     -2039.859          32.000    19748761.523 5  82166469.000 5     -1586.557          33.000
R20  20218093.117 6 108115250.395 6      2495.273          38.000    20218097.109 7  84089658.186 7      1940.768          46.000
C27  21731766.914 8 113163120.595 8     -1059.242          50.000
C30  22492549.727 8 117124676.735 8      1932.156          50.000
E13  24048426.195 8 126375342.396 8      1951.641          51.000    24048429.531 8  96833131.267 8      1495.458          51.000
E15  23627955.047 8 124165754.056 8      -913.430          51.000    23627958.047 8  95140035.171 8      -699.835          49.000
E27  23560007.188 8 123808661.958 8     -1015.941          51.000    23560010.023 8  94866393.184 8      -778.461          51.000
E30  26219603.344 5 137784944.999 5     -2634.488          32.000    26219613.680 6 105575501.788 6     -2019.095          38.000
> 2020 05 02 12 34  0.0000000  0 15        .000000000000
G18  21877692.516 7 114968126.561 7      2929.848          46.000    21877693.000 7  89585540.440 7      2283.001          43.000
G21  21865861.984 8 114905891.035 8      2529.914          49.000    21865862.406 7  89537100.995 7      1971.362          44.000
G25  21553884.039 7 113266469.040 7     -2293.910          45.000    21553886.727 7  88259555.899 7     -1787.462          45.000
G29  20398234.211 8 107193451.223 8      -952.160          51.000    20398233.820 8  83527388.557 8      -741.943          51.000
G31  21142072.797 6 111102336.084 6       144.961          36.000    21142068.469 5  86573235.086 5       112.963          35.000
R09  19091136.977 8 101945626.554 8      -129.484          51.000    19091137.930 8  79291051.013 8      -100.710          49.000
R16  22576084.672 7 120597360.647 7     -3870.297          44.000    22576089.242 6  93797922.992 6     -3010.234          39.000
R19  19760254.500 5 105704070.995 5     -2059.285          32.000    19760255.211 5  82214292.823 5     -1601.666          33.000
R20  20204152.547 6 108040706.744 6      2474.453          38.000    20204157.445 7  84031679.803 7      1924.578          47.000
C27  21737907.828 8 113195099.484 8     -1072.227          51.000
C30  22481452.984 8 117066895.029 8      1920.414          50.000
E13  24037319.977 8 126316978.817 8      1939.707          51.000    24037323.586 8  96788411.154 8      1486.299          51.000
E15  23633209.133 8 124193364.104 8      -926.750          51.000    23633212.117 8  95161190.948 8      -710.173          49.000
E27  23565838.672 8 123839306.721 8     -1026.508          51.000    23565841.344 8  94889874.241 8      -786.566          51.000
E30  26234661.094 5 137864074.382 5     -2639.453          33.000    26234671.312 6 105636134.031 6     -2022.755          37.000
> 2020 05 02 12 34 30.0000000  0 15        .000000000000
G18  21860996.414 7 114880389.593 7      2919.699          47.000    21860996.789 7  89517174.019 7      2275.093          44.000
G21  21851450.836 8 114830161.617 8      2519.137          49.000    21851451.945 7  89478091.119 7      1962.964          45.000
G25  21567001.875 7 113335402.950 7     -2301.441          45.000    21567003.758 7  88313270.601 7     -1793.331          45.000
G29  20403701.062 8 107222179.581 8      -962.543          51.000    20403700.773 8  83549774.288 8      -750.033          51.000
G31  21141299.523 6 111098272.740 6       127.059          37.000    21141297.320 6  86570068.817 6        99.007          36.000
R09  19091923.109 8 101949826.047 8      -149.984          50.000    19091924.555 8  79294317.264 8      -116.658          50.000
R16  22597841.359 7 120713582.265 7     -3877.230          44.000    22597845.258 6  93888317.470 6     -3015.627          38.000
R19  19771850.188 5 105766102.541 5     -2076.215          34.000    19771850.758 5  82262539.549 5     -1614.837          33.000
R20  20190319.195 6 107966734.192 6      2457.254          39.000    20190324.375 7  83974145.651 7      1911.201          47.000
C27  21744113.750 8 113227415.018 8     -1081.805          51.000
C30  22470414.977 8 117009418.131 8      1911.797          50.000
E13  24026272.656 8 126258925.571 8      1930.879          51.000    24026276.305 8  96743928.827 8      1479.550          51.000
E15  23638530.281 8 124221326.107 8      -936.957          51.000    23638533.477 8  95182616.388 8      -717.949          49.000
E27  23571720.742 8 123870218.902 8     -1033.902          51.000    23571723.906 8  94913560.187 8      -792.193          51.000
E30  26249738.766 5 137943303.340 5     -2641.984          35.000    26249747.453 5 105696841.842 5     -2024.033          35.000
> 2020 05 02 12 35  0.0000000  0 16        .000000000000
G18  21844368.570 8 114793007.841 8      2917.750          50.000    21844369.438 7  89449084.427 7      2273.574          45.000
G21  21837111.023 8 114754806.369 8      2516.598          49.000    21837112.242 7  89419372.784 7      1960.985          44.000
G25  21580172.508 7 113404614.151 7     -2300.570          45.000    21580174.242 7  88367201.377 7     -1792.655          45.000
G29  20409236.352 8 107251267.950 8      -964.570          51.000    20409236.023 8  83572440.547 8      -751.613          51.000
G31  21140634.523 6 111094773.828 6       118.262          38.000    21140632.906 6  86567342.402 6        92.155          38.000
R09  19092834.148 8 101954692.290 8      -162.102          50.000    19092835.992 8  79298102.124 8      -126.079          50.000
R16  22619645.109 7 120830056.616 7     -3875.453          44.000    22619649.008 6  93978908.482 6     -3014.247          38.000
R19  19783548.812 5 105828678.250 5     -2082.859          30.000    19783549.297 5  82311209.549 5     -1619.999          34.000
R20  20176593.859 6 107893337.796 6      2447.859          39.000    20176598.656 7  83917059.628 7      1903.894          47.000
C27  21750384.805 8 113260069.366 8     -1083.156          51.000
C28  25368801.102 4 132102010.626 4     -3003.660          28.000
C30  22459436.344 8 116952250.048 8      1911.395          49.000
E13  24015285.289 8 126201187.051 8      1930.504          51.000    24015288.539 8  96699687.663 8      1479.172          51.000
E15  23643918.727 8 124249642.445 8      -938.727          51.000    23643921.828 8  95204313.330 8      -719.242          49.000
E27  23577654.234 8 123901402.293 8     -1032.926          51.000    23577657.453 8  94937453.956 8      -791.418          51.000
E30  26264836.336 6 138022633.895 6     -2635.082          40.000    26264843.289 6 105757627.489 6     -2019.212          36.000
> 2020 05 02 12 35 30.0000000  0 15        .000000000000
G18  21827814.711 8 114706013.252 8      2882.371          51.000    21827816.133 8  89381296.489 8      2246.006          48.000
G21  21822848.633 8 114679856.726 8      2480.613          50.000    21822849.312 7  89360970.478 7      1932.948          44.000
G25  21593401.062 7 113474131.442 7     -2333.258          45.000    21593403.109 7  88421370.660 7     -1818.123          45.000
G29  20414845.398 8 107280744.201 8     -1000.012          51.000    20414844.914 8  83595409.063 8      -779.230          51.000
G31  21140081.852 5 111091869.238 5        76.656          32.000    21140080.164 5  86565079.067 5        59.732          33.000
R09  19093875.789 8 101960256.210 8      -208.207          51.000    19093878.055 8  79302429.606 8      -161.939          50.000
R16  22641501.492 7 120946810.924 7     -3907.590          44.000    22641506.711 6  94069717.216 6     -3039.243          40.000
R19  19795352.938 5 105891824.841 5     -2125.879          33.000    19795354.531 5  82360323.594 5     -1653.461          33.000
R20  20162981.977 6 107820548.777 6      2404.910          39.000    20162986.688 7  83860446.001 7      1870.486          47.000
C27  21756725.961 8 113293090.239 8     -1117.762          51.000
C30  22448522.508 8 116895420.289 8      1877.816          49.000
E13  24004363.727 8 126143793.342 8      1896.457          51.000    24004365.961 8  96655710.703 8      1453.105          51.000
E15  23649379.898 8 124278341.333 8      -973.914          51.000    23649382.641 8  95226303.401 8      -746.276          49.000
E27  23583644.875 8 123932886.453 8     -1065.461          51.000    23583647.680 8  94961578.180 8      -816.356          49.000
E30  26279958.938 6 138102094.780 6     -2661.910          41.000    26279963.852 5 105818513.025 5     -2039.442          35.000
> 2020 05 02 12 36  0.0000000  0 16        .000000000000
G18  21811315.078 8 114619303.935 8      2886.828          51.000    21811316.766 8  89313730.839 8      2249.476          49.000
G21  21808643.938 8 114605209.722 8      2484.547          49.000    21808644.227 7  89302804.034 7      1936.014          45.000
G25  21606667.766 7 113543849.703 7     -2326.043          43.000    21606670.570 7  88475696.568 7     -1812.498          43.000
G29  20420508.320 8 107310502.863 8      -995.316          51.000    20420507.672 8  83618597.631 8      -775.571          51.000
G31  21139622.328 5 111089464.636 5        73.953          32.000    21139620.281 5  86563197.577 5        57.629          30.000
R09  19095028.672 8 101966412.806 8      -213.816          50.000    19095031.031 8  79307218.070 8      -166.302          50.000
R16  22663390.398 7 121063737.206 7     -3899.059          44.000    22663396.836 6  94160659.730 6     -3032.604          40.000
R19  19807243.273 5 105955432.265 5     -2126.613          31.000    19807245.875 5  82409796.033 5     -1654.033          33.000
R20  20149464.203 6 107748262.551 6      2402.305          40.000    20149469.109 8  83804223.400 8      1868.459          48.000
C27  21763117.586 8 113326372.757 8     -1112.473          51.000
C28  25403559.727 5 132283000.862 5     -3014.238          30.000
C30  22437654.094 8 116838825.969 8      1883.797          50.000
E13  23993488.211 8 126086640.860 8      1902.340          51.000    23993489.125 8  96611918.580 8      1457.574          51.000
E15  23654893.727 8 124307317.229 8      -969.230          51.000    23654896.750 8  95248505.705 8      -742.618          49.000
E27  23589673.328 8 123964567.206 8     -1058.008          51.000    23589675.258 8  94985853.015 8      -810.675          49.000
E30  26295086.039 6 138181581.087 6     -2648.617          41.000    26295088.719 5 105879418.026 5     -2029.544          35.000
> 2020 05 02 12 36 30.0000000  0 16        .000000000000
G12  24163078.531 5 126977847.195 5     -3186.449          32.000    24163082.578 5  98943783.339 5     -2482.947          30.000
G18  21794921.977 8 114533156.255 8      2853.879          51.000    21794923.711 8  89246602.809 8      2223.802          49.000
G21  21794549.203 8 114531141.028 8      2451.055          49.000    21794549.664 7  89245088.229 7      1909.913          46.000
G25  21620024.758 7 113614042.176 7     -2356.086          43.000    21620028.008 7  88530391.990 7     -1835.914          43.000
G29  20426276.742 8 107340816.053 8     -1028.016          51.000    20426276.008 8  83642218.314 8      -801.051          51.000
R09  19096344.672 8 101973441.225 8      -257.270          51.000    19096347.211 8  79312684.606 8      -200.099          50.000
R16  22685363.617 7 121181111.539 7     -3928.398          43.000    22685370.078 6  94251950.772 6     -3055.424          39.000
R19  19819271.977 5 106019776.407 5     -2165.668          33.000    19819274.031 5  82459841.506 5     -1684.408          32.000
R20  20136092.625 6 107676759.364 6      2361.906          40.000    20136097.852 8  83748609.822 8      1837.041          48.000
C27  21769611.398 8 113360186.904 8     -1144.340          51.000
C28  25420979.484 5 132373705.266 5     -3036.168          31.000
C30  22426883.844 8 116782738.665 8      1852.895          51.000
E13  23982710.766 8 126030004.181 8      1870.879          51.000    23982710.773 8  96568521.664 8      1433.513          51.000
E15  23660512.109 8 124336842.746 8     -1001.680          50.000    23660515.859 8  95271129.173 8      -767.590          49.000
E27  23595791.320 8 123996718.575 8     -1087.910          51.000    23595792.859 8  95010488.435 8      -833.656          49.000
E30  26310269.039 6 138261366.107 6     -2673.129          39.000    26310268.500 5 105940551.812 5     -2047.879          33.000
> 2020 05 02 12 37  0.0000000  0 15        .000000000000
G18  21778568.438 8 114447218.748 8      2861.281          50.000    21778570.133 8  89179638.544 8      2229.573          49.000
G21  21780497.500 7 114457299.153 7      2457.902          47.000    21780498.188 7  89187549.141 7      1915.249          47.000
G25  21633404.805 7 113684354.261 7     -2345.625          46.000    21633408.148 7  88585180.595 7     -1827.763          46.000
G29  20432083.102 8 107371328.503 8     -1020.102          51.000    20432082.305 8  83665994.257 8      -794.884          51.000
R09  19097757.133 8 101980983.013 8      -259.645          51.000    19097759.430 8  79318550.435 8      -201.946          51.000
R16  22707353.109 6 121298571.675 6     -3916.586          39.000    22707358.797 6  94343308.533 6     -3046.240          37.000
R19  19831370.109 5 106084493.349 5     -2163.246          32.000    19831371.312 5  82510176.880 5     -1682.525          33.000
R20  20122800.758 6 107605680.097 6      2362.688          40.000    20122805.641 8  83693325.987 8      1837.649          48.000
C27  21776139.359 8 113394180.498 8     -1135.797          51.000
C28  25438376.141 5 132464294.541 5     -3016.293          30.000
C30  22416143.844 8 116726808.194 8      1861.965          51.000
E13  23971964.000 8 125973530.098 8      1879.996          51.000    23971963.664 8  96525249.349 8      1440.487          50.000
E15  23666167.664 8 124366562.755 8      -993.629          51.000    23666171.453 8  95293901.654 8      -761.367          48.000
E27  23601931.703 8 124028986.774 8     -1077.332          51.000    23601933.328 8  95035213.367 8      -825.464          50.000
E30  26325440.305 6 138341095.223 6     -2656.539          36.000
> 2020 05 02 12 37 30.0000000  0 15        .000000000000
G18  21762332.758 8 114361901.549 8      2835.000          49.000    21762334.609 8  89113157.642 8      2209.094          48.000
G21  21766566.727 8 114384093.605 8      2430.949          48.000    21766567.531 7  89130505.873 7      1894.246          46.000
G25  21646885.539 8 113755192.950 8     -2368.719          48.000    21646888.125 8  88640379.543 8     -1845.758          48.000
G29  20438004.648 8 107402446.411 8     -1045.930          51.000    20438003.836 8  83690241.980 8      -815.010          51.000
G31  21138990.531 5 111086143.628 5         1.160          31.000    21138989.648 5  86560624.787 5          .898          30.000
R09  19099343.336 8 101989453.072 8      -296.367          51.000    19099345.680 8  79325138.250 8      -230.508          51.000
R16  22729435.445 5 121416529.450 5     -3938.449          35.000    22729440.203 5  94435053.380 5     -3063.241          34.000
R19  19843615.023 5 106149994.899 5     -2195.125          32.000    19843616.688 5  82561122.532 5     -1707.322          31.000
R20  20109665.836 6 107535441.122 6      2328.637          40.000    20109670.578 8  83638695.715 8      1811.162          48.000
C27  21782779.406 8 113428756.158 8     -1160.809          51.000
C30  22405510.914 8 116671438.887 8      1837.586          51.000
E13  23961325.930 8 125917627.046 8      1855.281          51.000    23961325.344 8  96482414.560 8      1421.579          51.000
E15  23671937.625 8 124396883.774 8     -1019.297          51.000    23671941.039 8  95317134.636 8      -781.071          49.000
E27  23608171.758 8 124061779.674 8     -1100.504          51.000    23608173.883 8  95060340.363 8      -843.234          51.000
E30  26340678.062 5 138421197.541 5     -2673.477          34.000
> 2020 05 02 12 38  0.0000000  0 15        .000000000000
G18  21746129.656 8 114276755.818 8      2836.844          48.000    21746131.977 8  89046810.359 8      2210.531          48.000
G21  21752671.508 8 114311074.397 8      2432.336          48.000    21752672.180 7  89073607.807 7      1895.330          47.000
G25  21660380.531 8 113826106.318 8     -2363.602          48.000    21660382.375 8  88695636.675 8     -1841.767          48.000
G29  20443955.273 8 107433717.290 8     -1043.414          51.000    20443954.523 8  83714608.883 8      -813.050          51.000
G31  21138980.711 5 111086089.043 5        -2.637          34.000    21138980.273 5  86560582.303 5        -2.052          34.000
R09  19101017.852 8 101998393.661 8      -304.332          51.000    19101019.891 8  79332092.022 8      -236.703          50.000
R16  22751522.219 5 121534523.749 5     -3932.852          32.000    22751527.820 5  94526826.684 5     -3058.888          31.000
R19  19855920.516 5 106215818.059 5     -2197.918          30.000    19855921.188 5  82612318.295 5     -1709.492          32.000
R20  20096601.812 6 107465584.584 6      2323.484          38.000    20096606.875 8  83584362.870 8      1807.155          48.000
C27  21789444.938 8 113463465.204 8     -1157.742          51.000
C30  22394899.422 8 116616183.957 8      1841.383          51.000
E13  23950711.062 8 125861844.445 8      1858.820          51.000    23950710.359 8  96439672.061 8      1424.288          51.000
E15  23677735.797 8 124427353.242 8     -1016.664          51.000    23677739.273 8  95340481.383 8      -779.023          49.000
E27  23614425.875 8 124094646.087 8     -1095.383          51.000    23614428.688 8  95085523.707 8      -839.298          51.000
E30  26355897.375 5 138501175.188 5     -2662.414          35.000    26355918.562 6 106124363.648 6     -2040.549          37.000
> 2020 05 02 12 38 30.0000000  0 15        .000000000000
G18  21730016.102 8 114192080.526 8      2814.770          48.000    21730019.039 8  88980829.648 8      2193.330          48.000
G21  21738868.812 8 114238539.989 8      2409.758          50.000    21738869.141 7  89017087.515 7      1877.733          46.000
G25  21673945.500 7 113897390.176 7     -2382.270          46.000    21673947.820 7  88751182.475 7     -1856.314          46.000
G29  20449991.117 8 107465436.179 8     -1064.758          51.000    20449990.562 8  83739324.894 8      -829.681          51.000
G31  21139094.930 5 111086699.410 5       -31.645          34.000    21139096.492 5  86561057.067 5       -24.661          33.000
R09  19102837.078 8 102008107.087 8      -336.656          51.000    19102838.609 8  79339646.915 8      -261.844          50.000
R16  22773672.367 6 121652853.978 6     -3949.895          37.000    22773678.320 5  94618861.197 5     -3072.143          31.000
R19  19868341.312 5 106282227.618 5     -2224.887          31.000    19868343.500 5  82663996.662 5     -1730.467          33.000
R20  20083666.523 6 107396413.631 6      2294.238          38.000    20083671.219 7  83530563.237 7      1784.408          47.000
C27  21796192.102 8 113498600.012 8     -1178.137          51.000
C30  22384366.352 8 116561337.575 8      1821.461          51.000
E13  23940175.719 8 125806479.464 8      1838.656          51.000    23940175.242 8  96397249.575 8      1408.793          51.000
E15  23683618.359 8 124458266.427 8     -1037.746          51.000    23683622.000 8  95364168.115 8      -795.129          48.000
E27  23620750.594 8 124127882.693 8     -1113.988          51.000    23620754.109 8  95110990.716 8      -853.554          51.000
E30  26371154.531 6 138581350.146 6     -2675.996          36.000    26371171.852 6 106185796.304 6     -2050.151          37.000
> 2020 05 02 12 39  0.0000000  0 15        .000000000000
G18  21713976.578 7 114107793.885 7      2804.609          47.000    21713979.914 7  88915151.796 7      2185.413          47.000
G21  21725142.914 8 114166408.353 8      2399.102          51.000    21725142.688 7  88960881.088 7      1869.433          45.000
G25  21687564.469 7 113968959.571 7     -2388.988          45.000    21687567.016 7  88806950.799 7     -1861.549          44.000
G29  20456095.953 8 107497517.493 8     -1073.934          51.000    20456095.484 8  83764323.312 8      -836.831          51.000
G31  21139321.227 6 111087888.259 6       -48.340          37.000    21139321.344 6  86561983.465 6       -37.667          36.000
R09  19104785.117 8 102018508.678 8      -356.816          51.000    19104786.703 8  79347737.025 8      -277.524          51.000
R16  22795870.844 6 121771431.929 6     -3954.961          36.000    22795876.242 5  94711088.350 5     -3076.087          33.000
R19  19880861.844 5 106349202.080 5     -2239.898          30.000    19880862.500 5  82716087.885 5     -1742.146          32.000
R20  20070843.836 6 107327843.982 6      2276.988          39.000    20070847.922 7  83477231.322 7      1770.991          47.000
C27  21803004.945 8 113534075.764 8     -1186.785          51.000
C30  22373895.883 8 116506816.689 8      1813.375          51.000
E13  23929703.828 8 125751448.656 8      1830.164          51.000    23929703.945 8  96355083.149 8      1402.310          51.000
E15  23689569.062 8 124489537.916 8     -1046.980          51.000    23689572.602 7  95388129.392 7      -802.208          47.000
E27  23627129.781 8 124161405.450 8     -1120.754          51.000    23627133.633 8  95136676.986 8      -858.795          51.000
E30  26386433.117 6 138661635.536 6     -2676.641          38.000    26386447.758 6 106247313.584 6     -2050.777          38.000
> 2020 05 02 12 39 30.0000000  0 16        .000000000000
G18  21697979.305 7 114023730.202 7      2791.129          46.000    21697982.812 7  88849647.663 7      2174.906          46.000
G21  21711461.719 8 114094512.856 8      2385.293          51.000    21711461.164 7  88904858.686 7      1858.670          44.000
G25  21701205.266 7 114040645.676 7     -2398.863          44.000    21701209.016 7  88862810.115 7     -1869.244          44.000
G29  20462237.508 8 107529791.663 8     -1086.258          51.000    20462236.891 8  83789472.014 8      -846.435          51.000
G31  21139626.375 6 111089488.931 6       -67.090          37.000    21139625.930 6  86563230.788 6       -52.275          36.000
R09  19106830.055 8 102029428.108 8      -380.078          51.000    19106831.781 8  79356229.898 8      -295.616          50.000
R16  22818083.227 6 121890084.068 6     -3963.688          38.000    22818088.969 5  94803373.257 5     -3082.871          34.000
R19  19893448.195 5 106416532.950 5     -2257.379          32.000    19893449.602 5  82768456.330 5     -1755.742          34.000
R20  20058101.867 6 107259705.693 6      2256.590          40.000    20058105.773 8  83424234.911 8      1755.128          48.000
C27  21809850.906 8 113569724.324 8     -1198.418          51.000
C28  25525583.367 5 132918393.481 5     -3030.461          30.000
C30  22363456.039 8 116452455.033 8      1802.168          50.000
E13  23919263.445 8 125696584.556 8      1818.742          51.000    23919264.586 8  96313044.447 8      1393.597          51.000
E15  23695555.781 8 124520998.330 8     -1059.133          51.000    23695559.242 7  95412235.424 7      -811.471          47.000
E27  23633531.523 8 124195046.344 8     -1130.590          51.000    23633535.555 8  95162453.762 8      -866.323          51.000
E30  26401700.586 6 138741862.679 6     -2680.660          37.000    26401714.148 5 106308786.183 5     -2053.830          35.000
> 2020 05 02 12 40  0.0000000  0 16        .000000000000
G18  21682088.109 7 113940225.892 7      2777.832          45.000    21682092.078 7  88784579.406 7      2164.544          44.000
G21  21697889.305 8 114023189.400 8      2371.578          50.000    21697888.469 7  88849282.033 7      1847.986          45.000
G25  21714931.766 7 114112781.894 7     -2408.277          42.000    21714936.094 7  88919020.159 7     -1876.583          42.000
G29  20468479.031 8 107562591.172 8     -1098.418          51.000    20468478.336 8  83815030.093 8      -855.910          51.000
G31  21140072.711 5 111091835.484 5       -86.980          35.000    21140071.961 5  86565059.253 5       -67.777          35.000
R09  19109035.547 8 102041205.699 8      -403.094          50.000    19109037.102 8  79365390.261 8      -313.517          49.000
R16  22840373.219 6 122009148.080 6     -3971.801          40.000    22840378.406 5  94895978.501 5     -3089.184          35.000
R19  19906165.242 4 106484560.051 4     -2274.285          28.000    19906166.148 5  82821363.906 5     -1768.891          35.000
R20  20045504.320 6 107192339.643 6      2236.387          39.000    20045508.531 8  83371839.121 8      1739.412          49.000
C27  21816793.453 8 113605875.313 8     -1209.738          51.000
C28  25543056.953 5 133009393.441 5     -3032.738          32.000
C30  22353110.945 8 116398583.973 8      1791.219          51.000
E13  23908918.344 8 125642221.871 8      1807.484          51.000    23908920.688 8  96271389.947 8      1384.971          51.000
E15  23701641.773 8 124552980.425 8     -1071.062          51.000    23701645.375 7  95436741.198 7      -820.615          47.000
E27  23640019.586 8 124229139.521 8     -1140.230          51.000    23640023.602 8  95188577.101 8      -873.689          51.000
E30  26417020.125 5 138822376.905 5     -2684.250          34.000    26417033.266 5 106370469.578 5     -2056.494          34.000
> 2020 05 02 12 40 30.0000000  0 15        .000000000000
G18  21666299.648 7 113857259.749 7      2755.168          45.000    21666303.883 7  88719930.449 7      2146.884          45.000
G21  21684421.469 8 113952416.507 8      2348.391          49.000    21684420.664 7  88794134.356 7      1829.915          44.000
G25  21728739.953 7 114185343.868 7     -2427.277          45.000    21728743.938 7  88975561.929 7     -1891.385          45.000
G29  20474815.859 8 107595890.928 8     -1119.805          51.000    20474815.211 8  83840977.965 8      -872.575          51.000
G31  21140656.109 5 111094904.050 5      -115.203          35.000    21140655.422 5  86567450.427 5       -89.763          35.000
R09  19111397.148 8 102053818.251 8      -435.797          49.000    19111398.953 8  79375200.018 8      -338.953          50.000
R16  22862735.469 7 122128597.068 7     -3989.426          42.000    22862739.227 5  94988883.111 5     -3102.893          33.000
R20  20033046.352 6 107125723.309 6      2206.422          39.000    20033051.219 8  83320026.423 8      1716.106          48.000
C27  21823827.633 8 113642503.790 8     -1230.309          51.000
C28  25560563.602 5 133100556.603 5     -3043.055          32.000
C30  22342855.930 8 116345180.385 8      1770.828          51.000
E13  23898664.188 8 125588337.607 8      1786.723          51.000    23898667.609 8  96230102.011 8      1369.053          51.000
E15  23707822.297 8 124585459.323 8     -1092.336          51.000    23707826.062 7  95461627.636 7      -836.940          46.000
E27  23646589.297 8 124263661.450 8     -1159.344          51.000    23646592.938 8  95215028.949 8      -888.262          51.000
E30  26432387.523 6 138903129.990 6     -2697.055          36.000
> 2020 05 02 12 41  0.0000000  0 15        .000000000000
G18  21650557.672 8 113774533.202 8      2752.586          48.000    21650561.094 7  88655468.225 7      2144.872          47.000
G21  21671001.180 8 113881894.326 8      2345.703          49.000    21671001.023 7  88739182.017 7      1827.824          45.000
G25  21742572.180 7 114258029.969 7     -2425.984          44.000    21742575.523 7  89032200.425 7     -1890.377          44.000
G29  20481190.422 8 107629388.900 8     -1120.848          51.000    20481189.812 8  83867080.291 8      -873.388          51.000
G31  21141320.148 6 111098394.060 6      -123.594          37.000    21141318.680 6  86570169.884 6       -96.304          37.000
R09  19113857.766 8 102066960.766 8      -447.824          48.000    19113860.492 8  79385421.948 8      -348.311          49.000
R16  22885111.859 7 122248123.075 7     -3986.574          43.000    22885113.547 5  95081847.651 5     -3100.672          31.000
R20  20020671.180 6 107059551.600 6      2197.418          38.000    20020676.359 7  83268559.564 7      1709.106          47.000
C27  21830896.070 8 113679310.160 8     -1230.730          51.000
C28  25578048.578 5 133191603.476 5     -3034.668          31.000
C30  22332633.172 8 116291946.447 8      1770.645          51.000
E13  23888443.891 8 125534631.558 8      1786.258          51.000    23888447.992 8  96188950.634 8      1368.706          51.000
E15  23714039.914 8 124618132.873 8     -1093.305          51.000    23714043.305 7  95486663.212 7      -837.724          46.000
E27  23653183.180 8 124298311.342 8     -1158.027          51.000    23653186.438 8  95241578.863 8      -887.347          51.000
E30  26447745.117 6 138983832.389 6     -2689.941          37.000
> 2020 05 02 12 41 30.0000000  0 15        .000000000000
G18  21634886.398 8 113692176.084 8      2743.410          50.000    21634888.578 7  88591293.869 7      2137.725          47.000
G21  21657653.547 8 113811752.440 8      2336.098          49.000    21657653.844 7  88684526.020 7      1820.336          46.000
G25  21756451.891 7 114330966.910 7     -2431.039          45.000    21756455.266 7  89089034.370 7     -1894.319          46.000
G29  20487626.500 8 107663210.950 8     -1128.535          51.000    20487625.805 8  83893435.141 8      -879.375          51.000
G31  21142089.039 6 111102432.655 6      -139.664          37.000    21142085.125 6  86573316.805 6      -108.826          36.000
R09  19116442.305 8 102080763.163 8      -466.754          49.000    19116444.898 8  79396157.146 8      -363.031          49.000
R16  22907526.180 7 122367852.923 7     -3990.012          43.000    22907526.320 4  95174970.761 4     -3103.345          27.000
R20  20008403.781 6 106993955.294 6      2181.047          38.000    20008408.492 7  83217540.278 7      1696.370          46.000
C27  21838022.852 8 113716419.245 8     -1237.688          51.000
C28  25595534.750 5 133282665.803 5     -3030.445          31.000
C30  22322466.906 8 116239008.797 8      1763.914          51.000
E13  23878281.766 8 125481231.761 8      1779.328          50.000    23878286.070 8  96148033.930 8      1363.423          51.000
E15  23720318.508 8 124651127.152 8     -1100.742          50.000    23720321.523 7  95511944.554 7      -843.330          46.000
E27  23659825.547 8 124333216.740 8     -1163.258          51.000    23659828.734 8  95268324.556 8      -891.336          51.000
E30  26463117.359 6 139064610.874 6     -2689.383          38.000
> 2020 05 02 12 42  0.0000000  0 16        .000000000000
G18  21619274.398 8 113610129.725 8      2723.391          51.000    21619275.328 7  88527361.675 7      2122.126          47.000
G21  21644367.273 8 113741931.393 8      2315.707          50.000    21644367.539 7  88630120.048 7      1804.450          46.000
G25  21770367.680 7 114404092.946 7     -2447.039          46.000    21770370.891 7  89146015.670 7     -1906.784          46.000
G29  20494112.258 8 107697294.389 8     -1146.820          51.000    20494111.570 8  83919993.667 8      -893.626          51.000
G31  21142950.492 5 111106958.796 5      -165.945          34.000    21142945.070 5  86576843.698 5      -129.314          33.000
R09  19119139.008 8 102095164.153 8      -496.418          50.000    19119141.750 8  79407357.897 8      -386.106          50.000
R16  22929966.680 7 122487722.392 7     -4004.246          43.000
R19  19957985.289 4 106761769.391 4     -2344.785          27.000    19957986.977 5  83036931.879 5     -1823.725          35.000
R20  19996232.914 6 106928873.516 6      2154.621          38.000    19996237.836 7  83166921.152 7      1675.816          47.000
C27  21845195.641 8 113753769.110 8     -1255.266          51.000
C28  25613010.688 4 133373667.885 4     -3038.699          29.000
C30  22312345.820 8 116186307.264 8      1746.551          51.000
E13  23868166.820 8 125428077.841 8      1761.430          51.000    23868170.586 8  96107305.640 8      1349.613          51.000
E15  23726646.367 8 124684379.936 8     -1119.012          50.000    23726649.484 7  95537423.988 7      -857.454          46.000
E27  23666504.930 8 124368316.703 8     -1179.457          51.000    23666508.227 8  95295219.312 8      -903.749          51.000
E30  26478492.219 6 139145403.814 6     -2699.645          38.000    26478492.977 5 106617915.440 5     -2068.454          32.000
> 2020 05 02 12 42 30.0000000  0 15        .000000000000
G18  21603770.742 8 113528653.474 8      2711.980          51.000    21603770.594 7  88463873.740 7      2113.232          46.000
G21  21631191.438 8 113672689.919 8      2303.898          51.000    21631191.219 7  88576165.687 7      1795.246          46.000
G25  21784368.180 7 114477664.302 7     -2454.016          45.000    21784370.148 7  89203343.991 7     -1912.220          45.000
G29  20500696.477 8 107731895.064 8     -1156.266          51.000    20500695.906 8  83946955.218 8      -900.986          51.000
G31  21143953.070 5 111112222.625 5      -183.031          30.000    21143947.570 5  86580930.785 5      -142.631          31.000
R09  19121997.078 8 102110425.521 8      -517.258          51.000    19121999.992 8  79419227.820 8      -402.312          50.000
R16  22952481.820 7 122607990.291 7     -4010.020          43.000
R20  19984207.586 6 106864569.035 6      2136.371          39.000    19984212.891 8  83116906.558 8      1661.622          48.000
C27  21852462.820 8 113791612.874 8     -1264.066          51.000
C28  25630524.398 4 133464865.947 4     -3038.090          28.000
C30  22302319.250 8 116134096.728 8      1737.789          51.000
E13  23858148.008 8 125375427.374 8      1752.301          51.000    23858150.859 8  96066963.092 8      1342.687          51.000
E15  23733072.023 8 124718146.877 8     -1128.418          49.000    23733074.922 7  95563297.360 7      -864.584          45.000
E27  23673270.445 8 124403868.308 8     -1186.867          51.000    23673273.102 8  95322460.147 8      -909.436          51.000
E30  26493917.891 6 139226467.465 6     -2700.609          37.000    26493920.555 5 106680036.014 5     -2069.454          34.000
> 2020 05 02 12 43  0.0000000  0 14        .000000000000
G18  21588369.398 8 113447716.483 8      2698.340          51.000    21588368.516 7  88400806.010 7      2102.606          45.000
G21  21618119.875 8 113603996.678 8      2290.102          51.000    21618119.164 7  88522638.540 7      1784.498          46.000
G25  21798446.742 7 114551647.113 7     -2463.324          44.000    21798447.820 7  89260992.901 7     -1919.476          44.000
G29  20507372.547 8 107766978.299 8     -1168.105          50.000    20507372.008 8  83974292.790 8      -910.212          50.000
G31  21145090.570 5 111118200.695 5      -202.051          34.000    21145088.266 5  86585597.049 5      -157.442          34.000
R09  19125010.250 8 102126514.131 8      -540.578          51.000    19125012.875 8  79431741.167 8      -420.450          50.000
R16  22975064.555 6 122728619.999 6     -4017.527          40.000    22975075.430 4  95455672.545 4     -3124.753          29.000
R20  19972322.078 6 106801009.124 6      2115.922          40.000    19972327.266 8  83067471.087 8      1645.717          48.000
C27  21859818.625 8 113829916.261 8     -1275.133          51.000
C30  22292380.961 8 116082344.661 8      1726.699          51.000
E13  23848218.719 8 125323247.831 8      1740.926          51.000    23848220.836 8  96026981.375 8      1333.998          51.000
E15  23739588.883 8 124752393.528 8     -1140.160          49.000    23739591.273 7  95589538.318 7      -873.599          45.000
E27  23680115.758 8 124439838.493 8     -1196.566          51.000    23680117.602 8  95350021.691 8      -916.799          51.000
E30  26509387.562 6 139307768.183 6     -2704.633          37.000    26509393.367 6 106742331.199 6     -2071.941          37.000
> 2020 05 02 12 43 30.0000000  0 14        .000000000000
G18  21573004.938 8 113366975.449 8      2683.473          49.000    21573003.602 7  88337890.971 7      2091.021          44.000
G21  21605086.828 8 113535507.621 8      2274.883          50.000    21605086.062 7  88469270.473 7      1772.636          46.000
G25  21812537.836 7 114625694.984 7     -2474.070          45.000    21812538.898 7  89318692.503 7     -1927.847          45.000
G29  20514074.289 8 107802196.777 8     -1180.988          50.000    20514073.750 8  84001735.754 8      -920.251          50.000
G31  21146298.602 6 111124554.392 6      -222.137          37.000    21146295.625 5  86590553.396 5      -173.084          33.000
R09  19128112.680 8 102143079.191 8      -564.949          51.000    19128114.992 8  79444625.086 8      -439.405          50.000
R16  22997649.023 6 122849258.327 6     -4026.324          41.000    22997656.828 5  95549502.205 5     -3131.589          31.000
R20  19960510.328 6 106737843.127 6      2093.977          40.000    19960514.750 7  83018341.995 7      1628.648          46.000
C27  21867196.766 8 113868335.242 8     -1287.336          51.000
C30  22282465.203 8 116030708.798 8      1714.551          51.000
E13  23838313.195 8 125271194.141 8      1728.230          51.000    23838315.062 8  95987096.088 8      1324.264          51.000
E15  23746131.078 8 124786772.904 8     -1152.969          50.000    23746133.938 7  95615880.961 7      -883.471          45.000
E27  23686975.023 8 124475881.626 8     -1207.422          51.000    23686976.406 8  95377639.132 8      -925.185          51.000
E30  26524836.453 6 139388959.436 6     -2709.246          38.000    26524844.938 6 106804542.548 6     -2075.739          38.000
> 2020 05 02 12 44  0.0000000  0 14        .000000000000
G18  21557725.891 8 113286685.718 8      2668.781          49.000    21557724.750 7  88275327.596 7      2079.573          44.000
G21  21592140.719 8 113467477.461 8      2260.078          49.000    21592140.234 7  88416260.005 7      1761.100          44.000
G25  21826688.891 7 114700060.146 7     -2484.113          42.000    21826690.242 7  89376639.346 7     -1935.673          42.000
G29  20520849.758 8 107837802.432 8     -1193.152          51.000    20520849.211 8  84029480.401 8      -929.729          51.000
G31  21147624.109 6 111131520.436 6      -242.551          37.000    21147623.648 6  86595981.587 6      -188.998          37.000
R09  19131352.648 8 102160378.420 8      -588.762          51.000    19131354.492 8  79458080.032 8      -457.926          50.000
R16  23020282.758 6 122970159.800 6     -4034.492          41.000    23020288.711 5  95643536.567 5     -3137.941          31.000
R20  19948820.508 6 106675329.318 6      2072.898          40.000    19948824.164 7  82969720.174 7      1612.257          46.000
C27  21874644.500 8 113907119.034 8     -1298.781          51.000
C30  22272619.609 8 115979440.175 8      1702.879          51.000
E13  23828479.828 8 125219519.909 8      1716.148          51.000    23828481.656 8  95947501.555 8      1314.983          51.000
E15  23752746.328 8 124821536.716 8     -1165.113          48.000    23752749.898 7  95642518.175 7      -892.767          46.000
E27  23693896.102 8 124512250.818 8     -1217.676          51.000    23693897.203 8  95405506.397 8      -933.036          51.000
E30  26540313.836 6 139470293.714 6     -2713.688          36.000    26540323.203 6 106866863.473 6     -2079.008          39.000
> 2020 05 02 12 44 30.0000000  0 14        .000000000000
G18  21542528.016 8 113206823.748 8      2655.379          48.000    21542527.602 7  88213097.511 7      2069.126          46.000
G21  21579277.242 8 113399882.279 8      2246.109          48.000    21579277.219 7  88363588.480 7      1750.215          46.000
G25  21840895.188 7 114774716.041 7     -2493.160          43.000    21840896.523 7  89434812.745 7     -1942.722          43.000
G29  20527693.781 8 107873767.817 8     -1204.508          51.000    20527693.305 8  84057505.375 8      -938.578          51.000
G31  21149062.227 6 111139078.956 6      -261.332          38.000    21149066.125 6  86601871.310 6      -203.632          37.000
R09  19134725.164 8 102178386.190 8      -611.773          51.000    19134726.594 8  79472086.067 8      -475.824          50.000
R16  23042959.758 6 123091295.575 6     -4041.250          39.000    23042963.977 4  95737753.139 4     -3143.204          29.000
R20  19937247.281 6 106613442.479 6      2052.801          39.000    19937251.188 7  82921586.013 7      1596.623          46.000
C27  21882157.164 8 113946240.574 8     -1309.363          51.000
C30  22262839.469 8 115928513.446 8      1692.133          51.000
E13  23818713.898 8 125168199.851 8      1705.043          51.000    23818715.867 8  95908178.410 8      1306.447          51.000
E15  23759429.602 8 124856657.773 8     -1176.363          48.000    23759432.797 7  95669429.113 7      -901.384          46.000
E27  23700874.234 8 124548920.284 8     -1227.035          51.000    23700875.289 8  95433603.749 8      -940.247          51.000
E30  26555813.508 6 139551744.536 6     -2716.812          37.000    26555822.977 6 106929273.670 6     -2081.681          39.000
> 2020 05 02 12 45  0.0000000  0 14        .000000000000
G18  21527407.195 7 113127367.055 7      2641.891          47.000    21527408.094 7  88151183.235 7      2058.616          47.000
G21  21566491.914 7 113332698.180 7      2232.707          47.000    21566492.664 7  88311237.276 7      1739.772          46.000
G25  21855152.078 7 114849637.043 7     -2501.867          42.000    21855154.242 7  89493192.755 7     -1949.510          42.000
G29  20534601.336 8 107910066.785 8     -1215.461          51.000    20534600.984 8  84085790.287 8      -947.112          51.000
G31  21150609.438 5 111147204.970 5      -280.336          35.000    21150614.359 5  86608203.313 5      -218.444          34.000
R09  19138225.727 8 102197077.437 8      -634.375          51.000    19138226.867 8  79486623.696 8      -493.403          49.000
R16  23065675.438 6 123212638.174 6     -4047.996          39.000    23065677.320 4  95832130.517 4     -3148.451          26.000
R20  19925786.234 6 106552158.529 6      2032.723          38.000    19925790.477 7  82873920.763 7      1581.007          46.000
C27  21889729.891 8 113985673.799 8     -1319.555          51.000
C30  22253120.797 8 115877904.256 8      1681.711          51.000
E13  23809010.773 8 125117209.762 8      1694.156          51.000    23809012.984 8  95869108.099 8      1298.126          51.000
E15  23766175.961 8 124892110.031 8     -1187.258          48.000    23766179.000 7  95696593.818 7      -909.681          46.000
E27  23707904.617 8 124585865.295 8     -1236.109          51.000    23707905.859 8  95461912.232 8      -947.101          51.000
E30  26571330.875 6 139633286.398 6     -2719.758          37.000    26571339.781 6 106991753.635 6     -2083.830          39.000
> 2020 05 02 12 45 30.0000000  0 14        .000000000000
G18  21512367.078 7 113048334.449 7      2627.906          47.000    21512369.445 7  88089599.425 7      2047.719          47.000
G21  21553788.891 8 113265943.731 8      2218.531          49.000    21553789.953 7  88259220.833 7      1728.726          46.000
G25  21869462.156 6 114924839.048 6     -2510.859          40.000    21869465.344 6  89551791.646 6     -1956.514          41.000
G29  20541575.273 8 107946714.191 8     -1226.797          51.000    20541574.789 8  84114346.712 8      -955.943          51.000
G31  21152267.617 6 111155914.893 6      -299.238          36.000    21152270.430 5  86614990.281 5      -233.170          35.000
R09  19141857.484 8 102216469.525 8      -657.523          51.000    19141858.617 8  79501706.431 8      -511.407          50.000
R16  23088432.266 5 123334201.712 5     -4055.242          34.000
R20  19914441.195 6 106491495.073 6      2011.902          37.000    19914445.547 7  82826738.114 7      1564.813          46.000
C27  21897365.281 8 114025433.623 8     -1330.215          51.000
C30  22243466.461 8 115827629.342 8      1670.777          51.000
E13  23799373.750 8 125066566.783 8      1682.809          51.000    23799375.984 8  95830303.770 8      1289.464          51.000
E15  23772988.203 7 124927908.620 7     -1198.453          47.000    23772991.656 7  95724023.924 7      -918.352          46.000
E27  23714990.523 8 124623102.443 8     -1245.586          51.000    23714992.156 8  95490444.582 8      -954.380          51.000
E30  26586869.016 6 139714935.208 6     -2723.000          37.000    26586876.805 6 107054315.525 6     -2086.413          40.000
> 2020 05 02 12 46  0.0000000  0 15        .000000000000
G18  21497407.453 7 112969723.483 7      2612.914          46.000    21497410.867 7  88028344.138 7      2036.037          47.000
G21  21541167.430 8 113199615.815 8      2203.223          50.000    21541167.977 7  88207536.754 7      1716.797          46.000
G25  21883824.891 6 115000316.481 6     -2521.457          39.000    21883827.609 6  89610605.236 6     -1964.772          39.000
G29  20548614.297 8 107983704.181 8     -1239.219          51.000    20548613.750 8  84143170.076 8      -965.628          51.000
G31  21154035.578 6 111165203.784 6      -319.570          36.000    21154038.938 5  86622228.396 5      -249.019          35.000
R09  19145619.477 8 102236558.234 8      -681.750          51.000    19145620.648 8  79517330.980 8      -530.250          50.000
R16  23111228.492 5 123455978.850 5     -4063.055          31.000
R19  20066169.023 4 107340472.719 4     -2476.008          29.000    20066168.891 4  83487034.189 4     -1925.784          27.000
R20  19903211.570 6 106431448.373 6      1990.918          38.000    19903216.125 7  82780035.149 7      1548.492          47.000
C27  21905062.250 8 114065513.863 8     -1341.852          51.000
C30  22233874.945 8 115777684.187 8      1658.898          51.000
E13  23789802.070 8 125016266.705 8      1670.453          51.000    23789804.133 8  95791762.197 8      1279.961          51.000
E15  23779865.227 8 124964047.540 8     -1210.734          48.000    23779868.805 7  95751714.795 7      -927.813          46.000
E27  23722131.094 8 124660627.030 8     -1256.156          51.000    23722133.008 8  95519197.184 8      -962.470          51.000
E30  26602427.000 5 139796696.516 5     -2727.848          34.000    26602433.258 6 107116955.169 6     -2089.663          39.000
> 2020 05 02 12 46 30.0000000  0 13        .000000000000
G18  21482531.242 7 112891548.978 7      2599.145          47.000    21482534.867 7  87967428.957 7      2025.307          47.000
G21  21528629.938 8 113133728.701 8      2189.395          51.000    21528630.008 7  88156196.156 7      1706.022          46.000
G25  21898242.164 6 115076081.089 6     -2529.531          40.000    21898245.117 6  89669642.588 6     -1971.066          40.000
G29  20555720.516 8 108021047.712 8     -1250.176          51.000    20555720.242 8  84172268.926 8      -974.163          51.000
G31  21155915.758 6 111175083.777 6      -338.773          37.000    21155919.000 6  86629927.087 6      -263.973          37.000
R09  19149514.281 8 102257356.320 8      -704.527          51.000    19149515.516 8  79533507.263 8      -547.969          50.000
R20  19892100.758 6 106372032.202 6      1970.598          39.000    19892105.438 8  82733822.576 8      1532.687          48.000
C27  21912822.820 8 114105925.464 8     -1351.949          51.000
C30  22224348.727 8 115728081.517 8      1648.285          51.000
E13  23780298.234 8 124966322.663 8      1659.379          51.000    23780300.445 8  95753493.417 8      1271.517          51.000
E15  23786808.984 7 125000537.999 7     -1221.672          47.000    23786812.609 7  95779675.024 7      -936.062          46.000
E27  23729328.727 8 124698451.656 8     -1265.258          51.000    23729330.641 8  95548179.712 8      -969.528          51.000
E30                                                                  26618010.883 6 107179681.688 6     -2092.004          39.000
> 2020 05 02 12 47  0.0000000  0 13        .000000000000
G18  21467736.898 7 112813801.942 7      2584.816          47.000    21467739.844 8  87906846.893 8      2014.143          48.000
G21  21516174.445 8 113068272.695 8      2175.109          51.000    21516174.031 7  88105191.506 7      1694.890          46.000
G25  21912711.883 6 115152121.113 6     -2538.453          40.000    21912715.492 6  89728894.496 6     -1978.015          40.000
G29  20562891.594 8 108058732.134 8     -1261.281          51.000    20562891.672 8  84201633.396 8      -982.820          51.000
G31  21157906.102 6 111185543.671 6      -357.891          37.000    21157907.797 6  86638077.596 6      -278.873          38.000
R09  19153539.852 8 102278853.014 8      -727.637          51.000    19153541.320 8  79550226.886 8      -565.940          50.000
R20  19881106.102 6 106313235.845 6      1950.180          40.000    19881110.539 8  82688092.088 8      1516.806          48.000
C27  21920644.672 8 114146655.880 8     -1362.484          51.000
C30  22214886.219 8 115678810.418 8      1637.359          51.000
E13  23770860.156 8 124916723.955 8      1647.977          51.000    23770862.766 8  95715489.253 8      1262.729          51.000
E15  23793817.352 7 125037367.491 7     -1232.844          47.000    23793820.844 7  95807895.029 7      -944.652          45.000
E27  23736581.289 8 124736565.189 8     -1274.793          51.000    23736583.195 8  95577383.582 8      -976.786          51.000
E30                                                                  26633607.883 6 107242486.023 6     -2094.404          38.000
> 2020 05 02 12 47 30.0000000  0 13        .000000000000
G18  21453023.555 8 112736480.351 8      2569.961          48.000    21453025.781 8  87846596.361 8      2002.570          48.000
G21  21503800.414 8 113003245.142 8      2160.152          51.000    21503799.594 7  88054520.739 7      1683.236          45.000
G25  21927233.383 7 115228431.405 7     -2548.379          42.000    21927236.758 6  89788357.011 6     -1985.750          41.000
G29  20570126.453 8 108096751.779 8     -1273.211          50.000    20570126.539 8  84231259.074 8      -992.112          51.000
G31  21160006.062 6 111196578.573 6      -377.496          37.000    21160005.664 6  86646676.163 6      -294.156          37.000
R09  19157695.266 8 102301044.255 8      -751.488          51.000    19157697.109 8  79567486.726 8      -584.491          50.000
R20  19870226.438 6 106255055.997 6      1928.676          39.000    19870230.484 7  82642841.118 7      1500.081          47.000
C27  21928526.695 8 114187699.364 8     -1373.523          51.000
C30  22205486.711 8 115629866.855 8      1625.848          51.000
E13  23761487.078 8 124867466.850 8      1636.016          51.000    23761489.898 8  95677746.836 8      1253.523          51.000
E15  23800889.359 7 125074530.330 7     -1244.480          47.000    23800892.633 7  95836370.474 7      -953.626          46.000
E27  23743888.039 8 124774963.348 8     -1284.918          51.000    23743890.000 8  95606805.540 8      -984.571          51.000
E30  26649215.719 5 140042564.882 5     -2737.207          34.000    26649223.672 6 107305364.348 6     -2097.328          38.000
> 2020 05 02 12 48  0.0000000  0 13        .000000000000
G18  21438391.703 8 112659588.156 8      2555.488          49.000    21438393.344 7  87786680.411 7      1991.293          47.000
G21  21491508.492 8 112938649.201 8      2145.508          51.000    21491507.164 7  88004186.316 7      1671.827          44.000
G25  21941806.375 6 115305012.880 6     -2557.941          41.000    21941810.125 7  89848030.876 7     -1993.198          42.000
G29  20577425.156 8 108135106.964 8     -1284.504          50.000    20577425.273 8  84261146.227 8     -1000.912          50.000
G31  21162215.906 6 111208190.000 6      -397.172          40.000    21162212.773 6  86655724.006 6      -309.488          39.000
R09  19161981.141 8 102323932.051 8      -774.949          51.000    19161983.367 8  79585288.327 8      -602.738          51.000
R19  20122424.773 4 107641399.499 4     -2539.691          28.000    20122430.727 5  83721105.519 5     -1975.316          31.000
R20  19859462.047 6 106197495.028 6      1907.961          39.000    19859466.000 8  82598071.504 8      1483.970          48.000
C27  21936468.602 8 114229056.078 8     -1384.168          51.000
C30  22196150.539 8 115581252.827 8      1614.559          51.000
E13  23752179.203 8 124818553.624 8      1624.281          51.000    23752182.062 8  95640267.884 8      1244.582          51.000
E15  23808024.844 7 125112026.953 7     -1255.824          47.000    23808028.195 7  95865101.666 7      -962.273          46.000
E27  23751249.234 8 124813647.930 8     -1294.656          51.000    23751251.398 8  95636446.945 8      -992.018          51.000
> 2020 05 02 12 48 30.0000000  0 12        .000000000000
G18  21423841.062 8 112583123.241 8      2541.180          48.000    21423842.383 7  87727097.366 7      1980.140          47.000
G21  21479298.219 8 112874482.126 8      2131.227          51.000    21479296.148 7  87954186.052 7      1660.699          44.000
G25  21956429.992 7 115381860.374 7     -2566.684          42.000    21956433.883 7  89907912.007 7     -2000.013          42.000
G29  20584786.602 8 108173791.684 8     -1295.512          51.000    20584786.812 8  84291290.167 8     -1009.490          50.000
G31  21164534.734 6 111220373.310 6      -416.160          41.000    21164529.938 6  86665217.524 6      -324.278          41.000
R09  19166396.781 8 102347511.965 8      -798.086          50.000    19166399.281 8  79603628.259 8      -620.734          51.000
R20  19848812.922 6 106140549.306 6      1887.410          39.000    19848817.133 8  82553780.374 8      1467.986          48.000
C27  21944469.594 8 114270720.171 8     -1394.434          51.000
C30  22186876.742 8 115532964.123 8      1603.719          51.000
E13  23742935.695 8 124769980.320 8      1612.953          51.000    23742938.844 8  95603049.412 8      1235.899          51.000
E15  23815222.695 7 125149851.526 7     -1266.840          47.000    23815226.039 7  95894084.141 7      -970.558          46.000
E27  23758664.203 8 124852614.480 8     -1304.078          51.000    23758666.508 8  95666304.398 8      -999.250          51.000
> 2020 05 02 12 49  0.0000000  0 13        .000000000000
G18  21409373.945 8 112507098.504 8      2526.301          48.000    21409375.266 7  87667857.316 7      1968.549          47.000
G21  21467171.570 8 112810755.887 8      2116.305          50.000    21467169.117 7  87904529.274 7      1649.069          43.000
G25  21971106.039 6 115458983.721 6     -2575.961          39.000    21971110.047 6  89968008.152 6     -2007.239          39.000
G29  20592212.602 8 108212815.129 8     -1306.820          51.000    20592212.859 8  84321698.061 8     -1018.302          51.000
G31  21166964.312 7 111233138.977 7      -435.574          42.000    21166959.875 6  86675164.743 6      -339.408          41.000
R09  19170943.859 8 102371795.450 8      -821.539          50.000    19170946.703 8  79622515.398 8      -638.975          50.000
R19  20151072.344 4 107794658.312 4     -2570.832          29.000    20151071.320 4  83840278.365 4     -1999.536          27.000
R20  19838281.047 6 106084230.596 6      1866.242          38.000    19838285.547 8  82509976.945 8      1451.522          48.000
C27  21952531.570 8 114312700.815 8     -1405.004          51.000
C30  22177667.609 8 115485011.582 8      1592.285          51.000
E13  23733758.875 8 124721758.231 8      1601.172          51.000    23733762.234 8  95566100.037 8      1226.836          51.000
E15  23822484.781 7 125188013.470 7     -1278.180          47.000    23822487.539 7  95923325.135 7      -979.328          45.000
E27  23766134.961 8 124891873.780 8     -1313.953          51.000    23766137.188 8  95696386.178 8     -1006.804          51.000
> 2020 05 02 12 49 30.0000000  0 14        .000000000000
G18  21394991.570 8 112431518.878 8      2515.938          48.000    21394993.148 8  87608964.146 8      1960.471          48.000
G21  21455129.047 8 112747474.922 8      2106.090          49.000    21455126.578 7  87855219.459 7      1641.109          43.000
G25  21985833.930 5 115536385.097 5     -2580.590          35.000    21985839.055 5  90028320.833 5     -2010.846          35.000
G29  20599703.289 8 108252178.577 8     -1313.750          51.000    20599703.461 8  84352370.881 8     -1023.701          51.000
G31  21169505.164 7 111246489.199 7      -450.625          43.000    21169501.047 7  86685567.504 7      -351.136          44.000
R09  19175623.562 8 102396784.991 8      -840.590          50.000    19175626.414 8  79641951.702 8      -653.792          50.000
R16  23271907.602 5 124314325.199 5     -4106.328          32.000    23271911.227 5  96688942.973 5     -3193.811          34.000
R19  20165533.164 4 107871988.324 4     -2582.273          27.000    20165533.648 5  83900421.869 5     -2008.432          30.000
R20  19827866.625 6 106028542.748 6      1850.141          38.000    19827871.492 7  82466664.213 7      1439.001          47.000
C27  21960654.508 8 114354999.270 8     -1411.152          51.000
C30  22168523.906 8 115437398.137 8      1585.598          50.000
E13  23724649.445 8 124673890.572 8      1593.926          51.000    23724652.938 8  95529422.242 8      1221.263          51.000
E15  23829811.328 7 125226514.185 7     -1284.902          47.000    23829813.523 7  95952825.686 7      -984.452          45.000
E27  23773661.820 8 124931428.630 8     -1319.332          51.000    23773664.094 8  95726694.402 8     -1010.914          51.000
> 2020 05 02 12 50  0.0000000  0 13        .000000000000
G18  21380683.242 7 112356329.789 7      2497.152          46.000    21380685.273 7  87550375.306 7      1945.833          46.000
G21  21443160.609 8 112684584.289 8      2087.230          49.000    21443158.750 7  87806213.775 7      1626.413          44.000
G25  22000604.703 6 115614006.795 6     -2593.652          39.000    22000610.016 6  90088805.295 6     -2021.031          39.000
G29  20607247.703 8 108291824.394 8     -1328.793          51.000    20607247.609 8  84383263.727 8     -1035.423          51.000
G31  21172145.938 6 111260366.857 6      -473.734          41.000    21172142.312 6  86696381.249 6      -369.144          41.000
R09  19180425.000 8 102422423.516 8      -868.066          50.000    19180427.320 8  79661892.772 8      -675.163          49.000
R16  23295002.391 5 124437690.547 5     -4117.719          35.000    23295005.961 5  96784893.960 5     -3202.679          33.000
R20  19817560.031 6 105973428.394 6      1825.062          39.000    19817564.992 7  82423797.546 7      1419.496          47.000
C27  21968827.336 8 114397557.748 8     -1425.422          51.000
C30  22159434.484 8 115390067.808 8      1570.496          51.000
E13  23715596.773 8 124626321.119 8      1578.141          51.000    23715600.289 8  95492972.950 8      1209.189          51.000
E15  23837191.133 7 125265295.502 7     -1299.855          44.000    23837193.641 7  95982541.294 7      -996.050          46.000
E27  23781234.156 8 124971222.239 8     -1332.945          51.000    23781236.461 8  95757185.568 8     -1021.354          51.000
> 2020 05 02 12 50 30.0000000  0 13        .000000000000
G18  21366467.688 7 112281628.326 7      2482.590          46.000    21366470.156 7  87492166.437 7      1934.486          46.000
G21  21431285.281 8 112622179.940 8      2072.758          51.000    21431283.836 7  87757587.026 7      1615.136          45.000
G25  22015436.406 6 115691943.030 6     -2602.523          41.000    22015440.656 6  90149534.819 6     -2027.940          41.000
G29  20614863.492 8 108331845.564 8     -1339.605          51.000    20614863.383 8  84414449.044 8     -1043.848          51.000
G31  21174904.227 6 111274866.747 6      -492.723          41.000    21174902.172 6  86707679.867 6      -383.940          41.000
R09  19185366.094 8 102448807.510 8      -891.184          51.000    19185367.984 8  79682413.626 8      -693.143          48.000
R16  23318141.023 5 124561294.530 5     -4123.570          35.000    23318143.219 4  96881030.244 4     -3207.221          29.000
R20  19807378.695 6 105918985.137 6      1804.215          38.000    19807383.891 7  82381452.827 7      1403.278          47.000
C27  21977068.023 8 114440468.797 8     -1435.520          51.000
C30  22150417.844 8 115343114.729 8      1559.520          51.000
E13  23706619.508 8 124579145.182 8      1566.723          51.000    23706622.250 8  95456825.184 8      1200.455          51.000
E15  23844641.914 7 125304451.013 7     -1310.625          45.000    23844645.414 7  96012543.600 7     -1004.236          46.000
E27  23788869.938 8 125011349.508 8     -1342.379          51.000    23788872.094 8  95787932.432 8     -1028.522          51.000
> 2020 05 02 12 51  0.0000000  0 13        .000000000000
G18  21352339.219 8 112207382.349 8      2467.590          48.000    21352341.680 8  87434312.456 8      1922.797          48.000
G21  21419496.586 8 112560229.063 8      2057.812          51.000    21419495.406 7  87709313.631 7      1603.490          46.000
G25  22030321.062 6 115770158.688 6     -2611.500          41.000    22030323.828 6  90210482.039 6     -2034.938          41.000
G29  20622543.906 8 108372206.577 8     -1350.738          51.000    20622543.922 8  84445899.194 8     -1052.523          51.000
G31  21177774.094 6 111289953.852 6      -512.352          40.000    21177773.289 6  86719436.032 6      -399.235          40.000
R09  19190440.328 8 102475902.045 8      -914.773          51.000    19190441.711 8  79703487.127 8      -711.493          49.000
R16  23341316.547 5 124685099.369 5     -4130.199          32.000    23341317.828 4  96977323.780 4     -3212.383          29.000
R20  19797316.844 6 105865178.261 6      1783.242          39.000    19797321.984 7  82339603.051 7      1386.969          47.000
C27  21985369.648 8 114483696.911 8     -1445.984          51.000
C30  22141467.570 8 115296505.075 8      1548.223          51.000
E13  23697711.125 8 124532328.964 8      1554.871          51.000    23697712.547 8  95420953.027 8      1191.407          51.000
E15  23852157.148 7 125343945.052 7     -1321.820          43.000    23852161.039 7  96042805.233 7     -1012.781          46.000
E27  23796562.789 8 125051776.062 8     -1352.250          51.000    23796564.680 8  95818908.645 8     -1036.107          51.000
> 2020 05 02 12 51 30.0000000  0 14        .000000000000
G18  21338296.648 8 112133585.565 8      2451.977          50.000    21338298.305 7  87376808.490 7      1910.631          47.000
G21  21407792.742 8 112498724.733 8      2042.355          51.000    21407791.766 7  87661388.215 7      1591.449          46.000
G25  22045256.656 6 115848644.570 6     -2620.992          41.000    22045259.164 6  90271639.759 6     -2042.335          41.000
G29  20630287.148 8 108412897.484 8     -1362.352          51.000    20630287.125 8  84477606.384 8     -1061.573          51.000
G31  21180754.570 6 111305619.274 6      -532.082          41.000    21180754.023 6  86731642.853 6      -414.609          41.000
R09  19195646.164 8 102503698.702 8      -938.688          51.000    19195647.273 8  79725106.723 8      -730.090          49.000
R16  23364527.344 5 124809093.834 5     -4136.164          31.000    23364530.812 5  97073763.729 5     -3217.026          31.000
R19  20224194.438 4 108185801.864 4     -2645.234          29.000
R20  19787372.859 6 105812000.271 6      1761.625          40.000    19787377.828 8  82298242.404 8      1370.153          48.000
C27  21993730.320 8 114527232.259 8     -1456.699          51.000
C30  22132581.547 8 115250230.691 8      1536.535          51.000
E13  23688869.703 8 124485864.495 8      1542.512          51.000    23688870.336 8  95385350.399 8      1181.931          51.000
E15  23859735.086 6 125383767.695 6     -1333.195          40.000    23859738.844 7  96073318.699 7     -1021.620          47.000
E27  23804311.016 8 125092493.542 8     -1362.539          51.000    23804313.289 8  95850107.737 8     -1043.994          51.000
> 2020 05 02 12 52  0.0000000  0 13        .000000000000
G18  21324339.289 8 112060237.128 8      2438.016          49.000    21324339.977 7  87319653.887 7      1899.752          47.000
G21  21396173.500 8 112437665.755 8      2028.410          51.000    21396172.656 7  87613809.847 7      1580.579          45.000
G25  22060242.516 6 115927396.811 6     -2628.832          40.000    22060245.062 6  90333005.059 6     -2048.444          40.000
G29  20638092.281 8 108453913.754 8     -1372.004          51.000    20638092.172 8  84509567.094 8     -1069.097          51.000
G31  21183844.734 6 111321859.548 6      -550.355          40.000    21183844.383 6  86744297.584 6      -428.851          40.000
R09  19200982.930 8 102532194.631 8      -960.914          51.000    19200983.617 8  79747270.230 8      -747.378          50.000
R16  23387772.625 5 124933272.527 5     -4141.770          32.000    23387778.023 5  97170346.967 5     -3221.385          31.000
R20  19777545.781 6 105759448.447 6      1741.926          40.000    19777550.555 8  82257368.767 8      1354.831          48.000
C27  22002149.195 8 114571070.449 8     -1465.660          51.000
C30  22123759.148 8 115204288.833 8      1526.371          51.000
E13  23680094.719 8 124439749.257 8      1531.938          51.000    23680095.156 8  95350015.368 8      1173.804          51.000
E15  23867374.555 7 125423914.696 7     -1343.094          42.000    23867378.961 7  96104080.710 7     -1029.076          47.000
E27  23812114.438 8 125133498.948 8     -1371.055          51.000    23812116.680 8  95881527.470 8     -1050.566          51.000
> 2020 05 02 12 52 30.0000000  0 13        .000000000000
G18  21310466.203 8 111987333.341 8      2422.562          48.000    21310466.188 8  87262845.776 8      1887.714          48.000
G21  21384638.391 8 112377047.420 8      2013.141          51.000    21384637.008 7  87566574.849 7      1568.684          45.000
G25  22075277.391 6 116006408.787 6     -2638.027          38.000    22075280.453 6  90394572.780 6     -2055.606          38.000
G29  20645957.984 8 108495248.454 8     -1383.285          51.000    20645957.781 8  84541775.936 8     -1077.885          51.000
G31  21187043.062 6 111338668.513 6      -569.918          40.000    21187043.078 6  86757395.414 6      -444.095          40.000
R09  19206449.359 8 102561383.752 8      -984.676          51.000    19206450.047 8  79769972.867 8      -765.859          50.000
R16  23411051.641 5 125057627.052 5     -4147.844          33.000    23411057.508 4  97267066.848 4     -3226.113          28.000
R20  19767834.617 6 105707517.705 6      1720.789          39.000    19767839.164 7  82216978.200 7      1338.391          47.000
C27  22010624.688 8 114615204.137 8     -1476.184          51.000
C30  22114999.352 8 115158673.850 8      1514.895          51.000
E13  23671385.305 8 124393977.883 8      1519.883          51.000    23671385.859 8  95314943.813 8      1164.618          51.000
E15  23875074.500 6 125464378.852 6     -1354.227          41.000    23875079.312 7  96135085.693 7     -1037.627          47.000
E27  23819971.492 8 125174786.423 8     -1381.027          51.000    23819973.414 8  95913163.319 8     -1058.178          51.000
> 2020 05 02 12 53  0.0000000  0 13        .000000000000
G18  21296677.859 8 111914876.234 8      2407.980          48.000    21296678.000 8  87206385.687 8      1876.348          48.000
G21  21373187.539 8 112316871.000 8      1998.770          51.000    21373185.469 7  87519684.198 7      1557.486          45.000
G25  22090362.016 6 116085679.604 6     -2646.578          38.000    22090365.680 6  90456342.226 6     -2062.269          38.000
G29  20653883.977 8 108536899.519 8     -1393.266          51.000    20653883.641 8  84574231.307 8     -1085.662          51.000
G31  21190349.961 7 111356045.332 7      -588.246          42.000    21190350.227 7  86770935.765 7      -458.377          42.000
R09  19212045.367 8 102591265.869 8     -1007.293          51.000    19212045.914 8  79793214.526 8      -783.447          50.000
R16  23434363.648 5 125182154.463 5     -4153.055          31.000    23434369.031 4  97363921.254 4     -3230.163          24.000
R20  19758239.211 6 105656208.568 6      1699.785          39.000    19758243.812 7  82177071.126 7      1322.055          46.000
C27  22019156.562 8 114659631.737 8     -1485.539          51.000
C30  22106302.531 8 115113385.742 8      1504.484          51.000
E13  23662741.320 8 124348550.670 8      1508.816          51.000    23662742.172 8  95280135.966 8      1156.115          51.000
E15  23882834.531 6 125505158.614 6     -1364.117          38.000    23882838.875 7  96166332.512 7     -1045.272          47.000
E27  23827882.117 8 125216355.819 8     -1390.012          51.000    23827883.852 8  95945015.180 8     -1065.050          51.000
> 2020 05 02 12 53 30.0000000  0 13        .000000000000
G18  21282975.758 8 111842871.366 8      2392.574          49.000    21282976.344 8  87150278.011 8      1864.344          49.000
G21  21361821.375 8 112257141.336 8      1983.434          51.000    21361819.328 7  87473141.658 7      1545.536          46.000
G25  22105497.516 6 116165211.966 6     -2655.590          40.000    22105500.742 6  90518315.506 6     -2069.294          40.000
G29  20661870.664 8 108578869.442 8     -1404.438          51.000    20661870.391 8  84606935.147 8     -1094.367          51.000
G31  21193765.367 6 111373993.069 6      -607.750          39.000    21193765.891 6  86784920.995 6      -473.574          39.000
R09  19217771.750 8 102621844.540 8     -1030.969          51.000    19217772.469 8  79816997.959 8      -801.862          50.000
R16  23457707.867 5 125306864.138 5     -4160.637          30.000
R20  19748760.750 6 105605525.056 6      1678.980          39.000    19748765.156 7  82137650.647 7      1305.874          46.000
C27  22027745.312 8 114704355.223 8     -1495.766          51.000
C30  22097669.133 8 115068428.163 8      1493.020          51.000
E13  23654163.188 8 124303471.536 8      1496.715          51.000    23654164.547 8  95245594.845 8      1146.890          51.000
E15  23890655.438 6 125546256.135 6     -1375.109          37.000    23890658.852 7  96197822.787 7     -1053.787          47.000
E27  23835847.094 8 125258210.619 8     -1399.965          51.000    23835848.641 8  95977085.731 8     -1072.745          51.000
> 2020 05 02 12 54  0.0000000  0 12        .000000000000
G18  21269359.406 8 111771316.720 8      2378.348          50.000    21269360.320 8  87094521.192 8      1853.261          49.000
G21  21350539.156 8 112197855.786 8      1969.422          48.000    21350538.141 7  87426945.160 7      1534.617          47.000
G25  22120681.609 6 116245001.007 6     -2663.559          40.000    22120684.688 6  90580488.750 6     -2075.500          40.000
G29  20669917.023 8 108621152.784 8     -1413.910          51.000    20669916.562 8  84639883.204 8     -1101.745          51.000
G31  21197288.539 6 111392507.213 6      -625.820          40.000    21197289.055 6  86799347.575 6      -487.652          38.000
R09  19223627.703 8 102653115.593 8     -1053.145          51.000    19223628.719 8  79841319.872 8      -819.112          50.000
R20  19739398.859 6 105555463.506 6      1659.426          38.000    19739402.625 7  82098713.927 7      1290.664          46.000
C27  22036389.797 8 114749369.057 8     -1504.520          51.000
C30  22089098.109 8 115023797.192 8      1482.961          51.000
E13  23645650.258 8 124258736.828 8      1486.129          51.000    23645652.031 8  95211317.631 8      1138.704          51.000
E15  23898535.766 6 125587651.861 6     -1384.547          37.000    23898538.656 7  96229552.315 7     -1061.030          47.000
E27  23843865.250 8 125300346.640 8     -1408.523          51.000    23843866.891 8  96009371.746 8     -1079.258          51.000
> 2020 05 02 12 54 30.0000000  0 12        .000000000000
G18  21255829.062 8 111700213.962 8      2363.125          51.000    21255830.125 8  87039116.474 8      1841.396          48.000
G21  21339341.320 7 112139015.554 7      1954.484          47.000    21339341.852 7  87381095.642 7      1522.975          47.000
G25  22135914.188 7 116325045.425 7     -2671.695          43.000    22135916.633 7  90642861.010 7     -2081.837          44.000
G29  20678022.547 8 108663747.480 8     -1424.309          51.000    20678021.648 8  84673073.873 8     -1109.848          51.000
G31  21200919.453 7 111411586.438 7      -644.793          42.000    21200919.391 7  86814214.509 7      -502.439          42.000
R09  19229613.125 8 102685078.452 8     -1076.266          51.000    19229613.984 8  79866179.848 8      -837.099          49.000
R20  19730153.508 6 105506023.984 6      1638.309          40.000    19730157.219 7  82060260.996 7      1274.240          47.000
C27  22045089.508 8 114794671.320 8     -1514.238          51.000
C30  22080589.766 8 114979492.540 8      1472.059          51.000
E13  23637202.828 8 124214346.568 8      1474.562          51.000    23637204.766 8  95177304.327 8      1129.854          51.000
E15  23906474.906 6 125629372.060 6     -1395.191          37.000    23906477.641 8  96261519.724 8     -1069.046          48.000
E27  23851936.375 8 125342763.449 8     -1417.988          50.000    23851938.438 8  96041872.908 8     -1086.403          51.000
> 2020 05 02 12 55  0.0000000  0 12        .000000000000
G18  21242386.320 8 111629571.162 8      2346.758          51.000    21242387.375 8  86984070.168 8      1828.645          48.000
G21  21328229.945 8 112080627.689 8      1938.574          49.000    21328231.562 8  87335598.599 8      1510.577          48.000
G25  22151196.133 7 116405350.455 7     -2681.621          43.000    22151198.164 7  90705436.322 7     -2089.575          43.000
G29  20686188.102 8 108706658.054 8     -1435.852          51.000    20686187.086 8  84706510.695 8     -1118.845          51.000
G31  21204659.047 7 111431236.314 7      -664.766          44.000    21204658.180 7  86829526.085 7      -517.999          44.000
R09  19235729.516 8 102717738.982 8     -1100.523          51.000    19235730.359 8  79891582.462 8      -855.963          49.000
R20  19721025.938 6 105457213.142 6      1616.109          40.000    19721029.734 8  82022296.985 8      1256.974          48.000
C27  22053845.477 8 114840266.473 8     -1524.922          51.000
C30  22072145.430 8 114935520.311 8      1460.023          51.000
E13  23628822.047 8 124170307.113 8      1461.816          51.000    23628823.984 8  95143559.829 8      1120.099          51.000
E15  23914473.453 6 125671407.314 6     -1406.883          38.000    23914476.984 8  96293728.532 8     -1077.813          48.000
E27  23860061.859 8 125385467.004 8     -1428.527          48.000    23860064.562 8  96074593.813 8     -1094.613          51.000
> 2020 05 02 12 55 30.0000000  0 12        .000000000000
G18  21229033.141 8 111559399.119 8      2331.824          51.000    21229034.203 8  86929390.680 8      1817.009          50.000
G21  21317207.180 8 112022702.575 8      1923.703          51.000    21317209.016 8  87290462.132 8      1498.989          49.000
G25  22166528.992 7 116485923.968 7     -2689.648          42.000    22166531.141 7  90768220.798 7     -2095.833          42.000
G29  20694415.141 8 108749892.024 8     -1445.969          51.000    20694414.453 8  84740199.502 8     -1126.729          51.000
G31  21208509.023 7 111451465.093 7      -683.336          45.000    21208507.469 7  86845288.786 7      -532.470          46.000
R09  19241978.070 8 102751106.007 8     -1123.410          51.000    19241979.414 8  79917534.542 8      -873.763          50.000
R20  19712017.695 6 105409040.278 6      1595.723          40.000    19712021.594 8  81984829.196 8      1241.118          49.000
C27  22062659.242 8 114886161.677 8     -1534.281          51.000
C30  22063766.375 8 114891889.221 8      1449.164          51.000
E13  23620509.828 8 124126627.604 8      1450.605          51.000    23620511.625 8  95110091.142 8      1111.467          51.000
E15  23922533.211 6 125713764.920 6     -1416.812          41.000    23922537.570 8  96326184.358 8     -1085.550          48.000
E27  23868243.625 8 125428465.993 8     -1437.598          49.000    23868247.242 8  96107541.087 8     -1101.575          51.000
> 2020 05 02 12 56  0.0000000  0 12        .000000000000
G18  21215770.438 8 111489702.119 8      2315.070          51.000    21215771.578 8  86875081.366 8      1803.951          49.000
G21  21306273.453 8 111965243.224 8      1907.266          51.000    21306274.898 8  87245688.616 8      1486.181          49.000
G25  22181912.953 6 116566767.488 6     -2699.703          39.000    22181915.477 6  90831215.684 6     -2103.668          39.000
G29  20702703.875 8 108793450.204 8     -1457.625          51.000    20702703.484 8  84774140.958 8     -1135.812          51.000
G31  21212469.141 7 111472274.284 7      -703.422          44.000    21212467.406 7  86861503.756 7      -548.121          44.000
R09  19248359.047 8 102785181.635 8     -1147.926          51.000    19248360.812 8  79944037.784 8      -892.831          50.000
R20  19703129.648 6 105361508.331 6      1573.422          40.000    19703133.125 8  81947859.938 8      1223.773          48.000
C27  22071530.641 8 114932357.700 8     -1545.148          51.000
C30  22055452.992 8 114848601.688 8      1436.988          51.000
E13  23612266.859 8 124083310.737 8      1437.457          51.000    23612268.414 8  95076900.317 8      1101.443          51.000
E15  23930654.812 7 125756445.835 7     -1428.301          42.000    23930659.312 8  96358887.875 8     -1094.475          49.000
E27  23876482.672 8 125471762.646 8     -1448.523          50.000    23876486.734 8  96140716.440 8     -1109.851          51.000
> 2020 05 02 12 56 30.0000000  0 12        .000000000000
G18  21202602.938 8 111420505.195 8      2298.363          51.000    21202604.203 8  86821161.709 8      1790.932          50.000
G21  21295433.164 8 111908274.239 8      1890.910          51.000    21295433.938 8  87201297.215 8      1473.440          49.000
G25  22197351.141 5 116647902.955 5     -2709.359          34.000    22197355.219 5  90894438.146 5     -2111.186          35.000
G29  20711058.477 8 108837354.053 8     -1469.109          51.000    20711057.883 8  84808351.742 8     -1144.761          51.000
G31  21216543.547 7 111493686.124 7      -723.594          42.000    21216542.211 7  86878188.330 7      -563.836          42.000
R09  19254876.977 8 102819988.930 8     -1172.316          51.000    19254879.305 8  79971110.102 8      -911.802          51.000
R20  19694365.008 6 105314640.903 6      1551.367          39.000    19694368.758 8  81911407.535 8      1206.622          48.000
C27  22080463.859 8 114978875.779 8     -1555.793          51.000
C30  22047209.938 8 114805680.502 8      1424.812          51.000
E13  23604097.188 8 124040379.804 8      1424.793          51.000    23604098.680 8  95044005.211 8      1091.742          51.000
E15  23938842.359 6 125799471.492 6     -1439.605          38.000    23938847.008 8  96391855.582 8     -1103.128          49.000
E27  23884783.031 8 125515379.836 8     -1459.016          50.000    23884787.312 8  96174137.408 8     -1117.983          51.000
> 2020 05 02 12 57  0.0000000  0 12        .000000000000
G18  21189525.141 8 111351781.538 8      2280.820          49.000    21189526.516 8  86767610.829 8      1777.266          48.000
G21  21284680.750 8 111851768.144 8      1873.801          51.000    21284681.086 8  87157266.529 8      1460.108          48.000
G25  22212837.586 5 116729245.323 5     -2719.504          30.000    22212844.195 4  90957876.602 4     -2119.094          29.000
G29  20719473.164 8 108881573.385 8     -1481.305          51.000    20719472.406 8  84842808.341 8     -1154.263          51.000
G31  21220726.711 7 111515671.147 7      -744.367          43.000    21220726.312 7  86895319.499 7      -580.026          43.000
R09  19261526.203 8 102855498.307 8     -1197.328          51.000    19261529.180 8  79998728.476 8      -931.255          51.000
R20  19685718.812 6 105268409.164 6      1528.555          37.000    19685723.227 8  81875449.530 8      1188.879          48.000
C27  22089453.234 8 115025685.921 8     -1567.270          51.000
C30  22039031.922 8 114763097.267 8      1411.844          51.000
E13  23595995.398 8 123997806.458 8      1411.102          50.000    23595996.828 8  95011384.057 8      1081.222          51.000
E15  23947090.281 6 125842811.694 6     -1451.965          41.000    23947094.883 8  96425064.373 8     -1112.637          49.000
E27  23893138.930 8 125559288.764 8     -1470.535          51.000    23893143.281 8  96207781.908 8     -1126.807          51.000
> 2020 05 02 12 57 30.0000000  0 13        .000000000000
G18  21176529.359 7 111283492.575 7      2272.309          47.000    21176531.156 7  86714398.676 7      1770.630          46.000
G21  21274008.547 8 111795685.602 8      1865.699          51.000    21274008.891 7  87113565.900 7      1453.795          47.000
G25  22228371.422 6 116810862.769 6     -2720.812          39.000    22228377.125 6  91021475.352 6     -2120.114          39.000
G29  20727939.828 8 108926066.203 8     -1484.324          51.000    20727939.016 8  84877478.063 8     -1156.616          51.000
G31  21225011.719 7 111538188.035 7      -756.105          46.000    21225011.180 7  86912865.140 7      -589.173          46.000
R09  19268299.258 8 102891668.167 8     -1213.172          50.000    19268302.609 8  80026860.589 8      -943.578          51.000
R16  23645608.633 5 126310601.744 5     -4199.043          31.000
R20  19677183.375 6 105222772.135 6      1514.680          37.000    19677189.086 8  81839954.110 8      1178.087          48.000
C27  22098490.844 8 115072746.415 8     -1569.488          51.000
C30  22030911.508 8 114720811.848 8      1407.891          51.000
E13  23587954.000 8 123955550.435 8      1406.570          50.000    23587955.539 8  94979006.037 8      1077.780          51.000
E15  23955389.562 7 125886424.645 7     -1454.848          45.000    23955394.156 8  96458482.045 8     -1114.846          49.000
E27  23901542.570 8 125603448.693 8     -1472.785          51.000    23901546.891 8  96241618.734 8     -1128.507          51.000
> 2020 05 02 12 58  0.0000000  0 13        .000000000000
G18  21163609.750 7 111215605.392 7      2251.930          45.000    21163611.789 7  86661499.600 7      1754.753          44.000
G21  21263410.336 8 111739992.982 8      1845.598          50.000    21263410.562 7  87070169.101 7      1438.131          47.000
G25  22243940.453 6 116892667.137 6     -2734.395          40.000    22243944.531 6  91085218.975 6     -2130.700          40.000
G29  20736451.570 8 108970796.207 8     -1499.207          51.000    20736450.719 8  84912332.598 8     -1168.213          51.000
G31  21229391.359 7 111561201.414 7      -779.723          46.000    21229390.164 7  86930797.657 7      -607.576          46.000
R09  19275189.633 8 102928462.833 8     -1241.254          50.000    19275193.273 8  80055478.667 8      -965.423          51.000
R16  23669217.984 5 126436711.148 5     -4208.867          34.000
R20  19668753.117 6 105177694.531 6      1488.789          38.000    19668758.992 7  81804893.747 7      1157.947          46.000
C27  22107569.500 8 115120021.233 8     -1583.660          51.000
C30  22022842.039 8 114678789.794 8      1392.152          51.000
E13  23579966.781 8 123913577.166 8      1390.098          51.000    23579968.547 8  94946844.708 8      1065.128          51.000
E15  23963733.844 7 125930273.887 7     -1469.844          45.000    23963738.227 8  96492080.796 8     -1126.232          49.000
E27  23909987.297 8 125647824.727 8     -1487.070          51.000    23909991.570 8  96275621.152 8     -1139.420          51.000
> 2020 05 02 12 58 30.0000000  0 13        .000000000000
G18  21150797.164 8 111148276.137 8      2236.719          48.000    21150798.594 7  86609035.282 7      1742.898          44.000
G21  21252915.828 8 111684845.750 8      1831.105          50.000    21252916.141 8  87027197.252 8      1426.835          48.000
G25  22259572.500 6 116974810.146 6     -2741.773          41.000    22259574.742 6  91149226.434 6     -2136.450          40.000
G29  20745037.484 8 109015916.024 8     -1508.590          51.000    20745036.633 8  84947490.893 8     -1175.525          51.000
G31  21233894.305 7 111584864.846 7      -797.590          46.000    21233892.867 7  86949236.661 7      -621.499          46.000
R09  19282226.555 8 102966038.816 8     -1263.574          51.000    19282230.117 8  80084704.415 8      -982.780          51.000
R16  23692870.438 5 126563055.511 5     -4213.438          34.000
R20  19660457.516 6 105133333.735 6      1468.809          39.000    19660462.664 7  81770390.957 7      1142.410          45.000
C27  22116718.250 8 115167661.674 8     -1592.215          51.000
C30  22014852.469 8 114637183.986 8      1381.824          51.000
E13  23572063.141 8 123872041.227 8      1379.207          51.000    23572064.938 8  94915018.485 8      1056.771          51.000
E15  23972152.188 7 125974512.246 7     -1479.094          46.000    23972156.766 8  96525977.740 8     -1133.469          49.000
E27  23918502.727 8 125692570.933 8     -1495.773          51.000    23918506.664 8  96309907.216 8     -1146.175          51.000
> 2020 05 02 12 59  0.0000000  0 12        .000000000000
G18  21138071.375 8 111081399.191 8      2220.199          50.000    21138071.922 7  86556923.406 7      1730.025          44.000
G21  21242504.984 8 111630137.690 8      1814.750          50.000    21242505.750 8  86984567.612 8      1414.091          49.000
G25  22275247.703 6 117057183.486 6     -2750.719          39.000    22275245.922 6  91213413.277 6     -2143.423          39.000
G29  20753677.039 8 109061317.324 8     -1519.496          51.000    20753676.281 8  84982868.527 8     -1184.023          51.000
G31  21238500.070 7 111609069.550 7      -817.301          44.000    21238498.531 7  86968097.453 7      -636.858          44.000
R09  19289389.406 8 103004285.866 8     -1287.609          51.000    19289392.180 8  80114452.139 8     -1001.474          50.000
R20  19652276.070 6 105089580.682 6      1446.863          41.000    19652280.078 7  81736360.829 7      1125.335          45.000
C27  22125916.570 8 115215559.681 8     -1602.312          51.000
C30  22006922.320 8 114595887.886 8      1369.863          51.000
E13  23564222.320 8 123830835.411 8      1366.500          51.000    23564224.047 8  94883445.223 8      1047.052          51.000
E15  23980624.023 7 126019030.805 7     -1490.035          47.000    23980628.641 8  96560089.337 8     -1141.700          49.000
E27  23927068.008 8 125737579.701 8     -1506.090          51.000    23927071.375 8  96344394.449 8     -1154.017          51.000
> 2020 05 02 12 59 30.0000000  0 12        .000000000000
G18  21125444.094 8 111015039.314 8      2203.734          50.000    21125444.438 7  86505214.463 7      1717.199          47.000
G21  21232190.289 8 111575932.743 8      1798.727          51.000    21232191.188 8  86942330.008 8      1401.605          50.000
G25  22290978.031 6 117139848.992 6     -2759.922          36.000    22290977.492 6  91277827.869 6     -2150.588          37.000
G29  20762381.750 8 109107060.984 8     -1530.172          51.000    20762381.141 8  85018512.927 8     -1192.342          51.000
G31  21243220.141 7 111633877.761 7      -836.738          45.000    21243219.141 7  86987428.485 7      -652.007          44.000
R09  19296689.812 8 103043267.957 8     -1311.422          51.000    19296692.172 8  80144771.535 8     -1019.998          50.000
R20  19644220.297 6 105046499.136 6      1425.254          41.000    19644223.672 7  81702852.960 7      1108.531          46.000
C27  22135175.945 8 115263776.007 8     -1612.230          51.000
C30  21999063.602 8 114554963.827 8      1358.270          51.000
E13  23556455.969 8 123790022.832 8      1354.164          51.000    23556457.867 8  94852173.277 8      1037.573          51.000
E15  23989160.820 7 126063890.923 7     -1500.734          47.000    23989165.117 8  96594462.673 8     -1149.979          49.000
E27  23935695.031 8 125782913.735 8     -1516.246          51.000    23935697.641 8  96379130.919 8     -1161.874          51.000
