     3.02           OBSERVATION DATA    M (MIXED)           RINEX VERSION / TYPE
SAVERINEX           SC600               20200506 155933 LCL PGM / RUN BY / DATE
       G = GPS       R = GLONASS       C = COMPASS          COMMENT
       S = SBAS      J = QZSS          E = GALILEO          COMMENT
BEAN                                                        MARKER NAME
1                                                           MARKER NUMBER
GEODETIC                                                    MARKER TYPE
Unige DICCA         GTER                                    OBSERVER / AGENCY
SC60291900056       SC600               2.12(191226)        REC # / TYPE / VERS
                    HEMA45          NONE                    ANT # / TYPE
  4509407.8091   693652.4678  4442337.6214                  APPROX POSITION XYZ
        0.0000        0.0000        0.0000                  ANTENNA: DELTA H/E/N
G    8 C1C L1C D1C S1C C2Y L2Y D2Y S2Y                      SYS / # / OBS TYPES
R    8 C1C L1C D1C S1C C2P L2P D2P S2P                      SYS / # / OBS TYPES
C    8 C1I L1I D1I S1I C7I L7I D7I S7I                      SYS / # / OBS TYPES
E    8 C1C L1C D1C S1C C7Q L7Q D7Q S7Q                      SYS / # / OBS TYPES
DBHZ                                                        COMMENT
     30.000                                                 INTERVAL
  2020    05    06    13    00    0.0000000     GPS         TIME OF FIRST OBS
  2020    05    06    13    59   30.0000000     GPS         TIME OF LAST OBS
     0                                                      RCV CLOCK OFFS APPL
G L1C  0.00000                                              SYS / PHASE SHIFT
G L2Y  0.00000                                              SYS / PHASE SHIFT
R L1C  0.00000                                              SYS / PHASE SHIFT
R L2P  0.25000                                              SYS / PHASE SHIFT
C L1I  0.00000                                              SYS / PHASE SHIFT
C L7I  0.00000                                              SYS / PHASE SHIFT
E L1C  0.50000                                              SYS / PHASE SHIFT
E L7Q -0.25000                                              SYS / PHASE SHIFT
 12 R01  1 R02 -4 R07  5 R08  6 R10 -5 R11  0 R12 -1 R13 -2 GLONASS SLOT / FRQ #
    R14 -7 R17  4 R22 -3 R23  3                             GLONASS SLOT / FRQ #
 C1C   71.950 C2C   71.950 C2P   71.950                     GLONASS COD/PHS/BIS
    18                                                      LEAP SECONDS
*** Above antenna height is from mark to ANTENNA BOTTOM.    COMMENT
    17     4        0.0000        ANT MEASURE TYPE/HEIGT    COMMENT
    0.0000    0.0000    0.0458    0.0405    0.0000          COMMENT
                    BASE STATION                            COMMENT
                                                            END OF HEADER
> 2020 05 06 13 00  0.0000000  0 15        .000000000000
G18  20789098.719 8 109247513.551 8      1716.906          51.000    20789100.305 8  85127893.022 8      1337.849          50.000
G21  20929107.656 8 109983270.161 8      1239.004          50.000    20929107.164 8  85701194.480 8       965.458          50.000
G29  21095217.414 8 110856109.621 8     -1850.750          51.000    21095216.219 8  86381384.426 8     -1442.143          51.000
G31  21466434.953 8 112806872.197 8     -1463.168          49.000    21466434.055 8  87901476.914 8     -1140.134          49.000
R13  20269265.641 6 108236743.486 6     -2878.555          41.000    20269269.781 6  84184136.298 6     -2238.876          41.000
R14  19458304.000 5 103723709.109 5      1349.355          32.000    19458312.070 5  80674006.693 5      1049.499          31.000
R17  22588823.750 7 120877304.355 7      3625.582          45.000    22588821.539 6  94015697.844 6      2819.900          39.000
R23  19703580.656 5 105400853.871 5     -2107.188          35.000
R24  19395306.078 8 103715471.786 8       946.699          50.000    19395308.406 8  80667545.691 8       736.322          48.000
C12  21938399.922 8 114239134.465 8      1175.852          50.000    21938399.094 8  88336956.615 8       909.385          51.000
C24  22203924.164 8 115621667.234 8      -899.094          49.000
C26  24081723.875 8 125399820.292 8     -3175.711          48.000
E02  25793581.445 8 135546162.302 8     -2513.723          49.000    25793586.070 8 103860049.593 8     -1925.982          51.000
E15  24738607.445 8 130002323.427 8      2346.738          50.000    24738611.656 8  99612184.721 8      1798.153          51.000
E30  22082172.734 8 116042595.952 8      -348.758          51.000    22082174.914 8  88915763.027 8      -267.182          51.000
> 2020 05 06 13 00 30.0000000  0 16        .000000000000
G18  20779352.500 8 109196295.555 8      1698.430          51.000    20779353.523 8  85087982.926 8      1323.452          50.000
G21  20922087.055 8 109946375.581 8      1221.555          51.000    20922086.164 8  85672445.454 8       951.861          49.000
G25  22886195.258 5 120267764.554 5     -3041.219          35.000    22886199.633 6  93715147.961 6     -2369.784          36.000
G29  21105812.219 8 110911785.452 8     -1860.137          51.000    21105811.031 8  86424768.174 8     -1449.457          51.000
G31  21474842.266 8 112851054.391 8     -1481.508          50.000    21474842.266 8  87935904.567 8     -1154.422          50.000
R13  20285495.523 6 108323408.911 6     -2898.172          39.000    20285498.680 7  84251542.695 7     -2254.134          42.000
R14  19450778.055 5 103683594.909 5      1326.227          32.000    19450783.883 5  80642806.739 5      1031.503          32.000
R17  22568530.648 7 120768700.302 7      3615.633          44.000    22568525.102 6  93931228.141 6      2812.162          38.000
R23  19715447.078 6 105464332.190 6     -2123.766          39.000
R24  19390056.961 8 103687403.162 8       925.480          51.000    19390059.242 7  80645714.576 7       719.818          47.000
C12  21931661.359 8 114204046.461 8      1164.164          50.000    21931661.266 8  88309824.358 8       900.218          51.000
C24  22209154.234 8 115648904.726 8      -915.812          50.000
C26  24100043.102 7 125495214.271 7     -3183.082          46.000
E02  25807957.039 8 135621697.912 8     -2521.062          50.000    25807961.336 8 103917927.496 8     -1931.681          51.000
E15  24725239.188 8 129932076.555 8      2337.391          50.000    24725244.117 8  99558359.222 8      1791.033          51.000
E30  22084201.086 8 116053255.280 8      -360.934          51.000    22084203.039 8  88923930.547 8      -276.521          51.000
> 2020 05 06 13 01  0.0000000  0 16        .000000000000
G18  20769702.086 8 109145580.583 8      1682.109          51.000    20769702.562 8  85048464.788 8      1310.735          49.000
G21  20915155.781 8 109909951.354 8      1206.332          50.000    20915154.781 8  85644062.934 8       939.999          49.000
G25  22903577.039 6 120359088.541 6     -3047.625          39.000    22903579.273 6  93786309.484 6     -2374.773          39.000
G29  21116450.430 8 110967689.812 8     -1867.176          51.000    21116449.391 8  86468329.998 8     -1454.942          51.000
G31  21483344.078 8 112895731.927 8     -1497.449          51.000    21483344.695 8  87970718.212 8     -1166.844          51.000
R13  20301825.281 6 108410612.896 6     -2915.914          36.000    20301828.852 7  84319367.987 7     -2267.933          43.000
R14  19443377.109 6 103644133.128 6      1304.918          36.000    19443381.867 5  80612114.249 5      1014.939          32.000
R17  22548283.188 7 120660347.643 7      3607.645          42.000    22548275.844 6  93846953.930 6      2805.949          39.000
R23  19727395.047 5 105528241.151 5     -2137.453          35.000
R24  19384916.633 8 103659915.277 8       906.652          51.000    19384918.758 8  80624335.104 8       705.174          48.000
C12  21924980.977 8 114169260.163 8      1154.570          49.000    21924981.180 8  88282925.380 8       892.844          51.000
C24  22214471.656 8 115676592.279 8      -930.352          51.000
C26  24118393.641 7 125590771.896 7     -3187.840          44.000
E02  25822363.680 8 135697399.777 8     -2526.055          51.000    25822368.523 8 103975932.786 8     -1935.521          51.000
E15  24711913.758 8 129862054.927 8      2330.406          49.000    24711919.188 8  99504706.303 8      1785.621          50.000
E30  22086288.727 8 116064226.006 8      -370.734          51.000    22086290.312 8  88932336.677 8      -284.072          51.000
> 2020 05 06 13 01 30.0000000  0 16        .000000000000
G18  20760155.523 8 109095412.215 8      1663.277          51.000    20760155.578 8  85009372.579 8      1296.060          48.000
G21  20908321.664 8 109874040.495 8      1188.426          49.000    20908321.227 8  85616080.464 8       926.046          48.000
G25  22921001.609 6 120450646.195 6     -3055.832          39.000    22921001.719 6  93857653.144 6     -2381.168          39.000
G29  21127139.828 8 111023863.581 8     -1876.891          51.000    21127139.102 8  86512101.747 8     -1462.512          51.000
G31  21491948.062 8 112940945.454 8     -1515.992          51.000    21491948.703 8  88005949.526 8     -1181.293          51.000
R13  20318263.164 6 108498395.485 6     -2935.957          36.000    20318268.062 7  84387643.344 7     -2283.522          42.000
R14  19436106.164 5 103605368.958 5      1280.051          35.000    19436109.023 5  80581964.352 5       995.592          32.000
R17  22528086.789 6 120552291.049 6      3597.148          41.000    22528082.812 7  93762909.916 7      2797.782          42.000
R23  19739429.492 6 105592620.348 6     -2153.578          40.000    19739442.852 4  82127645.876 4     -1674.999          28.000
R24  19379892.445 8 103633050.840 8       885.141          51.000    19379895.141 8  80603440.558 8       688.443          48.000
C12  21918366.352 8 114134817.136 8      1142.500          49.000    21918366.773 8  88256291.842 8       883.363          51.000
C24  22219883.688 8 115704771.321 8      -947.410          51.000
C26  24136782.820 6 125686533.170 6     -3195.297          41.000
E02  25836809.602 8 135773309.437 8     -2533.812          51.000    25836815.203 8 104034097.291 8     -1941.484          51.000
E15  24698639.727 8 129792301.551 8      2320.586          50.000    24698644.930 8  99451258.935 8      1778.129          49.000
E30  22088443.750 8 116075550.890 8      -383.379          51.000    22088444.969 8  88941014.172 8      -293.803          51.000
> 2020 05 06 13 02  0.0000000  0 16        .000000000000
G18  20750710.586 8 109045778.908 8      1645.469          51.000    20750710.430 8  84970697.310 8      1282.183          49.000
G21  20901582.883 8 109838630.588 8      1171.902          49.000    20901582.883 8  85588488.335 8       913.168          48.000
G25  22938467.031 6 120542423.576 6     -3063.047          37.000    22938467.828 6  93929168.028 6     -2386.790          36.000
G29  21137877.828 8 111080292.706 8     -1885.246          51.000    21137877.398 8  86556072.470 8     -1469.023          51.000
G31  21500651.266 8 112986680.228 8     -1533.164          51.000    21500651.477 8  88041587.006 8     -1194.673          51.000
R13  20334807.430 6 108586741.110 6     -2954.258          38.000    20334811.977 6  84456356.592 6     -2297.759          39.000
R14  19428963.828 4 103567291.895 4      1257.117          29.000    19428965.469 5  80552348.840 5       977.752          31.000
R17  22507942.852 7 120444518.812 7      3587.645          44.000    22507943.750 7  93679087.126 7      2790.393          42.000
R23  19751549.398 6 105657454.238 6     -2168.906          38.000    19751556.148 4  82178072.249 4     -1686.927          24.000
R24  19374982.633 8 103606796.276 8       865.008          51.000    19374985.188 7  80583020.354 7       672.784          46.000
C12  21911815.188 8 114100704.553 8      1131.535          50.000    21911815.781 8  88229913.828 8       875.032          51.000
C24  22225387.539 8 115733428.661 8      -963.285          51.000
C26  24155206.164 6 125782483.497 6     -3201.914          37.000
E02  25851291.992 8 135849413.271 8     -2540.039          51.000    25851298.258 8 104092410.570 8     -1946.225          51.000
E15  24685414.953 8 129722804.300 8      2312.258          50.000    24685419.258 8  99398007.846 8      1771.742          49.000
E30  22090663.742 8 116087217.476 8      -394.617          51.000    22090664.695 8  88949953.485 8      -302.366          51.000
> 2020 05 06 13 02 30.0000000  0 17        .000000000000
G18  20741369.211 8 108996689.751 8      1627.820          51.000    20741368.906 8  84932446.019 8      1268.431          48.000
G21  20894941.484 8 109803729.996 8      1155.367          50.000    20894941.359 8  85561293.066 8       900.286          48.000
G25  22955974.906 6 120634427.462 6     -3070.273          39.000    22955976.414 6  94000859.339 6     -2392.421          38.000
G29  21148665.711 8 111136983.418 8     -1893.426          51.000    21148665.383 8  86600247.041 8     -1475.397          51.000
G31  21509454.914 8 113032942.548 8     -1550.234          51.000    21509454.625 8  88077635.557 8     -1207.975          51.000
R13  20351458.945 6 108675655.848 6     -2972.699          41.000    20351462.414 6  84525512.386 6     -2312.102          39.000
R14  19421951.094 6 103529912.534 6      1234.566          36.000    19421954.109 5  80523276.008 5       960.221          33.000
R17  22487855.781 7 120337040.770 7      3578.340          44.000    22487859.656 7  93595493.197 7      2783.159          42.000
R23  19763754.859 6 105722747.141 6     -2183.414          37.000
R24  19370188.219 8 103581158.988 8       844.824          51.000    19370190.297 7  80563080.281 7       657.086          47.000
C11  25887194.445 6 134801404.838 6      2863.344          38.000    25887194.406 7 104237004.695 7      2214.361          44.000
C12  21905329.336 8 114066929.918 8      1120.789          51.000    21905329.734 8  88203797.171 8       866.650          51.000
C24  22230985.047 8 115762571.507 8      -978.875          51.000
C26  24173666.102 6 125878628.682 6     -3207.230          36.000
E02  25865812.250 8 135925718.367 8     -2546.230          50.000    25865818.477 8 104150878.056 8     -1950.978          48.000
E15  24672240.992 8 129653571.746 8      2303.887          51.000    24672244.430 8  99344959.568 8      1765.331          50.000
E30  22092950.375 8 116099234.041 8      -405.762          51.000    22092951.148 8  88959160.973 8      -310.926          51.000
> 2020 05 06 13 03  0.0000000  0 17        .000000000000
G18  20732121.367 8 108948093.592 8      1609.527          50.000    20732121.461 8  84894578.891 8      1254.180          49.000
G21  20888387.148 8 109769286.536 8      1138.402          50.000    20888386.695 7  85534454.028 7       887.067          47.000
G25  22973514.828 6 120726604.371 6     -3077.566          38.000    22973516.703 6  94072685.463 6     -2398.107          37.000
G29  21159493.227 8 111193882.050 8     -1902.230          51.000    21159492.844 8  86644583.640 8     -1482.258          51.000
G31  21518348.758 8 113079678.501 8     -1567.855          51.000    21518348.102 8  88114053.166 8     -1221.706          51.000
R13  20368207.227 7 108765084.486 7     -2991.543          42.000    20368209.625 6  84595067.875 6     -2326.759          40.000
R14  19415061.602 5 103493180.147 5      1211.570          34.000    19415064.906 5  80494706.387 5       942.329          35.000
R17  22467814.875 7 120229805.250 7      3568.289          47.000    22467820.242 6  93512087.888 6      2775.339          40.000
R23  19776035.422 6 105788442.795 6     -2198.629          38.000
R24  19365499.312 8 103556085.239 8       824.305          51.000    19365501.289 8  80543578.492 8       641.126          48.000
C11  25870703.711 6 134715533.610 6      2858.715          38.000    25870703.055 7 104170603.705 7      2210.739          44.000
C12  21898898.641 8 114033441.180 8      1109.367          51.000    21898898.453 8  88177901.574 8       857.878          51.000
C24  22236665.562 8 115792147.565 8      -995.121          51.000
C26  24192157.195 6 125974915.144 6     -3214.340          39.000
E02  25880360.227 8 136002171.617 8     -2553.082          49.000    25880363.930 7 104209459.017 7     -1956.135          43.000
E15  24659107.734 8 129584552.243 8      2294.938          51.000    24659110.797 8  99292074.538 8      1758.492          51.000
E30  22095293.734 8 116111548.699 8      -417.613          51.000    22095294.594 8  88968596.862 8      -319.950          51.000
> 2020 05 06 13 03 30.0000000  0 17        .000000000000
G18  20722985.125 8 108900084.237 8      1592.262          50.000    20722985.672 8  84857169.026 8      1240.723          50.000
G21  20881937.570 8 109735393.153 8      1122.293          51.000    20881936.719 7  85508043.652 7       874.514          47.000
G25  22991105.219 6 120819045.913 6     -3084.383          40.000    22991107.625 6  94144717.639 6     -2403.418          41.000
G29  21170377.664 8 111251080.042 8     -1909.852          51.000    21170377.211 8  86689153.500 8     -1488.196          51.000
G31  21527349.984 8 113126978.698 8     -1584.383          51.000    21527349.469 8  88150910.451 8     -1234.584          51.000
R13  20385068.648 7 108855117.366 7     -3009.414          43.000    20385070.719 7  84665093.355 7     -2340.658          43.000
R14  19408311.047 5 103457191.106 5      1188.629          34.000    19408314.430 5  80466714.902 5       924.495          34.000
R17  22447837.734 8 120122908.345 8      3559.242          48.000    22447843.367 6  93428945.918 6      2768.303          39.000
R23  19788407.922 5 105854632.337 5     -2212.582          34.000
R24  19360933.336 8 103531668.751 8       804.723          51.000    19360935.695 8  80524587.887 8       625.895          49.000
C11  25854246.289 6 134629841.052 6      2855.387          38.000    25854246.219 7 104104340.877 7      2207.909          45.000
C12  21892540.070 8 114000329.899 8      1099.156          50.000    21892539.633 8  88152297.843 8       849.998          51.000
C24  22242446.562 8 115822248.028 8     -1010.352          51.000
C26  24210694.562 7 126071432.686 7     -3219.266          43.000
E02  25894953.938 8 136078864.813 8     -2558.566          49.000    25894953.422 7 104268223.839 7     -1960.565          43.000
E15  24646032.594 8 129515839.121 8      2287.090          51.000    24646035.898 8  99239424.269 8      1752.454          51.000
E30  22097711.344 8 116124254.425 8      -428.270          51.000    22097712.664 8  88978332.391 8      -328.173          51.000
> 2020 05 06 13 04  0.0000000  0 17        .000000000000
G18  20713948.133 8 108852594.633 8      1573.406          51.000    20713948.883 8  84820164.167 8      1226.031          51.000
G21  20875580.031 8 109701982.253 8      1104.637          51.000    20875578.516 7  85482009.223 7       860.756          46.000
G25  23008734.047 6 120911682.520 6     -3092.109          40.000    23008734.867 6  94216901.880 6     -2409.439          40.000
G29  21181305.719 8 111308507.573 8     -1918.832          51.000    21181305.266 8  86733902.219 8     -1495.194          51.000
G31  21536444.984 8 113174773.174 8     -1602.219          51.000    21536444.945 8  88188152.884 8     -1248.482          51.000
R13  20402029.484 6 108945683.305 6     -3028.734          41.000    20402031.844 7  84735533.475 7     -2355.682          45.000
R14  19401685.109 5 103421878.475 5      1164.414          34.000    19401688.188 5  80439249.454 5       905.655          33.000
R17  22427911.727 8 120016281.909 8      3548.840          49.000    22427917.648 6  93346014.323 6      2760.212          41.000
R23  19800859.117 5 105921243.081 5     -2228.250          32.000
R24  19356477.180 8 103507839.370 8       783.621          51.000    19356479.766 8  80506053.924 8       609.483          49.000
C11  25837809.992 6 134544260.210 6      2849.793          38.000    25837811.219 7 104038164.386 7      2203.707          46.000
C12  21886240.500 8 113967528.150 8      1087.352          50.000    21886240.227 8  88126933.456 8       840.842          51.000
C24  22248315.078 8 115852804.651 8     -1027.137          51.000
C26  24229263.562 7 126168111.727 7     -3226.277          45.000
E02  25909580.477 8 136155728.960 8     -2565.832          49.000    25909579.555 7 104327119.667 7     -1965.961          45.000
E15  24633002.664 8 129447364.762 8      2277.641          51.000    24633006.398 8  99186956.920 8      1745.163          51.000
E30  22100190.578 8 116137283.321 8      -440.547          51.000    22100192.109 8  88988315.557 8      -337.604          51.000
> 2020 05 06 13 04 30.0000000  0 17        .000000000000
G18  20705012.938 8 108805639.960 8      1556.102          51.000    20705013.766 8  84783576.140 8      1212.547          51.000
G21  20869317.000 8 109669068.252 8      1088.801          51.000    20869314.992 7  85456361.969 7       848.416          47.000
G25  23026402.078 5 121004527.162 5     -3098.352          35.000    23026401.680 6  94289248.335 6     -2414.297          36.000
G29  21192279.797 8 111366177.279 8     -1926.410          51.000    21192279.344 8  86778839.632 8     -1501.099          51.000
G31  21545636.195 8 113223074.337 8     -1618.516          50.000    21545636.406 8  88225790.134 8     -1261.181          50.000
R13  20419091.594 6 109036793.558 6     -3046.262          38.000    20419094.648 7  84806397.001 7     -2369.315          46.000
R14  19395190.391 6 103387258.886 6      1142.016          36.000    19395193.586 5  80412323.160 5       888.234          34.000
R17  22408039.844 8 119909942.026 8      3539.762          49.000    22408046.180 7  93263305.624 7      2753.151          42.000
R23  19813390.422 5 105988286.238 5     -2241.895          35.000
R24  19352133.523 8 103484610.596 8       764.184          51.000    19352135.797 8  80487987.101 8       594.365          48.000
C11  25821398.711 6 134458805.423 6      2846.090          40.000    25821400.578 7 103972085.397 7      2200.940          46.000
C12  21880003.156 8 113935049.613 8      1077.168          50.000    21880002.883 8  88101818.999 8       832.995          51.000
C24  22254273.297 8 115883830.802 8     -1042.055          51.000
C26  24247865.523 7 126264964.235 7     -3231.422          46.000
E02  25924242.391 8 136232777.282 8     -2571.328          51.000    25924243.336 7 104386156.640 7     -1970.256          47.000
E15  24620020.398 8 129379143.966 8      2269.750          50.000    24620024.930 8  99134683.847 8      1739.123          51.000
E30  22102734.195 8 116150649.816 8      -451.172          51.000    22102735.594 8  88998557.409 8      -345.718          51.000
> 2020 05 06 13 05  0.0000000  0 17        .000000000000
G18  20696181.562 8 108759230.150 8      1537.945          51.000    20696182.328 8  84747412.678 8      1198.399          51.000
G21  20863149.867 8 109636660.158 8      1071.887          50.000    20863148.086 8  85431108.949 8       835.239          48.000
G25  23044108.531 5 121097587.479 5     -3105.762          31.000    23044110.367 5  94361762.886 5     -2420.068          30.000
G29  21203301.500 8 111424096.879 8     -1934.738          51.000    21203301.023 8  86823971.774 8     -1507.591          51.000
G31  21554925.148 8 113271889.270 8     -1635.664          50.000    21554925.117 8  88263827.714 8     -1274.543          50.000
R13  20436256.047 6 109128455.002 6     -3064.609          38.000    20436260.625 7  84877689.260 7     -2383.582          46.000
R14  19388828.250 5 103353343.584 5      1118.969          35.000    19388830.969 5  80385944.555 5       870.309          35.000
R17  22388223.398 8 119803899.190 8      3529.809          48.000    22388229.742 6  93180827.944 6      2745.410          41.000
R23  19826005.969 6 106055767.423 6     -2256.578          36.000
R24  19347903.672 8 103461991.067 8       743.871          51.000    19347905.781 8  80470394.159 8       578.569          48.000
C11  25805014.164 7 134373486.119 7      2841.805          42.000    25805016.164 7 103906111.198 7      2197.473          47.000
C12  21873829.852 8 113902902.662 8      1066.121          50.000    21873829.445 8  88076960.951 8       824.371          51.000
C24  22260322.633 8 115915334.656 8     -1058.008          50.000
C26  24266501.789 7 126361997.031 7     -3237.305          45.000
E02  25938941.391 8 136310017.815 8     -2577.832          51.000    25938943.078 7 104445340.917 7     -1975.249          47.000
E15  24607087.484 8 129311186.150 8      2260.836          49.000    24607093.258 8  99082612.276 8      1732.362          51.000
E30  22105343.555 8 116164363.103 8      -462.859          51.000    22105345.320 8  89009064.977 8      -354.673          51.000
> 2020 05 06 13 05 30.0000000  0 17        .000000000000
G18  20687452.984 8 108713360.426 8      1519.973          51.000    20687453.719 8  84711670.054 8      1184.394          50.000
G21  20857077.766 8 109604752.029 8      1055.176          51.000    20857076.367 8  85406245.494 8       822.215          48.000
G25  23061855.617 6 121190856.412 6     -3112.707          37.000    23061858.758 6  94434440.042 6     -2425.486          37.000
G29  21214369.383 8 111482258.708 8     -1942.477          51.000    21214368.836 8  86869292.662 8     -1513.618          51.000
G31  21564310.398 8 113321210.382 8     -1652.449          50.000    21564309.719 8  88302259.709 8     -1287.623          50.000
R13  20453522.430 6 109220659.086 6     -3082.336          40.000    20453527.805 7  84949403.527 7     -2397.375          46.000
R14  19382596.203 6 103320128.934 6      1095.371          36.000    19382600.234 6  80360110.914 6       851.952          36.000
R17  22368460.898 7 119698148.759 7      3520.082          47.000    22368466.602 6  93098577.683 6      2737.845          40.000
R23  19838702.203 5 106123677.906 5     -2270.625          35.000
R24  19343786.352 8 103439973.858 8       723.965          51.000    19343788.727 8  80453269.677 8       563.084          49.000
C11  25788654.680 7 134288296.913 7      2837.668          42.000    25788656.812 8 103840237.572 8      2194.259          48.000
C12  21867718.938 8 113871081.199 8      1055.305          50.000    21867718.766 8  88052354.584 8       816.089          51.000
C24  22266462.234 8 115947309.675 8     -1073.590          50.000
C26  24285170.648 7 126459202.303 7     -3242.918          43.000
E02  25953675.523 8 136387443.814 8     -2583.906          50.000    25953677.086 7 104504667.295 7     -1979.858          47.000
E15  24594203.719 8 129243486.049 8      2252.516          49.000    24594210.289 8  99030738.180 8      1725.939          51.000
E30  22108017.773 8 116178417.565 8      -474.047          51.000    22108020.125 8  89019833.947 8      -363.207          51.000
> 2020 05 06 13 06  0.0000000  0 17        .000000000000
G18  20678825.805 8 108668024.801 8      1502.043          50.000    20678826.484 8  84676343.609 8      1170.423          49.000
G21  20851099.656 8 109573337.415 8      1038.805          50.000    20851098.266 8  85381766.572 8       809.458          49.000
G25  23079642.289 6 121284325.860 6     -3118.812          37.000    23079643.672 6  94507273.308 6     -2430.247          36.000
G29  21225481.781 8 111540654.433 8     -1950.551          51.000    21225481.109 8  86914795.802 8     -1519.910          51.000
G31  21573790.328 8 113371028.616 8     -1669.012          50.000    21573789.141 8  88341079.082 8     -1300.529          50.000
R13  20470889.180 7 109313395.730 7     -3100.219          42.000    20470894.305 7  85021531.975 7     -2411.284          45.000
R14  19376495.422 6 103287610.041 6      1072.340          39.000    19376499.492 6  80334818.394 6       834.042          36.000
R17  22348751.906 7 119592685.381 7      3510.629          46.000    22348755.555 6  93016550.680 6      2730.492          39.000
R23  19851475.859 6 106192006.792 6     -2284.371          39.000
R24  19339780.094 8 103418551.177 8       704.129          51.000    19339782.656 8  80436607.580 8       547.656          48.000
C11  25772318.641 6 134203231.542 6      2833.359          41.000    25772321.219 8 103774459.708 8      2190.915          48.000
C12  21861668.992 8 113839578.118 8      1044.680          50.000    21861669.086 8  88027994.430 8       807.764          51.000
C24  22272691.125 8 115979748.210 8     -1089.027          50.000
C26  24303870.555 6 126556571.106 6     -3248.219          40.000
E02  25968442.922 8 136465047.371 8     -2589.812          50.000    25968444.305 7 104564129.705 7     -1984.384          47.000
E15  24581368.484 8 129176037.253 8      2243.980          51.000    24581374.891 8  98979056.651 8      1719.432          51.000
E30  22110755.930 8 116192806.558 8      -485.328          51.000    22110758.469 8  89030859.253 8      -371.872          51.000
> 2020 05 06 13 06 30.0000000  0 17        .000000000000
G18  20670302.711 8 108623237.499 8      1483.566          48.000    20670303.625 8  84641444.401 8      1156.026          48.000
G21  20845217.547 7 109542429.564 7      1021.574          47.000    20845216.836 7  85357682.550 7       796.035          47.000
G25  23097468.125 5 121378007.824 5     -3126.688          30.000    23097471.492 5  94580272.121 5     -2436.389          30.000
G29  21236641.031 8 111599296.556 8     -1959.145          51.000    21236640.180 8  86960490.963 8     -1526.606          51.000
G31  21583367.180 8 113421355.177 8     -1686.285          50.000    21583365.805 8  88380294.565 8     -1313.988          50.000
R13  20488357.805 7 109406676.037 7     -3118.613          42.000    20488362.281 7  85094083.281 7     -2425.591          44.000
R14  19370529.305 6 103255802.537 6      1048.090          39.000    19370532.203 5  80310079.242 5       815.181          34.000
R17  22329100.391 7 119487523.933 7      3500.102          47.000    22329101.961 6  92934758.556 6      2722.304          40.000
R23  19864331.547 5 106260764.658 5     -2299.449          31.000
R24  19335887.219 8 103397735.687 8       683.461          51.000    19335889.734 7  80420417.773 7       531.581          47.000
C11  25756008.578 6 134118303.388 6      2828.457          41.000    25756012.039 8 103708787.921 8      2187.085          49.000
C12  21855682.875 8 113808405.927 8      1033.262          50.000    21855682.578 8  88003890.136 8       798.929          51.000
C24  22279011.562 8 116012662.708 8     -1105.406          50.000
C26  24322603.820 5 126654114.509 5     -3254.691          35.000
E02  25983246.320 8 136542840.812 8     -2596.605          50.000    25983247.961 8 104623737.570 8     -1989.574          48.000
E15  24568584.289 8 129108853.536 8      2234.688          51.000    24568589.852 8  98927578.248 8      1712.305          51.000
E30  22113560.312 8 116207543.471 8      -497.379          51.000    22113562.977 8  89042151.160 8      -381.073          51.000
> 2020 05 06 13 07  0.0000000  0 17        .000000000000
G18  20661883.477 7 108578997.431 7      1465.754          46.000    20661884.898 7  84606971.641 7      1142.146          47.000
G21  20839431.641 8 109512026.462 8      1005.367          48.000    20839431.625 7  85333991.835 7       783.403          47.000
G25  23115334.047 5 121471903.920 5     -3132.246          35.000    23115340.312 5  94653433.949 5     -2440.711          35.000
G29  21247846.359 8 111658180.897 8     -1966.375          51.000    21247845.320 8  87006374.901 8     -1532.240          51.000
G31  21593040.242 8 113472186.168 8     -1702.336          51.000    21593038.820 8  88419903.113 8     -1326.499          51.000
R13  20505927.320 6 109500495.013 6     -3135.891          41.000    20505931.148 7  85167053.573 7     -2439.026          43.000
R14  19364695.703 6 103224706.476 6      1025.410          40.000    19364698.602 5  80285893.430 5       797.541          35.000
R17  22309505.648 8 119382663.804 8      3490.680          49.000    22309507.000 7  92853200.786 7      2714.976          42.000
R23  19877262.906 6 106329956.875 6     -2312.453          40.000
R24  19332107.609 8 103377524.459 8       664.020          51.000    19332109.938 7  80404697.947 7       516.463          47.000
C11  25739724.750 6 134033511.162 6      2824.227          41.000    25739728.727 8 103643221.211 8      2184.185          49.000
C12  21849759.805 8 113777562.432 8      1022.977          49.000    21849758.891 8  87980040.015 8       791.082          51.000
C24  22285422.945 8 116046050.433 8     -1120.457          51.000
C26  24341371.180 5 126751828.516 5     -3259.031          31.000
E02  25998085.414 8 136620821.171 8     -2602.055          49.000    25998086.867 7 104683488.693 7     -1993.794          47.000
E15  24555850.578 8 129041933.459 8      2226.668          51.000    24555854.852 8  98876301.857 8      1706.121          50.000
E30  22116430.578 8 116222626.641 8      -508.188          51.000    22116433.383 8  89053708.373 8      -389.346          51.000
> 2020 05 06 13 07 30.0000000  0 16        .000000000000
G18  20653567.242 7 108535298.242 7      1448.523          46.000    20653569.172 7  84572920.352 7      1128.723          47.000
G21  20833740.891 8 109482121.099 8       989.238          49.000    20833740.852 8  85310688.961 8       770.835          49.000
G25  23133239.500 6 121565995.748 6     -3139.078          38.000    23133246.398 6  94726752.249 6     -2446.035          38.000
G29  21259096.164 8 111717298.878 8     -1973.656          50.000    21259095.148 8  87052440.862 8     -1537.914          51.000
G31  21602807.711 8 113523512.259 8     -1718.262          51.000    21602805.984 8  88459897.453 8     -1338.905          51.000
R13  20523595.336 6 109594842.720 6     -3153.031          39.000    20523599.227 7  85240435.094 7     -2452.358          42.000
R14  19358994.469 6 103194316.638 6      1001.773          40.000    19358997.836 6  80262256.844 6       779.154          36.000
R17  22289966.039 8 119278098.911 8      3481.473          48.000    22289968.055 7  92771872.574 7      2707.812          43.000
R23  19890275.039 6 106399551.187 6     -2325.902          36.000    19890280.641 4  82755229.957 4     -1809.035          25.000
R24  19328439.234 8 103357909.318 8       644.770          51.000    19328441.859 8  80389441.754 8       501.487          48.000
C11  25723465.781 6 133948847.907 6      2820.781          41.000    25723469.867 8 103577754.279 8      2181.165          48.000
C12  21843897.789 8 113747039.867 8      1012.926          48.000    21843897.172 8  87956438.055 8       783.280          51.000
C24  22291924.211 8 116079903.322 8     -1135.293          51.000
E02  26012958.336 8 136698980.247 8     -2607.387          49.000    26012959.797 8 104743376.770 8     -1997.889          48.000
E15  24543165.602 8 128975270.239 8      2218.715          51.000    24543168.539 8  98825222.274 8      1699.982          50.000
E30  22119365.375 8 116238048.918 8      -518.863          51.000    22119368.242 8  89065525.426 8      -397.600          51.000
> 2020 05 06 13 08  0.0000000  0 15        .000000000000
G18  20645353.641 8 108492136.047 8      1429.910          48.000    20645355.648 8  84539287.483 8      1114.216          48.000
G21  20828144.188 8 109452708.745 8       972.312          50.000    20828143.828 8  85287770.258 8       757.646          49.000
G25  23151182.477 6 121660282.141 6     -3146.168          40.000    23151188.625 6  94800222.174 6     -2451.556          39.000
G29  21270389.211 8 111776644.086 8     -1981.883          50.000    21270388.344 8  87098683.875 8     -1544.324          50.000
G31  21612667.812 8 113575326.667 8     -1735.070          50.000    21612665.992 8  88500272.309 8     -1352.003          50.000
R13  20541361.000 6 109689711.108 6     -3170.738          41.000    20541364.859 7  85314221.565 7     -2466.133          42.000
R14  19353425.539 6 103164630.175 6       977.926          40.000    19353428.117 5  80239167.356 5       760.609          35.000
R17  22270480.383 7 119173825.859 7      3471.113          47.000    22270483.188 7  92690771.315 7      2699.755          44.000
R24  19324881.555 8 103338884.382 8       624.441          51.000    19324884.055 7  80374644.580 7       485.677          47.000
C11  25707231.094 6 133864309.405 6      2816.086          40.000    25707234.539 7 103512383.770 7      2177.643          47.000
C12  21838096.312 8 113716833.082 8      1001.715          49.000    21838096.586 8  87933080.251 8       774.686          51.000
C24  22298514.008 8 116114215.840 8     -1151.348          51.000
E02  26027864.398 8 136777312.222 8     -2613.797          49.000    26027866.305 8 104803397.360 8     -2002.803          49.000
E15  24530528.344 8 128908859.580 8      2209.645          51.000    24530529.805 8  98774336.222 8      1693.101          49.000
E30  22122363.805 8 116253805.767 8      -530.645          51.000    22122366.688 8  89077598.829 8      -406.544          51.000
> 2020 05 06 13 08 30.0000000  0 17        .000000000000
G18  20637246.570 8 108449532.458 8      1410.656          49.000    20637248.273 8  84506089.853 8      1099.213          49.000
G21  20822645.281 8 109423810.102 8       954.730          50.000    20822644.695 8  85265251.852 8       743.946          48.000
G25  23169166.422 6 121754782.441 6     -3153.426          41.000    23169171.930 6  94873858.775 6     -2457.215          41.000
G29  21281729.219 8 111836235.932 8     -1990.520          50.000    21281728.375 8  87145119.074 8     -1551.054          49.000
G31  21622624.047 8 113627648.402 8     -1752.473          49.000    21622622.398 8  88541042.500 8     -1365.563          49.000
R13  20559228.117 7 109785118.558 7     -3189.406          42.000    20559231.523 7  85388427.304 7     -2480.652          42.000
R14  19347992.016 6 103135670.022 6       953.125          40.000    19347994.484 5  80216642.780 5       741.316          35.000
R17  22251052.242 7 119069867.049 7      3459.898          45.000    22251056.875 7  92609914.488 7      2691.032          46.000
R23  19916524.961 6 106539915.226 6     -2354.840          39.000    19916528.289 4  82864446.180 4     -1831.551          24.000
R24  19321438.070 8 103320469.769 8       603.617          51.000    19321440.555 7  80360322.126 7       469.480          47.000
C11  25691024.242 6 133779916.566 6      2810.668          39.000    25691026.781 7 103447125.929 7      2173.381          45.000
C12  21832359.734 8 113686962.333 8       990.078          49.000    21832360.648 8  87909982.293 8       765.495          51.000
C24  22305195.789 8 116149007.656 8     -1167.805          51.000
C26  24397839.547 5 127045913.070 5     -3275.945          33.000
E02  26042807.570 8 136855836.962 8     -2620.762          50.000    26042809.664 8 104863565.643 8     -2008.146          50.000
E15  24517942.461 8 128842722.724 8      2199.945          51.000    24517942.562 8  98723659.977 8      1685.630          48.000
E30  22125429.938 8 116269918.012 8      -543.074          51.000    22125432.727 8  89089944.564 8      -416.146          51.000
> 2020 05 06 13 09  0.0000000  0 17        .000000000000
G18  20629243.930 8 108407478.247 8      1392.590          49.000    20629245.664 8  84473320.356 8      1085.135          49.000
G21  20817242.078 8 109395415.000 8       938.031          50.000    20817241.242 8  85243125.831 8       730.933          49.000
G25  23187188.547 6 121849485.493 6     -3160.035          37.000    23187193.672 6  94947653.321 6     -2462.368          37.000
G29  21293113.891 8 111896063.020 8     -1998.238          49.000    21293113.211 8  87191737.590 8     -1557.069          48.000
G31  21632674.547 8 113680464.703 8     -1768.820          50.000    21632672.891 8  88582198.035 8     -1378.302          49.000
R13  20577193.711 6 109881052.372 6     -3206.699          40.000    20577196.984 7  85463042.449 7     -2494.102          43.000
R14  19342693.688 6 103107427.860 6       929.539          40.000    19342695.703 6  80194676.676 6       722.975          36.000
R17  22231680.336 7 118966213.720 7      3450.211          44.000    22231687.492 7  92529295.250 7      2683.497          47.000
R23  19929769.539 4 106610745.642 4     -2367.445          29.000
R24  19318106.664 8 103302654.582 8       583.820          51.000    19318108.852 7  80346465.881 7       454.082          47.000
C11  25674843.609 6 133695659.969 6      2806.320          39.000    25674845.078 7 103381973.454 7      2169.904          44.000
C12  21826685.828 8 113657417.171 8       979.477          49.000    21826687.109 8  87887136.099 8       757.239          51.000
C24  22311967.523 8 116184268.028 8     -1183.180          51.000
C26  24416736.367 5 127144276.861 5     -3281.723          35.000
E02  26057785.727 8 136934543.486 8     -2626.730          49.000    26057787.523 8 104923873.214 8     -2012.618          51.000
E15  24505406.164 8 128776850.174 8      2191.250          48.000    24505406.234 8  98673186.256 8      1678.986          49.000
E30  22128561.930 8 116286375.874 8      -554.473          51.000    22128564.664 8  89102555.123 8      -424.859          51.000
> 2020 05 06 13 09 30.0000000  0 17        .000000000000
G18  20621347.031 8 108365978.079 8      1374.629          51.000    20621348.266 8  84440982.575 8      1071.139          49.000
G21  20811935.391 8 109367527.594 8       921.668          50.000    20811934.297 8  85221395.395 8       718.183          49.000
G25  23205248.984 6 121944393.676 6     -3166.629          38.000    23205253.438 6  95021607.715 6     -2467.506          39.000
G29  21304543.727 8 111956127.593 8     -2005.652          48.000    21304542.836 8  87238541.159 8     -1562.846          48.000
G31  21642819.867 8 113733777.880 8     -1784.875          50.000    21642818.055 8  88623740.740 8     -1390.812          51.000
R13  20595257.719 6 109977513.614 6     -3223.641          40.000    20595261.188 6  85538067.811 6     -2507.279          41.000
R14  19337531.320 7 103079909.954 7       905.770          42.000    19337533.453 6  80173273.835 6       704.487          38.000
R17  22212367.625 7 118862871.145 7      3440.043          46.000    22212375.516 7  92448917.680 7      2675.586          45.000
R23  19943080.883 5 106682001.500 5     -2381.121          32.000
R24  19314887.555 8 103285441.357 8       564.297          51.000    19314889.672 7  80333077.817 7       438.901          46.000
C11  25658690.227 6 133611543.718 6      2801.973          39.000    25658690.656 7 103316929.519 7      2166.566          43.000
C12  21821075.211 8 113628200.846 8       968.820          49.000    21821076.500 8  87864544.185 8       749.138          51.000
C24  22318829.945 8 116219999.795 8     -1198.391          51.000
C26  24435660.609 6 127242803.257 6     -3286.184          37.000
E02  26072798.641 7 137013434.501 7     -2632.285          47.000    26072800.703 8 104984322.172 8     -2016.988          51.000
E15  24492920.523 7 128711246.152 7      2182.668          46.000    24492922.625 8  98622918.259 8      1672.434          50.000
E30  22131760.312 8 116303183.292 8      -565.637          51.000    22131763.117 8  89115433.518 8      -433.449          51.000
> 2020 05 06 13 10  0.0000000  0 17        .000000000000
G18  20613553.477 8 108325019.817 8      1355.340          51.000    20613553.961 8  84409067.026 8      1056.109          49.000
G21  20806722.617 8 109340134.713 8       903.918          48.000    20806721.703 8  85200050.287 8       704.352          48.000
G25  23223345.289 6 122039492.857 6     -3173.930          40.000    23223349.828 6  95095710.907 6     -2473.192          41.000
G29  21316015.984 7 112016415.394 7     -2014.250          47.000    21316014.812 7  87285518.653 7     -1569.545          47.000
G31  21653056.898 8 113787573.303 8     -1802.164          50.000    21653055.102 8  88665659.236 8     -1404.284          50.000
R13  20613416.938 6 110074485.679 6     -3241.551          38.000    20613420.539 6  85613490.480 6     -2521.209          40.000
R14  19332502.594 7 103053104.699 7       880.789          42.000    19332505.242 6  80152425.280 6       685.058          39.000
R17  22193113.070 8 118759827.503 8      3428.945          49.000    22193118.766 7  92368772.619 7      2666.954          45.000
R23  19956473.977 5 106753634.485 5     -2395.527          34.000
R24  19311778.586 8 103268816.147 8       543.480          51.000    19311780.797 7  80320147.107 7       422.707          46.000
C11  25642561.367 6 133527555.424 6      2796.340          39.000    25642561.438 7 103251984.502 7      2162.519          43.000
C12  21815525.539 8 113599300.168 8       957.238          50.000    21815526.328 8  87842196.372 8       740.209          51.000
C24  22325780.133 8 116256189.371 8     -1214.828          51.000
C26  24454610.578 6 127341477.577 6     -3292.383          38.000
E02  26087842.586 7 137092496.186 7     -2639.062          44.000    26087846.445 8 105044901.863 8     -2022.181          51.000
E15  24480484.086 7 128645898.223 7      2173.199          47.000    24480488.891 8  98572846.479 8      1665.062          51.000
E30  22135022.789 8 116320327.517 8      -577.984          51.000    22135025.352 8  89128569.992 8      -442.883          51.000
> 2020 05 06 13 10 30.0000000  0 17        .000000000000
G18  20605865.164 8 108284615.941 8      1338.039          51.000    20605865.383 8  84377583.516 8      1042.631          49.000
G21  20801605.672 7 109313248.145 7       888.230          46.000    20801605.633 7  85179099.725 7       692.131          46.000
G25  23241480.391 7 122134793.416 7     -3179.504          42.000    23241483.969 7  95169971.001 7     -2477.539          42.000
G29  21327532.766 7 112076936.671 7     -2020.840          47.000    21327531.422 7  87332678.057 7     -1574.680          47.000
G31  21663387.023 8 113841859.654 8     -1817.199          49.000    21663385.742 8  88707960.267 8     -1415.999          49.000
R13  20631673.219 6 110171978.060 6     -3257.719          38.000    20631677.000 6  85689317.806 6     -2533.784          37.000
R14  19327610.102 7 103027025.954 7       857.633          43.000    19327613.312 6  80132141.824 6       667.048          40.000
R17  22173917.117 8 118657096.086 8      3419.738          50.000    22173920.188 7  92288870.446 7      2659.799          45.000
R23  19969940.312 4 106825669.476 4     -2407.863          27.000
R24  19308781.945 8 103252789.927 8       524.773          51.000    19308783.867 7  80307682.275 7       408.157          47.000
C11  25626459.266 6 133443707.169 6      2793.242          40.000    25626459.430 7 103187147.791 7      2159.767          43.000
C12  21810038.664 8 113570726.328 8       947.520          50.000    21810038.703 8  87820101.279 8       732.724          51.000
C24  22332820.148 8 116292847.413 8     -1229.270          51.000
C26  24473590.430 6 127440309.173 6     -3296.598          40.000
E02  26102920.609 7 137171739.278 7     -2643.969          45.000    26102926.570 8 105105620.527 8     -2025.916          50.000
E15  24468099.930 8 128580818.589 8      2165.355          49.000    24468106.492 8  98522980.236 8      1659.159          51.000
E30  22138351.695 8 116337820.442 8      -588.414          51.000    22138354.023 8  89141973.656 8      -450.818          51.000
> 2020 05 06 13 11  0.0000000  0 16        .000000000000
G18  20598281.719 8 108244763.435 8      1319.172          51.000    20598281.531 7  84346529.667 7      1027.926          47.000
G21  20796584.453 7 109286864.047 7       871.027          47.000    20796585.039 7  85158540.681 7       678.723          47.000
G25  23259652.914 7 122230290.273 7     -3186.406          42.000    23259655.055 7  95244384.056 7     -2482.914          42.000
G29  21339093.047 7 112137686.169 7     -2028.754          47.000    21339091.625 7  87380015.304 7     -1580.847          47.000
G31  21673809.422 8 113896631.578 8     -1833.867          48.000    21673808.781 8  88750639.682 8     -1428.987          48.000
R13  20650026.016 6 110269983.928 6     -3275.754          37.000    20650028.914 6  85765544.499 6     -2547.812          37.000
R14  19322853.688 7 103001671.788 7       832.977          45.000    19322857.711 6  80112421.898 6       647.871          41.000
R17  22154778.242 8 118554674.190 8      3408.828          50.000    22154779.656 7  92209209.052 7      2651.314          45.000
R24  19305896.195 8 103237357.627 8       504.461          51.000    19305898.203 7  80295679.393 7       392.362          47.000
C11  25610383.156 6 133359995.640 6      2788.109          39.000    25610383.820 7 103122416.729 7      2155.958          44.000
C12  21804613.570 8 113542475.070 8       936.277          49.000    21804612.953 8  87798255.625 8       723.929          51.000
C24  22339949.430 8 116329969.257 8     -1245.230          51.000
C26  24492599.102 6 127539292.232 6     -3302.012          41.000
E02  26118033.188 7 137251158.921 7     -2650.332          46.000    26118039.789 8 105166474.498 8     -2030.747          49.000
E15  24455767.078 8 128516003.854 8      2155.914          51.000    24455774.016 8  98473317.006 8      1651.967          51.000
E30  22141746.336 8 116355658.372 8      -600.410          51.000    22141748.680 8  89155641.667 8      -460.070          51.000
> 2020 05 06 13 11 30.0000000  0 16        .000000000000
G18  20590804.898 8 108205471.134 8      1300.773          51.000    20590803.750 7  84315912.328 7      1013.590          46.000
G21  20791660.766 7 109260990.230 7       854.336          46.000    20791661.602 7  85138379.245 7       665.716          47.000
G25  23277863.617 6 122325990.117 6     -3192.848          41.000    23277865.773 6  95318955.311 6     -2487.936          41.000
G29  21350698.086 7 112198670.732 7     -2036.348          46.000    21350696.734 7  87427535.705 7     -1586.764          47.000
G31  21684325.406 8 113951894.734 8     -1849.867          49.000    21684325.570 8  88793701.863 8     -1441.458          49.000
R13  20668475.977 5 110368508.449 5     -3292.773          34.000    20668478.820 6  85842174.680 6     -2561.043          39.000
R14  19318235.055 7 102977052.295 7       808.719          45.000    19318239.523 7  80093273.391 7       629.003          42.000
R17  22135698.055 8 118452571.534 8      3398.363          49.000    22135699.266 7  92129795.924 7      2643.171          43.000
R24  19303122.852 8 103222526.515 8       484.699          51.000    19303124.477 7  80284144.096 7       376.988          47.000
C11  25594335.047 6 133276429.152 6      2783.492          39.000    25594336.141 7 103057797.831 7      2152.343          44.000
C12  21799251.844 8 113514553.849 8       925.566          50.000    21799250.852 8  87776665.169 8       715.701          51.000
C24  22347168.867 8 116367561.956 8     -1260.535          51.000
C26  24511637.852 7 127638432.658 7     -3306.691          42.000
E02  26133181.125 7 137330762.224 7     -2656.145          47.000    26133187.734 8 105227469.207 8     -2035.225          48.000
E15  24443486.594 8 128451462.540 8      2147.117          51.000    24443492.609 8  98423863.269 8      1645.248          51.000
E30  22145208.078 8 116373849.552 8      -611.879          51.000    22145210.273 8  89169580.346 8      -468.881          51.000
> 2020 05 06 13 12  0.0000000  0 17        .000000000000
G18  20583431.500 8 108166724.416 8      1282.457          51.000    20583430.156 7  84285720.140 7       999.317          46.000
G21  20786831.398 7 109235611.560 7       837.688          47.000    20786832.516 7  85118603.668 7       652.744          47.000
G25  23296109.609 6 122421876.447 6     -3199.430          40.000    23296112.641 6  95393671.856 6     -2493.065          40.000
G29  21362344.719 7 112259873.290 7     -2043.871          45.000    21362343.336 7  87475225.980 7     -1592.627          45.000
G31  21694931.742 8 114007631.583 8     -1865.875          50.000    21694932.562 8  88837133.158 8     -1453.929          50.000
R13  20687020.023 6 110467532.963 6     -3309.238          37.000    20687024.148 7  85919193.771 7     -2573.855          43.000
R14  19313751.953 7 102953153.839 7       784.418          45.000    19313756.727 7  80074685.673 7       610.100          43.000
R17  22116673.625 8 118350773.886 8      3388.129          48.000    22116676.430 7  92050619.980 7      2635.211          44.000
R23  20010780.094 5 107044156.392 5     -2446.727          34.000
R24  19300458.539 8 103208279.876 8       465.074          51.000    19300460.242 7  80273063.397 7       361.727          47.000
C11  25578312.328 6 133192993.126 6      2778.793          41.000    25578313.148 7 102993279.810 7      2148.917          44.000
C12  21793950.484 8 113486947.204 8       914.891          50.000    21793949.273 8  87755317.966 8       707.521          51.000
C24  22354475.297 8 116405609.485 8     -1275.871          51.000
C26  24530703.773 7 127737713.232 7     -3311.641          42.000
E02  26148360.930 8 137410532.877 8     -2661.699          48.000    26148367.609 8 105288592.144 8     -2039.514          48.000
E15  24431255.359 8 128387179.823 8      2138.445          51.000    24431260.062 8  98374607.709 8      1638.549          51.000
E30  22148734.125 8 116392378.831 8      -623.387          51.000    22148735.641 8  89183778.087 8      -477.576          51.000
> 2020 05 06 13 12 30.0000000  0 16        .000000000000
G18  20576164.516 8 108128536.232 8      1263.133          51.000    20576163.430 7  84255963.160 7       984.262          47.000
G21  20782098.625 8 109210740.029 8       820.059          48.000    20782099.711 8  85099223.282 8       639.007          48.000
G25  23314393.484 6 122517960.088 6     -3206.410          41.000    23314397.148 6  95468542.162 6     -2498.504          40.000
G29  21374034.797 7 112321304.803 7     -2052.086          43.000    21374033.484 7  87523094.672 7     -1599.028          43.000
G31  21705630.398 8 114063852.467 8     -1882.555          51.000    21705631.359 8  88880941.619 8     -1466.926          51.000
R13  20705660.516 6 110567067.044 6     -3326.758          41.000    20705664.930 7  85996609.128 7     -2587.478          44.000
R14  19309406.797 7 102929990.551 7       759.316          46.000    19309410.914 7  80056669.771 7       590.579          43.000
R17  22097708.367 8 118249294.972 8      3376.828          48.000    22097713.188 7  91971691.954 7      2626.422          46.000
R24  19297905.656 8 103194629.023 8       444.648          51.000    19297907.594 7  80262446.065 7       345.838          47.000
C11  25562317.320 7 133109699.757 7      2773.688          42.000    25562317.148 7 102928872.135 7      2144.842          43.000
C12  21788711.562 8 113459666.633 8       903.461          50.000    21788710.172 8  87734222.922 8       698.653          51.000
C24  22361871.219 8 116444122.930 8     -1292.008          51.000
C26  24549797.922 6 127837143.988 6     -3317.328          40.000
E02  26163574.828 8 137490482.125 8     -2668.332          48.000    26163581.102 8 105349851.957 8     -2044.614          48.000
E15  24419075.422 8 128323168.344 8      2128.766          51.000    24419078.625 8  98325559.978 8      1631.084          50.000
E30  22152327.031 8 116411258.492 8      -635.609          51.000    22152328.039 8  89198244.321 8      -487.055          51.000
> 2020 05 06 13 13  0.0000000  0 16        .000000000000
G18  20569003.359 8 108090903.589 8      1245.438          51.000    20569002.531 8  84226639.042 8       970.471          49.000
G21  20777461.805 8 109186371.790 8       804.090          49.000    20777462.422 8  85080235.066 8       626.567          49.000
G25  23332714.250 7 122614236.002 7     -3212.078          42.000    23332718.484 6  95543562.326 6     -2502.918          41.000
G29  21385767.289 6 112382960.207 6     -2058.605          40.000    21385766.227 6  87571137.860 6     -1604.108          40.000
G31  21716420.289 8 114120551.639 8     -1897.730          51.000    21716420.531 8  88925122.768 8     -1478.751          51.000
R13  20724395.539 7 110667104.357 7     -3342.605          42.000    20724399.547 7  86074415.871 7     -2599.807          45.000
R14  19305198.992 8 102907560.329 8       735.672          48.000    19305203.164 7  80039224.033 7       572.189          44.000
R17  22078803.016 8 118148132.298 8      3367.027          49.000    22078808.281 7  91893009.921 7      2618.802          45.000
R24  19295463.109 8 103181569.330 8       425.750          50.000    19295465.312 7  80252288.540 7       331.139          47.000
C11  25546349.039 6 133026546.006 6      2769.434          40.000    25546347.805 7 102864572.459 7      2141.707          42.000
C12  21783534.391 8 113432708.038 8       893.488          50.000    21783532.961 8  87713376.824 8       690.950          51.000
C24  22369355.609 8 116483097.692 8     -1306.656          51.000
C26  24568919.766 6 127936719.099 6     -3321.125          38.000
E02  26178822.070 8 137570605.235 8     -2673.387          49.000    26178827.102 8 105411245.005 8     -2048.439          49.000
E15  24406945.812 8 128259424.853 8      2120.617          51.000    24406947.461 8  98276717.606 8      1624.886          48.000
E30  22155985.828 8 116430484.976 8      -646.395          51.000    22155987.070 8  89212976.273 8      -495.250          51.000
> 2020 05 06 13 13 30.0000000  0 16        .000000000000
G18  20561947.031 8 108053823.309 8      1226.344          51.000    20561946.492 8  84197745.352 8       955.596          49.000
G21  20772919.914 8 109162502.891 8       786.879          49.000    20772920.156 8  85061635.950 8       613.152          49.000
G25  23351070.695 7 122710699.096 7     -3219.000          43.000    23351075.508 7  95618728.344 7     -2508.312          42.000
G29  21397541.250 6 112444834.216 6     -2066.395          39.000    21397540.414 6  87619351.399 6     -1610.175          38.000
G31  21727300.133 8 114177722.891 8     -1914.070          51.000    21727299.406 8  88969671.754 8     -1491.483          51.000
R13  20743222.734 6 110767637.533 6     -3359.797          41.000    20743226.539 7  86152608.276 7     -2613.178          44.000
R14  19301128.469 8 102885861.026 8       710.652          48.000    19301132.352 7  80022346.782 7       552.730          45.000
R17  22059957.180 8 118047283.279 8      3355.910          51.000    22059961.047 7  91814571.846 7      2610.152          43.000
R24  19293130.281 8 103169095.425 8       405.531          51.000    19293132.461 8  80242586.614 8       315.413          48.000
C11  25530406.398 6 132943528.383 6      2764.754          39.000    25530404.703 6 102800378.102 6      2137.702          40.000
C12  21778418.078 8 113406067.200 8       882.246          49.000    21778417.164 8  87692776.435 8       682.200          51.000
C24  22376927.648 8 116522529.028 8     -1322.449          51.000
C26  24588068.266 5 128036432.766 5     -3326.074          33.000
E02  26194101.938 8 137650897.433 8     -2679.711          49.000    26194105.633 8 105472767.598 8     -2053.291          49.000
E15  24394865.555 8 128195945.965 8      2110.984          51.000    24394865.656 7  98228078.007 7      1617.528          47.000
E30  22159709.859 8 116450054.610 8      -658.582          51.000    22159711.250 8  89227971.163 8      -504.622          51.000
> 2020 05 06 13 14  0.0000000  0 15        .000000000000
G18  20554997.484 8 108017303.489 8      1208.125          51.000    20554997.141 8  84169288.353 8       941.396          50.000
G21  20768474.297 8 109139140.699 8       770.375          50.000    20768474.469 8  85043431.663 8       600.295          50.000
G25  23369464.156 7 122807355.522 7     -3224.969          44.000    23369469.234 7  95694044.970 7     -2512.966          44.000
G29  21409358.320 6 112506932.891 6     -2073.609          40.000    21409357.461 6  87667740.001 6     -1615.796          39.000
G31  21738270.719 8 114235371.372 8     -1929.457          51.000    21738269.016 8  89014592.598 8     -1503.476          51.000
R13  20762143.398 6 110868671.611 6     -3376.023          38.000    20762147.031 7  86231190.260 7     -2625.796          43.000
R14  19297196.750 8 102864901.938 8       686.414          48.000    19297200.312 7  80006045.254 7       533.878          45.000
R17  22041171.961 8 117946756.727 8      3345.586          51.000    22041173.859 7  91736384.578 7      2602.122          42.000
R24  19290908.219 8 103157213.810 8       386.242          50.000    19290910.812 7  80233345.374 7       300.411          47.000
C11  25514491.359 6 132860654.743 6      2760.242          39.000    25514489.445 6 102736295.010 6      2134.391          41.000
C12  21773364.047 8 113379750.968 8       871.898          49.000    21773363.820 8  87672427.060 8       674.204          51.000
C24  22384588.727 8 116562423.290 8     -1337.496          51.000
E02  26209415.422 8 137731365.135 8     -2685.105          50.000    26209418.086 8 105534424.655 8     -2057.392          49.000
E15  24382835.992 8 128132739.658 8      2102.348          49.000    24382835.094 7  98179647.250 7      1610.911          47.000
E30  22163500.531 8 116469974.931 8      -669.770          51.000    22163501.641 8  89243234.778 8      -513.218          51.000
> 2020 05 06 13 14 30.0000000  0 16        .000000000000
G18  20548154.164 8 107981341.313 8      1189.363          51.000    20548154.328 8  84141265.887 8       926.780          51.000
G21  20764124.531 8 109116281.693 8       753.457          50.000    20764124.477 8  85025619.468 8       587.109          50.000
G25  23387893.633 7 122904200.430 7     -3231.340          45.000    23387898.477 7  95769508.478 7     -2517.927          44.000
G29  21421217.266 6 112569251.366 6     -2080.766          40.000    21421216.703 6  87716299.800 6     -1621.379          40.000
G31  21749330.680 8 114293491.323 8     -1945.328          51.000    21749327.891 8  89059880.839 8     -1515.843          51.000
R13  20781155.438 5 110970199.608 5     -3392.789          35.000    20781159.852 7  86310156.480 7     -2638.836          43.000
R14  19293403.438 8 102844681.336 8       661.477          48.000    19293406.727 7  79990318.101 7       514.479          45.000
R17  22022446.453 8 117846550.356 8      3334.805          50.000    22022446.992 7  91658446.371 7      2593.737          42.000
R23  20080284.125 5 107415967.212 5     -2509.711          33.000
R24  19288795.938 8 103145919.942 8       366.535          49.000    19288798.828 7  80224561.253 7       285.083          47.000
C11  25498603.352 6 132777921.976 6      2755.422          40.000    25498601.711 7 102672320.889 7      2130.480          42.000
C12  21768371.688 8 113353755.411 8       861.051          49.000    21768371.617 8  87652325.656 8       665.840          51.000
C24  22392337.844 8 116602776.019 8     -1352.867          51.000
E02  26224761.180 8 137812003.841 8     -2690.871          50.000    26224763.172 8 105596212.700 8     -2061.869          49.000
E15  24370857.938 8 128069802.775 8      2093.312          49.000    24370857.812 8  98131422.908 8      1603.934          49.000
E30  22167357.312 8 116490242.543 8      -681.480          51.000    22167358.289 8  89258764.504 8      -522.155          51.000
> 2020 05 06 13 15  0.0000000  0 17        .000000000000
G18  20541416.414 8 107945934.378 8      1170.793          51.000    20541416.727 8  84113676.081 8       912.306          50.000
G21  20759869.977 8 109093922.669 8       736.793          51.000    20759869.156 8  85008196.838 8       574.124          49.000
G25  23406357.945 7 123001229.546 7     -3237.496          44.000    23406362.852 7  95845115.529 7     -2522.724          44.000
G29  21433117.289 6 112631785.252 6     -2088.371          37.000    21433116.938 6  87765027.523 6     -1627.305          38.000
G31  21760479.188 8 114352078.366 8     -1960.773          51.000    21760476.609 8  89105533.045 8     -1527.878          51.000
R13  20800259.805 6 111072215.777 6     -3408.875          40.000    20800264.211 7  86389502.405 7     -2651.350          43.000
R14  19289748.227 8 102825197.471 8       637.039          49.000    19289751.156 7  79975163.994 7       495.478          46.000
R17  22003779.875 8 117746662.606 8      3324.191          49.000    22003780.555 7  91580755.948 7      2585.485          42.000
R23  20094402.484 5 107491446.198 5     -2522.547          30.000
R24  19286793.070 8 103135209.497 8       347.160          51.000    19286795.938 8  80216230.907 8       270.013          48.000
C11  25482742.273 6 132695327.647 6      2750.617          41.000    25482741.055 7 102608453.746 7      2127.069          42.000
C12  21763440.117 8 113328077.121 8       850.480          49.000    21763440.039 8  87632469.568 8       657.639          51.000
C24  22400174.180 8 116643583.267 8     -1368.016          51.000
C26  24645678.500 5 128336512.852 5     -3339.695          30.000
E02  26240138.398 8 137892809.572 8     -2696.504          50.000    26240139.328 8 105658128.691 8     -2066.048          48.000
E15  24358932.195 8 128007132.733 8      2084.332          51.000    24358933.648 8  98083403.026 8      1597.139          51.000
E30  22171279.508 8 116510854.539 8      -692.969          51.000    22171281.188 8  89274558.102 8      -531.006          51.000
> 2020 05 06 13 15 30.0000000  0 17        .000000000000
G18  20534788.672 8 107911105.878 8      1152.680          51.000    20534788.867 8  84086536.994 8       898.192          50.000
G21  20755714.820 8 109072085.869 8       720.625          51.000    20755713.523 8  84991181.160 8       561.529          50.000
G25  23424861.312 7 123098464.137 7     -3243.168          43.000    23424866.281 7  95920882.713 7     -2527.144          44.000
G29  21445062.102 4 112694561.797 4     -2094.875          28.000    21445062.109 4  87813939.623 4     -1632.373          29.000
G31  21771720.125 8 114411151.877 8     -1975.758          51.000    21771718.320 8  89151564.306 8     -1539.555          51.000
R13  20819460.086 7 111174740.709 7     -3424.312          42.000    20819463.992 7  86469243.970 7     -2663.357          43.000
R14  19286235.953 8 102806475.166 8       612.863          49.000    19286239.203 7  79960602.181 7       476.671          47.000
R17  21985176.719 7 117647117.684 7      3313.922          46.000    21985178.898 6  91503332.132 6      2577.495          41.000
R23  20108569.883 6 107567313.056 6     -2534.145          36.000
R24  19284903.609 8 103125104.369 8       328.168          51.000    19284906.062 7  80208371.385 7       255.245          47.000
C11  25466912.141 6 132612894.438 6      2746.672          41.000    25466911.680 7 102544711.195 7      2123.729          44.000
C12  21758573.484 8 113302737.946 8       840.461          48.000    21758573.781 8  87612875.715 8       649.892          51.000
C24  22408102.094 8 116684866.418 8     -1382.629          51.000
C26  24664934.156 5 128436797.536 5     -3343.145          31.000
E02  26255551.523 8 137973803.887 8     -2701.543          51.000    26255550.531 7 105720189.189 7     -2070.067          47.000
E15  24347062.617 8 127944752.562 8      2075.965          51.000    24347065.594 8  98035605.262 8      1590.665          51.000
E30  22175271.438 8 116531833.667 8      -704.047          51.000    22175274.133 8  89290632.995 8      -539.453          51.000
> 2020 05 06 13 16  0.0000000  0 16        .000000000000
G18  20528255.578 8 107876774.062 8      1132.914          51.000    20528255.914 8  84059784.946 8       882.793          50.000
G21  20751643.188 8 109050688.622 8       702.719          51.000    20751641.883 8  84974508.010 8       547.573          49.000
G25  23443387.555 7 123195820.492 7     -3250.223          43.000    23443392.234 7  95996744.758 7     -2532.644          43.000
G31  21783037.812 8 114470627.607 8     -1992.316          51.000    21783036.727 8  89197908.997 8     -1552.454          51.000
R13  20838739.117 7 111277686.865 7     -3441.664          42.000    20838742.781 7  86549313.134 7     -2676.853          43.000
R14  19282851.031 8 102788432.458 8       586.812          50.000    19282854.477 7  79946568.961 7       456.410          46.000
R17  21966623.414 7 117547832.838 7      3301.902          47.000    21966626.172 6  91426110.583 6      2568.146          41.000
R23  20122839.289 6 107643494.295 6     -2546.762          37.000
R24  19283111.531 8 103115519.450 8       307.656          51.000    19283113.305 7  80200916.445 7       239.288          47.000
C11  25451096.789 6 132530541.120 6      2740.758          39.000    25451097.539 7 102481030.397 7      2119.128          45.000
C12  21753756.586 8 113277655.842 8       828.582          49.000    21753756.984 8  87593480.662 8       640.776          51.000
C24  22416105.547 8 116726542.789 8     -1398.891          51.000
C26  24684203.164 5 128537150.145 5     -3349.383          32.000
E02  26270984.547 8 138054903.428 8     -2708.223          51.000    26270981.656 7 105782330.283 7     -2075.102          46.000
E15  24335233.031 8 127882580.369 8      2065.746          51.000    24335236.930 8  97987966.844 8      1582.800          51.000
E30  22179317.602 8 116553097.665 8      -716.789          51.000    22179320.711 8  89306926.169 8      -549.240          51.000
> 2020 05 06 13 16 30.0000000  0 15        .000000000000
G18  20521848.312 8 107843103.790 8      1112.004          51.000    20521848.633 8  84033548.378 8       866.500          50.000
G21  20747686.539 8 109029895.024 8       683.820          51.000    20747685.016 8  84958305.217 8       532.847          49.000
G25  23461967.867 7 123293461.635 7     -3258.578          43.000    23461971.633 7  96072828.709 7     -2539.152          43.000
G31  21794463.023 8 114530667.544 8     -2010.137          51.000    21794462.672 8  89244693.341 8     -1566.340          51.000
R13  20858127.492 6 111381217.774 6     -3460.129          41.000    20858130.867 7  86629837.131 7     -2691.214          42.000
R14  19279625.336 8 102771237.655 8       559.668          50.000    19279628.688 7  79933195.228 7       435.297          47.000
R17  21948151.141 8 117448976.744 8      3288.719          49.000    21948152.969 7  91349222.543 7      2557.895          42.000
R24  19281447.672 8 103106620.738 8       285.832          51.000    19281449.305 7  80193995.239 7       222.314          47.000
C11  25435327.695 6 132448431.003 6      2733.645          38.000    25435329.922 7 102417537.661 7      2113.722          47.000
C12  21749020.562 8 113252993.078 8       815.777          49.000    21749020.664 8  87574409.880 8       630.817          51.000
C24  22424215.648 8 116768774.180 8     -1416.273          51.000
C26  24703515.062 4 128637693.343 4     -3355.516          29.000
E02  26286468.336 8 138136271.522 8     -2716.059          51.000    26286463.906 7 105844677.166 7     -2081.094          44.000
E15  24323474.117 8 127820780.841 8      2054.445          51.000    24323478.375 8  97940613.965 8      1574.161          51.000
E30  22183449.383 8 116574810.877 8      -730.582          51.000    22183452.250 8  89323563.562 8      -559.779          51.000
> 2020 05 06 13 17  0.0000000  0 16        .000000000000
G18  20515536.742 8 107809936.993 8      1096.914          51.000    20515536.969 8  84007704.136 8       854.738          50.000
G21  20743814.258 8 109009546.518 8       670.555          50.000    20743812.812 8  84942449.264 8       522.510          50.000
G25  23480572.250 7 123391227.636 7     -3261.078          43.000    23480574.891 7  96149009.965 7     -2541.100          43.000
G31  21805964.945 8 114591110.872 8     -2021.656          51.000    21805965.398 8  89291792.023 8     -1575.317          51.000
R13  20877594.297 6 111485169.810 6     -3472.289          40.000    20877596.812 6  86710688.646 6     -2700.672          39.000
R14  19276528.820 8 102754731.292 8       538.453          50.000    19276532.281 7  79920356.933 7       418.797          47.000
R17  21929728.633 8 117350389.159 8      3281.438          49.000    21929729.242 7  91272543.375 7      2552.232          42.000
R23  20151521.594 6 107797029.860 6     -2569.496          36.000
R24  19279881.586 8 103098245.645 8       270.184          51.000    19279882.977 7  80187481.276 7       210.143          47.000
C11  25419575.617 6 132366407.194 6      2732.590          39.000    25419578.453 7 102354111.675 7      2112.876          47.000
C12  21744334.820 8 113228592.085 8       808.715          49.000    21744334.750 8  87555541.502 8       625.428          51.000
C24  22432402.148 8 116811402.366 8     -1427.793          51.000
C26  24722841.812 5 128738347.921 5     -3356.324          30.000
E02  26301972.898 8 138217748.532 8     -2717.922          51.000    26301967.688 7 105907107.538 7     -2082.570          44.000
E15  24311755.258 8 127759195.744 8      2049.027          51.000    24311759.617 8  97893425.395 8      1569.971          51.000
E30  22187636.656 8 116596814.839 8      -738.586          51.000    22187639.305 8  89340423.731 8      -565.891          51.000
> 2020 05 06 13 17 30.0000000  0 17        .000000000000
G18  20509331.594 8 107777328.189 8      1076.398          51.000    20509331.656 8  83982294.685 8       838.752          51.000
G21  20740036.664 8 108989696.610 8       652.152          50.000    20740035.711 8  84926981.835 8       508.171          50.000
G25  23499210.344 7 123489171.105 7     -3268.707          43.000    23499212.516 7  96225329.461 7     -2547.047          43.000
G29  21493271.664 6 112947864.499 6     -2124.762          39.000
G31  21817553.547 8 114652009.528 8     -2038.715          51.000    21817554.133 8  89339245.517 8     -1588.609          51.000
R13  20897149.383 6 111589594.529 6     -3490.055          39.000    20897151.430 6  86791907.762 6     -2714.490          40.000
R14  19273572.133 8 102738969.385 8       511.816          51.000    19273575.312 8  79908097.681 8       398.079          48.000
R17  21911365.820 7 117252126.281 7      3268.773          46.000    21911365.188 6  91196116.724 6      2542.379          41.000
R23  20165971.672 5 107874309.409 5     -2582.750          33.000    20165970.008 4  83902250.612 4     -2008.806          26.000
R24  19278423.219 8 103090447.656 8       249.121          51.000    19278424.828 7  80181416.178 7       193.761          47.000
C11  25403851.008 6 132284523.676 6      2726.168          40.000    25403853.188 7 102290794.200 7      2107.886          46.000
C12  21739709.391 8 113204505.745 8       796.445          48.000    21739709.344 8  87536916.424 8       615.871          51.000
C24  22440675.133 8 116854479.737 8     -1444.504          51.000
C26  24742194.742 4 128839125.527 4     -3363.402          29.000
E02  26317508.312 8 138299387.425 8     -2725.105          51.000    26317503.758 7 105969661.948 7     -2088.026          45.000
E15  24300086.469 8 127697879.505 8      2038.273          51.000    24300091.180 8  97846442.817 8      1561.797          51.000
E30  22191889.461 8 116619163.550 8      -751.820          51.000    22191892.219 8  89357548.041 8      -576.061          51.000
> 2020 05 06 13 18  0.0000000  0 16        .000000000000
G18  20503243.695 8 107745336.570 8      1058.516          50.000    20503243.930 8  83957366.178 8       824.817          50.000
G21  20736365.133 8 108970403.953 8       636.223          50.000    20736364.453 8  84911948.612 8       495.758          50.000
G25  23517893.219 7 123587349.552 7     -3274.160          42.000    23517895.367 7  96301832.068 7     -2551.297          42.000
G29  21505421.148 6 113011734.582 6     -2130.949          36.000    21505391.219 6  88061046.399 6     -1660.480          36.000
G31  21829239.766 8 114713419.542 8     -2053.094          51.000    21829239.781 8  89387097.461 8     -1599.813          51.000
R13  20916803.648 6 111694548.538 6     -3504.648          39.000    20916806.305 7  86873538.565 7     -2725.841          42.000
R14  19270766.609 8 102724013.281 8       487.477          51.000    19270769.766 8  79896465.151 8       379.148          48.000
R17  21893074.258 7 117154249.190 7      3258.547          45.000    21893073.695 7  91119990.143 7      2534.428          42.000
R24  19277083.812 8 103083285.414 8       230.574          51.000    19277085.445 7  80175845.557 7       179.336          47.000
C11  25388164.797 6 132202839.052 6      2721.965          41.000    25388165.523 7 102227630.506 7      2104.760          45.000
C12  21735155.703 8 113180791.888 8       786.570          50.000    21735155.422 8  87518579.363 8       608.356          51.000
C24  22449045.156 8 116898063.463 8     -1458.859          51.000
C26  24761584.961 5 128940081.910 5     -3365.508          31.000
E02  26333085.391 8 138381245.911 8     -2729.820          51.000    26333082.484 7 106032384.636 7     -2091.692          46.000
E15  24288479.156 8 127636891.290 8      2029.996          50.000    24288484.305 8  97799711.582 8      1555.419          51.000
E30  22196218.953 8 116641915.845 8      -762.652          51.000    22196221.555 8  89374981.584 8      -584.385          51.000
> 2020 05 06 13 18 30.0000000  0 18        .000000000000
G18  20497253.523 8 107713858.551 8      1039.523          50.000    20497253.922 8  83932837.858 8       810.018          50.000
G21  20732779.578 8 108951563.989 8       619.215          49.000    20732779.125 8  84897268.136 8       482.508          49.000
G25  23536600.609 7 123685657.412 7     -3280.305          42.000    23536603.062 7  96378435.511 7     -2556.085          42.000
G29  21517577.055 6 113075640.499 6     -2138.141          38.000    21517575.297 6  88110884.572 6     -1666.087          38.000
G31  21841003.117 8 114775234.637 8     -2068.426          51.000    21841002.477 8  89435265.044 8     -1611.760          51.000
R13  20936537.117 6 111799923.552 6     -3520.484          38.000    20936540.461 7  86955496.857 7     -2738.158          44.000
R14  19268092.742 8 102709758.750 8       462.180          51.000    19268095.758 8  79885378.300 8       359.476          48.000
R17  21874836.367 8 117056652.826 8      3247.258          48.000    21874836.539 7  91044081.913 7      2525.648          44.000
R23  20195071.977 6 108030006.668 6     -2605.828          36.000    20195069.797 4  84023332.171 4     -2026.758          28.000
R24  19275843.055 8 103076651.694 8       211.082          51.000    19275844.828 7  80170686.007 7       164.175          47.000
C05  39623508.438 6 206330010.364 6        16.129          36.000    39623509.906 6 159547459.068 6        12.768          37.000
C11  25372496.688 6 132121250.368 6      2716.992          40.000    25372496.359 7 102164540.995 7      2100.800          44.000
C12  21730653.805 8 113157346.738 8       775.859          50.000    21730653.016 8  87500450.106 8       599.932          51.000
C24  22457491.594 8 116942049.237 8     -1474.031          51.000
C26  24780989.320 5 129041112.190 5     -3370.430          32.000
E02  26348683.695 8 138463218.796 8     -2735.523          48.000    26348683.188 7 106095194.979 7     -2096.038          47.000
E15  24276915.016 8 127576127.312 8      2020.566          51.000    24276919.805 8  97753152.164 8      1548.211          51.000
E30  22200605.602 8 116664967.625 8      -774.570          51.000    22200607.391 8  89392644.623 8      -593.499          51.000
> 2020 05 06 13 19  0.0000000  0 18        .000000000000
G18  20491372.109 8 107682951.727 8      1020.883          50.000    20491373.047 8  83908754.634 8       795.493          50.000
G21  20729291.148 8 108933233.617 8       602.773          50.000    20729291.055 8  84882984.741 8       469.694          49.000
G25  23555343.297 7 123784150.561 7     -3285.891          43.000    23555346.227 7  96455183.359 7     -2560.437          43.000
G29  21529802.312 5 113139888.139 5     -2145.234          34.000    21529801.461 5  88160947.746 5     -1671.608          35.000
G31  21852853.891 8 114837509.704 8     -2083.277          51.000    21852852.812 8  89483791.062 8     -1623.333          51.000
R13  20956358.406 5 111905773.898 5     -3535.445          33.000    20956363.672 7  87037824.940 7     -2749.791          45.000
R14  19265561.367 8 102696265.063 8       437.320          51.000    19265564.617 8  79874883.196 8       340.138          49.000
R17  21856662.219 7 116959396.794 7      3236.430          47.000    21856663.617 7  90968438.348 7      2517.223          44.000
R23  20209734.898 5 108108345.566 5     -2617.016          35.000
R24  19274711.836 8 103070603.212 8       192.133          51.000    19274713.773 7  80165981.632 7       149.437          47.000
C05                                                                  39623417.367 6 159547082.905 6        12.907          37.000
C11  25356857.625 6 132039814.883 6      2712.203          39.000    25356857.000 7 102101569.927 7      2097.326          44.000
C12  21726213.812 8 113134226.406 8       765.480          49.000    21726212.984 8  87482572.016 8       591.969          51.000
C24  22466025.891 8 116986492.581 8     -1488.730          51.000
C26  24800417.406 5 129142270.664 5     -3374.012          34.000
E02  26364314.195 7 138545362.244 7     -2740.711          46.000    26364316.312 8 106158136.031 8     -2099.938          48.000
E15  24265405.922 8 127515645.133 8      2011.676          51.000    24265409.344 8  97706808.706 8      1541.381          51.000
E30  22205060.172 8 116688376.101 8      -785.953          51.000    22205061.484 8  89410580.983 8      -602.215          51.000
> 2020 05 06 13 19 30.0000000  0 17        .000000000000
G18  20485600.969 8 107652625.091 8      1000.781          51.000    20485602.570 8  83885123.510 8       779.830          50.000
G21  20725901.500 8 108915420.832 8       584.711          51.000    20725901.352 8  84869104.670 8       455.619          48.000
G25  23574122.617 7 123882836.201 7     -3293.273          42.000    23574126.008 7  96532081.199 7     -2566.190          42.000
G29  21542070.164 6 113204358.990 6     -2152.938          36.000    21542069.914 6  88211184.703 6     -1677.611          37.000
G31  21864793.078 8 114900250.822 8     -2099.449          50.000    21864791.898 8  89532680.249 8     -1635.934          50.000
R13  20976269.000 5 112012105.185 5     -3553.121          35.000    20976276.773 7  87120527.115 7     -2763.536          44.000
R14  19263174.742 8 102683542.525 8       410.867          51.000    19263177.914 8  79864987.892 8       319.563          49.000
R17  21838551.930 7 116862491.018 7      3223.973          43.000    21838555.250 7  90893067.189 7      2507.534          45.000
R24  19273691.266 8 103065147.408 8       171.738          51.000    19273693.586 7  80161738.232 7       133.571          46.000
C05  39623325.914 5 206329054.915 5        14.891          35.000    39623327.016 6 159546719.502 6        11.632          37.000
C11  25341249.094 6 131958541.180 6      2705.926          37.000    25341249.039 7 102038723.954 7      2092.442          45.000
C12  21721837.578 8 113111438.869 8       753.652          49.000    21721836.930 8  87464951.249 8       582.850          51.000
C24  22474649.766 8 117031400.805 8     -1505.012          51.000
C26  24819871.211 5 129243563.772 5     -3378.875          34.000
E02  26379978.281 7 138627683.714 7     -2747.188          45.000    26379983.180 8 106221213.541 8     -2105.069          50.000
E15  24253952.859 8 127455453.613 8      2001.281          51.000    24253955.000 8  97660687.992 8      1533.431          51.000
E30  22209584.086 8 116712149.879 8      -798.863          51.000    22209585.711 8  89428797.225 8      -612.137          51.000
> 2020 05 06 13 20  0.0000000  0 17        .000000000000
G18  20479940.344 8 107622879.050 8       982.531          50.000    20479942.102 8  83861944.767 8       765.609          50.000
G21  20722610.578 8 108898125.664 8       568.363          51.000    20722609.953 8  84855627.937 8       442.880          49.000
G25  23592938.109 7 123981712.986 7     -3298.609          43.000    23592941.266 7  96609128.008 7     -2570.345          43.000
G29  21554382.555 5 113269043.997 5     -2159.504          30.000
G31  21876820.273 8 114963455.828 8     -2114.031          49.000    21876819.062 8  89581930.881 8     -1647.300          49.000
R13  20996271.031 6 112118914.793 6     -3567.492          38.000    20996278.617 7  87203601.244 7     -2774.719          43.000
R14  19260932.797 8 102671592.163 8       385.918          51.000    19260936.039 8  79855693.152 8       300.155          49.000
R17  21820507.023 7 116765936.714 7      3212.957          44.000    21820511.320 7  90817969.352 7      2498.967          43.000
R24  19272781.367 8 103060282.812 8       152.828          50.000    19272783.742 7  80157954.665 7       118.866          45.000
C05  39623238.828 5 206328601.344 5        15.703          35.000    39623239.930 6 159546368.790 6        11.949          37.000
C11  25325671.133 6 131877429.763 6      2701.250          38.000    25325672.312 7 101976003.528 7      2088.884          45.000
C12  21717525.344 8 113088983.663 8       743.492          49.000    21717524.656 8  87447587.454 8       574.882          51.000
C24  22483363.070 8 117076772.814 8     -1519.641          51.000
C26  24839350.344 6 129344989.515 6     -3382.566          36.000
E02  26395676.055 7 138710182.236 7     -2752.363          45.000    26395683.555 8 106284426.724 8     -2109.005          51.000
E15  24242555.227 8 127395553.186 8      1992.336          51.000    24242556.695 8  97614790.318 8      1526.595          51.000
E30  22214177.500 8 116736288.997 8      -810.242          51.000    22214179.367 8  89447293.393 8      -620.850          51.000
> 2020 05 06 13 20 30.0000000  0 16        .000000000000
G18  20474384.695 8 107593684.727 8       962.117          51.000    20474386.594 8  83839195.955 8       749.702          51.000
G21  20719412.516 8 108881318.370 8       550.312          51.000    20719411.766 8  84842531.366 8       428.818          49.000
G25  23611784.133 7 124080750.288 7     -3305.688          43.000    23611786.344 7  96686299.887 7     -2575.863          44.000
G31  21888929.812 8 115027093.019 8     -2130.199          50.000    21888928.844 8  89631518.251 8     -1659.899          50.000
R13  21016356.945 6 112226169.312 6     -3584.445          39.000    21016363.031 6  87287021.355 6     -2787.905          41.000
R14  19258830.461 8 102660385.550 8       359.297          51.000    19258833.688 8  79846976.900 8       279.453          50.000
R17  21802524.203 8 116669705.061 8      3200.488          48.000    21802527.047 7  90743122.556 7      2489.272          43.000
R24  19271976.398 8 103055978.290 8       132.332          50.000    19271978.531 7  80154606.699 7       102.925          45.000
C05  39623149.297 6 206328134.999 6        13.848          36.000    39623150.367 6 159546008.141 6        10.862          37.000
C11  25310119.242 6 131796452.096 6      2695.168          40.000    25310121.070 7 101913386.455 7      2084.250          44.000
C12  21713270.906 8 113066831.115 8       731.691          48.000    21713270.586 8  87430457.708 8       565.814          51.000
C24  22492159.750 8 117122578.406 8     -1535.867          51.000
C26  24858848.750 6 129446516.799 6     -3387.676          39.000
E02  26411402.594 7 138792827.530 7     -2759.113          46.000    26411411.258 8 106347752.311 8     -2113.952          51.000
E15  24231206.984 8 127335914.932 8      1981.949          51.000    24231208.500 8  97569093.520 8      1518.556          51.000
E30  22218835.047 8 116760764.168 8      -823.121          51.000    22218836.391 8  89466047.086 8      -630.631          51.000
> 2020 05 06 13 21  0.0000000  0 17        .000000000000
G18  20468931.797 8 107565029.606 8       944.047          51.000    20468933.711 8  83816867.317 8       735.624          51.000
G21  20716304.805 8 108864985.671 8       534.477          51.000    20716303.719 8  84829804.618 8       416.478          49.000
G25  23630658.055 7 124179933.896 7     -3310.527          44.000    23630658.984 7  96763585.768 7     -2579.632          44.000
G29  21579110.664 5 113398975.085 5     -2173.844          31.000    21579110.664 5  88362851.253 5     -1693.904          31.000
G31  21901119.094 8 115091147.157 8     -2144.125          51.000    21901118.211 8  89681430.526 8     -1670.750          51.000
R13  21036523.289 6 112333852.958 6     -3598.762          39.000    21036527.453 6  87370775.253 6     -2799.040          41.000
R14  19256865.352 8 102649911.106 8       334.809          51.000    19256868.984 8  79838830.082 8       260.407          50.000
R17  21784599.180 8 116573783.953 8      3190.133          48.000    21784601.531 7  90668517.320 7      2481.217          44.000
R24  19271273.258 8 103052219.260 8       114.176          50.000    19271275.570 7  80151683.034 7        88.803          45.000
C05  39623054.953 5 206327644.401 5        14.723          35.000    39623055.797 6 159545627.646 6        11.279          37.000
C11  25294591.508 6 131715595.574 6      2691.332          40.000    25294593.062 7 101850863.094 7      2080.849          44.000
C12  21709072.023 8 113044968.118 8       721.914          48.000    21709072.156 8  87413551.856 8       558.218          51.000
C24  22501036.977 8 117168803.633 8     -1549.840          51.000
C26  24878363.695 6 129548130.779 6     -3390.590          41.000
E02  26427155.477 7 138875605.608 7     -2763.625          47.000    26427163.758 8 106411179.638 8     -2117.562          51.000
E15  24219905.188 8 127276526.353 8      1973.359          50.000    24219907.828 8  97523587.979 8      1512.102          51.000
E30  22223554.352 8 116785562.558 8      -834.117          51.000    22223555.094 8  89485048.457 8      -639.141          51.000
> 2020 05 06 13 21 30.0000000  0 17        .000000000000
G18  20463592.656 8 107536972.240 8       926.070          51.000    20463594.359 8  83795004.459 8       721.613          50.000
G21  20713298.297 8 108849185.075 8       518.551          51.000    20713296.492 8  84817492.465 8       404.066          49.000
G25  23649570.836 7 124279320.707 7     -3315.527          45.000    23649571.414 7  96841029.948 7     -2583.531          44.000
G29  21591535.656 6 113464288.625 6     -2179.852          36.000    21591536.906 6  88413729.461 6     -1698.586          36.000
G31  21913398.219 8 115155674.092 8     -2157.898          51.000    21913397.461 8  89731711.225 8     -1681.479          51.000
R13  21056780.414 6 112442020.902 6     -3612.758          40.000    21056783.867 7  87454905.872 7     -2809.923          42.000
R14  19255048.922 8 102640228.881 8       310.320          51.000    19255052.648 8  79831299.452 8       241.360          50.000
R17  21766742.422 7 116478234.298 7      3179.660          47.000    21766745.875 7  90594200.933 7      2473.069          46.000
R24  19270683.281 8 103049063.751 8        95.992          50.000    19270685.641 7  80149228.734 7        74.661          45.000
C05  39622966.461 6 206327183.693 6        15.410          36.000    39622967.469 6 159545271.777 6        12.125          37.000
C11  25279098.664 6 131634918.282 6      2686.883          40.000    25279099.367 7 101788478.330 7      2077.831          43.000
C12  21704939.750 8 113023451.720 8       712.117          48.000    21704940.000 8  87396913.977 8       550.727          51.000
C24  22510005.617 8 117215505.037 8     -1563.895          51.000
C26  24897905.695 7 129649887.033 7     -3393.574          43.000
E02  26442944.977 8 138958573.642 8     -2767.973          49.000    26442951.969 8 106474752.516 8     -2120.899          51.000
E15  24208660.906 8 127217445.983 8      1965.039          48.000    24208665.562 8  97478318.565 8      1505.643          51.000
E30  22228346.227 8 116810742.363 8      -844.930          51.000    22228347.148 8  89504342.049 8      -647.378          51.000
> 2020 05 06 13 22  0.0000000  0 17        .000000000000
G18  20458359.336 8 107509470.684 8       907.316          51.000    20458360.820 8  83773574.687 8       707.000          50.000
G21  20710384.727 8 108833874.159 8       502.016          50.000    20710382.805 8  84805561.916 8       391.184          49.000
G25  23668514.172 7 124378866.990 7     -3320.895          46.000    23668514.891 7  96918598.416 7     -2587.710          45.000
G29  21603997.062 6 113529776.849 6     -2186.293          38.000    21603998.656 6  88464759.203 6     -1703.605          38.000
G31  21925758.508 8 115220628.932 8     -2172.320          50.000    21925758.086 8  89782325.372 8     -1692.717          50.000
R13  21077119.656 6 112550627.339 6     -3627.727          41.000    21077123.055 6  87539377.543 6     -2821.565          41.000
R14  19253373.195 8 102631297.396 8       285.023          51.000    19253376.914 8  79824352.725 8       221.685          50.000
R17  21748947.180 7 116383013.850 7      3168.309          47.000    21748951.867 7  90520140.576 7      2464.240          46.000
R24  19270197.594 8 103046467.238 8        77.066          49.000    19270200.320 7  80147209.244 7        59.941          45.000
C05  39622875.875 5 206326712.341 5        15.105          35.000    39622877.141 6 159544908.063 6        12.279          37.000
C11  25263632.477 6 131554378.742 6      2682.457          41.000    25263632.164 7 101726200.055 7      2074.071          44.000
C12  21700865.719 8 113002239.403 8       701.906          48.000    21700866.094 8  87380511.277 8       542.659          51.000
C24  22519057.312 8 117262639.481 8     -1578.422          51.000
C26  24917465.977 7 129751741.605 7     -3396.922          43.000
E02  26458762.250 8 139041688.248 8     -2773.129          49.000    26458768.148 8 106538437.724 8     -2124.877          51.000
E15  24197467.859 8 127158631.846 8      1955.824          49.000    24197473.742 8  97433253.147 8      1498.669          51.000
E30  22233202.445 8 116836261.282 8      -856.473          51.000    22233203.898 8  89523895.469 8      -656.258          51.000
> 2020 05 06 13 22 30.0000000  0 18        .000000000000
G18  20453226.109 8 107482495.019 8       888.660          51.000    20453227.375 8  83752554.727 8       692.466          50.000
G21  20707558.438 8 108819022.423 8       485.520          49.000    20707556.594 8  84793989.146 8       378.330          49.000
G25  23687481.883 7 124478541.216 7     -3326.480          46.000    23687483.344 7  96996266.582 7     -2592.063          46.000
G29  21616489.297 6 113595424.571 6     -2192.652          39.000    21616490.664 5  88515913.205 5     -1708.560          34.000
G31  21938194.039 8 115285979.157 8     -2186.730          50.000    21938194.266 8  89833247.603 8     -1703.946          50.000
R13  21097534.820 7 112659638.370 7     -3642.145          42.000    21097538.117 6  87624163.850 6     -2832.782          39.000
R14  19251832.633 8 102623087.009 8       259.758          51.000    19251836.750 8  79817966.845 8       202.031          50.000
R17  21731209.148 8 116288092.901 8      3157.188          48.000    21731213.344 7  90446313.194 7      2455.593          45.000
R24  19269810.586 8 103044397.305 8        58.414          49.000    19269813.484 7  80145599.286 7        45.430          45.000
C05  39622777.555 5 206326199.690 5        15.789          35.000    39622779.023 6 159544513.185 6        12.375          37.000
C11  25248187.000 6 131473947.389 6      2677.324          40.000    25248186.172 7 101664005.419 7      2070.365          45.000
C12  21696844.641 8 112981300.665 8       691.656          49.000    21696844.812 8  87364320.148 8       534.742          51.000
C24  22528186.328 8 117310175.758 8     -1593.082          51.000
C26  24937038.906 7 129853662.366 7     -3400.152          44.000
E02  26474600.758 7 139124918.152 7     -2778.168          47.000    26474606.273 8 106602211.243 8     -2128.648          51.000
E15  24186320.922 8 127100053.994 8      1946.793          51.000    24186326.648 8  97388368.831 8      1491.663          51.000
E30  22238117.312 8 116862089.099 8      -867.953          51.000    22238119.234 8  89543685.573 8      -664.995          51.000
E36  26607408.430 5 139822875.176 5     -2679.855          31.000
> 2020 05 06 13 23  0.0000000  0 17        .000000000000
G18  20448220.000 8 107456187.811 8       869.109          51.000    20448221.156 8  83732055.654 8       677.231          50.000
G21  20704846.383 8 108804771.380 8       468.289          49.000    20704844.695 8  84782884.427 8       364.901          49.000
G25  23706500.547 7 124578484.310 7     -3332.570          45.000    23706502.789 7  97074144.266 7     -2596.808          45.000
G29  21629038.859 6 113661372.885 6     -2200.117          38.000    21629039.516 6  88567301.523 6     -1714.371          38.000
G31  21950731.648 8 115351864.693 8     -2201.766          51.000    21950732.188 8  89884586.958 8     -1715.662          50.000
R13  21118051.680 6 112769195.523 6     -3657.703          41.000    21118052.758 5  87709374.811 5     -2844.889          34.000
R14  19250454.695 8 102615743.030 8       233.734          51.000    19250459.008 8  79812254.853 8       181.793          50.000
R17  21713553.805 8 116193617.628 8      3145.086          48.000    21713557.422 7  90372832.465 7      2446.178          44.000
R24  19269548.781 8 103042997.461 8        38.840          49.000    19269551.547 7  80144510.535 7        30.209          44.000
C05  39622698.625 5 206325788.650 5        15.094          35.000    39622700.227 6 159544196.128 6        11.768          37.000
C11  25232789.148 6 131393765.401 6      2671.727          40.000    25232788.547 7 101602003.651 7      2066.060          46.000
C12  21692903.508 8 112960776.062 8       680.590          48.000    21692903.086 8  87348449.227 8       526.308          51.000
C24  22537419.500 8 117358253.716 8     -1608.332          51.000
C26  24956651.258 7 129955788.335 7     -3404.398          43.000
E02  26490487.109 7 139208404.679 7     -2783.762          46.000    26490493.047 8 106666181.392 8     -2133.018          51.000
E15  24175246.430 8 127041855.066 8      1937.051          51.000    24175251.352 8  97343774.880 8      1484.234          51.000
E30  22243118.172 8 116888368.061 8      -880.117          51.000    22243119.961 8  89563821.391 8      -674.384          51.000
> 2020 05 06 13 23 30.0000000  0 18        .000000000000
G18  20443309.969 8 107430384.936 8       850.578          51.000    20443310.641 8  83711949.531 8       662.788          50.000
G21  20702217.109 8 108790956.167 8       452.227          48.000    20702215.898 8  84772119.332 8       352.384          48.000
G25  23725538.375 7 124678530.430 7     -3337.859          44.000    23725541.672 7  97152102.226 7     -2600.929          43.000
G29  21641614.109 6 113727455.703 6     -2205.500          39.000    21641614.242 6  88618794.608 6     -1718.568          37.000
G31  21963339.320 8 115418118.628 8     -2215.605          50.000    21963339.820 8  89936213.389 8     -1726.446          50.000
R13  21138638.516 6 112879127.748 6     -3671.738          40.000    21138638.914 6  87794877.516 6     -2855.799          38.000
R14  19249208.383 8 102609099.876 8       208.578          50.000    19249212.523 8  79807087.961 8       162.227          50.000
R17  21695950.766 8 116099421.724 8      3133.973          48.000    21695953.938 7  90299568.955 7      2437.531          44.000
R23  20344354.453 5 108828557.195 5     -2715.348          32.000    20344358.117 4  84644456.987 4     -2111.937          28.000
R24  19269381.094 8 103042099.042 8        20.480          49.000    19269383.484 7  80143811.780 7        15.929          44.000
C05  39622607.828 5 206325316.055 5        15.586          35.000    39622609.516 6 159543830.708 6        12.233          37.000
C11  25217407.922 6 131313670.377 6      2667.512          41.000    25217407.672 7 101540069.155 7      2062.481          46.000
C12  21689009.977 7 112940502.044 7       670.457          47.000    21689009.609 8  87332772.074 8       518.485          51.000
C24  22546725.227 8 117406709.095 8     -1622.527          51.000
C26  24976271.008 6 130057954.483 6     -3407.367          41.000
E02  26506390.594 7 139291982.200 7     -2788.578          46.000    26506397.125 8 106730221.266 8     -2136.673          51.000
E15  24164213.000 8 126983870.995 8      1928.188          51.000    24164216.797 8  97299345.576 8      1477.403          51.000
E30  22248173.555 8 116914933.700 8      -891.379          51.000    22248175.047 8  89584176.871 8      -683.029          51.000
> 2020 05 06 13 24  0.0000000  0 18        .000000000000
G18  20438509.898 8 107405159.952 8       832.047          51.000    20438510.266 8  83692293.711 8       648.348          51.000
G21  20699684.594 8 108777649.503 8       436.055          49.000    20699683.938 8  84761750.513 8       339.786          49.000
G25  23744609.312 7 124778751.585 7     -3342.836          43.000    23744613.297 7  97230196.572 7     -2604.810          44.000
G29  21654228.672 6 113793745.489 6     -2212.172          36.000    21654229.359 6  88670449.013 6     -1723.773          36.000
G31  21976030.445 8 115484812.184 8     -2229.535          48.000    21976030.633 8  89988182.384 8     -1737.300          48.000
R13  21159308.328 6 112989507.583 6     -3685.973          37.000    21159310.594 7  87880728.475 7     -2866.868          42.000
R14  19248107.656 8 102603233.167 8       183.465          50.000    19248111.922 8  79802524.951 8       142.695          50.000
R17  21678415.758 8 116005580.887 8      3122.980          50.000    21678418.023 7  90226581.656 7      2428.988          46.000
R23  20359620.414 5 108910204.870 5     -2725.957          33.000    20359617.273 4  84707952.738 4     -2120.195          27.000
R24  19269320.523 8 103041774.968 8         2.207          48.000    19269322.602 7  80143559.744 7         1.720          43.000
C05  39622518.969 6 206324853.038 6        16.270          36.000    39622520.734 6 159543473.057 6        12.436          38.000
C11  25202057.555 7 131233735.276 7      2662.688          42.000    25202057.477 7 101478258.287 7      2058.944          47.000
C12  21685178.391 8 112920550.736 8       660.543          48.000    21685178.250 8  87317344.481 8       510.674          51.000
C24  22556116.961 8 117455613.367 8     -1636.699          51.000
C26  24995911.461 6 130160231.418 6     -3410.395          41.000
E02  26522325.414 7 139375723.030 7     -2793.152          46.000    26522332.414 8 106794386.282 8     -2140.315          51.000
E15  24153234.438 8 126926175.450 8      1919.191          51.000    24153237.102 8  97255137.352 8      1470.486          51.000
E30  22253297.242 8 116941859.393 8      -902.684          51.000    22253298.906 8  89604808.226 8      -691.715          51.000
> 2020 05 06 13 24 30.0000000  0 18        .000000000000
G18  20433818.234 8 107380505.150 8       812.512          51.000    20433818.672 8  83673082.197 8       633.126          51.000
G21  20697247.648 8 108764843.277 8       418.750          50.000    20697247.094 8  84751771.626 8       326.299          50.000
G25  23763712.164 7 124879138.463 7     -3348.953          44.000    23763715.812 7  97308420.058 7     -2609.577          44.000
G29  21666880.938 5 113860233.042 5     -2218.930          35.000    21666881.914 5  88722257.459 5     -1729.045          34.000
G31  21988803.086 8 115551934.234 8     -2244.387          48.000    21988802.789 8  90040485.241 8     -1748.876          48.000
R13  21180058.844 6 113100322.976 6     -3700.938          37.000    21180063.859 7  87966918.298 7     -2878.504          44.000
R14  19247151.438 8 102598135.621 8       157.242          51.000    19247155.625 8  79798560.190 8       122.299          50.000
R17  21660945.812 8 115912088.101 8      3110.730          51.000    21660947.680 7  90153865.087 7      2419.460          46.000
R23  20374945.016 5 108992166.750 5     -2736.828          30.000    20374938.961 4  84771709.742 4     -2128.650          25.000
R24  19269365.695 8 103042015.724 8       -17.234          48.000    19269367.602 7  80143746.994 7       -13.405          44.000
C05  39622430.430 6 206324392.140 6        15.852          36.000    39622432.383 6 159543117.039 6        11.892          38.000
C11  25186736.367 6 131153952.527 6      2656.934          41.000    25186736.805 8 101416565.241 8      2054.688          49.000
C12  21681407.625 8 112900913.773 8       649.426          49.000    21681407.281 8  87302159.929 8       502.238          51.000
C24  22565592.844 8 117504957.393 8     -1652.039          51.000
C26  25015571.109 6 130262609.174 6     -3413.840          40.000
E02  26538289.672 7 139459618.178 7     -2798.852          46.000    26538296.898 8 106858669.501 8     -2144.649          49.000
E15  24142308.953 8 126868760.793 8      1909.371          51.000    24142311.414 8  97211144.339 8      1462.989          51.000
E30  22258487.844 8 116969137.102 8      -914.922          51.000    22258489.938 8  89625709.295 8      -701.062          51.000
> 2020 05 06 13 25  0.0000000  0 19        .000000000000
G18  20429224.906 8 107356366.673 8       792.488          51.000    20429225.164 8  83654272.994 8       617.523          51.000
G20  24506158.531 5 128780744.894 5      3332.746          35.000
G21  20694895.438 8 108752482.779 8       401.094          49.000    20694895.000 8  84742140.097 8       312.541          49.000
G25  23782836.328 7 124979635.631 7     -3354.957          45.000    23782839.695 7  97386729.459 7     -2614.255          44.000
G29  21679559.992 6 113926863.012 6     -2227.270          36.000    21679560.547 5  88774176.919 5     -1735.535          35.000
G31  22001646.820 8 115619428.432 8     -2259.391          50.000    22001646.414 8  90093078.061 8     -1760.564          50.000
R13  21200881.297 6 113211515.939 6     -3716.359          38.000    21200887.664 7  88053401.732 7     -2890.502          46.000
R14  19246329.539 8 102593753.451 8       130.656          51.000    19246333.594 8  79795151.823 8       101.622          50.000
R17  21643529.938 8 115818889.288 8      3098.246          49.000    21643532.023 7  90081377.150 7      2409.750          46.000
R24  19269505.547 7 103042764.784 7       -36.934          47.000    19269507.789 7  80144329.609 7       -28.726          43.000
C05  39622332.094 5 206323880.150 5        14.270          35.000    39622334.047 6 159542721.116 6        11.273          37.000
C11  25171433.961 6 131074268.923 6      2651.180          41.000    25171435.086 8 101354948.878 8      2049.949          49.000
C12  21677686.602 8 112881536.926 8       638.145          48.000    21677686.352 8  87287176.536 8       493.529          51.000
C24  22575142.312 8 117554686.216 8     -1667.379          51.000
C26  25035239.594 6 130365032.082 6     -3418.133          40.000
E02  26554273.195 7 139543612.458 7     -2804.773          47.000    26554279.383 7 106923028.652 7     -2149.103          47.000
E15  24131426.109 8 126811573.280 8      1899.109          51.000    24131429.594 8  97167325.331 8      1455.126          51.000
E30  22263735.273 8 116996712.700 8      -927.539          51.000    22263737.617 8  89646838.620 8      -710.691          51.000
E36  26684085.453 5 140225799.124 5     -2693.156          35.000    26684092.727 6 107445771.379 6     -2063.471          36.000
> 2020 05 06 13 25 30.0000000  0 19        .000000000000
G18  20424762.055 8 107332914.176 8       773.699          51.000    20424762.375 8  83635998.327 8       602.886          51.000
G20  24487140.086 5 128680802.467 5      3332.805          35.000
G21  20692660.289 8 108740736.982 8       384.516          50.000    20692659.938 8  84732987.544 8       299.623          51.000
G25  23802013.500 7 125080411.215 7     -3360.602          45.000    23802016.977 7  97465255.796 7     -2618.654          45.000
G29  21692298.484 6 113993803.265 6     -2233.129          39.000    21692298.688 5  88826338.139 5     -1740.097          30.000
G31  22014593.555 8 115687462.133 8     -2273.516          51.000    22014592.734 8  90146091.282 8     -1771.574          51.000
R13  21221806.922 6 113323255.066 6     -3730.301          39.000    21221813.516 7  88140309.896 7     -2901.345          46.000
R14  19245674.266 8 102590259.699 8       105.031          51.000    19245678.281 8  79792434.444 8        81.691          49.000
R17  21626200.094 8 115726158.340 8      3086.574          48.000    21626202.539 7  90009253.083 7      2400.669          44.000
R24  19269772.508 7 103044192.981 7       -55.637          47.000    19269774.445 7  80145440.419 7       -43.273          42.000
C05  39622255.977 5 206323483.241 5        14.484          35.000    39622258.031 6 159542414.991 6        11.200          37.000
C11  25156182.250 6 130994852.773 6      2646.215          40.000    25156184.289 8 101293539.305 8      2046.046          48.000
C12  21674047.422 7 112862587.576 7       627.809          47.000    21674047.586 8  87272523.709 8       485.467          51.000
C24  22584797.789 8 117604966.560 8     -1681.965          51.000
C26  25054949.016 6 130467665.997 6     -3421.145          39.000
E02  26570307.891 7 139627874.322 7     -2809.840          47.000    26570311.391 7 106987592.835 7     -2153.039          44.000
E15  24120618.828 8 126754782.648 8      1889.785          51.000    24120623.453 8  97123810.418 8      1447.972          51.000
E30  22269071.672 8 117024755.617 8      -939.270          51.000    22269074.086 8  89668326.042 8      -719.703          51.000
E36  26699476.492 5 140306692.787 5     -2695.062          35.000    26699481.391 6 107507732.590 6     -2065.117          37.000
> 2020 05 06 13 26  0.0000000  0 20        .000000000000
G18  20420393.164 8 107309956.206 8       755.980          51.000    20420393.641 8  83618109.022 8       589.076          51.000
G20  24468103.859 5 128580769.728 5      3334.816          35.000
G21  20690505.766 8 108729413.861 8       369.312          50.000    20690505.328 8  84724164.339 8       287.776          50.000
G25  23821206.859 7 125181272.111 7     -3364.215          45.000    23821210.805 7  97543848.632 7     -2621.469          45.000
G29  21705059.617 5 114060857.361 5     -2237.812          35.000    21705060.422 5  88878591.089 5     -1743.759          34.000
G31  22027606.156 8 115755841.419 8     -2286.051          51.000    22027604.844 8  90199373.799 8     -1781.341          51.000
R13  21242797.961 6 113435342.675 6     -3743.316          39.000    21242804.164 7  88227489.094 7     -2911.471          44.000
R14  19245149.430 8 102587460.574 8        80.656          51.000    19245153.188 8  79790257.334 8        62.733          49.000
R17  21608921.359 8 115633701.124 8      3076.332          49.000    21608923.461 7  89937341.935 7      2392.706          44.000
R23  20421281.117 6 109239975.115 6     -2766.559          36.000
R24  19270129.641 7 103046103.854 7       -72.629          47.000    19270131.508 7  80146926.655 7       -56.489          42.000
C05  39622165.719 5 206323013.537 5        15.695          35.000    39622167.914 6 159542051.775 6        12.170          37.000
C11  25140945.234 6 130915514.516 6      2642.297          40.000    25140948.219 7 101232189.952 7      2043.210          47.000
C12  21670454.039 8 112843875.309 8       618.812          48.000    21670454.211 8  87258054.191 8       478.487          51.000
C24  22594522.898 8 117655607.266 8     -1695.020          51.000
C26  25074662.000 6 130570318.968 6     -3423.453          38.000
E02  26586356.750 7 139712211.021 7     -2813.461          46.000    26586357.602 7 107052214.357 7     -2155.775          44.000
E15  24109851.344 8 126698197.532 8      1881.707          51.000    24109855.969 8  97080452.987 8      1441.851          51.000
E30  22274460.438 8 117053074.164 8      -949.547          51.000    22274463.133 8  89690024.645 8      -727.596          51.000
E36                                                                  26714868.180 6 107569688.490 6     -2065.958          37.000
> 2020 05 06 13 26 30.0000000  0 20        .000000000000
G18  20416135.555 8 107287582.305 8       736.070          51.000    20416135.734 8  83600674.816 8       573.561          51.000
G20  24449070.766 5 128480717.581 5      3334.445          32.000
G21  20688448.312 8 108718601.906 8       351.906          50.000    20688447.859 8  84715739.462 8       274.213          50.000
G25  23840433.070 7 125282306.447 7     -3370.762          45.000    23840437.352 7  97622576.648 7     -2626.568          45.000
G29  21717860.344 5 114128125.420 5     -2245.730          33.000    21717862.312 5  88931012.585 5     -1749.926          35.000
G31  22040700.750 8 115824652.447 8     -2300.793          51.000    22040699.320 8  90252992.744 8     -1792.826          51.000
R13  21263870.375 6 113547866.850 6     -3758.070          38.000    21263876.242 7  88315007.844 7     -2922.947          42.000
R14  19244771.945 8 102585447.846 8        54.082          51.000    19244775.688 8  79788691.853 8        42.064          49.000
R17  21591712.406 8 115541609.629 8      3063.719          50.000    21591712.984 7  89865715.243 7      2382.895          44.000
R23  20436801.859 5 109323106.820 5     -2777.695          32.000
R24  19270594.047 8 103048586.723 8       -92.152          48.000    19270595.703 6  80148857.776 6       -71.674          41.000
C05  39622078.328 6 206322558.977 6        15.020          36.000    39622080.484 6 159541699.885 6        11.705          38.000
C11  25125740.602 6 130836343.067 6      2636.383          40.000    25125743.930 8 101170969.608 8      2038.597          48.000
C12  21666923.344 8 112825488.102 8       607.625          48.000    21666923.078 8  87243836.042 8       469.890          51.000
C24  22604334.133 8 117706695.570 8     -1710.293          51.000
C26  25094395.727 6 130673077.442 6     -3426.738          38.000
E02  26602436.078 7 139796710.901 7     -2819.195          45.000    26602436.992 7 107116960.961 7     -2160.223          45.000
E15  24099140.312 8 126641907.629 8      1871.566          51.000    24099143.570 8  97037321.773 8      1434.030          51.000
E30  22279918.602 8 117081757.700 8      -962.039          51.000    22279921.531 8  89712002.909 8      -737.156          51.000
E36                                                                  26730270.102 6 107631706.433 6     -2068.152          37.000
> 2020 05 06 13 27  0.0000000  0 19        .000000000000
G18  20411984.195 8 107265767.129 8       720.328          50.000    20411984.398 8  83583675.989 8       561.295          50.000
G21  20686483.305 8 108708275.065 8       338.598          50.000    20686482.469 8  84707692.592 8       263.842          50.000
G25  23859687.211 7 125383487.300 7     -3372.734          46.000    23859691.938 7  97701418.796 7     -2628.105          46.000
G29  21730694.898 5 114195571.781 5     -2249.164          32.000    21730698.023 5  88983565.868 5     -1752.595          32.000
G31  22053872.008 8 115893867.435 8     -2311.375          50.000    22053870.727 8  90306926.459 8     -1801.071          50.000
R13  21285018.914 6 113660797.469 6     -3768.773          39.000    21285024.297 6  88402842.701 6     -2931.271          41.000
R14  19244537.156 8 102584196.400 8        31.516          51.000    19244541.203 8  79787718.496 8        24.512          49.000
R17  21574566.953 8 115449858.829 8      3055.355          50.000    21574567.305 7  89794353.579 7      2376.388          45.000
R23  20452402.922 5 109406584.871 5     -2784.258          31.000
R24  19271160.359 7 103051614.001 7      -107.293          47.000    19271161.680 6  80151212.339 6       -83.447          40.000
C05  39621988.984 5 206322092.663 5        18.258          35.000    39621991.102 6 159541339.665 6        14.148          37.000
C11  25110563.516 6 130757313.485 6      2634.508          40.000    25110567.008 8 101109858.962 8      2037.060          48.000
C12  21663449.828 7 112807400.190 7       600.496          47.000    21663449.445 8  87229849.361 8       464.308          51.000
C24  22614226.039 8 117758204.938 8     -1721.488          51.000
C26  25114144.391 6 130775914.241 6     -3426.766          37.000
E02  26618540.617 7 139881347.414 7     -2820.926          43.000    26618543.992 7 107181812.233 7     -2161.489          46.000
E15  24088480.422 8 126585887.758 8      1865.359          51.000    24088481.859 8  96994397.486 8      1429.334          50.000
E30  22285441.438 8 117110780.601 8      -970.559          51.000    22285444.164 8  89734241.227 8      -743.666          51.000
E36                                                                  26745682.062 6 107693765.808 6     -2067.463          36.000
> 2020 05 06 13 27 30.0000000  0 19        .000000000000
G18  20407942.523 8 107244528.785 8       697.496          51.000    20407942.766 8  83567126.658 8       543.506          50.000
G21  20684613.984 8 108698450.977 8       318.281          50.000    20684612.766 8  84700037.480 8       248.011          50.000
G25  23878972.602 7 125484831.398 7     -3381.910          47.000    23878977.273 7  97780388.169 7     -2635.258          47.000
G29  21743566.758 6 114263212.170 6     -2258.793          36.000    21743569.461 6  89036281.822 6     -1760.095          36.000
G31  22067122.922 8 115963502.230 8     -2329.020          49.000    22067121.938 8  90361187.328 8     -1814.820          49.000
R13  21306246.773 6 113774149.382 6     -3786.355          40.000    21306251.398 7  88491005.231 7     -2944.943          42.000
R14  19244448.984 8 102583725.419 8         1.797          51.000    19244452.844 8  79787352.179 8         1.398          48.000
R17  21557487.812 8 115358468.354 8      3039.410          49.000    21557489.328 7  89723272.113 7      2363.986          45.000
R23  20468063.430 5 109490358.043 5     -2797.871          35.000
R24  19271831.602 8 103055202.680 8      -129.969          48.000    19271832.484 6  80154003.549 6      -101.087          41.000
C05  39621900.953 5 206321635.377 5        14.617          35.000    39621903.000 6 159540984.944 6        10.977          37.000
C11  25095417.312 6 130678443.983 6      2625.363          40.000    25095420.922 8 101048872.082 8      2030.170          48.000
C12  21660037.031 7 112789628.831 7       586.191          47.000    21660036.656 8  87216107.432 8       453.214          51.000
C24  22624201.922 8 117810151.848 8     -1739.672          51.000
C26  25133910.914 6 130878845.058 6     -3433.270          37.000
E02  26634675.023 7 139966137.494 7     -2829.805          45.000    26634680.906 8 107246781.204 8     -2168.277          48.000
E15  24077874.844 8 126530156.285 8      1851.949          51.000    24077875.219 8  96951694.165 8      1419.110          50.000
E30  22291032.438 8 117140160.863 8      -986.176          51.000    22291034.766 8  89756753.377 8      -755.662          51.000
E36                                                                  26761107.234 5 107755879.346 5     -2072.016          35.000
> 2020 05 06 13 28  0.0000000  0 18        .000000000000
G18  20404012.344 8 107223875.769 8       679.344          50.000    20404012.562 8  83551033.393 8       529.359          50.000
G21  20682841.688 8 108689137.496 8       302.598          50.000    20682840.383 8  84692780.230 8       235.790          50.000
G25  23898290.344 7 125586345.687 7     -3386.074          46.000    23898294.797 7  97859490.142 7     -2638.502          46.000
G29  21756477.273 5 114331054.704 5     -2264.074          35.000    21756478.648 5  89089146.098 5     -1764.220          35.000
G31  22080454.516 8 116033562.371 8     -2341.684          48.000    22080454.109 8  90415779.662 8     -1824.689          48.000
R13  21327554.383 6 113887928.841 6     -3799.168          39.000    21327558.664 7  88579500.299 7     -2954.908          42.000
R14  19244509.062 8 102584044.185 8       -23.141          51.000    19244512.602 8  79787600.094 8       -17.998          48.000
R17  21540477.898 8 115267447.575 8      3028.605          49.000    21540480.664 7  89652478.176 7      2355.582          45.000
R24  19272609.016 7 103059359.479 7      -147.328          46.000    19272610.094 6  80157236.620 6      -114.589          41.000
C05  39621815.773 5 206321191.339 5        14.992          35.000    39621817.695 6 159540641.929 6        12.067          37.000
C11  25080303.906 6 130599743.072 6      2621.297          41.000    25080307.320 8 100988015.598 8      2026.905          48.000
C12  21656686.203 7 112772181.758 7       576.883          46.000    21656686.078 8  87202616.239 8       445.946          51.000
C24  22634263.297 8 117862543.244 8     -1753.172          51.000
C26  25153696.750 5 130981876.133 5     -3435.355          34.000
E02  26650841.172 7 140051088.380 7     -2833.695          46.000    26650848.523 8 107311873.373 8     -2171.231          48.000
E15  24067325.070 8 126474721.750 8      1843.535          50.000    24067326.094 8  96909218.376 8      1412.573          51.000
E30  22296692.969 8 117169906.743 8      -997.035          51.000    22296695.180 8  89779545.661 8      -763.923          51.000
E36                                                                  26776547.164 5 107818052.376 5     -2072.866          34.000
> 2020 05 06 13 28 30.0000000  0 19        .000000000000
G18  20400187.031 8 107203775.379 8       660.441          51.000    20400187.695 8  83535370.780 8       514.630          49.000
G20  24372911.578 5 128080514.058 5      3335.254          32.000
G21  20681160.219 8 108680301.129 8       286.234          50.000    20681158.906 8  84685894.761 8       223.040          50.000
G25  23917633.883 7 125687996.050 7     -3390.977          46.000    23917637.719 7  97938698.165 7     -2642.322          46.000
G29  21769419.578 6 114399066.484 6     -2270.164          36.000    21769420.211 6  89142142.350 6     -1768.962          36.000
G31  22093860.781 8 116104012.824 8     -2355.254          49.000    22093860.906 8  90470676.118 8     -1835.263          49.000
R13  21348934.477 6 114002098.715 6     -3812.652          37.000    21348938.859 7  88668299.067 7     -2965.393          42.000
R14  19244711.438 8 102585120.162 8       -48.844          51.000    19244714.492 8  79788436.931 8       -37.993          48.000
R17  21523531.883 8 115176764.209 8      3016.727          50.000    21523533.969 7  89581946.691 7      2346.343          42.000
R24  19273485.883 7 103064049.327 7      -165.578          47.000    19273487.109 6  80160884.286 6      -128.783          41.000
C05  39621727.344 6 206320730.422 6        15.332          36.000    39621729.094 6 159540285.537 6        11.647          37.000
C11  25065216.812 6 130521178.785 6      2615.898          41.000    25065219.914 8 100927264.739 8      2022.969          48.000
C12  21653391.125 7 112755025.888 7       566.496          46.000    21653391.422 8  87189350.224 8       438.117          51.000
C24  22644403.484 8 117915345.325 8     -1767.355          51.000
C26  25173495.320 5 131084973.018 5     -3438.734          31.000
E02  26667032.164 8 140136166.296 8     -2838.434          48.000    26667039.320 7 107377062.884 7     -2174.996          46.000
E15  24056825.789 8 126419551.734 8      1834.121          51.000    24056828.070 8  96866945.251 8      1405.383          51.000
E30  22302416.758 8 117199985.401 8     -1008.602          51.000    22302418.711 8  89802592.932 8      -772.798          51.000
E36                                                                  26791995.641 5 107880264.711 5     -2074.069          33.000
> 2020 05 06 13 29  0.0000000  0 19        .000000000000
G18  20396481.984 8 107184305.763 8       642.879          51.000    20396482.547 8  83520199.664 8       500.945          48.000
G20  24353882.320 5 127980510.934 5      3336.797          32.000
G21  20679584.273 8 108672019.411 8       271.152          51.000    20679583.008 8  84679441.492 8       211.291          50.000
G25  23937017.664 7 125789859.116 7     -3394.707          45.000    23937021.453 7  98018071.921 7     -2645.229          45.000
G31  22107356.195 8 116174928.914 8     -2367.383          51.000    22107356.242 8  90525935.382 8     -1844.714          51.000
R13  21370400.859 6 114116734.809 6     -3824.727          36.000    21370406.195 6  88757460.490 6     -2974.787          40.000
R14  19245070.617 8 102587033.283 8       -73.441          51.000    19245073.031 8  79789924.895 8       -57.121          48.000
R17  21506664.039 8 115086498.689 8      3006.156          49.000    21506664.594 7  89511740.230 7      2338.125          42.000
R23  20515412.523 5 109743551.128 5     -2824.906          34.000
R24  19274477.383 7 103069350.250 7      -182.602          47.000    19274478.570 6  80165007.241 6      -142.020          41.000
C05  39621650.328 6 206320329.369 6        16.867          36.000    39621652.055 6 159539975.431 6        12.496          38.000
C11  25050170.320 6 130442828.728 6      2612.195          39.000    25050173.617 8 100866679.560 8      2019.969          49.000
C12  21650167.070 7 112738237.995 7       557.688          47.000    21650167.594 8  87176368.768 8       431.197          51.000
C24  22654637.523 8 117968634.038 8     -1780.141          51.000
C26  25193321.078 5 131188233.805 5     -3439.016          30.000
E02  26683262.094 8 140221448.206 8     -2841.930          48.000    26683267.273 7 107442408.669 7     -2177.427          45.000
E15  24046392.656 8 126364724.504 8      1826.012          51.000    24046395.656 8  96824934.790 8      1399.212          51.000
E30  22308218.906 8 117230474.778 8     -1018.945          51.000    22308220.320 8  89825954.919 8      -780.771          51.000
E36                                                                  26807467.352 5 107942562.134 5     -2074.662          32.000
> 2020 05 06 13 29 30.0000000  0 18        .000000000000
G18  20392862.898 8 107165287.523 8       619.734          51.000    20392863.539 8  83505380.284 8       482.913          49.000
G20  24334830.758 4 127880397.917 4      3332.051          28.000
G21  20678079.570 8 108664112.078 8       250.734          51.000    20678078.211 8  84673279.926 8       195.377          50.000
G25  23956407.523 7 125891754.159 7     -3403.906          43.000    23956411.531 7  98097470.601 7     -2652.398          43.000
G31  22120905.734 8 116246128.838 8     -2384.609          51.000    22120904.930 8  90581415.812 8     -1858.137          51.000
R13  21391920.523 6 114231651.720 6     -3842.203          39.000    21391925.852 6  88846840.241 6     -2988.383          39.000
R14  19245552.492 8 102589602.132 8      -103.277          51.000    19245554.930 8  79791922.853 8       -80.330          48.000
R17  21489840.102 8 114996469.314 8      2990.254          49.000    21489840.617 7  89441717.448 7      2325.756          43.000
R23  20531274.711 6 109828410.953 6     -2837.828          36.000
R24  19275548.555 7 103075077.969 7      -204.816          46.000    19275549.688 6  80169462.125 6      -159.305          41.000
C05  39621550.820 6 206319810.387 6        12.227          36.000    39621552.484 6 159539574.039 6         9.805          37.000
C11  25035130.320 6 130364515.473 6      2603.438          39.000    25035134.438 8 100806122.785 8      2013.071          48.000
C12  21646979.664 7 112721639.808 7       543.555          47.000    21646980.148 8  87163534.000 8       420.389          51.000
C24  22664930.578 8 118022230.249 8     -1798.223          51.000
E02  26699496.344 8 140306753.569 8     -2850.477          49.000    26699498.734 7 107507772.430 7     -2183.985          44.000
E15  24035991.211 8 126310060.963 8      1812.824          51.000    24035994.430 8  96783049.749 8      1389.050          51.000
E30  22314065.156 8 117261195.389 8     -1034.488          51.000    22314066.133 8  89849494.081 8      -792.618          51.000
E36  26822922.305 5 140955404.425 5     -2713.918          35.000    26822927.789 5 108004814.070 5     -2079.136          31.000
> 2020 05 06 13 30  0.0000000  0 16        .000000000000
G18  20389373.367 8 107146950.087 8       601.602          51.000    20389374.219 8  83491091.437 8       468.783          49.000
G21  20676689.609 8 108656807.864 8       235.316          51.000    20676688.266 8  84667588.349 8       183.363          51.000
G25  23975846.555 7 125993909.213 7     -3407.797          42.000    23975851.477 7  98177071.852 7     -2655.429          42.000
G31  22134552.141 8 116317839.311 8     -2396.895          51.000    22134550.422 8  90637294.043 8     -1867.713          50.000
R13  21413537.016 6 114347079.342 6     -3854.301          40.000    21413541.234 6  88936617.185 6     -2997.793          40.000
R14  19246201.039 8 102593059.991 8      -128.207          51.000    19246203.422 8  79794612.307 8       -99.717          48.000
R17  21473104.164 8 114906910.858 8      2979.285          50.000    21473105.727 7  89372060.920 7      2317.222          45.000
R24  19276742.719 7 103081464.187 7      -222.027          46.000    19276744.508 7  80174429.179 7      -172.688          42.000
C05  39621472.070 5 206319401.492 5        13.520          35.000    39621473.852 6 159539257.104 6        10.735          37.000
C11  25020141.719 6 130286466.733 6      2598.824          41.000    25020146.094 8 100745770.527 8      2009.660          48.000
C12  21643872.203 7 112705458.003 7       534.336          47.000    21643872.391 8  87151021.216 8       413.155          51.000
C24  22675325.859 8 118076359.887 8     -1811.406          51.000
E02  26715778.148 8 140392310.753 8     -2854.309          48.000    26715778.016 7 107573329.136 7     -2187.017          43.000
E15  24025664.711 8 126255790.780 8      1804.234          51.000    24025668.062 8  96741466.124 8      1382.474          51.000
E30  22319998.938 8 117292376.504 8     -1045.223          51.000    22319999.359 8  89873386.104 8      -800.876          51.000
E36  26838414.180 6 141036815.948 6     -2714.246          36.000    26838420.000 5 108067195.307 5     -2080.037          31.000
> 2020 05 06 13 30 30.0000000  0 19        .000000000000
G18  20386001.922 8 107129232.735 8       578.453          51.000    20386002.578 8  83477285.752 8       450.743          49.000
G20  24296779.164 5 127680427.106 5      3328.953          32.000
G21  20675402.805 8 108650045.390 8       214.609          51.000    20675401.703 8  84662318.913 8       167.228          51.000
G25  23995323.406 6 126096262.247 6     -3417.961          41.000    23995328.922 6  98256827.425 6     -2663.346          41.000
G29  21821566.305 6 114673130.814 6     -2300.516          36.000    21821566.797 5  89355660.780 5     -1792.616          34.000
G31  22148283.336 8 116389997.070 8     -2414.629          51.000    22148281.148 8  90693520.820 8     -1881.529          50.000
R13  21435236.969 6 114462952.504 6     -3871.883          41.000    21435240.742 6  89026740.674 6     -3011.467          41.000
R14  19247004.961 8 102597346.131 8      -158.684          50.000    19247007.656 8  79797945.965 8      -123.421          49.000
R17  21456444.469 8 114817762.445 8      2962.902          49.000    21456447.242 7  89302723.307 7      2304.480          45.000
R23  20563196.773 5 109999235.813 5     -2859.887          31.000
R24  19278048.383 7 103088445.689 7      -244.672          46.000    19278050.305 6  80179859.243 6      -190.297          41.000
C05  39621402.773 5 206319040.615 5         9.293          35.000    39621404.594 6 159538978.057 6         7.210          36.000
C11  25005192.812 6 130208622.515 6      2589.551          41.000    25005196.836 8 100685576.485 8      2002.375          48.000
C12  21640833.008 7 112689631.836 7       519.883          47.000    21640832.883 8  87138783.432 8       401.916          51.000
C24  22685811.336 8 118130961.402 8     -1829.750          51.000
E02  26732095.547 7 140478057.872 7     -2863.176          47.000    26732094.680 7 107639031.400 7     -2193.916          44.000
E15  24015401.359 8 126201853.502 8      1790.496          51.000    24015405.008 8  96700137.573 8      1372.004          51.000
E30  22326008.516 8 117323957.322 8     -1061.227          51.000    22326008.711 8  89897584.385 8      -813.124          51.000
E36  26853926.766 6 141118332.774 6     -2720.805          36.000    26853931.812 4 108129655.223 4     -2084.557          29.000
> 2020 05 06 13 31  0.0000000  0 18        .000000000000
G18  20382694.984 8 107111854.399 8       566.523          51.000    20382695.461 8  83463744.220 8       441.447          49.000
G20  24277718.422 5 127580263.035 5      3334.980          35.000
G21  20674165.484 8 108643542.984 8       205.305          51.000    20674164.453 8  84657252.125 8       159.978          51.000
G25  24014784.172 6 126198530.615 6     -3414.828          41.000    24014790.055 6  98336517.023 6     -2660.908          41.000
G31  22162045.250 8 116462318.382 8     -2420.543          50.000    22162043.430 8  90749875.063 8     -1886.137          50.000
R13  21456966.047 6 114578981.610 6     -3877.527          41.000    21456969.719 6  89116985.489 6     -3015.858          41.000
R14  19247910.766 8 102602175.949 8      -177.160          51.000    19247913.836 8  79801702.486 8      -137.791          48.000
R17  21439807.539 8 114728738.642 8      2958.074          49.000    21439811.367 7  89233482.587 7      2300.721          44.000
R23  20579221.398 6 110084868.637 6     -2861.840          36.000
R24  19279411.227 7 103095734.466 7      -255.277          46.000    19279413.000 6  80185528.277 6      -198.552          41.000
C05  39621289.320 5 206318450.163 5        16.438          35.000    39621291.156 6 159538520.485 6        12.759          37.000
C11  24990230.203 7 130130704.696 7      2591.441          42.000    24990232.750 7 100625325.522 7      2003.918          46.000
C12  21637808.719 7 112673882.290 7       516.715          47.000    21637808.406 8  87126604.882 8       399.523          51.000
C24  22696333.133 8 118185754.877 8     -1836.668          51.000
E02  26748394.836 7 140563712.823 7     -2860.762          46.000    26748395.602 7 107704663.035 7     -2191.967          46.000
E15  24005147.469 8 126147968.314 8      1788.297          51.000    24005151.672 8  96658848.931 8      1370.203          51.000
E30  22332040.344 8 117355656.633 8     -1065.656          51.000    22332041.211 8  89921873.461 8      -816.566          51.000
E36  26869405.953 6 141199672.448 6     -2715.375          37.000
> 2020 05 06 13 31 30.0000000  0 19        .000000000000
G18  20379559.688 8 107095377.515 8       543.352          51.000    20379560.344 8  83450905.123 8       423.391          50.000
G20  24258725.805 5 127480443.709 5      3330.172          34.000
G21  20673084.445 8 108637862.304 8       184.812          51.000    20673083.359 8  84652825.643 8       144.010          51.000
G25  24034335.742 7 126301275.591 7     -3423.922          42.000    24034341.547 7  98416578.005 7     -2667.991          42.000
G29  21847849.789 5 114811258.528 5     -2309.996          31.000    21847850.125 5  89463312.973 5     -1800.000          32.000
G31  22175944.734 8 116535363.504 8     -2437.762          50.000    22175944.094 8  90806793.333 8     -1899.555          50.000
R13  21478830.672 6 114695736.160 6     -3894.559          40.000    21478834.234 6  89207794.556 6     -3029.104          41.000
R14  19249026.148 8 102608120.432 8      -207.457          51.000    19249028.867 8  79806325.999 8      -161.355          49.000
R17  21423301.500 8 114640413.202 8      2941.820          48.000    21423305.484 7  89164785.026 7      2288.082          43.000
R24  19280938.570 7 103103901.500 7      -277.547          45.000    19280940.523 7  80191880.404 7      -215.870          42.000
C05  39621238.695 6 206318186.377 6        12.453          36.000    39621240.641 6 159538316.279 6         9.457          37.000
C11  24975360.516 7 130053270.988 7      2582.227          43.000    24975361.445 7 100565448.895 7      1996.548          45.000
C12  21634905.672 7 112658766.101 7       502.344          46.000    21634905.680 8  87114916.089 8       388.453          51.000
C24  22706998.461 8 118241296.275 8     -1854.797          50.000
C26  25292652.570 4 131705477.357 4     -3456.094          29.000
E02  26764783.070 7 140649837.035 7     -2869.641          45.000    26764786.602 7 107770654.245 7     -2198.816          47.000
E15  23995010.039 8 126094697.986 8      1774.492          51.000    23995015.094 8  96618031.387 8      1359.676          51.000
E30  22338201.734 8 117388036.858 8     -1081.645          51.000    22338203.727 8  89946684.252 8      -828.766          51.000
E36  26884957.953 6 141281396.191 6     -2721.242          36.000
> 2020 05 06 13 32  0.0000000  0 18        .000000000000
G18  20376495.828 8 107079276.197 8       526.480          51.000    20376496.391 8  83438358.657 8       410.245          51.000
G20  24239698.898 5 127380445.839 5      3332.207          32.000
G21  20672059.695 8 108632477.068 8       170.602          51.000    20672058.773 8  84648629.379 8       132.939          51.000
G25  24053877.984 7 126403969.984 7     -3426.391          42.000    24053882.828 6  98496599.536 6     -2669.918          41.000
G31  22189881.484 8 116608603.762 8     -2448.602          50.000    22189882.062 8  90863863.680 8     -1908.001          50.000
R13  21500730.562 6 114812677.530 6     -3905.090          40.000    21500733.352 6  89298748.916 6     -3037.295          39.000
R14  19250250.328 8 102614646.907 8      -231.363          51.000    19250253.359 8  79811402.120 8      -179.949          49.000
R17  21406826.125 8 114552251.762 8      2931.898          49.000    21406830.469 7  89096215.020 7      2280.365          44.000
R24  19282529.398 7 103112409.694 7      -293.426          46.000    19282531.609 6  80198497.903 6      -228.220          41.000
C05  39621151.031 5 206317730.673 5        14.645          35.000    39621153.031 6 159537963.511 6        11.249          37.000
C11  24960483.930 7 129975800.798 7      2578.957          44.000    24960483.523 7 100505544.053 7      1994.337          46.000
C12  21632023.734 7 112643761.743 7       494.363          45.000    21632024.188 8  87103313.772 8       382.309          51.000
C24  22717707.172 8 118297063.119 8     -1866.605          49.000
C26  25312552.414 4 131809105.881 4     -3455.551          29.000
E02  26781160.664 7 140735903.631 7     -2871.938          45.000    26781166.203 8 107836601.307 8     -2200.471          48.000
E15  23984889.445 8 126041516.881 8      1767.324          51.000    23984894.852 8  96577282.209 8      1354.160          51.000
E30  22344392.805 8 117420571.986 8     -1091.031          51.000    22344395.570 8  89971613.740 8      -835.955          51.000
E36  26900482.273 5 141362976.835 5     -2720.887          35.000
> 2020 05 06 13 32 30.0000000  0 20        .000000000000
G18  20373543.766 8 107063762.847 8       507.887          51.000    20373544.336 8  83426270.331 8       395.756          51.000
G20  24220676.703 6 127280484.726 6      3332.008          36.000
G21  20671131.359 8 108627598.850 8       154.844          50.000    20671130.578 8  84644828.176 8       120.657          50.000
G25  24073451.109 7 126506824.836 7     -3430.508          43.000    24073454.516 7  98576746.087 7     -2673.126          44.000
G29  21874258.094 6 114949990.272 6     -2318.707          39.000    21874254.453 4  89571423.132 4     -1806.776          24.000
G31  22203895.500 8 116682248.830 8     -2460.961          51.000    22203897.172 8  90921249.450 8     -1917.632          51.000
R13  21522705.648 6 114930018.914 6     -3917.477          40.000    21522706.555 6  89390014.395 6     -3046.926          37.000
R14  19251624.406 8 102621971.121 8      -256.773          51.000    19251627.375 8  79817098.733 8      -199.713          49.000
R17  21390422.141 8 114464471.624 8      2920.273          48.000    21390427.180 7  89027941.614 7      2271.324          44.000
R23  20627659.711 5 110343977.441 5     -2889.586          33.000
R24  19284224.516 7 103121473.908 7      -310.785          46.000    19284226.695 6  80205547.845 6      -241.722          41.000
C05  39621066.531 6 206317289.975 6        14.992          36.000    39621068.734 6 159537623.872 6        11.596          37.000
C11  24945640.984 7 129898504.889 7      2574.320          45.000    24945639.656 7 100445774.004 7      1990.607          47.000
C12  21629204.031 7 112629079.030 7       484.852          46.000    21629204.320 8  87091960.161 8       374.873          51.000
C24  22728499.062 8 118353264.469 8     -1880.043          48.000
C26  25332468.609 5 131912819.003 5     -3458.184          33.000
E02  26797567.820 7 140822123.914 7     -2875.926          45.000    26797574.352 8 107902666.132 8     -2203.599          48.000
E15  23974826.695 8 125988637.709 8      1758.309          51.000    23974831.289 8  96536764.406 8      1347.222          51.000
E30  22350653.867 8 117453474.345 8     -1102.145          51.000    22350656.641 8  89996824.615 8      -844.524          51.000
E36  26916018.922 5 141444634.464 5     -2721.973          34.000
> 2020 05 06 13 33  0.0000000  0 20        .000000000000
G18  20370699.258 8 107048815.322 8       488.172          51.000    20370700.148 8  83414622.943 8       380.394          51.000
G20  24201657.820 6 127180541.269 6      3330.441          37.000    24201656.078 4  99101726.682 4      2595.170          29.000
G21  20670295.258 8 108623205.063 8       137.754          51.000    20670294.492 8  84641404.460 8       107.341          50.000
G25  24093050.086 7 126609816.790 7     -3435.988          42.000    24093052.312 7  98656999.458 7     -2677.397          42.000
G29  21887516.414 5 115019652.015 5     -2325.863          30.000    21887514.680 5  89625705.036 5     -1812.361          30.000
G31  22217982.266 8 116756274.397 8     -2474.418          51.000    22217984.047 8  90978931.686 8     -1928.118          51.000
R13  21544750.562 6 115047734.141 6     -3930.633          41.000    21544750.312 6  89481570.615 6     -3057.162          38.000
R14  19253144.086 8 102630071.283 8      -283.566          51.000    19253146.883 8  79823398.861 8      -220.552          49.000
R17  21374085.812 8 114377051.459 8      2907.355          48.000    21374090.422 6  88959948.199 6      2261.280          41.000
R23  20643889.812 5 110430813.406 5     -2898.816          31.000
R24  19286019.039 7 103131069.754 7      -329.434          47.000    19286021.172 6  80213011.287 6      -256.226          41.000
C05  39620981.234 5 206316844.859 5        14.320          35.000    39620983.578 6 159537280.430 6        11.007          37.000
C11  24930827.102 7 129821361.740 7      2568.203          43.000    24930825.352 7 100386122.073 7      1985.973          46.000
C12  21626441.922 7 112614695.620 7       473.848          46.000    21626442.156 8  87080838.002 8       366.433          51.000
C24  22739370.078 8 118409877.130 8     -1894.559          48.000
C26  25352397.070 5 132016592.801 5     -3461.000          35.000
E02  26814000.031 7 140908474.831 7     -2881.129          45.000    26814006.594 8 107968831.048 8     -2207.633          48.000
E15  23964817.562 8 125936038.697 8      1748.043          51.000    23964820.414 8  96496461.308 8      1339.416          51.000
E30  22356980.547 8 117486721.808 8     -1114.570          51.000    22356983.023 8  90022299.898 8      -854.063          51.000
E36  26931564.062 5 141526323.767 5     -2724.234          33.000
> 2020 05 06 13 33 30.0000000  0 19        .000000000000
G18  20367961.445 8 107034428.308 8       471.141          51.000    20367962.414 8  83403412.278 8       367.123          51.000
G20  24182641.914 6 127080612.608 6      3331.590          37.000    24182638.156 5  99023860.350 5      2596.047          31.000
G21  20669550.297 8 108619289.574 8       123.578          51.000    20669549.508 8  84638353.432 8        96.298          50.000
G25  24112673.625 7 126712939.189 7     -3438.527          42.000    24112675.562 7  98737354.498 7     -2679.375          42.000
G29  21900804.055 6 115089501.785 6     -2329.453          37.000    21900805.844 5  89680116.169 5     -1815.155          35.000
G31  22232140.234 8 116830672.790 8     -2485.074          51.000    22232139.844 8  91036904.414 8     -1936.425          51.000
R13  21566863.688 6 115165814.632 6     -3941.098          40.000    21566863.234 6  89573410.922 6     -3065.298          37.000
R14  19254808.055 8 102638942.701 8      -307.551          51.000    19254811.180 8  79830298.835 8      -239.206          49.000
R17  21357815.531 7 114289986.520 7      2897.352          47.000    21357817.562 6  88892231.115 6      2253.499          38.000
R24  19287911.750 7 103141190.194 7      -344.941          47.000    19287913.938 7  80220882.758 7      -268.288          42.000
C05  39620893.938 5 206316391.580 5        16.477          35.000    39620896.359 6 159536929.150 6        12.632          37.000
C11  24916041.617 7 129744366.527 7      2565.168          43.000    24916039.398 7 100326584.545 7      1983.427          47.000
C12  21623736.094 7 112600605.704 7       465.734          46.000    21623736.508 8  87069942.801 8       360.187          51.000
C24  22750319.992 8 118466894.408 8     -1906.285          50.000
C26  25372336.156 6 132120419.908 6     -3460.652          38.000
E02  26830456.312 7 140994949.979 7     -2883.391          46.000    26830462.211 7 108035091.149 7     -2209.483          47.000
E15  23954860.852 8 125883714.824 8      1740.523          51.000    23954862.078 8  96456369.053 8      1333.639          51.000
E30  22363372.062 8 117520308.954 8     -1124.242          51.000    22363374.406 8  90048035.458 8      -861.402          51.000
E36  26947116.938 5 141608053.176 5     -2723.902          35.000    26947115.945 5 108504869.267 5     -2086.829          30.000
> 2020 05 06 13 34  0.0000000  0 19        .000000000000
G18  20365333.805 8 107020621.200 8       449.410          50.000    20365335.219 8  83392653.495 8       350.190          50.000
G20  24163632.766 5 126980721.191 5      3327.652          35.000    24163628.922 4  98946023.127 4      2592.997          28.000
G21  20668899.688 8 108615871.109 8       104.445          50.000    20668899.078 8  84635689.721 8        81.386          50.000
G25  24132325.367 7 126816210.197 7     -3445.938          43.000    24132328.312 7  98817825.337 7     -2685.149          43.000
G31  22246372.367 8 116905460.659 8     -2500.609          51.000    22246369.023 8  91095180.601 8     -1948.530          51.000
R13  21589047.594 6 115284276.810 6     -3956.250          40.000    21589047.227 6  89665548.101 6     -3077.086          37.000
R14  19256620.516 8 102648605.116 8      -336.484          51.000    19256624.047 8  79837814.020 8      -261.713          49.000
R17  21341615.781 8 114203297.951 8      2882.113          48.000    21341617.883 6  88824806.762 6      2241.644          40.000
R23  20676474.297 5 110605205.164 5     -2916.781          30.000
R24  19289906.070 7 103151853.567 7      -365.770          47.000    19289908.211 7  80229176.495 7      -284.490          42.000
C05  39620808.484 5 206315946.514 5        13.984          35.000    39620810.828 6 159536584.973 6        10.358          37.000
C11  24901287.961 6 129667538.943 6      2556.785          41.000    24901285.461 7 100267176.614 7      1977.159          46.000
C12  21621090.492 7 112586828.142 7       452.848          47.000    21621090.805 8  87059289.106 8       350.168          51.000
C24  22761351.750 8 118524334.240 8     -1922.863          51.000
C26  25392288.922 6 132224317.802 6     -3465.574          38.000
E02  26846939.859 7 141081567.848 7     -2890.785          46.000    26846945.375 7 108101460.595 7     -2215.047          47.000
E15  23944960.164 8 125831685.883 8      1728.133          51.000    23944960.945 8  96416502.759 8      1324.148          51.000
E30  22369832.023 8 117554255.141 8     -1138.832          51.000    22369834.312 8  90074046.126 8      -872.594          51.000
E36  26962681.164 6 141689841.978 6     -2728.586          37.000    26962680.398 5 108567537.866 5     -2091.300          31.000
> 2020 05 06 13 34 30.0000000  0 19        .000000000000
G18  20362822.188 8 107007423.548 8       429.805          50.000    20362824.070 8  83382369.608 8       334.913          50.000
G20  24144636.266 6 126880899.452 6      3326.410          36.000
G21  20668349.367 8 108612978.733 8        87.637          50.000    20668348.578 8  84633435.917 8        68.288          51.000
G25  24152010.742 7 126919658.133 7     -3451.234          43.000    24152014.414 7  98898434.077 7     -2689.277          43.000
G29  21927490.516 5 115229742.808 5     -2344.301          35.000    21927486.414 5  89789389.274 5     -1826.728          35.000
G31  22260683.594 8 116980665.041 8     -2513.738          50.000    22260678.961 8  91153781.322 8     -1958.760          50.000
R13  21611307.648 6 115403147.000 6     -3969.207          39.000    21611307.812 6  89758002.578 6     -3087.167          38.000
R14  19258587.289 8 102659089.107 8      -363.047          51.000    19258590.727 8  79845968.235 8      -282.370          49.000
R17  21325492.984 8 114117016.550 8      2869.285          50.000    21325495.883 7  88757699.000 7      2231.666          42.000
R24  19292006.852 7 103163087.939 7      -384.043          47.000    19292009.148 7  80237914.346 7      -298.700          42.000
C05  39620730.398 5 206315539.038 5        12.965          35.000    39620732.766 6 159536271.635 6        10.025          37.000
C11  24886571.766 6 129590908.684 6      2551.145          41.000    24886568.977 7 100207921.262 7      1972.773          45.000
C12  21618510.398 7 112573391.772 7       442.262          47.000    21618510.570 8  87048899.251 8       342.009          51.000
C24  22772470.055 8 118582224.518 8     -1937.102          51.000
C26  25412260.914 6 132328313.850 6     -3468.184          37.000
E02  26863455.766 7 141168357.048 7     -2895.715          46.000    26863461.617 8 108167961.294 8     -2218.827          48.000
E15  23935121.156 8 125779981.751 8      1718.184          51.000    23935122.602 8  96376885.331 8      1316.503          51.000
E30  22376365.922 8 117588589.862 8     -1150.926          51.000    22376367.898 8  90100354.527 8      -881.854          51.000
E36  26978261.742 6 141771714.466 6     -2730.672          37.000    26978261.859 5 108630271.272 5     -2092.040          32.000
> 2020 05 06 13 35  0.0000000  0 19        .000000000000
G18  20360419.953 8 106994800.557 8       412.211          50.000    20360422.039 8  83372533.506 8       321.200          50.000
G20  24125646.453 6 126781115.320 6      3326.824          36.000
G21  20667892.234 8 108610576.679 8        72.789          49.000    20667891.414 8  84631564.197 8        56.719          49.000
G25  24171723.016 7 127023246.950 7     -3454.383          44.000    24171726.867 7  98979152.598 7     -2691.727          44.000
G29  21940885.461 5 115300145.299 5     -2348.660          35.000    21940886.039 6  89844248.410 6     -1830.125          36.000
G31  22275066.383 8 117056248.596 8     -2524.828          48.000    22275062.531 8  91212677.559 8     -1967.402          48.000
R13  21633636.750 6 115522387.694 6     -3980.098          37.000    21633638.570 6  89850745.236 6     -3095.635          41.000
R14  19260701.586 8 102670359.720 8      -387.914          51.000    19260705.227 8  79854734.223 8      -301.711          49.000
R17  21309439.508 8 114031108.139 8      2858.297          50.000    21309442.492 7  88690881.363 7      2223.117          42.000
R24  19294207.984 7 103174856.659 7      -400.191          47.000    19294209.906 7  80247067.773 7      -311.260          42.000
C05  39620653.094 5 206315136.554 5        14.312          35.000    39620655.516 6 159535960.400 6        10.989          37.000
C11  24871886.148 6 129514441.747 6      2547.020          40.000    24871884.086 7 100148792.189 7      1969.614          46.000
C12  21615988.945 7 112560261.576 7       433.391          47.000    21615989.062 8  87038746.186 8       335.146          51.000
C24  22783667.742 8 118640529.394 8     -1949.430          51.000
C26  25432244.641 6 132432371.696 6     -3468.629          38.000
E02  26879997.461 7 141255281.793 7     -2898.914          47.000    26880003.578 8 108234565.892 8     -2221.228          49.000
E15  23925337.367 8 125728568.036 8      1709.809          51.000    23925339.773 8  96337490.408 8      1310.131          51.000
E30  22382967.039 8 117623278.359 8     -1161.289          51.000    22382968.688 8  90126934.003 8      -889.801          51.000
E36  26993851.562 6 141853635.727 6     -2730.574          38.000    26993852.547 5 108693042.108 5     -2092.417          32.000
> 2020 05 06 13 35 30.0000000  0 19        .000000000000
G18  20358125.008 8 106982740.864 8       392.953          50.000    20358127.133 8  83363136.336 8       306.197          50.000
G20  24106662.531 5 126681360.639 5      3325.367          35.000
G21  20667526.016 8 108608653.174 8        56.441          48.000    20667525.414 8  84630065.382 8        43.980          48.000
G25  24191459.836 7 127126964.197 7     -3458.988          43.000    24191462.984 7  99059971.162 7     -2695.319          44.000
G29  21954313.781 6 115370712.914 6     -2354.426          36.000    21954319.086 6  89899236.132 6     -1834.614          36.000
G31  22289518.172 7 117132197.576 7     -2537.410          47.000    22289515.898 7  91271858.572 7     -1977.203          47.000
R13  21656031.016 5 115641983.486 5     -3992.207          34.000    21656036.289 7  89943764.169 7     -3105.050          43.000
R14  19262961.172 8 102682406.297 8      -414.102          51.000    19262964.906 8  79864103.765 8      -322.079          49.000
R17  21293453.508 8 113945562.120 8      2845.836          50.000    21293456.047 7  88624345.577 7      2213.428          42.000
R24  19296505.953 7 103187146.294 7      -417.887          47.000    19296508.344 7  80256626.418 7      -325.023          42.000
C05  39620574.547 5 206314728.076 5        13.645          35.000    39620577.078 6 159535643.743 6        10.919          37.000
C11  24857229.578 6 129438127.457 6      2541.297          39.000    24857228.953 7 100089781.147 7      1965.300          47.000
C12  21613524.195 7 112547426.015 7       423.207          47.000    21613523.969 8  87028820.927 8       327.241          51.000
C24  22794941.969 8 118699236.406 8     -1963.238          51.000
C26  25452237.586 6 132536478.264 6     -3470.758          37.000
E02  26896562.641 8 141342329.870 8     -2903.414          48.000    26896568.742 8 108301265.013 8     -2224.673          50.000
E15  23915606.750 8 125677433.821 8      1700.078          51.000    23915609.992 8  96298309.642 8      1302.657          51.000
E30  22389633.336 8 117658309.329 8     -1173.156          51.000    22389634.945 8  90153775.897 8      -898.879          51.000
E36  27009448.172 6 141935593.414 6     -2732.188          39.000    27009450.180 5 108755860.835 5     -2093.659          33.000
> 2020 05 06 13 36  0.0000000  0 18        .000000000000
G18  20355940.438 8 106971260.582 8       370.098          51.000    20355942.477 8  83354190.654 8       288.388          51.000
G20  24087688.195 5 126581653.957 5      3319.602          33.000
G21  20667253.727 7 108607223.820 7        36.609          47.000    20667253.172 7  84628951.592 7        28.527          47.000
G25  24211224.141 7 127230824.759 7     -3467.379          44.000    24211226.109 7  99140901.366 7     -2701.857          44.000
G31  22304042.523 7 117208526.009 7     -2553.426          47.000    22304041.445 7  91331335.241 7     -1989.682          47.000
R13  21678494.789 6 115761947.035 6     -4007.727          36.000    21678502.633 7  90037069.148 7     -3117.121          46.000
R14  19265369.344 8 102695245.176 8      -444.180          51.000    19265373.469 8  79874089.532 8      -345.473          49.000
R17  21277538.539 8 113860395.969 8      2829.430          50.000    21277540.398 7  88558105.265 7      2200.668          42.000
R24  19298904.508 7 103199971.909 7      -439.484          46.000    19298906.844 6  80266601.884 6      -341.821          41.000
C05  39620497.633 5 206314327.724 5        10.855          35.000    39620500.266 6 159535334.176 6         7.687          37.000
C11  24842605.875 6 129361982.236 6      2532.297          38.000    24842606.594 7 100030900.870 7      1958.127          47.000
C12  21611118.844 7 112534900.588 7       409.469          47.000    21611118.484 8  87019135.477 8       316.464          51.000
C24  22806295.477 8 118758360.172 8     -1980.539          50.000
C26  25472242.320 5 132640647.771 5     -3476.551          33.000
E02  26913154.195 8 141429516.479 8     -2911.641          48.000    26913160.195 8 108368070.276 8     -2230.979          50.000
E15  23905932.422 8 125626595.613 8      1686.723          51.000    23905936.336 8  96259355.680 8      1292.343          51.000
E30  22396367.984 8 117693698.862 8     -1188.680          51.000    22396369.625 8  90180892.529 8      -910.848          51.000
E36  27025054.375 6 142017602.569 6     -2737.590          38.000    27025057.430 5 108818706.020 5     -2097.568          31.000
> 2020 05 06 13 36 30.0000000  0 18        .000000000000
G18  20353868.148 8 106960369.775 8       354.793          51.000    20353870.180 8  83345704.317 8       276.462          51.000
G21  20667077.055 7 108606297.846 7        24.195          46.000    20667076.617 7  84628230.031 7        18.853          46.000
G25  24231017.203 7 127334837.573 7     -3467.969          44.000    24231018.859 7  99221950.170 7     -2702.316          44.000
G29  21981277.227 5 115512380.629 5     -2366.062          34.000    21981279.992 5  90009650.604 5     -1843.682          33.000
G31  22318640.992 8 117285241.156 8     -2561.961          50.000    22318640.586 8  91391113.246 8     -1996.336          49.000
R13  21701030.898 6 115882286.928 6     -4015.707          38.000    21701039.297 7  90130666.803 7     -3123.328          46.000
R14  19267928.242 8 102708887.057 8      -466.398          51.000    19267932.578 8  79884699.877 8      -362.754          49.000
R17  21261695.828 8 113775621.203 8      2820.902          49.000    21261697.539 7  88492169.338 7      2194.035          42.000
R24  19301404.570 7 103213342.117 7      -453.023          45.000    19301406.711 7  80277000.933 7      -352.352          42.000
C05  39620424.547 5 206313946.631 5        14.188          35.000    39620427.148 6 159535039.496 6        10.587          37.000
C11  24828017.047 6 129286016.632 6      2530.711          38.000    24828018.875 8  99972159.474 8      1957.003          49.000
C12  21608774.805 7 112522694.941 7       403.277          47.000    21608774.547 8  87009697.282 8       311.767          51.000
C24  22817730.508 8 118817909.395 8     -1990.383          50.000
C26  25492260.352 5 132744888.352 5     -3473.617          32.000
E02  26929773.609 7 141516850.845 7     -2912.020          47.000    26929779.609 8 108434988.749 8     -2231.261          50.000
E15  23896316.492 8 125576063.892 8      1680.887          51.000    23896320.633 8  96220636.564 8      1287.988          51.000
E30  22403172.578 8 117729457.031 8     -1196.430          51.000    22403174.273 8  90208291.627 8      -916.742          51.000
E36  27040671.867 6 142099672.179 6     -2734.801          38.000
> 2020 05 06 13 37  0.0000000  0 18        .000000000000
G18  20351897.094 8 106950010.941 8       335.238          51.000    20351899.086 8  83337632.522 8       261.228          51.000
G21  20666985.234 7 108605817.341 7         7.430          45.000    20666985.172 7  84627855.606 7         5.789          45.000
G25  24250828.141 7 127438943.901 7     -3472.902          45.000    24250830.414 7  99303071.898 7     -2706.158          45.000
G29  21994799.930 5 115583456.636 5     -2372.477          34.000    21994802.125 5  90065028.974 5     -1848.680          35.000
G31  22333302.055 8 117362283.194 8     -2574.723          51.000    22333302.188 8  91451145.957 8     -2006.280          51.000
R13  21723626.383 6 116002940.104 6     -4028.195          38.000    21723634.250 7  90224508.120 7     -3133.041          45.000
R14  19270627.320 8 102723274.074 8      -493.199          51.000    19270631.422 8  79895889.769 8      -383.599          49.000
R17  21245915.094 8 113691180.450 8      2807.781          48.000    21245917.484 6  88426493.199 6      2183.833          41.000
R24  19303995.586 7 103227196.839 7      -471.160          46.000    19303997.898 7  80287776.832 7      -366.458          42.000
C05  39620344.102 5 206313528.534 5        13.270          34.000    39620346.820 6 159534717.750 6        10.481          37.000
C11  24813452.461 6 129210174.175 6      2524.977          39.000    24813455.234 8  99913513.324 8      1952.366          48.000
C12  21606481.328 7 112510751.805 7       392.484          47.000    21606481.078 8  87000462.080 8       303.551          51.000
C24  22829236.484 8 118877825.728 8     -2004.547          50.000
C26  25512280.914 5 132849141.221 5     -3476.469          33.000
E02  26946409.789 7 141604274.567 7     -2916.707          46.000    26946415.820 8 108501975.678 8     -2234.915          50.000
E15  23886748.172 8 125525781.550 8      1670.688          51.000    23886752.367 8  96182108.559 8      1280.179          51.000
E30  22410036.211 8 117765526.383 8     -1208.660          51.000    22410037.953 8  90235929.163 8      -926.143          51.000
E36  27056289.266 6 142181743.679 6     -2737.059          36.000
> 2020 05 06 13 37 30.0000000  0 18        .000000000000
G18  20350018.844 8 106940139.418 8       316.777          51.000    20350020.289 8  83329940.458 8       246.843          51.000
G21  20666969.820 7 108605736.961 7        -7.887          46.000    20666969.797 7  84627792.976 7        -6.145          45.000
G25  24270648.102 7 127543098.026 7     -3476.746          44.000    24270651.578 7  99384230.893 7     -2709.153          44.000
G29  22008341.719 6 115654629.461 6     -2377.246          36.000    22008343.211 6  90120483.235 6     -1852.400          36.000
G31  22348016.680 8 117439605.209 8     -2586.102          51.000    22348017.047 8  91511396.829 8     -2015.144          51.000
R13  21746271.367 6 116123858.409 6     -4038.855          38.000    21746278.359 7  90318555.652 7     -3141.332          43.000
R14  19273457.828 8 102738361.495 8      -518.703          51.000    19273461.758 8  79907624.382 8      -403.439          49.000
R17  21230189.367 8 113607029.013 8      2796.117          49.000    21230190.352 6  88361042.103 6      2174.761          40.000
R24  19306668.000 7 103241488.861 7      -487.820          45.000    19306670.961 7  80298892.851 7      -379.416          42.000
C05  39620247.977 5 206313027.856 5        14.000          35.000    39620250.742 6 159534330.956 6        10.753          37.000
C11  24798903.016 6 129134411.133 6      2520.215          39.000    24798906.336 7  99854928.550 7      1948.766          47.000
C12  21604229.594 8 112499026.479 8       383.230          48.000    21604229.461 8  86991395.322 8       296.320          51.000
C24  22840804.875 8 118938063.705 8     -2017.348          51.000
C26  25532294.391 5 132953360.399 5     -3477.875          31.000
E02  26963054.328 7 141691742.151 7     -2920.281          45.000    26963060.125 8 108568996.214 8     -2237.654          48.000
E15  23877219.008 8 125475704.395 8      1661.801          51.000    23877223.141 8  96143737.783 8      1273.307          51.000
E30  22416950.492 8 117801862.297 8     -1219.699          51.000    22416952.305 8  90263770.942 8      -934.572          51.000
E36  27071897.953 5 142263771.477 5     -2737.711          34.000
> 2020 05 06 13 38  0.0000000  0 15        .000000000000
G18  20348281.578 8 106931009.394 8       299.543          51.000    20348282.562 8  83322826.186 8       233.413          51.000
G21  20667079.016 8 108606310.291 8       -22.371          48.000    20667078.625 8  84628239.740 8       -17.432          48.000
G25  24290525.438 7 127647553.064 7     -3479.066          45.000    24290529.594 7  99465624.353 7     -2710.961          44.000
G31  22362832.539 8 117517458.980 8     -2596.332          51.000    22362832.820 8  91572062.082 8     -2023.119          51.000
R13  21769013.797 6 116245297.683 6     -4048.719          37.000    21769019.352 6  90413008.360 6     -3149.007          39.000
R14  19276468.422 8 102754407.270 8      -543.129          51.000    19276471.812 8  79920104.410 8      -422.434          49.000
R17  21214566.578 8 113523427.142 8      2785.398          49.000    21214567.562 7  88296018.520 7      2166.421          42.000
R24  19309470.562 7 103256475.615 7      -503.426          46.000    19309473.750 7  80310549.193 7      -391.553          42.000
C05  39620184.492 5 206312697.144 5        15.793          35.000    39620187.484 6 159534075.993 6        12.270          37.000
C11  24784417.562 6 129058980.169 6      2516.230          39.000    24784420.578 7  99796600.523 7      1945.926          46.000
C12  21602067.898 8 112487770.671 8       374.926          48.000    21602067.867 8  86982691.615 8       290.004          51.000
C24  22852483.625 8 118998873.915 8     -2029.062          51.000
E02  26979755.586 7 141779506.960 7     -2922.910          44.000    26979760.641 7 108636244.517 7     -2239.486          46.000
E15  23867777.281 8 125426087.140 8      1653.910          51.000    23867781.422 8  96105719.409 8      1267.264          51.000
E30  22423963.891 8 117838719.099 8     -1229.559          51.000    22423966.086 8  90292011.837 8      -942.105          51.000
> 2020 05 06 13 38 30.0000000  0 17        .000000000000
G18  20346642.094 8 106922393.774 8       279.699          51.000    20346643.062 8  83316112.750 8       217.950          50.000
G20  23992944.367 5 126083795.912 5      3316.301          34.000    23992943.320 5  98247101.745 5      2584.130          31.000
G21  20667269.320 8 108607309.720 8       -39.316          49.000    20667268.828 8  84629018.548 8       -30.636          49.000
G25  24310416.734 7 127752080.859 7     -3484.152          45.000    24310421.078 7  99547074.513 7     -2714.924          45.000
G29  22035571.227 5 115797702.574 5     -2388.145          34.000    22035570.914 6  90231974.772 6     -1860.895          36.000
G31  22377705.500 8 117595614.841 8     -2609.031          51.000    22377705.656 8  91632962.729 8     -2033.011          51.000
R13  21791809.625 5 116367023.263 5     -4060.992          35.000    21791812.320 5  90507683.669 5     -3158.556          35.000
R14  19279615.391 8 102771181.393 8      -570.141          50.000    19279618.734 8  79933150.938 8      -443.443          49.000
R17  21199003.109 8 113440144.760 8      2771.914          49.000    21199005.070 6  88231243.395 6      2155.933          41.000
R24  19312359.531 7 103271924.350 7      -521.594          46.000    19312362.773 7  80322564.882 7      -405.684          42.000
C05                                                                  39620113.680 6 159533779.168 6        11.762          37.000
C11  24769952.383 6 128983656.699 6      2509.902          38.000    24769955.203 7  99738355.666 7      1941.033          45.000
C12  21599953.266 8 112476759.014 8       364.070          48.000    21599952.930 8  86974176.704 8       281.661          51.000
C24  22864229.148 8 119060030.126 8     -2043.188          51.000
E02  26996469.969 7 141867341.131 7     -2927.582          44.000    26996473.578 7 108703545.972 7     -2243.350          43.000
E15  23858379.828 8 125376703.160 8      1643.453          51.000    23858383.844 8  96067879.777 8      1259.266          51.000
E30  22431033.203 8 117875869.762 8     -1242.020          51.000    22431035.953 8  90320477.902 8      -951.713          51.000
> 2020 05 06 13 39  0.0000000  0 17        .000000000000
G18  20345098.930 8 106914284.541 8       262.871          51.000    20345099.500 8  83309793.907 8       204.835          49.000
G20  23974017.961 6 125984336.850 6      3316.305          37.000
G21  20667539.172 8 108608726.814 8       -53.180          50.000    20667538.562 8  84630122.818 8       -41.436          49.000
G25  24330320.008 7 127856672.197 7     -3486.215          44.000    24330324.141 7  99628574.170 7     -2716.534          44.000
G31  22392633.500 8 117674062.621 8     -2618.684          51.000    22392633.555 8  91694090.851 8     -2040.533          51.000
R13  21814655.984 5 116489024.395 5     -4069.852          34.000    21814657.922 6  90602573.357 6     -3165.440          36.000
R14  19282897.297 8 102788676.026 8      -594.031          50.000    19282901.086 8  79946757.873 8      -462.024          49.000
R17  21183497.891 8 113357174.585 8      2761.508          49.000    21183500.383 6  88166711.085 6      2147.839          41.000
R23  20842399.453 5 111492678.833 5     -2993.871          33.000
R24  19315333.344 7 103287825.309 7      -536.594          46.000    19315336.070 6  80334932.296 6      -417.351          41.000
C05  39620025.359 5 206311867.578 5        17.105          35.000    39620027.867 6 159533434.465 6        13.136          37.000
C11  24755506.055 6 128908433.442 6      2507.098          38.000    24755508.906 7  99680188.270 7      1938.333          46.000
C12  21597883.930 8 112465983.164 8       356.211          48.000    21597883.422 8  86965844.147 8       275.529          51.000
C24  22876039.211 8 119121523.097 8     -2054.316          51.000
E02  27013196.195 7 141955235.849 7     -2929.871          45.000    27013197.672 6 108770893.800 6     -2244.975          40.000
E15  23849025.062 8 125327544.943 8      1635.871          51.000    23849029.125 8  96030213.117 8      1253.451          51.000
E30  22438156.664 8 117913306.314 8     -1251.723          50.000    22438160.039 8  90349163.029 8      -959.019          51.000
> 2020 05 06 13 39 30.0000000  0 17        .000000000000
G18  20343679.953 8 106906828.556 8       233.707          50.000    20343679.430 8  83303984.073 8       182.109          49.000
G20  23955119.430 6 125885021.391 6      3304.172          38.000
G21  20667916.266 8 108610707.390 8       -79.441          50.000    20667915.406 8  84631666.158 8       -61.902          50.000
G25  24350263.164 7 127961473.067 7     -3500.812          43.000    24350267.039 7  99710237.098 7     -2727.909          43.000
G31  22407644.023 8 117752946.593 8     -2640.625          50.000    22407644.016 8  91755558.865 8     -2057.630          50.000
R13  21837581.289 5 116611446.712 5     -4091.582          35.000    21837585.070 6  90697790.703 6     -3182.345          39.000
R14  19286342.641 8 102807040.463 8      -630.602          51.000    19286346.453 8  79961041.322 8      -490.468          49.000
R17  21168079.430 8 113274667.560 8      2738.426          48.000    21168082.375 6  88102538.999 6      2129.887          41.000
R23  20859244.906 5 111582762.543 5     -3011.883          34.000
R24  19318419.359 7 103304326.629 7      -564.129          46.000    19318421.586 6  80347766.665 6      -438.767          41.000
C05  39619956.016 5 206311507.270 5         6.723          35.000    39619958.328 6 159533154.678 6         5.159          37.000
C11  24741107.055 6 128833456.598 6      2491.789          37.000    24741110.320 7  99622211.468 7      1926.450          47.000
C12  21595887.656 8 112455588.520 8       336.273          48.000    21595887.414 8  86957806.367 8       260.064          51.000
C24  22887941.117 8 119183497.104 8     -2077.672          51.000
E02  27029961.930 7 142043337.178 7     -2943.992          44.000    27029961.141 6 108838399.917 6     -2255.870          37.000
E15  23839740.914 8 125278759.829 8      1616.086          51.000    23839745.414 8  95992832.333 8      1238.303          51.000
E30  22445362.273 8 117951175.737 8     -1273.406          50.000    22445366.586 8  90378179.851 8      -975.745          51.000
> 2020 05 06 13 40  0.0000000  0 18        .000000000000
G18  20342323.211 8 106899700.216 8       211.512          49.000    20342322.289 8  83298429.542 8       164.817          49.000
G20  23936187.008 6 125785526.996 6      3298.664          39.000
G21  20668338.492 8 108612925.382 8       -98.547          51.000    20668337.641 8  84633394.491 8       -76.787          50.000
G25  24370184.273 7 128066156.727 7     -3507.949          43.000    24370188.164 7  99791808.677 7     -2733.470          43.000
G29  22076613.156 4 116013384.320 4     -2416.371          26.000    22076588.398 4  90400003.163 4     -1882.893          25.000
G31  22422675.227 8 117831939.062 8     -2655.438          49.000    22422675.172 8  91817111.432 8     -2069.172          49.000
R13  21860523.633 6 116733956.867 6     -4105.938          36.000    21860528.852 6  90793076.330 6     -3193.507          39.000
R14  19289889.711 8 102825944.775 8      -659.992          51.000    19289893.164 8  79975744.672 8      -513.327          50.000
R17  21152685.500 7 113192293.161 7      2722.738          47.000    21152689.836 7  88038470.018 7      2117.682          43.000
R23  20876079.625 5 111672825.204 5     -3022.766          30.000
R24  19321555.227 7 103321095.270 7      -584.305          45.000    19321557.281 6  80360808.951 6      -454.456          41.000
C05  39619840.773 5 206310906.497 5         4.012          35.000    39619843.086 6 159532689.489 6         3.008          37.000
C11  24726693.758 6 128758404.246 6      2482.836          39.000    24726697.281 7  99564176.269 7      1919.820          47.000
C12  21593902.672 7 112445252.135 7       323.297          47.000    21593902.711 8  86949813.620 8       249.976          51.000
C24  22899872.523 8 119245628.278 8     -2094.004          51.000
E02  27046704.820 7 142131318.788 7     -2951.168          43.000    27046700.625 5 108905814.238 5     -2261.317          35.000
E15  23830466.023 8 125230022.783 8      1603.250          51.000    23830470.844 8  95955488.357 8      1228.461          51.000
E30  22452588.812 8 117989152.508 8     -1288.141          51.000    22452593.750 8  90407278.924 8      -987.020          51.000
> 2020 05 06 13 40 30.0000000  0 17        .000000000000
G18  20341145.211 8 106893511.788 8       203.902          48.000    20341144.484 8  83293607.408 8       158.885          48.000
G20  23917337.781 6 125686469.157 6      3308.004          38.000    23917334.281 4  97937509.806 4      2577.659          24.000
G21  20668922.328 8 108615992.653 8      -103.109          51.000    20668921.594 8  84635784.600 8       -80.345          50.000
G25  24390199.367 7 128171334.468 7     -3500.773          44.000    24390203.617 7  99873765.265 7     -2727.878          44.000
G31  22437843.188 8 117911650.001 8     -2655.699          48.000    22437843.367 8  91879223.846 8     -2069.376          48.000
R13  21883598.234 5 116857173.423 5     -4105.699          35.000    21883604.305 6  90888911.411 6     -3193.322          37.000
R14  19293654.266 8 102846010.239 8      -674.801          51.000    19293657.539 8  79991351.114 8      -524.848          49.000
R17  21137433.609 7 113110676.058 7      2721.523          47.000    21137438.805 7  87974990.043 7      2116.740          43.000
R23  20893023.609 5 111763488.000 5     -3018.562          33.000
R24  19324857.070 7 103338752.842 7      -589.961          46.000    19324859.406 6  80374542.649 6      -458.859          41.000
C05  39619796.320 5 206310675.875 5        14.559          35.000    39619798.844 6 159532510.358 6        11.505          37.000
C11  24712382.672 6 128683883.668 6      2488.512          37.000    24712386.188 8  99506552.245 8      1924.124          48.000
C12  21592045.305 7 112435580.537 7       324.543          47.000    21592045.516 8  86942334.917 8       250.900          51.000
C24  22911950.102 8 119308522.074 8     -2095.992          51.000
E02  27063540.953 7 142219792.134 7     -2944.047          42.000    27063533.398 5 108973605.389 5     -2255.939          34.000
E15  23821317.344 8 125181946.565 8      1604.832          51.000    23821322.156 8  95918650.747 8      1229.662          51.000
E30  22459952.812 8 118027849.052 8     -1288.535          51.000    22459957.992 8  90436929.515 8      -987.361          51.000
> 2020 05 06 13 41  0.0000000  0 17        .000000000000
G18  20340052.320 7 106887770.708 7       179.820          47.000    20340051.594 8  83289133.819 8       140.117          48.000
G20  23898478.531 6 125587358.179 6      3300.695          36.000    23898476.203 4  97860280.620 4      2571.967          27.000
G21  20669573.930 8 108619416.290 8      -124.184          51.000    20669572.992 8  84638452.388 8       -96.766          50.000
G25  24410214.352 7 128276512.738 7     -3509.883          43.000    24410219.023 7  99955722.256 7     -2734.977          43.000
G29  22104158.992 5 116158139.089 5     -2419.992          35.000    22104161.625 5  90512846.326 5     -1885.708          34.000
G31  22453053.742 7 117991584.432 7     -2672.164          47.000    22453054.094 8  91941510.422 8     -2082.206          48.000
R13  21906710.281 5 116980593.152 5     -4121.586          32.000    21906716.781 5  90984904.483 5     -3205.681          31.000
R14  19297542.297 8 102866737.325 8      -706.152          51.000    19297545.500 8  80007472.185 8      -549.227          49.000
R17  21122230.375 7 113029315.829 7      2703.414          47.000    21122234.117 7  87911709.857 7      2102.655          42.000
R24  19328231.500 7 103356796.602 7      -611.996          46.000    19328233.641 6  80388576.672 6      -475.997          40.000
C05  39619729.039 6 206310325.142 6         9.730          36.000    39619731.633 6 159532239.137 6         7.325          36.000
C11  24698080.211 6 128609407.476 6      2477.523          37.000    24698083.883 7  99448962.527 7      1915.923          47.000
C12  21590221.680 7 112426085.346 7       309.578          47.000    21590222.234 8  86934992.643 8       239.286          51.000
C24  22924080.047 8 119371689.208 8     -2114.098          50.000
E02  27080376.508 7 142308264.082 7     -2953.129          42.000    27080368.531 5 109041395.441 5     -2262.793          35.000
E15  23812201.109 8 125134039.191 8      1590.039          51.000    23812205.281 8  95881942.499 8      1218.318          51.000
E30  22467360.148 8 118066772.964 8     -1305.320          51.000    22467365.367 8  90466754.303 8     -1000.186          51.000
> 2020 05 06 13 41 30.0000000  0 16        .000000000000
G18  20339060.484 8 106882559.001 8       164.945          48.000    20339059.773 8  83285072.745 8       128.529          48.000
G20  23879625.344 5 125488279.784 5      3303.617          32.000
G21  20670308.805 8 108623277.610 8      -135.801          51.000    20670307.609 8  84641461.220 8      -105.819          50.000
G25  24430244.922 7 128381772.589 7     -3510.066          44.000    24430249.633 7 100037742.831 7     -2735.117          44.000
G31  22468322.375 8 118071821.824 8     -2679.516          48.000    22468322.359 8  92004033.069 8     -2087.934          48.000
R13  21929875.117 5 117104296.219 5     -4127.559          30.000    21929875.078 4  91081127.799 4     -3210.326          27.000
R14  19301570.500 8 102888209.696 8      -728.078          51.000    19301573.609 8  80024172.901 8      -566.283          49.000
R17  21107090.336 7 112948297.220 7      2694.863          46.000    21107092.227 6  87848695.422 6      2096.008          40.000
R24  19331693.312 7 103375308.599 7      -624.691          45.000    19331695.344 6  80402974.896 6      -485.871          40.000
C05  39619654.516 5 206309937.453 5        13.715          35.000    39619657.086 6 159531938.944 6        10.481          36.000
C11  24683801.852 6 128535057.616 6      2476.156          37.000    24683805.547 7  99391470.548 7      1914.781          46.000
C12  21588447.680 7 112416847.813 7       303.695          47.000    21588448.492 8  86927849.602 8       234.833          51.000
C24  22936277.773 8 119435209.775 8     -2123.059          49.000
E02  27097227.141 6 142396815.887 6     -2952.973          41.000    27097221.227 6 109109246.682 6     -2262.506          37.000
E15  23803132.562 8 125086383.232 8      1584.441          51.000    23803136.219 8  95845426.914 8      1214.026          51.000
E30  22474826.328 8 118106006.438 8     -1312.875          51.000    22474831.297 8  90496816.280 8     -1005.954          51.000
> 2020 05 06 13 42  0.0000000  0 16        .000000000000
G18  20338171.805 8 106877887.475 8       146.582          50.000    20338170.883 8  83281432.593 8       114.220          50.000
G21  20671128.859 8 108627586.816 8      -151.168          50.000    20671127.727 8  84644819.045 8      -117.793          50.000
G25  24450292.586 6 128487123.890 6     -3512.883          41.000    24450297.391 6 100119834.674 6     -2737.314          41.000
G29  22131805.383 6 116303421.518 6     -2425.918          38.000    22131803.141 6  90626037.597 6     -1890.326          37.000
G31  22483651.008 8 118152371.341 8     -2690.254          48.000    22483650.102 8  92066798.881 8     -2096.302          49.000
R13  21953096.227 5 117228290.769 5     -4138.734          33.000    21953102.656 5  91177567.945 5     -3219.016          35.000
R14  19305740.328 8 102910438.468 8      -753.680          51.000    19305743.039 7  80041461.904 7      -586.195          47.000
R17  21092015.359 7 112867632.456 7      2682.902          44.000    21092017.008 6  87785956.139 6      2086.699          41.000
R24  19335244.695 7 103394298.439 7      -640.969          44.000    19335247.062 6  80417744.782 6      -498.531          40.000
C05  39619574.875 5 206309522.949 5        14.348          35.000    39619577.406 6 159531618.428 6        10.959          37.000
C11  24669550.188 6 128460845.690 6      2471.602          37.000    24669553.391 7  99334085.252 7      1911.003          44.000
C12  21586725.297 7 112407878.417 7       294.582          47.000    21586725.906 8  86920913.895 8       227.729          51.000
C24  22948544.930 7 119499093.322 7     -2135.598          47.000
E02  27114094.992 6 142485457.745 6     -2956.289          41.000    27114092.211 6 109177166.942 6     -2265.197          39.000
E15  23794114.070 8 125038990.166 8      1575.340          51.000    23794117.500 8  95809112.766 8      1207.100          51.000
E30  22482353.711 8 118145560.433 8     -1323.824          51.000    22482357.945 8  90527123.859 8     -1014.314          51.000
> 2020 05 06 13 42 30.0000000  0 18        .000000000000
G18  20337393.594 8 106873796.014 8       126.863          51.000    20337392.672 8  83278244.457 8        98.858          51.000
G20  23841944.719 5 125290268.750 5      3296.480          32.000
G21  20672041.609 8 108632383.296 8      -167.832          50.000    20672040.531 8  84648556.573 8      -130.778          50.000
G25  24470364.734 6 128592605.636 6     -3517.828          37.000    24470369.484 6 100202028.138 6     -2741.168          38.000
G29  22145676.266 6 116376305.545 6     -2431.883          36.000    22145675.289 6  90682830.339 6     -1894.971          36.000
G31  22499046.406 8 118233270.123 8     -2702.289          49.000    22499044.492 8  92129836.821 8     -2105.683          49.000
R13  21976379.469 5 117352614.797 5     -4149.273          35.000    21976386.227 6  91274264.379 6     -3227.216          39.000
R14  19310059.688 8 102933464.250 8      -780.668          51.000    19310061.969 7  80059370.821 7      -607.189          47.000
R17  21077015.648 7 112787363.496 7      2669.234          46.000    21077017.625 6  87723524.756 6      2076.074          41.000
R24  19338892.531 7 103413805.185 7      -658.793          43.000    19338894.891 6  80432916.714 6      -512.395          40.000
C05  39619497.984 5 206309120.734 5        13.402          35.000    39619500.328 6 159531309.511 6        10.367          37.000
C11  24655333.273 6 128386811.862 6      2464.832          37.000    24655335.391 7  99276837.643 7      1906.037          43.000
C12  21585061.844 7 112399216.566 7       283.793          47.000    21585062.227 8  86914215.990 8       219.486          51.000
C24  22960889.625 7 119563378.118 7     -2149.328          47.000
C26  25733067.562 4 133998834.697 4     -3490.332          29.000
E02  27130987.023 6 142574228.819 6     -2961.023          39.000    27130987.484 6 109245186.220 6     -2268.833          41.000
E15  23785153.445 8 124991900.414 8      1564.785          51.000    23785156.531 8  95773031.028 8      1198.979          51.000
E30  22489949.836 8 118185475.009 8     -1336.348          51.000    22489952.883 8  90557707.751 8     -1023.949          51.000
> 2020 05 06 13 43  0.0000000  0 17        .000000000000
G18  20336725.641 8 106870283.721 8       108.871          51.000    20336724.711 8  83275507.621 8        84.835          51.000
G20  23823135.328 6 125191418.253 6      3295.070          36.000    23823139.219 5  97551763.660 5      2567.587          34.000
G21  20673046.852 8 108637665.622 8      -182.637          50.000    20673045.562 8  84652672.664 8      -142.314          50.000
G29  22159578.375 6 116449360.237 6     -2436.488          38.000    22159580.547 6  90739756.087 6     -1898.562          37.000
G31  22514507.367 8 118314514.999 8     -2712.527          48.000    22514505.188 8  92193144.484 8     -2113.658          48.000
R13  21999723.773 6 117477263.808 6     -4159.020          37.000    21999729.578 6  91371213.562 6     -3234.796          41.000
R14  19314528.102 8 102957286.207 8      -805.820          51.000    19314530.938 7  80077898.947 7      -626.752          47.000
R17  21062089.648 7 112707490.507 7      2657.359          44.000    21062091.797 6  87661401.381 6      2066.838          40.000
R24  19342636.656 7 103433826.707 7      -674.457          43.000    19342639.430 6  80448489.016 6      -524.578          40.000
C05  39619423.508 5 206308734.166 5        13.891          35.000    39619425.898 6 159531009.817 6        10.820          37.000
C11  24641149.859 5 128312956.005 5      2460.383          35.000    24641151.695 6  99219727.639 6      1902.427          41.000
C12  21583457.148 7 112390861.122 7       274.887          47.000    21583457.609 8  86907755.042 8       212.554          51.000
C24  22973312.203 8 119628062.170 8     -2161.262          48.000
C26  25753184.828 4 134103563.754 4     -3490.516          29.000
E02  27147902.867 5 142663127.587 5     -2964.102          35.000    27147906.328 6 109313303.324 6     -2271.072          41.000
E15  23776250.523 8 124945113.673 8      1556.023          51.000    23776253.508 8  95737181.465 8      1192.257          51.000
E30  22497614.211 8 118225749.400 8     -1346.953          51.000    22497616.406 8  90588567.340 8     -1032.063          51.000
> 2020 05 06 13 43 30.0000000  0 16        .000000000000
G18  20336165.516 8 106867339.184 8        88.172          51.000    20336164.625 8  83273213.197 8        68.708          51.000
G20  23804341.367 6 125092651.812 6      3290.035          37.000    23804342.031 5  97474802.851 5      2563.664          32.000
G21  20674142.266 8 108643421.777 8      -200.301          50.000    20674141.008 8  84657157.986 8      -156.079          50.000
G29  22173510.242 6 116522574.084 6     -2443.582          36.000    22173515.000 6  90796805.792 6     -1904.093          36.000
G31  22530030.773 7 118396092.820 7     -2725.219          47.000    22530029.594 7  92256711.585 7     -2123.550          47.000
R13  22023126.062 6 117602223.253 6     -4170.977          37.000    22023130.828 7  91468404.203 7     -3244.093          42.000
R14  19319143.961 8 102981893.141 8      -833.840          51.000    19319147.031 7  80097037.653 7      -648.542          47.000
R17  21047234.148 7 112628003.138 7      2642.617          42.000    21047237.336 6  87599577.929 6      2055.369          39.000
R24  19346474.570 7 103454349.703 7      -692.934          43.000    19346476.898 6  80464451.300 6      -538.948          39.000
C05  39619349.406 5 206308348.928 5        12.195          35.000    39619351.875 6 159530711.907 6         9.578          37.000
C11  24626997.797 6 128239267.719 6      2452.727          36.000    24627000.289 6  99162747.183 6      1897.009          39.000
C12  21581909.297 7 112382800.796 7       263.352          47.000    21581909.609 8  86901522.311 8       203.513          51.000
C24  22985809.125 8 119693132.993 8     -2175.891          50.000
E02                                                                  27164846.672 6 109381509.015 6     -2275.265          41.000
E15  23767402.953 8 124898619.188 8      1544.469          51.000    23767406.359 8  95701555.830 8      1183.400          51.000
E30  22505344.625 8 118266372.475 8     -1360.363          51.000    22505346.508 8  90619694.089 8     -1042.398          51.000
> 2020 05 06 13 44  0.0000000  0 17        .000000000000
G18  20335713.477 8 106864962.702 8        70.891          51.000    20335712.844 8  83271361.427 8        55.242          51.000
G20  23785563.711 6 124993972.866 6      3288.730          38.000
G21  20675327.883 8 108649651.647 8      -214.449          51.000    20675326.805 8  84662012.450 8      -167.103          50.000
G25  24530728.227 5 128909805.348 5     -3528.656          33.000    24530727.305 5 100449213.360 5     -2749.605          33.000
G29  22187472.250 6 116595946.896 6     -2447.352          37.000    22187477.289 6  90853979.242 6     -1907.033          38.000
G31  22545617.000 8 118478001.056 8     -2734.645          49.000    22545617.031 8  92320536.161 8     -2130.892          49.000
R13  22046585.289 6 117727490.069 6     -4179.434          37.000    22046589.797 6  91565833.922 6     -3250.671          41.000
R14  19323907.438 8 103007285.199 8      -858.441          50.000    19323910.469 7  80116787.027 7      -667.677          47.000
R17  21032451.758 7 112548902.809 7      2631.348          45.000    21032456.234 6  87538055.461 6      2046.604          41.000
R24  19350405.812 7 103475372.906 7      -708.191          43.000    19350408.781 6  80480802.698 6      -550.812          40.000
C05  39619276.039 5 206307966.334 5        13.477          35.000    39619278.500 6 159530416.425 6        10.669          36.000
C11  24612879.367 6 128165747.920 6      2448.781          37.000    24612881.336 6  99105897.104 6      1893.616          37.000
C12  21580418.328 7 112375035.692 7       254.973          47.000    21580418.086 8  86895517.834 8       197.185          50.000
C24  22998379.867 8 119758589.769 8     -2187.168          51.000
E02                                                                  27181808.180 6 109449803.130 6     -2277.196          39.000
E15  23758611.141 8 124852417.878 8      1536.227          51.000    23758615.102 8  95666154.828 8      1177.124          51.000
E30  22513141.250 8 118307344.672 8     -1370.445          51.000    22513143.172 8  90651088.357 8     -1050.102          51.000
> 2020 05 06 13 44 30.0000000  0 17        .000000000000
G18  20335365.547 8 106863133.768 8        51.133          51.000    20335365.156 8  83269936.309 8        39.844          51.000
G20  23766799.305 6 124895364.427 6      3284.758          39.000
G21  20676599.555 8 108656334.113 8      -230.961          51.000    20676598.469 8  84667219.588 8      -179.970          51.000
G25  24550890.398 6 129015741.887 6     -3533.188          37.000    24550885.984 6 100531761.145 6     -2753.136          37.000
G29  22201460.859 6 116669457.437 6     -2453.492          36.000    22201461.984 5  90911260.205 5     -1911.812          35.000
G31  22561262.008 8 118560217.333 8     -2746.359          49.000    22561262.898 8  92384600.756 8     -2140.023          49.000
R13  22070097.328 6 117853041.171 6     -4190.766          36.000    22070101.742 6  91663484.738 6     -3259.484          40.000
R14  19328814.336 8 103033441.822 8      -885.363          49.000    19328817.602 8  80137131.047 8      -688.616          48.000
R17  21017739.211 7 112470169.895 7      2617.555          47.000    21017743.633 6  87476818.766 6      2035.876          41.000
R24  19354426.781 7 103496874.428 7      -725.297          44.000    19354429.648 6  80497526.090 6      -564.123          37.000
C05  39619199.406 5 206307567.050 5        13.203          35.000    39619201.992 6 159530108.057 6         9.901          37.000
C11  24598789.672 6 128092377.119 6      2442.520          39.000    24598792.359 6  99049162.279 6      1888.406          39.000
C12  21578979.914 7 112367545.424 7       244.457          46.000    21578979.625 8  86889725.879 8       188.969          51.000
C24  23011020.414 8 119824410.886 8     -2200.832          51.000
E02                                                                  27198785.797 6 109518169.442 6     -2280.530          37.000
E15  23749871.469 8 124806489.848 8      1525.617          51.000    23749875.391 8  95630963.237 8      1169.012          51.000
E30  22521000.266 8 118348645.697 8     -1382.883          51.000    22521002.578 8  90682734.579 8     -1059.617          51.000
> 2020 05 06 13 45  0.0000000  0 19        .000000000000
G18  20335128.977 8 106861890.233 8        32.027          51.000    20335128.781 8  83268967.354 8        24.956          51.000
G20  23748056.070 6 124796867.722 6      3281.879          39.000
G21  20677964.445 8 108663506.456 8      -246.812          51.000    20677963.211 8  84672808.435 8      -192.321          51.000
G25  24571072.984 6 129121809.690 6     -3537.305          41.000    24571069.969 6 100614411.261 6     -2756.347          41.000
G26  20495426.438 6 107704176.140 6      1109.207          38.000    20495424.305 6  83925332.497 6       864.314          38.000
G29  22215482.812 5 116743143.729 5     -2458.586          34.000    22215480.047 5  90968678.025 5     -1915.784          33.000
G31  22576972.461 8 118642777.338 8     -2757.234          49.000    22576973.438 8  92448933.177 8     -2148.497          50.000
R13  22093669.625 5 117978912.412 5     -4200.453          33.000    22093673.688 6  91761384.543 6     -3267.019          38.000
R14  19333871.977 8 103060401.575 8      -911.570          50.000    19333875.359 8  80158099.748 8      -708.999          48.000
R17  21003102.977 7 112391844.443 7      2604.480          47.000    21003106.023 6  87415898.992 6      2025.707          39.000
R23  21047039.742 5 112587469.378 5     -3083.691          31.000
R24  19358543.688 7 103518891.214 7      -742.047          43.000    19358545.656 6  80514650.208 6      -577.151          38.000
C05  39619126.891 5 206307189.648 5        12.645          34.000    39619129.484 6 159529816.194 6         9.838          37.000
C11  24584736.344 6 128019193.750 6      2436.836          39.000    24584739.656 6  98992572.232 6      1884.319          39.000
C12  21577601.320 7 112360367.467 7       234.465          46.000    21577601.422 8  86884175.440 8       181.282          51.000
C24  23023737.734 8 119890632.822 8     -2213.578          51.000
E02  27215790.609 5 143019944.647 5     -2980.410          33.000    27215787.484 6 109586636.581 6     -2283.622          38.000
E15  23741191.125 8 124760873.646 8      1515.773          51.000    23741194.375 8  95596010.594 8      1161.407          51.000
E30  22528929.273 8 118390313.669 8     -1394.656          51.000    22528931.828 8  90714661.960 8     -1068.624          51.000
> 2020 05 06 13 45 30.0000000  0 18        .000000000000
G18  20334993.055 8 106861175.531 8        13.199          51.000    20334993.031 8  83268410.468 8        10.285          51.000
G20  23729323.883 6 124698429.551 6      3278.410          39.000
G21  20679411.766 8 108671111.963 8      -262.570          51.000    20679410.719 8  84678734.832 8      -204.600          51.000
G25  24591269.344 7 129227951.384 7     -3541.188          44.000    24591266.977 7 100697118.947 7     -2759.370          44.000
G26  20489130.008 6 107671083.863 6      1093.910          41.000    20489125.945 6  83899546.305 6       852.398          41.000
G29  22229527.211 6 116816948.593 6     -2463.934          37.000    22229523.438 5  91026188.258 5     -1919.948          35.000
G31  22592737.250 8 118725622.112 8     -2768.059          50.000    22592737.727 8  92513487.515 8     -2156.929          50.000
R14  19339069.570 8 103088106.860 8      -937.809          49.000    19339073.164 8  80179648.327 8      -729.407          49.000
R17  20988532.000 7 112313869.931 7      2591.281          45.000    20988533.461 6  87355252.178 6      2015.441          39.000
R23  21064375.156 5 112680113.125 5     -3089.375          34.000
R24  19362746.219 7 103541364.246 7      -758.430          42.000    19362749.234 6  80532129.247 6      -589.890          39.000
C05  39619047.859 5 206306778.102 5        12.914          35.000    39619050.367 6 159529497.960 6         9.617          37.000
C11  24570708.352 6 127946142.581 6      2430.734          39.000    24570711.609 7  98936084.430 7      1879.870          42.000
C12  21576272.156 7 112353445.721 7       224.609          46.000    21576272.352 8  86878823.118 8       173.646          51.000
C24  23036520.609 8 119957198.389 8     -2226.418          51.000
E02  27232805.594 5 143109363.438 5     -2984.426          34.000    27232805.008 6 109655160.614 6     -2286.615          40.000
E15  23732559.328 8 124715513.381 8      1505.844          51.000    23732562.031 8  95561254.068 8      1153.840          51.000
E30  22536917.695 8 118432292.255 8     -1406.324          51.000    22536920.211 8  90746827.354 8     -1077.588          51.000
> 2020 05 06 13 46  0.0000000  0 19        .000000000000
G18  20334972.219 8 106861065.555 8        -5.289          51.000    20334972.258 8  83268324.787 8        -4.121          51.000
G20  23710617.469 6 124600129.103 6      3275.414          40.000
G21  20680955.859 8 108679226.207 8      -277.742          51.000    20680955.008 8  84685057.649 8      -216.422          51.000
G25  24611493.898 7 129334242.043 7     -3544.383          45.000    24611492.094 7 100779942.713 7     -2761.860          45.000
G26  20482925.383 6 107638477.563 6      1079.664          40.000    20482920.586 6  83874138.865 6       841.300          40.000
G29  22243608.797 6 116890947.742 6     -2468.445          39.000    22243605.469 6  91083849.983 6     -1923.464          37.000
G31  22608570.359 8 118808825.520 8     -2778.285          49.000    22608570.445 8  92578321.301 8     -2164.898          49.000
R13  22140968.758 4 118231522.308 4     -4220.125          29.000    22140981.047 4  91957904.608 4     -3282.326          28.000
R14  19344421.695 8 103116635.165 8      -963.535          51.000    19344425.305 8  80201837.021 8      -749.416          50.000
R17  20974041.484 7 112236325.041 7      2578.688          42.000    20974042.125 6  87294939.500 6      2005.649          39.000
R23  21081720.672 5 112772897.192 5     -3094.512          31.000
R24  19367048.477 7 103564369.498 7      -774.527          42.000    19367051.172 6  80550022.250 6      -602.410          38.000
C05  39618976.859 5 206306408.711 5        12.652          35.000    39618979.297 6 159529211.921 6         9.781          37.000
C11  24556720.594 6 127873299.628 6      2425.766          40.000    24556723.023 7  98879757.680 7      1875.765          43.000
C12  21575006.633 7 112346855.379 7       215.277          46.000    21575006.727 8  86873727.040 8       166.409          51.000
C24  23049383.531 8 120024181.617 8     -2238.555          50.000
E02                                                                  27249852.312 7 109723799.356 7     -2289.120          42.000
E15  23723990.766 8 124670485.643 8      1496.504          51.000    23723993.453 8  95526752.329 8      1146.642          51.000
E30  22544979.734 8 118474657.581 8     -1417.562          51.000    22544982.047 8  90779289.074 8     -1086.148          51.000
> 2020 05 06 13 46 30.0000000  0 18        .000000000000
G18  20335058.367 8 106861518.717 8       -24.586          51.000    20335058.523 8  83268677.922 8       -19.158          51.000
G20  23691930.516 7 124501928.574 7      3271.500          42.000    23691929.500 5  97014494.712 5      2549.224          31.000
G21  20682588.625 8 108687806.210 8      -293.793          51.000    20682587.602 8  84691743.370 8      -228.930          51.000
G25  24631738.461 7 129440639.315 7     -3548.480          43.000    24631737.719 7 100862849.548 7     -2765.053          43.000
G26  20476804.664 6 107606317.904 6      1064.348          38.000    20476802.375 6  83849079.384 6       829.362          38.000
G31  22624463.586 8 118892343.832 8     -2789.234          51.000    22624463.391 8  92643400.462 8     -2173.429          51.000
R13  22164708.234 5 118358278.556 5     -4230.004          31.000
R14  19349920.758 8 103145944.220 8      -990.109          51.000    19349923.961 8  80224632.941 8      -770.085          50.000
R17  20959622.750 6 112159168.458 6      2565.324          39.000    20959623.672 6  87234928.867 6      1995.252          39.000
R23  21099070.977 4 112865787.337 4     -3103.500          28.000
R24  19371441.891 7 103587863.274 7      -791.355          44.000    19371444.781 6  80568295.179 6      -615.499          39.000
C05  39618906.047 5 206306039.364 5        11.977          35.000    39618908.570 6 159528926.694 6         9.279          37.000
C11  24542765.359 6 127800624.671 6      2419.832          40.000    24542766.461 7  98823560.828 7      1870.917          44.000
C12  21573796.547 7 112340555.166 7       205.117          45.000    21573796.719 8  86868855.319 8       158.558          50.000
C24  23062318.688 8 120091540.232 8     -2251.617          50.000
E02  27266919.203 6 143288623.205 6     -2991.500          36.000    27266920.500 7 109792520.526 7     -2292.197          43.000
E15  23715477.766 8 124625749.544 8      1486.250          51.000    23715480.875 8  95492474.037 8      1138.794          51.000
E30  22553107.609 8 118517368.321 8     -1429.605          51.000    22553109.469 8  90812015.459 8     -1095.349          51.000
> 2020 05 06 13 47  0.0000000  0 17        .000000000000
G18  20335253.258 8 106862543.554 8       -43.457          51.000    20335253.758 8  83269476.502 8       -33.860          51.000
G20  23673265.086 7 124403839.709 7      3267.855          43.000    23673263.711 5  96938061.808 5      2546.381          33.000
G21  20684311.531 8 108696860.500 8      -309.441          51.000    20684310.641 8  84698798.681 8      -241.123          51.000
G25  24652005.148 7 129547150.916 7     -3552.027          42.000    24652006.172 6 100945845.483 6     -2767.817          41.000
G26  20470769.820 5 107574615.478 5      1049.172          34.000    20470770.609 5  83824376.177 5       817.533          33.000
G31  22640418.148 8 118976183.579 8     -2799.738          51.000    22640417.398 8  92708730.086 8     -2181.614          51.000
R13  22188502.242 5 118485324.847 5     -4239.750          33.000    22188498.398 4  92155277.216 4     -3297.583          26.000
R14  19355567.445 8 103176042.381 8     -1016.184          51.000    19355570.359 8  80248042.597 8      -790.365          49.000
R17  20945276.766 6 112082410.555 6      2551.969          41.000    20945278.695 6  87175228.215 6      1984.859          37.000
R24  19375928.047 7 103611852.909 7      -807.605          44.000    19375930.508 6  80586953.773 6      -628.138          37.000
C05  39618837.195 5 206305680.516 5        12.195          35.000    39618839.828 6 159528649.202 6         9.210          37.000
C11  24528843.438 6 127728126.921 6      2414.227          38.000    24528843.469 7  98767500.997 7      1866.465          44.000
C12  21572644.062 7 112334553.610 7       195.387          46.000    21572644.055 8  86864214.524 8       151.034          50.000
C24  23075327.938 8 120159281.541 8     -2264.172          51.000
E02  27284009.352 6 143378425.918 6     -2995.270          41.000    27284010.586 7 109861330.272 7     -2294.960          43.000
E15  23707022.117 8 124581314.334 8      1476.410          51.000    23707025.234 8  95458426.275 8      1131.278          51.000
E30  22561303.000 8 118560433.254 8     -1441.152          51.000    22561304.227 8  90845013.246 8     -1104.263          51.000
> 2020 05 06 13 47 30.0000000  0 18        .000000000000
G18  20335547.664 8 106864092.204 8       -60.887          51.000    20335548.461 8  83270683.262 8       -47.441          51.000
G20  23654612.773 7 124305818.258 7      3265.703          42.000    23654611.195 6  96861681.509 6      2544.704          37.000
G21  20686115.547 8 108706340.922 8      -323.570          50.000    20686114.961 8  84706186.037 8      -252.130          50.000
G25  24672284.797 6 129653728.193 6     -3554.031          41.000    24672286.672 6 101028892.586 6     -2769.378          41.000
G26  20464812.680 5 107543324.539 5      1036.023          33.000    20464816.461 5  83799993.543 5       807.285          33.000
G31  22656424.258 8 119060294.553 8     -2808.672          50.000    22656422.789 8  92774271.061 8     -2188.575          50.000
R13  22212341.438 5 118612614.492 5     -4246.754          31.000    22212339.891 5  92254276.750 5     -3303.034          32.000
R14  19361352.719 8 103206881.204 8     -1040.820          51.000    19361355.758 8  80272028.308 8      -809.530          49.000
R17  20930999.203 7 112006003.553 7      2540.477          43.000    20931000.344 6  87115800.630 6      1975.929          38.000
R23  21133964.188 5 113052392.692 5     -3114.008          33.000
R24  19380497.797 7 103636288.280 7      -822.383          45.000    19380499.602 6  80605959.056 6      -639.631          38.000
C05  39618761.234 5 206305284.985 5        13.250          35.000    39618764.008 6 159528343.319 6        10.321          37.000
C11  24514945.633 6 127655759.994 6      2409.145          36.000    24514945.375 7  98711542.284 7      1863.160          43.000
C12  21571539.812 7 112328803.287 7       186.945          46.000    21571539.664 8  86859768.014 8       144.588          49.000
C24  23088401.555 8 120227357.085 8     -2275.156          51.000
E02  27301110.898 6 143468295.911 6     -2997.293          41.000    27301113.047 7 109930191.569 7     -2296.546          43.000
E15  23698614.742 8 124537132.847 8      1467.969          51.000    23698617.344 8  95424572.923 8      1124.816          51.000
E30  22569556.641 8 118603804.840 8     -1451.289          51.000    22569557.312 8  90878245.998 8     -1112.021          51.000
> 2020 05 06 13 48  0.0000000  0 17        .000000000000
G18  20335957.055 8 106866245.203 8       -80.766          50.000    20335957.906 8  83272360.912 8       -62.934          50.000
G20  23635989.406 7 124207948.429 7      3260.863          43.000    23635987.508 6  96785419.341 6      2540.932          37.000
G21  20688015.891 8 108716327.409 8      -340.234          50.000    20688015.164 8  84713967.725 8      -265.118          50.000
G25  24692592.844 7 129760451.020 7     -3558.570          42.000    24692594.992 6 101112053.098 6     -2772.912          41.000
G26  20458951.359 6 107512527.711 6      1018.879          39.000    20458955.758 6  83775996.049 6       793.935          39.000
G31  22672496.609 8 119144755.402 8     -2820.055          49.000    22672494.672 8  92840084.688 8     -2197.445          49.000
R14  19367291.977 8 103238542.696 8     -1067.988          51.000    19367294.938 8  80296653.886 8      -830.661          48.000
R17  20916802.266 7 111930030.597 7      2526.199          43.000    20916804.852 6  87056710.612 6      1964.822          40.000
R23  21151445.891 5 113145941.995 5     -3121.223          35.000
R24  19385165.766 7 103661250.223 7      -839.766          45.000    19385167.922 6  80625373.898 6      -653.151          39.000
C05                                                                  39618696.430 6 159528072.211 6         9.611          36.000
C11  24501087.797 6 127583604.489 6      2402.695          36.000    24501087.703 6  98655747.108 6      1857.835          41.000
C12  21570498.773 7 112323384.060 7       176.242          45.000    21570498.812 8  86855577.547 8       136.188          49.000
C24  23101554.227 8 120295845.566 8     -2288.730          51.000
E02  27318240.180 7 143558313.229 7     -3002.102          42.000    27318243.164 7 109999165.750 7     -2300.123          43.000
E15  23690271.141 8 124493286.404 8      1456.984          51.000    23690273.094 8  95390976.298 8      1116.409          51.000
E30  22577883.812 8 118647563.890 8     -1464.051          51.000    22577884.328 8  90911775.636 8     -1121.778          51.000
> 2020 05 06 13 48 30.0000000  0 17        .000000000000
G18  20336469.766 8 106868941.229 8       -99.492          50.000    20336470.938 8  83274461.722 8       -77.526          50.000
G20  23617383.656 6 124110172.467 6      3256.727          40.000    23617381.617 6  96709230.315 6      2537.712          39.000
G21  20690000.664 8 108726758.011 8      -355.766          50.000    20689999.906 8  84722095.474 8      -277.220          50.000
G25  24712917.586 7 129867257.417 7     -3562.270          43.000    24712920.266 7 101195278.714 7     -2775.797          43.000
G26  20453173.484 6 107482165.913 6      1004.180          38.000    20453176.914 6  83752337.519 6       782.478          38.000
G31  22688623.023 8 119229502.599 8     -2830.273          49.000    22688621.297 8  92906121.447 8     -2205.408          49.000
R14  19373374.094 8 103270964.284 8     -1093.941          51.000    19373377.023 7  80321870.655 7      -850.846          47.000
R17  20902673.570 6 111854430.906 6      2513.176          41.000    20902679.078 6  86997910.921 6      1954.692          40.000
R23  21168965.734 5 113239654.847 5     -3127.113          34.000
R24  19389920.258 7 103686674.966 7      -855.895          46.000    19389922.984 6  80645148.709 6      -665.696          39.000
C05  39618622.977 5 206304564.952 5        11.441          35.000    39618625.758 6 159527787.503 6         9.276          37.000
C11  24487259.594 5 127511600.730 5      2396.891          35.000    24487258.898 6  98600069.263 6      1853.597          41.000
C12  21569509.859 7 112318235.288 7       166.355          45.000    21569509.578 8  86851596.164 8       128.739          48.000
C24  23114774.359 8 120364685.181 8     -2301.137          51.000
E02  27335385.734 6 143648416.149 6     -3005.473          41.000    27335389.422 7 110068205.522 7     -2302.889          43.000
E15  23681979.742 8 124449714.454 8      1447.258          51.000    23681981.570 8  95357590.017 8      1108.932          51.000
E30  22586272.977 8 118691649.452 8     -1475.562          51.000    22586273.703 8  90945555.449 8     -1130.629          51.000
> 2020 05 06 13 49  0.0000000  0 16        .000000000000
G18  20337096.445 8 106872235.846 8      -120.520          50.000    20337097.844 8  83277028.970 8       -93.911          50.000
G20  23598806.789 6 124012549.308 6      3250.812          38.000    23598804.641 6  96633160.348 6      2533.101          38.000
G21  20692080.477 8 108737687.897 8      -373.582          50.000    20692080.102 8  84730612.281 8      -291.103          50.000
G25  24733269.086 6 129974202.100 6     -3567.914          41.000    24733272.789 6 101278612.125 6     -2780.196          41.000
G26  20447489.711 6 107452296.879 6       985.797          36.000    20447492.648 5  83729062.957 5       768.153          35.000
G31  22704814.078 8 119314589.532 8     -2842.578          49.000    22704813.367 8  92972422.905 8     -2214.999          49.000
R14  19379609.211 8 103304202.438 8     -1122.359          51.000    19379611.648 7  80347722.516 7      -872.946          46.000
R17  20888623.938 6 111779262.401 6      2497.484          37.000    20888631.641 6  86939446.557 6      1942.488          37.000
R24  19394772.047 7 103712617.778 7      -874.352          45.000    19394773.773 6  80665326.412 6      -680.051          39.000
C05  39618559.844 5 206304237.179 5         9.711          35.000    39618562.758 6 159527533.313 6         7.159          37.000
C11  24473471.453 5 127439804.732 5      2388.934          35.000    24473470.711 6  98544552.130 6      1847.260          41.000
C12  21568583.523 7 112313412.054 7       154.590          46.000    21568583.086 8  86847866.533 8       119.521          49.000
C24  23128072.242 8 120433929.887 8     -2315.684          51.000
E02  27352558.281 6 143738659.765 6     -3011.305          41.000    27352562.461 7 110137353.052 7     -2307.253          44.000
E15  23673751.062 8 124406473.297 8      1435.027          51.000    23673753.266 8  95324457.196 8      1099.617          51.000
E30  22594734.742 8 118736117.344 8     -1489.418          51.000    22594735.703 8  90979628.214 8     -1141.200          51.000
> 2020 05 06 13 49 30.0000000  0 17        .000000000000
G18  20337815.492 8 106876014.848 8      -134.691          51.000    20337816.672 8  83279973.648 8      -104.954          51.000
G20  23580237.766 6 123914968.703 6      3251.480          38.000    23580235.141 6  96557123.489 6      2533.621          37.000
G21  20694233.445 8 108749002.699 8      -384.324          50.000    20694233.305 8  84739429.020 8      -299.473          50.000
G25  24753625.125 7 130081170.276 7     -3566.766          43.000    24753629.656 7 101361963.839 7     -2779.301          43.000
G26  20441878.680 6 107422808.552 6       975.770          38.000    20441882.031 6  83706084.972 6       760.340          38.000
G31  22721048.016 8 119399899.857 8     -2847.992          50.000    22721048.578 8  93038898.425 8     -2219.218          50.000
R14  19385976.055 8 103338141.275 8     -1143.617          51.000    19385977.867 7  80374119.348 7      -889.483          45.000
R17  20874634.836 6 111704410.120 6      2489.477          36.000    20874642.648 6  86881228.055 6      1936.253          38.000
R23  21204104.781 5 113427636.818 5     -3136.762          31.000
R24  19399698.242 7 103738960.977 7      -885.492          45.000    19399700.227 6  80685815.604 6      -688.716          40.000
C05  39618482.602 5 206303834.369 5        13.430          34.000    39618485.648 6 159527222.597 6        10.789          36.000
C11  24459701.805 5 127368104.255 5      2387.398          33.000    24459701.766 6  98489108.797 6      1846.393          41.000
C12  21567698.227 7 112308801.325 7       149.484          46.000    21567697.812 8  86844301.240 8       115.597          49.000
C24  23141426.016 8 120503465.493 8     -2323.426          51.000
E02  27369736.148 7 143828929.404 7     -3010.215          42.000    27369740.461 7 110206520.566 7     -2306.388          42.000
E15  23665563.695 8 124363449.498 8      1429.797          51.000    23665566.203 8  95291490.922 8      1095.562          51.000
E30  22603247.352 8 118780853.703 8     -1496.438          51.000    22603248.766 8  91013906.697 8     -1146.558          51.000
> 2020 05 06 13 50  0.0000000  0 18        .000000000000
G18  20338656.461 8 106880434.399 8      -155.684          51.000    20338657.609 8  83283417.453 8      -121.312          51.000
G20  23561707.039 6 123817589.935 6      3244.949          40.000    23561704.219 6  96481243.949 6      2528.532          39.000
G21  20696489.234 8 108760857.887 8      -401.988          49.000    20696488.891 8  84748666.827 8      -313.238          49.000
G25  24774015.258 7 130188317.412 7     -3572.395          43.000    24774020.016 7 101445455.005 7     -2783.690          43.000
G26  20436370.336 6 107393859.206 6       958.172          40.000    20436373.773 6  83683527.050 6       746.627          40.000
G29  22357293.805 4 117488371.584 4     -2510.523          28.000
G31  22737354.023 8 119485587.873 8     -2860.262          51.000    22737355.688 8  93105668.252 8     -2228.775          51.000
R13  22332329.898 5 119253385.217 5     -4293.562          34.000    22332336.094 4  92752666.023 4     -3339.441          28.000
R14  19392503.938 8 103372939.068 8     -1171.914          51.000    19392505.586 7  80401184.244 7      -911.492          44.000
R17  20860738.484 6 111630034.246 6      2473.723          37.000    20860743.930 6  86823380.050 6      1924.003          40.000
R24  19404729.070 7 103765862.329 7      -903.742          44.000    19404731.352 6  80706738.878 6      -702.911          38.000
C05  39618421.266 5 206303514.930 5        12.000          34.000    39618424.242 6 159526976.622 6         8.560          37.000
C11  24445981.062 6 127296655.026 6      2379.805          36.000    24445981.688 6  98433859.738 6      1840.210          41.000
C12  21566883.633 7 112304557.900 7       137.594          46.000    21566883.062 8  86841019.960 8       106.342          49.000
C24  23154865.398 8 120573445.702 8     -2337.824          51.000
E02  27386948.984 7 143919380.868 7     -3015.906          42.000    27386953.297 6 110275827.414 6     -2310.677          41.000
E15  23657447.633 8 124320800.064 8      1417.621          51.000    23657450.414 8  95258811.482 8      1086.190          51.000
E30  22611840.641 8 118826015.023 8     -1510.199          51.000    22611842.750 8  91048510.816 8     -1157.202          51.000
> 2020 05 06 13 50 30.0000000  0 17        .000000000000
G18  20339593.516 8 106885358.837 8      -173.078          50.000    20339594.578 8  83287254.695 8      -134.863          50.000
G20  23543189.578 6 123720281.325 6      3241.570          40.000    23543186.852 6  96405419.124 6      2525.902          40.000
G21  20698821.945 8 108773117.171 8      -416.031          49.000    20698821.633 8  84758219.526 8      -324.180          49.000
G25  24794413.344 7 130295507.193 7     -3574.219          44.000    24794418.125 7 101528979.374 7     -2785.112          44.000
G26  20430939.094 6 107365315.398 6       944.035          40.000    20430942.633 6  83661285.146 6       735.612          40.000
G31  22753705.836 8 119571515.868 8     -2868.852          51.000    22753708.125 8  93172625.093 8     -2235.472          51.000
R13  22356475.328 6 119382309.834 6     -4301.215          36.000
R14  19399167.305 8 103408458.201 8     -1196.543          51.000    19399168.789 7  80428810.214 7      -930.645          45.000
R17  20846907.008 7 111555997.963 7      2461.637          42.000    20846909.312 6  86765796.284 6      1914.606          39.000
R24  19409837.805 7 103793182.618 7      -918.164          46.000    19409839.875 6  80727987.991 6      -714.128          39.000
C05  39618350.070 5 206303144.793 5        12.176          34.000    39618352.867 6 159526689.957 6         9.768          36.000
C11  24432283.000 5 127225323.683 5      2375.066          35.000    24432284.430 6  98378701.840 6      1836.751          41.000
C12  21566113.375 7 112300547.512 7       129.379          45.000    21566112.766 8  86837918.867 8        99.971          48.000
C24  23168364.141 8 120643735.049 8     -2348.652          51.000
E02  27404170.406 7 144009878.034 7     -3017.887          42.000    27404175.188 6 110345169.361 6     -2312.341          40.000
E15  23649377.188 8 124278390.088 8      1409.066          51.000    23649380.125 8  95226315.532 8      1079.686          51.000
E30  22620488.836 8 118871465.979 8     -1520.348          51.000    22620491.883 8  91083336.861 8     -1164.999          51.000
> 2020 05 06 13 51  0.0000000  0 19        .000000000000
G18  20340628.664 8 106890798.676 8      -193.039          51.000    20340629.531 8  83291493.543 8      -150.420          51.000
G20  23524686.711 6 123623057.041 6      3236.254          38.000    23524685.523 6  96329659.962 6      2521.756          38.000
G21  20701233.484 8 108785790.867 8      -432.477          49.000    20701233.250 8  84768095.145 8      -336.995          49.000
G25  24814821.336 7 130402749.462 7     -3578.668          43.000    24814825.727 7 101612544.643 7     -2788.579          43.000
G26  20425587.320 7 107337189.858 7       927.199          42.000    20425590.695 7  83639369.134 7       722.496          42.000
G29  22385991.734 5 117639179.657 5     -2518.633          34.000
G31  22770105.023 8 119657692.365 8     -2879.809          50.000    22770107.492 8  93239775.574 8     -2244.007          51.000
R13  22380659.523 5 119511449.418 5     -4311.371          35.000
R14  19405968.156 8 103444708.768 8     -1223.715          50.000    19405969.953 7  80457005.085 7      -951.778          46.000
R17  20833139.625 7 111482313.213 7      2447.098          43.000    20833139.055 6  86708485.984 6      1903.301          37.000
R23  21257050.938 5 113710851.092 5     -3156.473          34.000
R24  19415026.938 7 103820931.258 7      -935.168          44.000    19415029.602 6  80749570.271 6      -727.350          40.000
C05  39618271.102 5 206302733.981 5        11.324          35.000    39618273.914 6 159526372.298 6         8.515          36.000
C11  24418608.227 5 127154121.595 5      2367.711          33.000    24418611.422 7  98323643.881 7      1831.302          42.000
C12  21565390.141 7 112296780.795 7       118.406          46.000    21565389.141 8  86835006.197 8        91.586          48.000
C24  23181923.938 8 120714342.870 8     -2362.039          51.000
E02  27421402.047 6 144100431.119 6     -3022.492          39.000    27421407.695 6 110414554.132 6     -2315.966          39.000
E15  23641354.523 8 124236230.889 8      1398.004          51.000    23641357.469 8  95194011.749 8      1071.132          51.000
E30  22629194.602 8 118917217.439 8     -1533.230          51.000    22629198.422 8  91118393.149 8     -1174.810          51.000
> 2020 05 06 13 51 30.0000000  0 18        .000000000000
G18  20341784.273 8 106896871.398 8      -210.930          50.000    20341785.008 8  83296225.542 8      -164.361          50.000
G20  23506221.352 6 123526038.199 6      3232.641          38.000    23506223.695 6  96254060.872 6      2518.941          38.000
G21  20703746.188 8 108798996.153 8      -446.980          49.000    20703745.789 8  84778384.984 8      -348.296          49.000
G25  24835261.086 7 130510161.107 7     -3581.090          42.000    24835264.625 7 101696241.868 7     -2790.466          42.000
G26  20420337.664 6 107309602.328 6       912.977          39.000    20420341.148 6  83617872.352 6       711.410          39.000
G31  22786573.586 8 119744232.810 8     -2888.715          51.000    22786575.812 8  93307209.653 8     -2250.947          51.000
R13  22404906.148 5 119640920.595 5     -4318.543          35.000    22404911.375 4  93054095.070 4     -3358.870          29.000
R14  19412928.312 8 103481810.164 8     -1248.805          49.000    19412930.602 7  80485861.714 7      -971.293          46.000
R17  20819457.766 6 111409101.163 6      2434.754          40.000    20819456.219 6  86651543.397 6      1893.701          36.000
R23  21274770.094 5 113805629.426 5     -3161.141          34.000
R24  19420318.227 7 103849226.501 7      -950.094          45.000    19420320.555 6  80771577.686 6      -738.962          38.000
C05  39618206.992 5 206302399.333 5        11.375          34.000    39618209.750 6 159526113.271 6         8.944          36.000
C11  24404979.984 5 127083166.336 5      2363.016          34.000    24404985.688 6  98268776.733 6      1827.400          41.000
C12  21564736.164 7 112293374.279 7       109.629          46.000    21564734.953 8  86832372.083 8        84.706          49.000
C24  23195566.789 8 120785384.641 8     -2373.215          51.000
E02  27438666.898 5 144191157.287 5     -3025.336          35.000    27438673.289 6 110484071.452 6     -2317.911          40.000
E15  23633402.102 8 124194440.837 8      1388.922          51.000    23633404.742 8  95161990.823 8      1064.257          51.000
E30  22637980.523 8 118963387.231 8     -1543.883          51.000    22637984.531 8  91153770.005 8     -1183.014          51.000
> 2020 05 06 13 52  0.0000000  0 18        .000000000000
G18  20343046.852 8 106903505.822 8      -230.641          50.000    20343047.531 8  83301395.245 8      -179.717          50.000
G20  23487784.219 6 123429157.361 6      3226.789          41.000    23487787.797 6  96178569.354 6      2514.384          40.000
G21  20706346.422 8 108812661.465 8      -463.148          48.000    20706345.938 8  84789033.287 8      -360.895          48.000
G25  24855718.891 6 130617670.278 6     -3585.395          40.000    24855721.758 6 101780015.098 6     -2793.820          40.000
G26  20415176.766 6 107282483.846 6       895.914          40.000    20415180.852 6  83596741.023 6       698.115          40.000
G29  22414805.734 6 117790619.085 6     -2529.008          39.000    22414808.453 6  91784887.659 6     -1970.655          36.000
G31  22803097.547 8 119831063.840 8     -2899.293          50.000    22803099.016 8  93374870.164 8     -2259.189          50.000
R13  22429200.797 5 119770648.712 5     -4328.977          33.000    22429203.758 5  93154991.618 5     -3366.985          32.000
R14  19420034.219 8 103519690.064 8     -1275.633          49.000    19420036.867 7  80515323.865 7      -992.159          46.000
R17  20805849.523 6 111336291.078 6      2420.059          38.000    20805849.148 5  86594913.308 5      1882.268          35.000
R24  19425698.297 7 103877994.781 7      -966.902          44.000    19425699.648 6  80793953.005 6      -752.032          39.000
C05  39618144.250 5 206302072.470 5        10.938          34.000    39618147.031 6 159525860.913 6         8.452          36.000
C11  24391387.141 6 127012388.341 6      2355.922          37.000    24391393.812 7  98214046.721 7      1821.791          42.000
C12  21564137.539 7 112290257.595 7        98.918          45.000    21564136.625 8  86829962.057 8        76.444          49.000
C24  23209278.586 8 120856788.807 8     -2386.199          49.000
E02  27455951.969 5 144281984.879 5     -3028.965          35.000    27455958.289 6 110553666.549 6     -2321.230          41.000
E15  23625506.391 8 124152949.592 8      1377.906          51.000    23625509.102 8  95130198.849 8      1055.777          51.000
E30  22646832.633 8 119009904.636 8     -1556.551          51.000    22646836.625 8  91189413.183 8     -1192.694          51.000
> 2020 05 06 13 52 30.0000000  0 18        .000000000000
G18  20344413.742 8 106910688.128 8      -246.805          50.000    20344414.172 8  83306991.851 8      -192.315          50.000
G20  23469372.797 7 123332404.488 7      3224.773          45.000    23469375.883 6  96103177.571 6      2512.814          38.000
G21  20709031.453 8 108826772.510 8      -476.016          48.000    20709031.266 8  84800028.919 8      -370.921          49.000
G25  24876191.547 6 130725262.566 6     -3586.219          37.000    24876195.852 6 101863853.135 6     -2794.459          37.000
G26  20410103.016 7 107255822.711 7       882.691          42.000    20410107.594 6  83575966.090 6       687.811          41.000
G29  22429258.070 4 117866546.049 4     -2532.508          29.000
G31  22819673.734 8 119918169.814 8     -2906.281          49.000    22819673.977 8  93442744.905 8     -2264.635          50.000
R13  22453540.586 5 119900616.560 5     -4334.371          31.000    22453541.820 5  93256077.556 5     -3371.184          34.000
R14  19427283.594 8 103558334.059 8     -1299.082          51.000    19427286.508 8  80545380.304 8     -1010.397          48.000
R17  20792316.125 6 111263869.834 6      2409.234          41.000    20792315.227 5  86538585.673 5      1873.849          35.000
R24  19431163.586 7 103907220.454 7      -980.223          45.000    19431165.500 6  80816684.084 6      -762.395          40.000
C05                                                                  39618083.336 6 159525603.410 6         9.913          36.000
C11  24377827.109 6 126941774.956 6      2352.844          40.000    24377833.445 7  98159443.986 7      1819.314          42.000
C12  21563592.023 7 112287417.229 7        91.672          46.000    21563591.203 8  86827765.694 8        70.986          50.000
C24  23223056.383 8 120928540.576 8     -2395.816          48.000
E02                                                                  27473260.023 6 110623328.519 6     -2321.673          40.000
E15  23617664.938 8 124111744.120 8      1370.438          51.000    23617668.227 8  95098625.845 8      1050.070          51.000
E30  22655748.469 8 119056756.146 8     -1565.543          51.000    22655752.086 8  91225312.367 8     -1199.587          51.000
> 2020 05 06 13 53  0.0000000  0 16        .000000000000
G18  20345873.195 8 106918356.760 8      -259.180          50.000    20345873.391 8  83312967.412 8      -201.958          50.000
G20  23450975.156 7 123235721.576 7      3225.938          45.000    23450977.750 6  96027840.291 6      2513.718          39.000
G21  20711789.727 8 108841267.361 8      -485.012          49.000    20711789.406 8  84811323.603 8      -377.931          48.000
G26  20405105.352 7 107229559.655 7       873.398          42.000    20405109.625 6  83555501.362 6       680.570          41.000
G29  22443731.336 5 117942588.309 5     -2530.090          35.000    22443712.008 5  91903250.146 5     -1971.499          33.000
G31  22836289.844 8 120005487.248 8     -2909.477          48.000    22836288.383 8  93510784.420 8     -2267.125          48.000
R14  19434664.875 8 103597679.588 8     -1318.547          51.000    19434667.969 8  80575982.357 8     -1025.536          49.000
R17  20778844.289 5 111191776.157 5      2402.281          35.000    20778842.922 5  86482512.877 5      1868.444          34.000
R24  19436703.023 7 103936840.313 7      -989.312          45.000    19436704.547 6  80839721.708 6      -769.465          40.000
C05  39618004.352 5 206301344.377 5        18.402          35.000    39618007.008 6 159525296.112 6        14.408          36.000
C11  24364287.578 6 126871266.358 6      2353.078          41.000    24364293.273 6  98104922.267 6      1819.576          41.000
C12  21563088.203 7 112284792.482 7        88.500          47.000    21563087.203 8  86825736.073 8        68.404          49.000
C24  23236889.695 8 121000578.089 8     -2401.348          49.000
E02                                                                  27490566.602 5 110693010.079 5     -2319.800          35.000
E15  23609866.477 8 124070763.791 8      1366.863          51.000    23609870.297 8  95067225.348 8      1047.358          51.000
E30  22664716.438 8 119103880.602 8     -1570.742          51.000    22664719.453 8  91261420.691 8     -1203.538          51.000
> 2020 05 06 13 53 30.0000000  0 16        .000000000000
G18  20347440.805 8 106926593.758 8      -291.199          50.000    20347440.945 8  83319385.853 8      -226.908          50.000
G20  23432607.281 7 123139194.675 7      3207.691          45.000    23432609.211 6  95952624.632 6      2499.503          38.000
G21  20714636.641 8 108856227.505 8      -513.598          48.000    20714635.969 8  84822980.863 8      -400.206          48.000
G26  20400199.680 7 107203778.987 7       844.070          44.000    20400202.906 7  83535412.512 7       657.717          44.000
G29  22458239.031 5 118018803.035 5     -2548.707          34.000    22458212.047 5  91962679.206 5     -1986.012          34.000
G31  22852960.688 7 120093096.387 7     -2932.191          46.000    22852957.727 7  93579051.221 7     -2284.828          46.000
R14  19442193.133 8 103637809.662 8     -1358.059          51.000    19442196.656 8  80607194.595 8     -1056.268          50.000
R17  20765446.102 4 111120095.207 4      2374.746          27.000    20765449.164 6  86426760.974 6      1847.019          36.000
R24  19442330.984 7 103966936.288 7     -1018.520          44.000    19442333.211 6  80863129.715 6      -792.179          41.000
C05  39617931.125 5 206300963.486 5         5.152          35.000    39617934.086 6 159525001.577 6         4.008          36.000
C11  24350784.500 7 126800944.938 7      2333.590          42.000    24350788.750 6  98050545.246 6      1804.531          38.000
C12  21562641.359 7 112282464.851 7        65.488          46.000    21562640.242 8  86823936.205 8        50.570          49.000
C24  23250794.406 8 121072981.676 8     -2426.672          51.000
E02  27507887.484 5 144554923.115 5     -3044.082          33.000
E15  23602126.688 8 124030091.517 8      1343.348          51.000    23602130.781 8  95036060.893 8      1029.351          51.000
E30  22673751.945 8 119151360.471 8     -1595.840          51.000    22673754.195 8  91297801.334 8     -1222.783          51.000
> 2020 05 06 13 54  0.0000000  0 15        .000000000000
G18  20349126.766 8 106935452.560 8      -302.441          50.000    20349126.602 8  83326288.829 8      -235.666          50.000
G20  23414279.672 7 123042880.788 7      3210.000          44.000    23414280.039 6  95877574.955 6      2501.305          36.000
G21  20717582.180 8 108871705.965 8      -521.336          49.000    20717581.422 8  84835042.013 8      -406.236          49.000
G26  20395396.414 7 107178536.319 7       835.684          45.000    20395398.812 7  83515742.920 7       651.182          44.000
G31  22869696.266 7 120181048.686 7     -2934.223          44.000    22869692.969 7  93647585.429 7     -2286.410          45.000
R14  19449878.883 8 103678778.098 8     -1376.281          51.000    19449882.555 8  80639058.921 8     -1070.441          51.000
R17  20752139.219 5 111048878.445 5      2369.461          35.000    20752143.742 5  86371356.328 5      1842.911          35.000
R24  19448058.195 7 103997561.695 7     -1026.449          44.000    19448060.914 6  80886949.484 6      -798.349          40.000
C05  39617871.383 5 206300651.953 5        12.340          34.000    39617874.500 6 159524762.469 6         9.497          36.000
C11  24337328.055 7 126730864.690 7      2335.184          44.000    24337331.547 6  97996354.731 6      1805.754          36.000
C12  21562261.617 7 112280487.540 7        63.348          47.000    21562260.461 8  86822407.223 8        49.000          49.000
C24  23264779.695 8 121145803.283 8     -2431.160          51.000
E02  27525242.992 5 144646133.167 5     -3039.570          35.000
E15  23594455.664 8 123989781.593 8      1340.797          51.000    23594459.930 8  95005174.099 8      1027.412          51.000
E30  22682865.117 8 119199249.558 8     -1599.848          51.000    22682867.031 8  91334495.540 8     -1225.833          51.000
> 2020 05 06 13 54 30.0000000  0 15        .000000000000
G18  20350908.625 8 106944815.553 8      -322.395          51.000    20350908.242 8  83333584.673 8      -251.217          50.000
G20  23395970.672 7 122946666.274 7      3203.598          43.000    23395968.406 5  95802602.693 5      2496.313          35.000
G21  20720604.039 8 108887584.935 8      -537.793          50.000    20720603.172 8  84847415.236 8      -419.059          50.000
G26  20390673.484 7 107153716.396 7       818.195          44.000    20390675.688 7  83496402.721 7       637.555          44.000
G31  22886474.633 7 120269224.315 7     -2944.801          44.000    22886472.055 7  93716293.658 7     -2294.650          44.000
R14  19457699.453 8 103720465.446 8     -1403.520          51.000    19457703.133 8  80671482.390 8     -1091.626          51.000
R17  20738893.664 5 110978015.646 5      2354.379          33.000    20738898.172 5  86316240.885 5      1831.187          31.000
R24  19453861.547 7 104028595.806 7     -1043.340          42.000    19453863.664 6  80911087.099 6      -811.487          39.000
C05  39617802.961 5 206300295.230 5        10.562          35.000    39617806.359 5 159524488.363 5         8.261          35.000
C11  24323895.930 7 126660910.317 7      2327.613          44.000    24323899.484 4  97942261.597 4      1799.617          28.000
C12  21561926.844 7 112278744.313 7        52.203          47.000    21561925.500 8  86821059.243 8        40.385          48.000
C24  23278822.445 8 121218925.406 8     -2444.301          51.000
E02  27542607.344 6 144737383.854 6     -3044.422          36.000    27542607.375 5 110902662.767 5     -2332.562          32.000
E15  23586831.445 8 123949717.379 8      1329.414          51.000    23586835.758 8  94974475.579 8      1018.624          51.000
E30  22692033.445 8 119247430.751 8     -1612.910          51.000    22692035.727 8  91371413.560 8     -1235.851          51.000
> 2020 05 06 13 55  0.0000000  0 15        .000000000000
G18  20352798.531 8 106954746.774 8      -339.395          51.000    20352798.258 8  83341323.296 8      -264.463          50.000
G20  23377693.453 7 122850619.200 7      3199.852          44.000    23377689.688 6  95727760.897 6      2493.394          37.000
G21  20723714.234 8 108903927.990 8      -551.492          50.000    20723713.203 8  84860150.096 8      -429.734          50.000
G26  20386043.656 7 107129385.449 7       803.922          46.000    20386045.836 7  83477443.519 7       626.430          45.000
G31  22903307.875 7 120357685.621 7     -2952.215          43.000    22903306.609 7  93785224.517 7     -2300.427          42.000
R14  19465667.016 8 103762936.423 8     -1427.641          51.000    19465670.477 8  80704515.346 8     -1110.387          50.000
R17  20725725.500 6 110907569.549 6      2341.973          37.000    20725732.984 4  86261449.512 4      1821.537          29.000
R24  19459753.055 7 104060102.257 7     -1057.059          43.000    19459756.078 6  80935592.127 6      -822.157          39.000
C05  39617738.312 5 206299958.538 5        11.848          35.000    39617741.742 5 159524228.023 5         9.222          35.000
C11  24310499.859 7 126591146.296 7      2323.055          42.000
C12  21561649.344 7 112277298.852 7        44.395          47.000    21561647.914 8  86819941.525 8        34.144          49.000
C24  23292934.617 8 121292410.545 8     -2454.441          50.000
E02  27559990.398 6 144828740.767 6     -3045.941          39.000    27559992.789 5 110972663.316 5     -2334.095          34.000
E15  23579266.781 8 123909963.739 8      1320.969          51.000    23579270.969 8  94944015.015 8      1012.186          51.000
E30  22701269.539 8 119295968.424 8     -1622.879          51.000    22701272.227 8  91408604.754 8     -1243.487          51.000
> 2020 05 06 13 55 30.0000000  0 15        .000000000000
G18  20354791.562 8 106965220.448 8      -358.676          51.000    20354791.477 8  83349484.627 8      -279.488          50.000
G20  23359444.102 7 122754717.420 7      3193.941          45.000    23359440.617 6  95653032.300 6      2488.786          38.000
G21  20726907.797 8 108920708.935 8      -567.188          51.000    20726906.555 8  84873226.155 8      -441.964          51.000
G26  20381502.250 7 107105520.044 7       787.074          46.000    20381504.500 7  83458847.117 7       613.305          46.000
G31  22920190.656 7 120446405.089 7     -2962.039          43.000    22920190.797 7  93854356.568 7     -2308.082          44.000
R14  19473776.508 8 103806164.434 8     -1454.039          51.000    19473779.578 8  80738137.131 8     -1130.919          50.000
R17  20712636.391 7 110837515.229 7      2328.258          43.000    20712646.258 5  86206962.888 5      1810.867          30.000
R24  19465727.633 6 104092054.089 6     -1073.180          41.000    19465731.391 6  80960443.564 6      -834.695          38.000
C05  39617672.680 5 206299616.483 5        10.438          34.000    39617675.992 6 159523963.491 6         8.473          36.000
C11  24297134.734 6 126521548.391 6      2316.488          39.000
C12  21561424.055 7 112276126.044 7        34.160          46.000    21561422.977 8  86819034.641 8        26.376          50.000
C24  23307110.977 8 121366232.259 8     -2466.797          48.000
E02  27577388.969 6 144920178.045 6     -3049.629          41.000    27577393.570 5 111042725.469 5     -2336.645          34.000
E15  23571756.617 8 123870495.898 8      1310.348          51.000    23571761.000 8  94913773.437 8      1004.030          51.000
E30  22710568.836 8 119344837.347 8     -1634.973          51.000    22710571.984 8  91446049.777 8     -1252.762          51.000
> 2020 05 06 13 56  0.0000000  0 15        .000000000000
G18  20356890.172 8 106976248.719 8      -376.402          51.000    20356890.180 8  83358078.088 8      -293.301          51.000
G20  23341225.453 7 122658976.678 7      3188.980          46.000    23341223.117 6  95578429.142 6      2484.923          41.000
G21  20730186.938 8 108937939.950 8      -581.465          51.000    20730185.812 8  84886652.940 8      -453.089          51.000
G26  20377052.094 7 107082134.548 7       771.789          46.000    20377054.258 7  83440624.645 7       601.394          46.000
G31  22937124.883 7 120535392.718 7     -2970.219          46.000    22937125.969 7  93923697.539 7     -2314.459          46.000
R14  19482030.250 8 103850161.535 8     -1478.949          51.000    19482033.031 8  80772357.096 8     -1150.294          49.000
R17  20699622.891 6 110767866.445 6      2315.047          40.000    20699631.555 4  86152791.609 4      1800.589          27.000
R24  19471787.914 6 104124462.435 6     -1087.484          40.000    19471790.922 6  80985650.012 6      -845.821          37.000
C05  39617608.438 5 206299283.257 5        11.238          35.000    39617611.586 6 159523703.678 6         9.161          36.000
C11  24283802.969 5 126452129.765 5      2311.301          35.000    24283796.625 5  97780766.663 5      1787.202          32.000
C12  21561253.633 8 112275238.119 8        25.180          48.000    21561252.719 8  86818348.051 8        19.528          50.000
C24  23321353.547 7 121440401.591 7     -2477.715          47.000
E02  27594805.602 6 145011707.505 6     -3052.270          41.000    27594811.953 5 111112858.347 5     -2338.917          34.000
E15  23564302.898 8 123831326.870 8      1301.047          51.000    23564307.844 8  94883760.811 8       996.903          51.000
E30  22719933.477 8 119394050.035 8     -1645.770          51.000    22719937.344 8  91483758.196 8     -1261.059          51.000
> 2020 05 06 13 56 30.0000000  0 15        .000000000000
G18  20359093.898 8 106987829.686 8      -395.152          51.000    20359094.031 8  83367102.234 8      -307.911          51.000
G20  23323037.930 7 122563399.694 7      3183.234          47.000    23323036.742 7  95503953.596 7      2480.442          42.000
G21  20733551.203 8 108955618.403 8      -596.613          51.000    20733550.133 8  84900428.375 8      -464.893          51.000
G26  20372693.320 7 107059229.370 7       755.398          47.000    20372695.438 7  83422776.445 7       588.622          47.000
G31  22954109.656 7 120624645.000 7     -2979.301          46.000    22954111.297 7  93993244.720 7     -2321.536          45.000
R14  19490428.117 8 103894925.464 8     -1504.773          51.000    19490430.586 8  80807173.489 8     -1170.379          48.000
R17  20686683.227 5 110698622.704 5      2301.730          35.000    20686689.430 4  86098935.383 4      1790.235          28.000
R24  19477932.875 7 104157324.307 7     -1102.797          42.000    19477936.641 6  81011209.269 6      -857.731          37.000
C05  39617545.320 5 206298954.180 5        10.727          35.000    39617548.516 6 159523450.011 6         8.464          36.000
C11  24270503.281 5 126382889.837 5      2305.141          34.000    24270502.805 6  97727225.831 6      1782.735          37.000
C12  21561137.797 8 112274633.621 8        15.523          48.000    21561136.477 8  86817880.598 8        12.034          50.000
C24  23335662.430 8 121514915.747 8     -2489.508          48.000
E02  27612239.570 6 145103327.080 6     -3055.402          40.000    27612247.523 5 111183075.300 5     -2341.272          34.000
E15  23556905.461 8 123792455.711 8      1290.953          51.000    23556911.133 8  94853976.420 8       989.136          51.000
E30  22729363.438 8 119443605.051 8     -1657.379          51.000    22729367.922 8  91521728.905 8     -1269.949          51.000
> 2020 05 06 13 57  0.0000000  0 15        .000000000000
G18  20361402.438 8 106999961.161 8      -413.105          51.000    20361402.633 8  83376555.349 8      -321.900          51.000
G20  23304881.758 8 122467987.664 8      3178.043          48.000    23304881.750 7  95429606.596 7      2476.400          43.000
G21  20737000.023 8 108973741.670 8      -611.113          51.000    20736998.734 8  84914550.416 8      -476.192          51.000
G26  20368425.906 7 107036804.636 7       739.785          47.000    20368428.133 7  83405302.615 7       576.456          47.000
G31  22971143.906 7 120714157.617 7     -2987.641          44.000    22971146.133 7  94062994.767 7     -2328.032          44.000
R14  19498968.977 8 103940453.797 8     -1529.914          51.000    19498971.844 8  80842584.381 8     -1189.933          48.000
R17  20673818.328 6 110629783.331 6      2288.406          36.000    20673823.891 5  86045393.890 5      1779.878          30.000
R24  19484163.305 6 104190636.332 6     -1117.168          39.000    19484166.398 5  81037118.593 5      -868.908          35.000
C05  39617483.422 5 206298632.481 5        10.938          34.000    39617486.594 6 159523200.966 6         8.778          36.000
C11  24257237.422 5 126313827.558 5      2299.816          34.000    24257244.234 6  97673822.439 6      1778.279          40.000
C12  21561075.617 7 112274310.720 7         6.559          47.000    21561074.227 8  86817630.914 8         5.180          50.000
C24  23350037.734 8 121589771.708 8     -2500.406          48.000
E02  27629690.406 6 145195034.390 6     -3057.758          37.000    27629700.039 5 111253344.480 5     -2343.092          35.000
E15  23549564.867 8 123753881.311 8      1281.348          51.000    23549570.297 8  94824419.402 8       981.878          51.000
E30  22738858.406 8 119493500.758 8     -1668.293          51.000    22738863.211 8  91559960.653 8     -1278.302          51.000
> 2020 05 06 13 57 30.0000000  0 14        .000000000000
G18  20363815.266 8 107012640.802 8      -431.664          51.000    20363815.305 8  83386435.601 8      -336.359          51.000
G20  23286757.062 8 122372742.143 8      3172.062          48.000    23286758.109 7  95355389.350 7      2471.740          44.000
G21  20740532.992 8 108992307.220 8      -626.109          51.000    20740531.664 8  84929017.097 8      -487.877          51.000
G26  20364249.953 7 107014860.277 7       723.754          47.000    20364252.133 7  83388203.101 7       563.964          47.000
G31  22988226.461 7 120803926.385 7     -2996.457          42.000    22988229.391 7  94132944.449 7     -2334.902          42.000
R14  19507652.961 8 103986743.527 8     -1555.520          51.000    19507656.023 7  80878587.500 7     -1209.849          47.000
R17  20661030.078 6 110561347.235 6      2274.621          39.000    20661037.836 5  85992165.854 5      1769.150          34.000
R24  19490475.602 6 104224394.903 6     -1132.633          39.000    19490478.992 6  81063375.272 6      -880.940          36.000
C11  24244007.547 6 126244941.883 6      2293.035          37.000    24244018.922 6  97620555.607 6      1773.525          41.000
C12  21561067.078 8 112274267.353 8        -3.133          48.000    21561065.977 8  86817597.407 8        -2.323          50.000
C24  23364478.859 8 121664966.212 8     -2511.934          51.000
E02                                                                  27647168.414 6 111323678.967 6     -2345.277          38.000
E15  23542280.906 8 123715602.221 8      1271.191          51.000    23542285.258 8  94795088.683 8       974.072          51.000
E30  22748417.906 8 119543735.225 8     -1679.977          51.000    22748422.797 8  91598451.965 8     -1287.216          51.000
> 2020 05 06 13 58  0.0000000  0 15        .000000000000
G18  20366328.930 8 107025850.432 8      -448.574          51.000    20366329.000 8  83396728.831 8      -349.538          51.000
G20  23268661.180 7 122277649.066 7      3167.785          47.000    23268662.867 7  95281290.913 7      2468.407          44.000
G21  20744146.570 8 109011296.750 8      -639.430          50.000    20744145.266 8  84943814.157 8      -498.257          50.000
G26  20360162.438 8 106993380.394 8       708.840          48.000    20360164.414 8  83371465.538 8       552.343          48.000
G29  22589916.195 6 118710810.782 6     -2582.812          36.000
G31  23005353.914 7 120893931.821 7     -3003.332          44.000    23005357.352 7  94203078.542 7     -2340.259          43.000
R14  19516476.055 8 104033775.714 8     -1579.492          50.000    19516479.430 8  80915168.055 8     -1228.497          48.000
R17  20648312.898 5 110493297.431 5      2262.680          31.000    20648322.492 5  85939238.159 5      1759.859          35.000
R24  19496869.148 6 104258580.821 6     -1146.023          39.000    19496872.750 6  81089964.310 6      -891.349          36.000
C11  24230809.758 6 126176215.887 6      2288.875          40.000    24230823.523 6  97567412.370 6      1769.635          41.000
C12  21561109.344 8 112274486.104 8       -11.066          48.000    21561108.117 8  86817766.565 8        -8.597          50.000
C24  23378981.859 8 121740480.368 8     -2521.824          51.000
E02  27664636.625 5 145378646.474 5     -3062.066          34.000    27664649.086 6 111394064.733 6     -2346.660          38.000
E15  23535049.906 8 123677601.189 8      1262.660          51.000    23535053.383 8  94765971.045 8       967.460          51.000
E30  22758038.586 8 119594290.729 8     -1690.023          51.000    22758043.289 8  91637189.262 8     -1294.917          51.000
> 2020 05 06 13 58 30.0000000  0 15        .000000000000
G18  20368933.641 8 107039538.304 8      -470.453          51.000    20368933.891 8  83407394.711 8      -366.587          51.000
G20  23250585.094 7 122182660.808 7      3158.176          46.000    23250587.188 7  95207274.118 7      2460.916          44.000
G21  20747830.711 8 109030657.787 8      -657.824          49.000    20747829.203 8  84958900.693 8      -512.590          49.000
G26  20356153.938 8 106972315.620 8       688.918          48.000    20356155.586 8  83355051.423 8       536.819          48.000
G31  23022516.539 7 120984120.199 7     -3015.516          46.000    23022519.688 7  94273355.161 7     -2349.755          46.000
R14  19525428.273 8 104081497.866 8     -1608.562          51.000    19525432.117 8  80952285.224 8     -1251.107          49.000
R17  20635656.352 5 110425582.801 5      2245.684          32.000    20635668.570 5  85886571.135 5      1746.643          35.000
R23  21525789.859 5 115148415.812 5     -3233.859          32.000
R24  19503331.672 6 104293140.136 6     -1164.719          39.000    19503334.852 5  81116843.741 5      -905.895          35.000
C11  24217633.773 6 126107599.628 6      2279.207          41.000    24217646.562 6  97514353.882 6      1762.412          36.000
C12  21561191.891 7 112274915.953 7       -24.000          47.000    21561190.656 8  86818098.930 8       -18.582          51.000
C24  23393536.102 8 121816262.006 8     -2536.684          51.000
E02  27682120.219 5 145470522.004 5     -3069.082          35.000    27682132.617 6 111464461.974 6     -2351.715          37.000
E15  23527861.961 8 123639827.499 8      1249.027          51.000    23527865.359 8  94737027.609 8       957.077          51.000
E30  22767710.484 8 119645116.062 8     -1704.934          51.000    22767714.664 8  91676133.322 8     -1306.384          51.000
> 2020 05 06 13 59  0.0000000  0 14        .000000000000
G18  20371658.594 8 107053858.326 8      -486.113          51.000    20371658.805 8  83418553.187 8      -378.790          51.000
G20  23232558.758 7 122087935.024 7      3154.934          45.000    23232561.414 7  95133461.843 7      2458.390          44.000
G21  20751614.820 8 109050544.039 8      -669.891          48.000    20751613.234 8  84974396.476 8      -521.993          48.000
G26  20352254.172 8 106951822.124 8       675.480          49.000    20352255.414 8  83339082.470 8       526.348          48.000
G31  23039743.133 8 121074643.302 8     -3021.281          48.000    23039745.297 8  94343892.565 8     -2354.248          48.000
R14  19534539.641 8 104130065.338 8     -1631.250          51.000    19534543.633 8  80990059.910 8     -1268.750          49.000
R23  21543921.133 5 115245427.085 5     -3235.707          31.000
R24  19509893.641 6 104328228.600 6     -1176.797          40.000    19509897.398 5  81144134.787 5      -915.286          35.000
C11  24204508.734 7 126039246.910 7      2275.793          42.000    24204518.805 4  97461566.656 4      1759.911          26.000
C12  21561343.984 7 112275709.864 7       -30.816          47.000    21561343.133 8  86818712.835 8       -23.868          51.000
C24  23408170.266 8 121892462.778 8     -2545.246          51.000
E02  27699636.914 5 145562565.382 5     -3069.172          34.000    27699648.266 5 111534988.610 5     -2351.547          34.000
E15  23520746.945 8 123602436.105 8      1241.691          51.000    23520750.422 8  94708377.070 8       951.438          51.000
E30  22777463.273 8 119696365.657 8     -1713.703          51.000    22777466.703 8  91715402.467 8     -1313.118          51.000
> 2020 05 06 13 59 30.0000000  0 17        .000000000000
G18  20374484.211 8 107068707.119 8      -504.309          51.000    20374484.336 8  83430123.669 8      -392.968          51.000
G20  23214563.906 7 121993373.026 7      3148.793          44.000    23214566.945 7  95059777.188 7      2453.605          44.000
G21  20755479.086 8 109070852.070 8      -684.574          48.000    20755477.719 8  84990220.935 8      -533.431          48.000
G26  20348443.766 8 106931798.863 8       659.039          49.000    20348444.977 8  83323479.930 8       513.537          49.000
G29  22634260.898 5 118943842.784 5     -2597.406          35.000
G31  23057013.711 8 121165396.268 8     -3029.602          48.000    23057014.406 8  94414609.089 8     -2360.728          48.000
R14  19543789.539 8 104179373.031 8     -1656.520          51.000    19543793.672 8  81028410.317 8     -1288.404          49.000
R17  20610614.859 5 110291581.554 5      2220.844          33.000    20610617.992 5  85782329.322 5      1727.329          35.000
R23  21562075.852 5 115342555.769 5     -3239.750          33.000
R24  19516535.234 7 104363739.878 7     -1191.254          42.000    19516538.086 5  81171754.638 5      -926.531          35.000
C05  39617163.891 5 206296968.273 5         9.801          34.000    39617167.133 6 159521914.985 6         7.775          36.000
C11  24191415.078 7 125971056.542 7      2269.777          42.000    24191436.648 5  97408883.730 5      1755.680          31.000
C12  21561546.703 8 112276765.848 8       -40.219          48.000    21561546.102 8  86819529.374 8       -31.015          51.000
C24  23422864.383 8 121968979.350 8     -2556.375          51.000
E02                                                                  27717176.953 5 111605584.437 5     -2353.999          31.000
E15  23513685.297 8 123565324.588 8      1231.848          51.000    23513688.766 8  94679940.977 8       943.874          51.000
E30  22787277.328 8 119747936.553 8     -1724.934          51.000    22787279.836 8  91754917.813 8     -1321.735          51.000
