     3.02           OBSERVATION DATA    M (MIXED)           RINEX VERSION / TYPE
SAVERINEX           SC600               20200505 055930 LCL PGM / RUN BY / DATE
       G = GPS       R = GLONASS       C = COMPASS          COMMENT
       S = SBAS      J = QZSS          E = GALILEO          COMMENT
BEAN                                                        MARKER NAME
1                                                           MARKER NUMBER
GEODETIC                                                    MARKER TYPE
Unige DICCA         GTER                                    OBSERVER / AGENCY
SC60291900056       SC600               2.12(191226)        REC # / TYPE / VERS
                    HEMA45          NONE                    ANT # / TYPE
  4509407.8091   693652.4678  4442337.6214                  APPROX POSITION XYZ
        0.0000        0.0000        0.0000                  ANTENNA: DELTA H/E/N
G    8 C1C L1C D1C S1C C2Y L2Y D2Y S2Y                      SYS / # / OBS TYPES
R    8 C1C L1C D1C S1C C2P L2P D2P S2P                      SYS / # / OBS TYPES
C    8 C1I L1I D1I S1I C7I L7I D7I S7I                      SYS / # / OBS TYPES
E    8 C1C L1C D1C S1C C7Q L7Q D7Q S7Q                      SYS / # / OBS TYPES
DBHZ                                                        COMMENT
     30.000                                                 INTERVAL
  2020    05    05    03    00    0.0000000     GPS         TIME OF FIRST OBS
  2020    05    05    03    59   30.0000000     GPS         TIME OF LAST OBS
     0                                                      RCV CLOCK OFFS APPL
G L1C  0.00000                                              SYS / PHASE SHIFT
G L2Y  0.00000                                              SYS / PHASE SHIFT
R L1C  0.00000                                              SYS / PHASE SHIFT
R L2P  0.25000                                              SYS / PHASE SHIFT
C L1I  0.00000                                              SYS / PHASE SHIFT
C L7I  0.00000                                              SYS / PHASE SHIFT
E L1C  0.50000                                              SYS / PHASE SHIFT
E L7Q -0.25000                                              SYS / PHASE SHIFT
 15 R02 -4 R03  5 R04  6 R05  1 R06 -4 R09 -2 R10 -5 R13 -2 GLONASS SLOT / FRQ #
    R14 -7 R15  0 R16 -1 R17  4 R18 -3 R19  3 R20  2        GLONASS SLOT / FRQ #
 C1C   71.950 C2C   71.950 C2P   71.950                     GLONASS COD/PHS/BIS
    18                                                      LEAP SECONDS
*** Above antenna height is from mark to ANTENNA BOTTOM.    COMMENT
    17     4        0.0000        ANT MEASURE TYPE/HEIGT    COMMENT
    0.0000    0.0000    0.0458    0.0405    0.0000          COMMENT
                    BASE STATION                            COMMENT
                                                            END OF HEADER
> 2020 05 05 03 00  0.0000000  0 16        .000000000000
G02  23958477.000 6 125902658.445 6     -2567.926          39.000    23958476.586 6  98105950.322 6     -2000.981          38.000
G05  20697846.523 6 108767913.236 6       951.496          38.000    20697841.414 6  84754212.056 6       741.426          37.000
G07  21345190.430 8 112169718.186 8     -1617.914          48.000    21345189.242 8  87404966.450 8     -1260.712          48.000
G28  23302021.125 6 122452896.480 6      3211.980          36.000    23302024.039 4  95417898.793 4      2502.842          28.000
G30  20379769.609 8 107096469.577 8       374.262          51.000    20379771.023 8  83451784.960 8       291.633          51.000
R05  20054344.578 8 107201937.892 8     -1710.812          51.000    20054347.320 8  83379293.893 8     -1330.632          50.000
R15  19899657.281 8 106337725.076 8     -1760.410          51.000    19899659.602 7  82707153.488 7     -1369.208          47.000
R16  19958675.312 8 106615686.394 8      2701.547          48.000    19958677.758 7  82923293.213 7      2101.203          43.000
C05  39785419.008 5 207173116.801 5        -3.559          35.000    39785417.055 6 160199377.462 6        -2.631          41.000
C19  23561158.758 8 122689120.966 8     -2528.668          48.000
C22  21806038.352 8 113549744.892 8        97.770          51.000
E02  24183853.766 8 127087021.173 8      1642.926          51.000    24183856.258 8  97378395.369 8      1258.865          51.000
E03  25036348.703 7 131566889.392 7     -1731.855          42.000    25036357.227 7 100810989.415 7     -1326.880          43.000
E08  21523148.609 8 113104909.153 8       494.035          50.000    21523146.578 8  86664795.988 8       378.543          50.000
E13  27388195.453 5 143925937.310 5     -2633.012          33.000    27388201.867 6 110280932.331 6     -2017.311          40.000
E25                                                                  25323278.781 5 101966326.090 5      -945.688          33.000
> 2020 05 05 03 00 30.0000000  0 17        .000000000000
G02  23973156.438 6 125979800.977 6     -2574.699          41.000    23973156.398 6  98166061.398 6     -2006.259          40.000
G05  20692465.281 6 108739634.813 6       933.414          37.000    20692461.031 6  84732176.925 6       727.339          37.000
G07  21354459.641 7 112218427.923 7     -1629.508          46.000    21354458.289 7  87442922.116 7     -1269.743          46.000
G13  22620753.203 6 118872816.787 6      2632.980          36.000
G28  23283700.633 6 122356610.269 6      3206.312          38.000
G30  20377678.531 8 107085481.152 8       358.324          51.000    20377680.031 8  83443222.545 8       279.214          51.000
R05  20063991.094 8 107253503.496 8     -1726.742          51.000    20063993.773 8  83419400.471 8     -1343.022          49.000
R15  19909606.062 8 106390888.806 8     -1783.805          51.000    19909608.445 7  82748503.062 7     -1387.404          47.000
R16  19943564.328 8 106534964.491 8      2679.871          48.000    19943566.039 7  82860509.478 7      2084.341          43.000
C05  39785439.531 6 207173223.507 6        -3.336          36.000    39785437.523 6 160199460.003 6        -2.939          41.000
C19  23575751.398 8 122765109.227 8     -2537.086          48.000
C22  21805512.414 8 113547006.571 8        84.809          51.000
E02  24174512.008 8 127037928.726 8      1629.953          51.000    24174514.516 8  97340779.071 8      1248.919          51.000
E03  25046251.680 6 131618929.924 6     -1737.520          39.000    25046261.195 7 100850864.590 7     -1331.256          44.000
E08  21520347.602 8 113090190.453 8       487.359          50.000    21520346.242 8  86653518.015 8       373.419          51.000
E13  27403237.922 5 144004985.914 5     -2637.012          34.000    27403242.164 6 110341501.313 6     -2020.582          38.000
E25                                                                  25330359.992 4 101994864.020 4      -955.694          29.000
> 2020 05 05 03 01  0.0000000  0 17        .000000000000
G02  23987874.000 7 126057139.599 7     -2580.652          43.000    23987874.016 7  98226325.269 7     -2010.898          43.000
G05  20687186.664 5 108711898.097 5       915.797          34.000    20687183.281 5  84710563.893 5       713.605          34.000
G07  21363793.055 8 112267475.512 8     -1639.836          48.000    21363791.367 8  87481141.040 8     -1277.794          48.000
G13  22605733.234 6 118793896.667 6      2628.258          36.000
G28  23265408.977 6 122260488.755 6      3201.785          41.000
G30  20375678.430 8 107074970.401 8       343.094          51.000    20375679.875 8  83435032.347 8       267.346          51.000
R05  20073726.898 8 107305545.268 8     -1741.988          51.000    20073729.273 8  83459877.417 8     -1354.880          48.000
R15  19919685.273 8 106444749.048 8     -1806.254          51.000    19919687.922 7  82790394.376 7     -1404.864          47.000
R16  19928574.148 7 106454888.961 7      2659.129          46.000    19928575.758 7  82798228.472 7      2068.211          45.000
C05  39785460.148 5 207173330.535 5        -2.551          35.000    39785458.109 6 160199542.742 6        -2.163          41.000
C19  23590391.781 7 122841345.122 7     -2544.711          47.000
C22  21805060.914 8 113544655.126 8        72.539          51.000
E02  24165243.844 8 126989221.778 8      1617.797          51.000    24165246.695 8  97303458.181 8      1239.572          51.000
E03  25056185.594 5 131671136.761 5     -1742.461          35.000    25056193.586 7 100890867.270 7     -1334.959          43.000
E08  21517584.430 8 113075671.303 8       481.293          50.000    21517583.891 8  86642392.954 8       368.759          51.000
E13  27418304.602 5 144084159.030 5     -2640.270          35.000    27418306.031 6 110402166.507 6     -2023.243          37.000
E25  25337520.062 5 133149568.795 5     -1259.730          32.000
> 2020 05 05 03 01 30.0000000  0 17        .000000000000
G02  24002625.070 7 126134652.791 7     -2586.891          43.000    24002624.906 7  98286725.163 7     -2015.762          42.000
G05  20682008.328 5 108684685.796 5       898.504          35.000    20682006.117 5  84689359.419 5       700.133          34.000
G07  21373186.875 7 112316840.340 7     -1650.922          47.000    21373185.273 7  87519607.144 7     -1286.433          46.000
G13  22590741.391 5 118715110.101 5      2623.770          35.000
G28  23247145.758 6 122164516.371 6      3196.176          40.000
G30  20373765.508 8 107064917.839 8       327.246          51.000    20373767.039 8  83427199.188 8       254.997          51.000
R05  20083547.828 8 107358043.645 8     -1757.820          51.000    20083550.016 7  83500709.495 7     -1367.194          47.000
R15  19929890.656 8 106499283.246 8     -1829.316          51.000    19929892.969 8  82832809.861 8     -1422.802          48.000
R16  19913701.383 7 106375442.665 7      2637.379          46.000    19913703.891 7  82736436.866 7      2051.295          45.000
C05                                                                  39785475.133 6 160199611.196 6        -2.223          41.000
C19  23605075.844 7 122917809.003 7     -2552.852          46.000
C22  21804680.109 8 113542672.501 8        59.688          51.000
E02  24156045.523 8 126940882.403 8      1604.918          51.000    24156048.609 8  97266418.937 8      1229.742          51.000
E03  25066146.656 5 131723490.742 5     -1747.938          35.000    25066155.414 7 100930982.780 7     -1339.248          45.000
E08  21514855.703 8 113061333.254 8       474.738          50.000    21514855.875 8  86631406.657 8       363.766          51.000
E13  27433391.398 6 144163441.458 6     -2644.281          36.000    27433390.703 6 110462911.546 6     -2026.176          37.000
E25  25344749.805 5 133187558.180 5     -1273.426          33.000
> 2020 05 05 03 02  0.0000000  0 15        .000000000000
G02  24017414.195 7 126212366.944 7     -2593.543          44.000    24017413.867 6  98347281.681 6     -2020.940          41.000
G05  20676936.320 6 108658028.864 6       879.641          38.000    20676934.445 6  84668587.774 6       685.434          38.000
G07  21382646.352 7 112366549.984 7     -1662.555          44.000    21382644.773 7  87558341.951 7     -1295.497          45.000
G28  23228916.922 6 122068725.224 6      3190.168          39.000
G30  20371945.273 8 107055352.419 8       311.105          51.000    20371946.867 8  83419745.625 8       242.420          51.000
R05  20093459.773 8 107411028.410 8     -1773.836          51.000    20093461.742 7  83541919.821 7     -1379.650          46.000
R15  19940227.211 8 106554518.478 8     -1852.516          51.000    19940230.094 8  82875770.616 8     -1440.845          49.000
R16  19898952.578 7 106296658.507 7      2615.457          47.000    19898956.039 7  82675160.282 7      2034.244          45.000
C05                                                                  39785494.141 6 160199687.774 6        -2.444          40.000
C19  23619809.164 8 122994529.297 8     -2561.180          48.000
C22  21804375.711 8 113541088.614 8        46.484          51.000
E02  24146922.945 8 126892941.027 8      1591.754          51.000    24146926.023 8  97229684.632 8      1219.620          51.000
E03  25076142.945 6 131776018.468 6     -1753.703          37.000    25076152.062 7 100971233.632 7     -1343.762          45.000
E08  21512167.352 8 113047206.382 8       467.711          51.000    21512167.883 8  86620582.161 8       358.391          51.000
E13  27448503.352 6 144242850.443 6     -2648.805          36.000    27448501.422 6 110523757.407 6     -2029.645          37.000
> 2020 05 05 03 02 30.0000000  0 16        .000000000000
G02  24032237.070 7 126290260.326 7     -2599.117          45.000    24032236.812 6  98407977.844 6     -2025.283          40.000
G05  20671966.273 6 108631909.770 6       861.707          39.000    20671964.531 6  84648235.231 6       671.460          39.000
G07  21392167.555 7 112416584.136 7     -1672.422          45.000    21392165.797 7  87597329.638 7     -1303.183          45.000
G13  22560843.312 5 118558012.433 5      2613.574          32.000
G28  23210718.906 6 121973099.313 6      3184.613          38.000
G30  20370214.016 8 107046254.919 8       295.598          51.000    20370215.586 8  83412656.655 8       230.336          51.000
R05  20103458.852 8 107464480.369 8     -1789.297          51.000    20103460.680 7  83583493.536 7     -1391.678          46.000
R15  19950690.859 8 106610432.648 8     -1874.883          51.000    19950693.672 8  82919259.406 8     -1458.242          48.000
R16  19884324.781 8 106218519.512 8      2594.039          48.000    19884328.281 7  82614385.500 7      2017.586          44.000
C05  39785513.633 5 207173609.134 5        -2.852          35.000    39785511.609 6 160199758.157 6        -2.084          41.000
C19  23634588.516 8 123071486.495 8     -2568.988          50.000
C22  21804144.641 8 113539885.614 8        33.914          51.000
E02  24137872.672 8 126845379.898 8      1579.211          51.000    24137875.414 8  97193241.685 8      1209.991          51.000
E03  25086169.891 6 131828707.229 6     -1758.797          41.000    25086177.242 7 101011605.560 7     -1347.638          42.000
E08  21509515.906 8 113033272.499 8       461.445          51.000    21509516.500 8  86609905.551 8       353.560          51.000
E13  27463635.953 6 144322369.978 6     -2652.242          36.000    27463633.586 6 110584687.962 6     -2032.468          36.000
> 2020 05 05 03 03  0.0000000  0 16        .000000000000
G02  24047085.430 7 126368288.522 7     -2604.898          44.000    24047085.180 6  98468779.048 6     -2029.791          40.000
G05  20667090.734 6 108606287.949 6       843.910          39.000    20667089.555 6  84628270.184 6       657.592          38.000
G07  21401742.336 7 112466899.528 7     -1683.531          46.000    21401740.469 7  87636536.435 7     -1311.843          46.000
G13  22545930.750 4 118479639.793 4      2608.684          28.000
G28  23192544.930 6 121877600.005 6      3179.695          36.000
G30  20368563.797 8 107037583.207 8       280.262          51.000    20368565.383 8  83405899.481 8       218.386          51.000
R05  20113537.492 8 107518357.059 8     -1804.605          51.000    20113539.133 7  83625397.616 7     -1403.582          47.000
R15  19961273.039 8 106666980.201 8     -1897.176          51.000    19961275.711 8  82963240.844 8     -1475.581          49.000
R16  19869810.406 8 106140986.128 8      2572.535          49.000    19869812.992 7  82554081.777 7      2000.864          42.000
C05  39785521.688 6 207173650.843 6        -2.633          36.000    39785519.680 6 160199790.397 6        -1.794          41.000
C19  23649405.344 8 123148638.525 8     -2576.688          51.000
C22  21803978.859 8 113539023.027 8        21.402          51.000
E02  24128886.781 8 126798158.342 8      1566.668          51.000    24128889.430 8  97157058.956 8      1200.449          51.000
E03  25096219.844 7 131881512.261 7     -1763.902          44.000    25096224.969 7 101052066.639 7     -1351.469          43.000
E08  21506893.305 8 113019490.607 8       455.160          51.000    21506893.984 8  86599345.400 8       348.750          51.000
E13  27478780.641 5 144401956.302 5     -2655.848          35.000    27478778.594 5 110645669.669 5     -2034.842          34.000
> 2020 05 05 03 03 30.0000000  0 15        .000000000000
G02  24061986.633 7 126446593.659 7     -2611.355          44.000    24061985.945 6  98529796.038 6     -2034.822          40.000
G05  20662337.859 6 108581309.714 6       825.172          41.000    20662336.008 6  84608806.608 6       642.991          41.000
G07  21411397.898 7 112517639.551 7     -1695.039          46.000    21411396.023 7  87676074.119 7     -1320.810          46.000
G28  23174422.141 6 121782375.406 6      3172.664          36.000
G30  20367022.148 8 107029481.851 8       264.059          51.000    20367023.742 8  83399586.743 8       205.760          51.000
R05  20123722.945 8 107572805.743 8     -1821.023          51.000    20123725.062 8  83667746.611 8     -1416.352          49.000
R15  19972000.547 8 106724305.737 8     -1920.293          51.000    19972003.398 8  83007827.384 8     -1493.561          49.000
R16  19855437.547 8 106064208.141 8      2550.090          48.000    19855438.555 6  82494365.596 6      1983.403          40.000
C05  39785547.781 6 207173786.982 6        -2.441          36.000    39785545.836 6 160199895.656 6        -1.954          41.000
C19  23664286.555 8 123226128.339 8     -2585.273          50.000
C22  21803906.094 8 113538645.322 8         7.906          51.000
E02  24119993.211 8 126751422.450 8      1553.180          51.000    24119995.344 8  97121248.363 8      1190.135          51.000
E03  25106319.164 7 131934578.702 7     -1769.887          43.000    25106323.711 7 101092727.889 7     -1356.090          43.000
E08  21504327.250 8 113006006.406 8       447.961          51.000    21504328.055 8  86589013.350 8       343.207          51.000
E13  27493964.367 5 144481760.231 5     -2659.367          33.000    27493963.906 5 110706812.047 5     -2038.152          32.000
> 2020 05 05 03 04  0.0000000  0 15        .000000000000
G02  24076909.289 7 126525011.733 7     -2617.160          44.000    24076907.984 6  98590901.011 6     -2039.346          38.000
G05  20657676.609 6 108556815.300 6       807.008          38.000    20657674.461 6  84589720.046 6       628.834          38.000
G07  21421103.219 7 112568641.269 7     -1705.828          47.000    21421101.070 7  87715815.712 7     -1329.217          47.000
G28  23156319.664 5 121687267.236 5      3167.133          35.000
G30  20365558.242 8 107021789.162 8       248.203          51.000    20365559.766 8  83393592.435 8       193.405          51.000
R05  20133984.781 8 107627662.442 8     -1836.742          51.000    20133987.398 8  83710412.957 8     -1428.577          49.000
R15  19982842.570 8 106782242.165 8     -1942.742          51.000    19982845.094 8  83052889.036 8     -1511.022          49.000
R16  19841175.719 7 105988023.982 7      2528.074          47.000    19841175.609 6  82435111.286 6      1966.280          40.000
C05  39785561.391 5 207173857.786 5        -2.668          35.000    39785559.430 6 160199950.395 6        -2.114          41.000
C19  23679201.398 8 123303795.311 8     -2593.203          48.000
C22  21803895.891 8 113538593.461 8        -5.051          51.000
E02  24111161.500 8 126705011.917 8      1540.203          51.000    24111162.922 8  97085687.075 8      1180.165          51.000
E03  25116436.977 7 131987745.279 7     -1775.324          44.000    25116439.797 6 101133465.840 6     -1360.224          38.000
E08  21501787.188 8 112992659.260 8       441.242          51.000    21501788.125 8  86578786.304 8       338.104          51.000
E13  27509157.070 5 144561595.453 5     -2663.773          33.000
> 2020 05 05 03 04 30.0000000  0 15        .000000000000
G02  24091867.219 7 126603615.905 7     -2622.484          44.000    24091865.188 6  98652150.968 6     -2043.497          38.000
G05  20653121.711 6 108532881.893 6       789.168          38.000    20653118.641 6  84571070.654 6       614.936          38.000
G07  21430872.625 7 112619979.011 7     -1716.035          47.000    21430870.289 7  87755819.147 7     -1337.170          47.000
G28  23138253.789 5 121592354.509 5      3160.707          34.000
G30  20364186.414 8 107014580.572 8       232.844          51.000    20364187.859 8  83387975.356 8       181.437          51.000
R05  20144337.477 8 107683004.182 8     -1852.109          51.000    20144340.562 8  83753456.530 8     -1440.530          50.000
R15  19993812.602 8 106840863.464 8     -1964.742          51.000    19993815.344 8  83098483.394 8     -1528.133          50.000
R16  19827039.719 7 105912513.486 7      2506.453          45.000    19827039.773 6  82376380.917 6      1949.464          40.000
C05  39785576.859 6 207173938.488 6        -2.039          36.000    39785574.938 6 160200012.815 6        -1.963          41.000
C19  23694164.078 7 123381713.921 7     -2600.746          46.000
C22  21803962.828 8 113538943.542 8       -17.738          51.000
E02  24102406.477 8 126659003.784 8      1527.633          51.000    24102407.172 8  97050434.109 8      1170.503          51.000
E03  25126588.539 6 132041087.907 6     -1780.289          41.000    25126584.328 5 101174342.788 5     -1364.357          32.000
E08  21499287.781 8 112979525.798 8       434.969          51.000    21499288.891 8  86568722.996 8       333.297          51.000
E13  27524373.102 5 144641556.771 5     -2666.266          33.000
> 2020 05 05 03 05  0.0000000  0 15        .000000000000
G02  24106858.039 7 126682393.754 7     -2628.746          44.000    24106855.281 6  98713536.239 6     -2048.374          38.000
G05  20648671.984 6 108509500.742 6       770.227          41.000    20648668.750 6  84552851.563 6       600.177          41.000
G07  21440703.844 8 112671641.737 8     -1727.402          48.000    21440701.859 8  87796075.819 8     -1346.028          48.000
G28  23120226.414 6 121497630.660 6      3154.531          37.000
G30  20362904.828 8 107007845.970 8       216.699          51.000    20362906.109 8  83382727.616 8       168.857          51.000
R05  20154779.375 8 107738820.960 8     -1868.320          51.000    20154782.680 8  83796869.586 8     -1453.138          50.000
R15  20004908.758 8 106900156.946 8     -1987.562          51.000    20004911.328 8  83144600.536 8     -1545.882          50.000
R16  19813028.594 7 105837669.340 7      2483.742          44.000    19813028.789 6  82318168.763 6      1931.799          41.000
C05  39785592.500 6 207174020.604 6        -2.582          36.000    39785590.516 6 160200075.518 6        -1.957          41.000
C19  23709173.297 7 123459873.742 7     -2609.281          46.000
C22  21804105.328 8 113539686.703 8       -31.164          51.000
E02  24093726.398 8 126613389.347 8      1514.039          51.000    24093726.805 8  97015482.805 8      1160.081          51.000
E03  25136770.266 6 132094597.039 6     -1786.352          36.000    25136762.062 5 101215343.242 5     -1368.757          33.000
E08  21496827.398 8 112966597.045 8       427.605          51.000    21496828.586 8  86558816.547 8       327.700          51.000
E13  27539611.617 5 144721635.449 5     -2670.512          33.000
> 2020 05 05 03 05 30.0000000  0 16        .000000000000
G02  24121870.008 7 126761283.242 7     -2632.723          44.000    24121866.453 6  98775008.498 6     -2051.475          38.000
G05  20644317.000 6 108486614.767 6       753.504          41.000    20644313.562 6  84535018.378 6       587.146          40.000
G07  21450585.266 8 112723568.587 8     -1736.371          48.000    21450583.391 8  87836538.302 8     -1353.016          48.000
G09  23450854.344 5 123235054.466 5     -2820.230          31.000    23450860.414 5  96027350.184 5     -2197.573          31.000
G28  23102225.805 6 121403039.303 6      3149.699          38.000    23102233.945 5  94599793.065 5      2454.302          30.000
G30  20361702.000 8 107001525.853 8       202.758          51.000    20361703.391 8  83377802.856 8       157.993          51.000
R05  20165298.781 8 107795052.735 8     -1882.395          51.000    20165302.094 8  83840605.410 8     -1464.085          49.000
R15  20016118.547 8 106960059.299 8     -2007.941          51.000    20016121.375 8  83191191.272 8     -1561.732          50.000
R16  19799131.516 7 105763433.881 7      2463.234          45.000    19799132.617 7  82260430.040 7      1915.849          42.000
C05  39785596.914 5 207174042.735 5         -.910          35.000    39785594.891 6 160200093.400 6         -.562          41.000
C19  23724218.336 7 123538215.640 7     -2615.449          47.000
C22  21804312.547 8 113540765.306 8       -42.586          51.000
E02  24085110.133 8 126568110.627 8      1502.672          51.000    24085110.453 8  96980788.749 8      1151.383          51.000
E03                                                                  25146965.086 5 101256426.102 5     -1371.657          35.000
E08  21494395.062 8 112953814.710 8       422.582          51.000    21494396.000 8  86549022.287 8       323.758          51.000
E13  27554858.680 5 144801759.270 5     -2672.348          33.000
> 2020 05 05 03 06  0.0000000  0 16        .000000000000
G02  24136933.141 7 126840441.663 7     -2637.367          42.000    24136929.117 6  98836690.344 6     -2055.094          40.000
G05  20640086.953 6 108464385.115 6       735.750          40.000    20640084.398 6  84517696.555 6       573.309          40.000
G07  21460547.016 7 112775918.006 7     -1746.254          47.000    21460544.984 7  87877330.047 7     -1360.711          47.000
G13  22457123.195 5 118012962.307 5      2579.680          33.000
G28  23084282.062 6 121308743.480 6      3143.785          38.000    23084289.086 6  94526315.774 6      2449.703          36.000
G30  20360608.453 8 106995779.623 8       187.707          51.000    20360609.891 8  83373325.264 8       146.265          51.000
R05  20175926.211 8 107851861.834 8     -1897.410          51.000    20175929.227 8  83884790.266 8     -1475.763          49.000
R15  20027472.406 8 107020730.234 8     -2029.320          51.000    20027475.172 8  83238379.779 8     -1578.360          50.000
R16  19785379.484 7 105689972.012 7      2441.652          47.000    19785381.352 7  82203293.029 7      1899.063          43.000
C05  39785620.625 6 207174166.369 6         -.430          36.000    39785618.641 6 160200188.980 6         -.127          41.000
C19  23739328.969 8 123616897.256 8     -2622.754          49.000
C22  21804614.898 8 113542338.502 8       -54.945          51.000
E02  24076588.469 8 126523328.539 8      1490.098          51.000    24076589.281 8  96946475.211 8      1141.781          51.000
E03  25157222.586 6 132202094.922 6     -1794.898          36.000    25157221.852 6 101297713.962 6     -1375.339          38.000
E08  21492021.172 8 112941339.354 8       416.473          51.000    21492021.820 8  86539463.243 8       319.023          51.000
E13  27570144.117 5 144882084.106 5     -2675.453          33.000
> 2020 05 05 03 06 30.0000000  0 16        .000000000000
G02  24152012.375 7 126919684.999 7     -2648.656          42.000    24152008.344 6  98898438.416 6     -2063.888          38.000
G05  20635947.578 7 108442631.442 7       711.410          43.000    20635946.180 7  84500745.635 7       554.346          43.000
G07  21470554.305 8 112828507.166 8     -1762.758          48.000    21470552.648 8  87918308.620 8     -1373.578          48.000
G09  23483122.289 5 123404650.721 5     -2833.480          35.000    23483115.672 5  96159441.974 5     -2207.910          33.000
G28  23066361.219 6 121214565.159 6      3130.984          40.000    23066366.688 5  94452930.010 5      2439.719          34.000
G30  20359589.625 8 106990425.781 8       166.141          51.000    20359591.008 8  83369153.429 8       129.460          51.000
R05  20186627.258 8 107909064.172 8     -1919.133          51.000    20186630.180 8  83929280.963 8     -1492.659          48.000
R15  20038934.930 8 107081982.374 8     -2057.328          51.000    20038937.391 8  83286020.338 8     -1600.144          50.000
R16  19771738.336 8 105617102.173 8      2413.219          48.000    19771740.469 7  82146616.491 7      1876.948          44.000
C05  39785629.305 6 207174212.164 6        -6.109          36.000    39785627.281 6 160200223.615 6        -4.531          41.000
C19  23754470.211 8 123695738.430 8     -2636.414          50.000
C22  21804977.766 8 113544227.757 8       -73.953          51.000
E02  24068127.094 8 126478863.046 8      1471.199          51.000    24068128.406 8  96912404.254 8      1127.271          51.000
E03  25167494.578 6 132256065.586 6     -1805.797          36.000    25167494.680 6 101339068.190 6     -1383.839          40.000
E08  21489671.398 8 112928990.677 8       403.797          51.000    21489671.820 8  86530001.253 8       309.397          51.000
E13                                                                  27585434.930 5 111075102.810 5     -2056.536          33.000
> 2020 05 05 03 07  0.0000000  0 15        .000000000000
G02  24167129.805 7 126999127.548 7     -2650.676          43.000    24167125.641 6  98960341.749 6     -2065.459          37.000
G05  20631921.000 6 108421472.172 6       695.867          41.000    20631920.172 6  84484257.884 6       542.231          41.000
G07  21480629.070 8 112881451.171 8     -1770.141          49.000    21480628.008 8  87959563.695 8     -1379.330          49.000
G28  23048485.172 6 121120624.185 6      3127.820          39.000    23048489.219 6  94379729.287 6      2437.263          36.000
G30  20358667.625 8 106985580.508 8       153.625          51.000    20358669.016 8  83365377.901 8       119.708          51.000
R05  20197423.922 8 107966778.245 8     -1931.797          51.000    20197426.484 8  83974169.674 8     -1502.509          48.000
R15  20050527.914 8 107143931.413 8     -2076.027          51.000    20050530.195 8  83334202.922 8     -1614.688          50.000
R16  19758230.445 8 105544945.125 8      2393.859          49.000    19758232.883 7  82090494.355 7      1861.891          44.000
C05  39785644.977 6 207174292.912 6        -3.051          36.000    39785642.992 6 160200286.823 6        -2.105          41.000
C19  23769664.375 8 123774854.023 8     -2641.207          51.000
C22  21805423.766 8 113546549.466 8       -84.062          51.000
E02  24059748.234 8 126434831.876 8      1461.098          51.000    24059750.055 8  96878666.091 8      1119.453          51.000
E03  25177805.383 6 132310239.759 6     -1808.660          39.000    25177806.102 6 101380578.263 6     -1385.880          41.000
E08  21487368.070 8 112916886.111 8       399.930          51.000    21487368.391 8  86520726.329 8       306.437          51.000
E13  27600748.180 5 145042907.811 5     -2684.590          34.000    27600759.828 5 111136770.141 5     -2057.212          34.000
> 2020 05 05 03 07 30.0000000  0 15        .000000000000
G02  24182273.586 7 127078707.586 7     -2654.773          44.000    24182269.203 5  99022352.136 5     -2068.655          35.000
G05  20627996.484 6 108400850.238 6       678.441          41.000    20627995.758 6  84468188.794 6       528.656          41.000
G07  21490759.969 8 112934689.897 8     -1779.371          49.000    21490758.883 8  88001048.423 8     -1386.520          49.000
G28  23030643.195 6 121026864.799 6      3122.184          38.000    23030646.531 5  94306670.015 5      2432.873          33.000
G30  20357831.219 8 106981184.753 8       139.180          51.000    20357832.469 8  83361952.638 8       108.452          51.000
R05  20208305.164 8 108024944.141 8     -1946.281          51.000    20208307.469 8  84019409.815 8     -1513.774          49.000
R15  20062239.477 8 107206514.544 8     -2096.566          51.000    20062241.766 8  83382878.702 8     -1630.663          50.000
R16  19744845.586 8 105473444.091 8      2372.445          49.000    19744848.055 7  82034882.442 7      1845.235          44.000
C05  39785656.516 6 207174353.612 6        -1.613          36.000    39785654.648 6 160200333.772 6        -1.386          41.000
C19  23784899.656 8 123854185.156 8     -2647.859          50.000
C22  21805941.844 8 113549246.322 8       -96.086          51.000
E02  24051440.875 8 126391177.414 8      1448.875          50.000    24051442.945 8  96845216.550 8      1110.141          51.000
E03  25188143.375 6 132364558.675 6     -1812.863          40.000    25188145.250 7 101422199.264 7     -1389.284          42.000
E08  21485100.219 8 112904967.752 8       394.203          51.000    21485100.555 8  86511594.076 8       301.998          51.000
E13  27616078.984 5 145123468.769 5     -2686.422          35.000    27616097.062 5 111198495.556 5     -2058.478          35.000
> 2020 05 05 03 08  0.0000000  0 15        .000000000000
G02  24197446.562 7 127158439.565 7     -2660.402          43.000    24197441.820 5  99084480.974 5     -2073.041          32.000
G05  20624177.805 7 108380783.300 7       659.738          42.000    20624175.516 7  84452552.231 7       514.085          42.000
G07  21500950.086 8 112988239.149 8     -1790.270          49.000    21500948.562 8  88042775.093 8     -1395.015          49.000
G28  23012839.000 5 120933307.070 5      3114.949          35.000    23012843.250 5  94233767.841 5      2427.233          35.000
G30  20357083.398 8 106977254.835 8       123.082          51.000    20357084.383 8  83358890.356 8        95.908          51.000
R05  20219273.805 8 108083578.800 8     -1962.387          51.000    20219276.336 8  84065014.538 8     -1526.301          48.000
R15  20074072.359 8 107269745.665 8     -2118.520          51.000    20074074.617 8  83432058.462 8     -1647.737          51.000
R16  19731586.938 8 105402618.327 8      2349.531          49.000    19731589.578 7  81979795.724 7      1827.413          44.000
C05  39785667.320 6 207174410.005 6        -1.770          36.000    39785665.461 6 160200377.364 6        -1.317          41.000
C19  23800178.906 8 123933747.773 8     -2656.027          50.000
C22  21806535.352 8 113552335.815 8      -109.621          51.000
E02  24043208.523 8 126347917.487 8      1435.363          51.000    24043210.641 8  96812069.310 8      1099.821          51.000
E03  25198510.711 6 132419039.380 6     -1818.891          38.000    25198512.562 6 101463944.228 6     -1393.728          38.000
E08  21482871.125 8 112893253.218 8       387.062          51.000    21482871.555 8  86502618.001 8       296.538          51.000
E13  27631425.680 5 145204116.344 5     -2689.859          34.000    27631448.031 5 111260290.454 5     -2061.193          34.000
> 2020 05 05 03 08 30.0000000  0 16        .000000000000
G02  24212650.492 6 127238333.296 6     -2665.617          40.000    24212644.508 6  99146735.789 6     -2077.104          36.000
G05  20620467.477 7 108361285.171 7       640.539          44.000    20620463.844 7  84437358.880 7       499.118          43.000
G07  21511201.422 8 113042109.878 8     -1800.961          50.000    21511199.844 8  88084752.288 8     -1403.349          50.000
G28  22995076.375 6 120839966.671 6      3107.418          37.000    22995081.211 6  94161034.998 6      2421.359          36.000
G30  20356426.711 8 106973803.001 8       107.199          51.000    20356427.461 8  83356200.611 8        83.535          51.000
R05  20230332.648 8 108142695.282 8     -1978.434          51.000    20230335.227 8  84110994.016 8     -1538.782          49.000
R15  20086028.172 8 107333634.646 8     -2140.535          51.000    20086030.773 8  83481749.901 8     -1664.861          51.000
R16  19718457.367 7 105332483.103 7      2326.457          47.000    19718460.273 7  81925246.100 7      1809.467          44.000
C05  39785679.773 6 207174474.862 6        -2.207          36.000    39785677.977 6 160200427.520 6        -1.695          41.000
C19  23815503.969 8 124013553.722 8     -2664.207          48.000
C22  21807206.641 8 113555831.343 8      -123.238          51.000
E02  24035054.086 8 126305065.857 8      1421.586          51.000    24035055.852 8  96779234.919 8      1089.294          51.000
E03  25208910.742 6 132473694.730 6     -1824.770          38.000    25208911.594 6 101505823.030 6     -1398.056          37.000
E08  21480683.398 8 112881756.022 8       379.688          51.000    21480683.734 8  86493808.455 8       290.902          51.000
E13  27646790.688 5 145284868.211 5     -2693.152          33.000    27646818.086 5 111322278.969 5     -2063.848          31.000
E25  25453712.219 5 133760155.164 5     -1451.551          32.000    25453689.984 6 102491466.033 6     -1112.386          36.000
> 2020 05 05 03 09  0.0000000  0 16        .000000000000
G02  24227885.352 6 127318390.380 6     -2672.172          36.000    24227878.367 5  99209117.912 5     -2082.215          34.000
G05  20616866.453 7 108342361.701 7       620.223          43.000    20616862.594 7  84422613.329 7       483.290          43.000
G07  21521514.430 8 113096304.486 8     -1813.090          50.000    21521512.867 8  88126981.879 8     -1412.794          50.000
G28  22977357.453 7 120746851.253 7      3099.180          42.000    22977362.062 6  94088477.519 6      2414.945          37.000
G30  20355861.727 8 106970833.177 8        89.812          51.000    20355862.547 8  83353886.469 8        69.984          51.000
R05  20241482.672 8 108202297.459 8     -1995.930          51.000    20241485.367 8  84157351.242 8     -1552.393          49.000
R15  20098107.617 8 107398182.923 8     -2163.574          50.000    20098110.039 8  83531954.113 8     -1682.780          51.000
R16  19705458.000 7 105263045.086 7      2301.879          47.000    19705461.133 7  81871238.782 7      1790.353          43.000
C05  39785694.773 6 207174552.711 6        -3.699          36.000    39785692.930 6 160200487.710 6        -2.924          41.000
C19  23830875.938 7 124093606.623 7     -2673.578          45.000
C22  21807956.867 8 113559738.106 8      -138.113          51.000
E02  24026978.453 8 126262627.905 8      1406.629          51.000    24026979.680 8  96746717.531 8      1077.807          51.000
E03  25219345.773 6 132528529.229 6     -1832.070          38.000    25219347.117 6 101547839.091 6     -1403.465          39.000
E08  21478538.008 8 112870481.338 8       371.098          51.000    21478538.102 8  86485169.412 8       284.285          51.000
E13                                                                  27662179.125 5 111384124.171 5     -2067.248          32.000
E25                                                                  25462015.461 5 102524987.181 5     -1123.254          35.000
> 2020 05 05 03 09 30.0000000  0 16        .000000000000
G02  24243146.195 4 127398592.577 4     -2674.223          29.000    24243139.430 4  99271609.264 4     -2083.810          24.000
G05  20613371.141 7 108323993.746 7       603.664          44.000    20613367.727 7  84408300.619 7       470.385          44.000
G07  21531884.953 8 113150801.688 8     -1821.070          50.000    21531883.102 8  88169447.211 8     -1419.016          50.000
G28  22959678.344 7 120653943.450 7      3093.898          44.000    22959682.055 6  94016081.817 6      2410.827          37.000
G30  20355384.414 8 106968324.536 8        76.508          51.000    20355385.242 8  83351931.686 8        59.616          51.000
R05  20252719.594 8 108262364.782 8     -2009.406          51.000    20252721.945 8  84204070.265 8     -1562.872          48.000
R15  20110305.547 8 107463366.448 8     -2182.699          51.000    20110308.117 8  83582652.443 8     -1697.655          50.000
R16  19692586.312 8 105194285.817 8      2281.246          49.000    19692588.461 6  81817759.350 6      1774.303          41.000
C05  39785708.344 6 207174623.553 6        -1.305          36.000    39785706.516 6 160200542.488 6        -1.453          41.000
C19  23846290.844 7 124173885.589 7     -2679.266          43.000
C22  21808782.367 8 113564036.732 8      -149.312          51.000
E02  24018977.898 8 126220584.316 8      1395.410          51.000    24018978.383 8  96714502.315 8      1069.273          51.000
E03  25229810.383 6 132583522.693 6     -1835.277          37.000    25229812.219 6 101589976.934 6     -1406.536          37.000
E08  21476431.188 8 112859409.627 8       366.207          51.000    21476431.000 8  86476685.889 8       280.627          51.000
E13                                                                  27677579.602 5 111446143.481 5     -2067.634          31.000
E25                                                                  25470408.945 5 102558789.190 5     -1130.805          34.000
> 2020 05 05 03 10  0.0000000  0 15        .000000000000
G02  24258428.586 4 127478901.941 4     -2679.426          29.000
G05  20609981.375 7 108306179.342 7       584.855          45.000    20609978.148 7  84394419.261 7       455.728          45.000
G07  21542312.062 8 113205596.520 8     -1830.957          50.000    21542309.938 8  88212144.477 8     -1426.720          50.000
G28  22942038.711 7 120561242.894 7      3087.066          45.000    22942040.844 6  93943847.614 6      2405.506          39.000
G30  20354994.039 8 106966273.371 8        61.270          51.000    20354994.812 8  83350333.363 8        47.742          51.000
R05  20264042.742 8 108322893.779 8     -2024.746          51.000    20264044.586 8  84251148.384 8     -1574.799          49.000
R15  20122621.648 8 107529178.897 8     -2203.676          50.000    20122624.102 8  83633839.890 8     -1713.970          50.000
R16  19679841.609 8 105126204.651 8      2258.480          49.000    19679842.750 6  81764807.357 6      1756.599          40.000
C05  39785720.102 6 207174684.317 6        -1.262          36.000    39785718.227 6 160200589.458 6        -1.109          41.000
C19  23861749.602 7 124254386.698 7     -2686.582          44.000
C22  21809682.469 8 113568724.794 8      -162.254          51.000
E02  24011052.094 8 126178932.859 8      1382.316          51.000    24011051.914 8  96682587.576 8      1059.142          51.000
E03  25240304.383 6 132638695.003 6     -1840.445          38.000    25240305.562 6 101632234.121 6     -1410.143          36.000
E08  21474362.414 8 112848538.450 8       359.441          51.000    21474362.039 8  86468356.022 8       275.440          51.000
E25  25478868.867 5 133892364.294 5     -1488.289          34.000    25478870.320 5 102592868.714 5     -1140.518          34.000
> 2020 05 05 03 10 30.0000000  0 17        .000000000000
G02  24273736.367 5 127559349.290 5     -2682.145          34.000    24273744.586 5  99396916.347 5     -2089.983          31.000
G05  20606694.383 7 108288904.627 7       568.137          46.000    20606691.047 7  84380958.462 7       442.707          46.000
G07  21552792.633 8 113260672.466 8     -1839.164          50.000    21552790.453 8  88255060.808 8     -1433.115          50.000
G13  22325935.594 5 117323571.672 5      2531.039          33.000
G28  22924436.211 7 120468737.882 7      3081.465          46.000    22924436.289 6  93871765.800 6      2401.141          40.000
G30  20354687.844 8 106964664.196 8        47.574          51.000    20354688.562 8  83349079.449 8        37.071          51.000
R05  20275449.445 8 108383868.951 8     -2038.566          51.000    20275451.680 8  84298573.512 8     -1585.552          50.000
R15  20135051.602 8 107595601.867 8     -2222.793          48.000    20135054.289 8  83685502.225 8     -1728.836          50.000
R16  19667221.367 8 105058788.367 8      2237.457          49.000    19667222.430 7  81712372.493 7      1740.244          42.000
C05  39785727.055 6 207174720.338 6          .777          36.000    39785725.172 6 160200617.318 6          .480          41.000
C19  23877248.984 7 124335094.412 7     -2692.375          47.000
C22  21810654.852 8 113573788.277 8      -173.672          51.000
E02  24003198.219 8 126137659.564 8      1370.844          51.000    24003198.047 8  96650962.621 8      1050.390          51.000
E03  25250825.117 6 132693985.348 6     -1843.551          38.000    25250824.164 5 101674599.393 5     -1413.052          34.000
E08  21472329.016 8 112837853.634 8       354.449          51.000    21472328.578 8  86460168.963 8       271.585          51.000
E13  27708422.398 5 145608739.177 5     -2701.855          34.000
E25  25487399.141 5 133937186.983 5     -1498.098          34.000    25487397.797 5 102627213.299 5     -1148.279          33.000
> 2020 05 05 03 11  0.0000000  0 16        .000000000000
G02  24289083.062 6 127640003.054 6     -2692.324          38.000    24289085.852 6  99459749.279 6     -2097.912          36.000
G05  20603525.141 7 108272249.349 7       543.633          45.000    20603521.680 7  84367980.317 7       423.610          45.000
G07  21563341.289 8 113316106.378 8     -1855.027          50.000    21563339.297 8  88298256.062 8     -1445.476          50.000
G13  22311519.789 5 117247815.109 5      2520.836          32.000
G28  22906886.305 7 120376509.846 7      3068.234          47.000    22906884.992 6  93799899.822 6      2390.832          40.000
G30  20354480.648 8 106963574.762 8        26.367          51.000    20354481.266 8  83348230.545 8        20.546          51.000
R05  20286954.336 8 108445369.670 8     -2060.027          51.000    20286956.586 8  84346407.411 8     -1602.240          48.000
R15  20147610.305 7 107662711.610 7     -2249.801          46.000    20147612.789 8  83737698.691 8     -1749.842          49.000
R16  19654740.602 7 104992119.015 7      2208.547          47.000    19654742.359 7  81660518.583 7      1717.759          43.000
C05  39785744.234 6 207174810.343 6        -4.910          36.000    39785742.250 6 160200686.145 6        -4.081          41.000
C19  23892803.289 8 124416085.512 8     -2705.777          49.000
C22  21811714.500 8 113579305.529 8      -192.777          51.000
E02  23995431.500 8 126096843.742 8      1351.566          51.000    23995431.156 8  96619688.194 8      1035.586          51.000
E03  25261388.203 6 132749495.129 6     -1855.527          39.000    25261384.234 5 101717132.731 5     -1421.447          32.000
E08  21470346.109 8 112827434.299 8       341.578          51.000    21470345.695 8  86452185.319 8       261.702          51.000
E25                                                                  25496006.836 5 102661882.115 5     -1162.185          34.000
> 2020 05 05 03 11 30.0000000  0 16        .000000000000
G02  24304445.836 6 127720731.209 6     -2689.246          39.000    24304447.914 6  99522654.363 6     -2095.513          38.000
G05  20600454.250 7 108256112.272 7       532.695          45.000    20600450.703 7  84355405.951 7       415.087          45.000
G07  21573938.391 8 113371794.674 8     -1857.246          50.000    21573936.664 8  88341649.530 8     -1447.205          50.000
G13  22297122.727 5 117172159.141 5      2523.035          31.000
G28  22889369.898 7 120284459.517 7      3068.766          47.000    22889367.992 6  93728172.311 6      2391.249          41.000
G30  20354352.914 8 106962902.410 8        18.934          51.000    20354353.141 8  83347706.638 8        14.753          51.000
R05  20298538.070 8 108507291.855 8     -2067.605          51.000    20298540.562 8  84394569.101 8     -1608.138          49.000
R15  20160277.047 7 107730401.117 7     -2262.555          46.000    20160279.914 8  83790346.131 8     -1759.765          49.000
R16  19642380.516 7 104926094.478 7      2193.531          46.000    19642382.852 7  81609166.194 7      1706.083          44.000
C05  39785752.180 6 207174851.272 6         2.977          36.000    39785750.164 6 160200717.766 6         2.305          41.000
C19  23908392.422 8 124497257.989 8     -2705.344          49.000
C22  21812841.898 8 113585176.072 8      -198.223          51.000
E02  23987732.547 8 126056384.149 8      1346.059          51.000    23987731.898 8  96588686.717 8      1031.387          51.000
E03  25271973.633 6 132805122.263 6     -1852.645          36.000
E08  21468394.531 8 112817179.064 8       342.438          51.000    21468394.281 8  86444327.410 8       262.339          51.000
E25                                                                  25504678.531 5 102696795.851 5     -1165.043          35.000
> 2020 05 05 03 12  0.0000000  0 15        .000000000000
G02  24319830.203 6 127801569.648 6     -2702.691          41.000    24319831.445 6  99585645.343 6     -2105.990          36.000
G05  20597487.039 7 108240520.250 7       504.594          46.000    20597483.930 7  84343256.331 7       393.190          46.000
G07  21584588.492 8 113427761.510 8     -1876.125          50.000    21584586.953 8  88385260.057 8     -1461.916          50.000
G28  22871892.602 7 120192615.812 7      3052.156          47.000    22871890.875 7  93656605.768 7      2378.304          43.000
G30  20354309.211 8 106962672.217 8        -5.734          51.000    20354309.195 8  83347527.277 8        -4.468          51.000
R05  20310205.539 8 108569661.376 8     -2092.543          51.000    20310208.438 8  84443078.695 8     -1627.533          48.000
R15  20173057.070 7 107798693.171 7     -2292.410          44.000    20173060.000 8  83843462.199 8     -1782.983          48.000
R16  19630146.500 7 104860743.207 7      2161.062          46.000    19630148.875 7  81558337.403 7      1680.826          44.000
C05  39785755.609 5 207174869.703 5        -6.219          35.000    39785753.719 6 160200732.014 6        -4.706          41.000
C19  23924020.430 7 124578636.532 7     -2722.000          47.000
C22  21814042.117 8 113591426.103 8      -220.570          51.000
E02  23980106.328 8 126016307.393 8      1323.523          51.000    23980105.461 8  96557978.573 8      1014.170          51.000
E03  25282585.852 6 132860892.715 6     -1867.227          37.000
E08  21466479.359 8 112807114.388 8       326.305          51.000    21466479.328 8  86436615.509 8       250.032          51.000
E25  25513415.172 5 134073890.796 5     -1542.613          33.000    25513416.633 6 102731973.380 6     -1181.359          36.000
> 2020 05 05 03 12 30.0000000  0 16        .000000000000
G02  24335248.883 7 127882590.068 7     -2701.297          42.000    24335248.266 5  99648778.106 5     -2104.907          35.000
G05  20594638.055 7 108225548.349 7       490.961          46.000    20594635.391 7  84331589.914 7       382.567          46.000
G07  21595305.469 8 113484079.602 8     -1880.797          51.000    21595303.797 8  88429144.297 8     -1465.556          51.000
G28  22854469.172 7 120101055.659 7      3049.613          46.000    22854468.312 7  93585260.173 7      2376.322          45.000
G30  20354363.594 8 106962957.736 8       -15.848          51.000    20354363.797 8  83347749.772 8       -12.349          51.000
R05  20321970.641 8 108632553.200 8     -2102.754          51.000    20321973.336 8  84491994.560 8     -1635.475          48.000
R15  20185963.164 7 107867659.994 7     -2307.727          47.000    20185966.227 7  83897103.100 7     -1794.898          47.000
R16  19618052.656 7 104796142.717 7      2143.289          45.000    19618055.641 7  81508092.572 7      1667.006          46.000
C05  39785768.945 6 207174939.157 6        -1.172          36.000    39785767.047 6 160200785.719 6         -.776          41.000
C19  23939701.234 7 124660293.719 7     -2724.254          45.000
C22  21815329.430 8 113598129.770 8      -228.750          51.000
E02  23972567.016 8 125976688.516 8      1315.367          51.000    23972566.125 8  96527621.275 8      1007.840          51.000
E03  25293240.445 6 132916880.433 6     -1867.375          38.000    25293255.758 5 101845423.736 5     -1431.163          32.000
E08  21464614.688 8 112797315.128 8       324.543          51.000    21464614.836 8  86429106.983 8       248.670          51.000
E25  25522230.453 5 134120223.446 5     -1548.715          32.000    25522233.070 5 102767470.438 5     -1187.031          35.000
E30  25390255.547 6 133426694.589 6      3151.305          41.000
> 2020 05 05 03 13  0.0000000  0 16        .000000000000
G02  24350685.406 6 127963706.128 6     -2706.312          41.000    24350684.281 6  99711985.415 6     -2108.815          38.000
G05  20591891.359 7 108211114.809 7       471.137          46.000    20591888.375 7  84320343.014 7       367.120          46.000
G07  21606073.055 8 113540663.701 8     -1891.539          51.000    21606071.320 8  88473235.807 8     -1473.927          51.000
G28  22837084.453 7 120009699.076 7      3040.805          47.000    22837084.320 7  93514073.184 7      2369.455          44.000
G30  20354500.078 8 106963675.149 8       -32.234          51.000    20354500.359 8  83348308.809 8       -25.118          51.000
R05  20333817.641 8 108695882.554 8     -2119.305          51.000    20333820.430 8  84541250.714 8     -1648.348          49.000
R15  20198979.672 7 107937213.625 7     -2329.395          44.000    20198981.891 7  83951200.356 7     -1811.748          46.000
R16  19606084.188 7 104732210.484 7      2118.805          46.000    19606087.797 7  81458367.492 7      1647.959          46.000
C05  39785776.289 6 207174977.355 6        -1.492          36.000    39785774.406 6 160200815.242 6        -1.371          41.000
C19  23955419.555 7 124742146.440 7     -2732.605          47.000
C22  21816688.352 8 113605205.331 8      -243.168          51.000
E02  23965099.008 8 125937445.243 8      1300.809          51.000    23965098.570 8  96497551.764 8       996.691          51.000
E03  25303919.672 5 132973002.559 5     -1874.832          32.000    25303927.320 5 101888426.481 5     -1436.042          33.000
E08  21462784.828 8 112787698.916 8       316.414          51.000    21462785.164 8  86421738.716 8       242.480          51.000
E25                                                                  25531111.586 5 102803222.301 5     -1196.675          33.000
E30  25372279.172 6 133332227.534 6      3146.480          41.000
> 2020 05 05 03 13 30.0000000  0 16        .000000000000
G02  24366146.070 6 128044949.623 6     -2710.004          39.000    24366144.047 6  99775291.987 6     -2111.691          38.000
G05  20589253.586 7 108197254.789 7       452.578          46.000    20589251.062 7  84309542.996 7       352.658          45.000
G07  21616897.547 8 113597546.892 8     -1900.895          51.000    21616895.867 8  88517560.377 8     -1481.217          51.000
G28  22819745.547 7 119918583.805 7      3033.238          47.000    22819745.922 7  93443074.243 7      2363.562          44.000
G30  20354725.117 8 106964858.217 8       -47.129          51.000    20354725.297 8  83349230.686 8       -36.724          51.000
R05  20345753.062 8 108759683.908 8     -2134.406          51.000    20345755.805 8  84590873.979 8     -1660.094          49.000
R15  20212111.406 7 108007385.572 7     -2349.168          46.000    20212113.727 7  84005778.580 7     -1827.131          45.000
R16  19594248.312 7 104668983.202 7      2095.980          47.000    19594251.641 7  81409190.682 7      1630.204          46.000
C05  39785784.219 5 207175018.453 5        -1.449          35.000    39785782.297 6 160200847.018 6        -1.063          41.000
C19  23971183.250 8 124824227.834 8     -2739.691          51.000
C22  21818125.531 8 113612687.559 8      -255.965          51.000
E02  23957709.078 8 125898612.804 8      1287.719          51.000    23957709.438 8  96467797.042 8       986.697          51.000
E03  25314630.555 6 133029280.533 6     -1879.023          36.000    25314633.531 5 101931547.544 5     -1439.499          32.000
E08  21460996.508 8 112778300.870 8       309.727          51.000    21460996.961 8  86414537.614 8       237.365          51.000
E25  25540056.242 5 134213908.584 5     -1573.441          35.000    25540059.539 5 102839254.377 5     -1205.298          33.000
E30  25354325.984 6 133237876.805 6      3143.094          41.000    25354321.648 5 102091349.025 5      2408.506          34.000
> 2020 05 05 03 14  0.0000000  0 16        .000000000000
G02  24381629.016 5 128126313.884 5     -2713.551          34.000    24381626.711 5  99838692.699 5     -2114.455          35.000
G05  20586724.391 7 108183965.489 7       433.941          46.000    20586722.352 7  84299187.692 7       338.136          46.000
G07  21627777.969 8 113654723.902 8     -1910.199          51.000    21627776.203 8  88562113.902 8     -1488.464          51.000
G28  22802452.508 8 119827708.410 8      3025.676          48.000    22802452.555 7  93372262.221 7      2357.666          42.000
G30  20355037.898 8 106966502.574 8       -61.984          51.000    20355038.352 8  83350512.009 8       -48.300          51.000
R05  20357776.055 8 108823953.230 8     -2149.594          51.000    20357778.367 8  84640861.227 8     -1671.906          49.000
R15  20225357.859 7 108078168.718 7     -2369.152          44.000    20225359.875 7  84060832.162 7     -1842.671          44.000
R16  19582544.273 8 104606459.264 8      2072.902          48.000    19582546.812 7  81360560.924 7      1612.257          45.000
C05  39785791.914 6 207175058.886 6        -1.324          36.000    39785790.008 6 160200878.263 6         -.671          41.000
C19  23986990.609 8 124906533.346 8     -2746.727          51.000
C22  21819640.211 8 113620573.412 8      -269.098          51.000
E02  23950396.820 8 125860188.310 8      1274.520          51.000    23950397.750 8  96438354.880 8       976.622          51.000
E03  25325374.711 6 133085736.508 6     -1884.188          37.000    25325376.023 6 101974806.089 6     -1443.731          37.000
E08  21459249.055 8 112769117.975 8       303.062          51.000    21459249.570 8  86407501.368 8       232.205          51.000
E25  25549071.062 6 134261294.249 6     -1585.090          36.000    25549076.961 5 102875562.855 5     -1214.337          33.000
E30  25336394.328 6 133143640.417 6      3139.723          41.000    25336389.977 6 102019141.944 6      2405.782          36.000
> 2020 05 05 03 14 30.0000000  0 15        .000000000000
G05  20584304.359 7 108171248.614 7       416.359          47.000    20584302.562 7  84289278.448 7       324.436          47.000
G07  21638714.148 8 113712193.889 8     -1918.508          51.000    21638712.258 8  88606895.704 8     -1494.941          51.000
G28  22785206.281 8 119737076.658 8      3018.941          49.000    22785205.016 7  93301640.089 7      2352.422          43.000
G30  20355438.453 8 106968608.090 8       -75.734          51.000    20355439.141 8  83352152.685 8       -59.014          51.000
R05  20369886.750 8 108888690.558 8     -2163.754          51.000    20369889.070 8  84691212.481 8     -1682.920          49.000
R15  20238717.945 7 108149560.350 7     -2387.730          45.000    20238719.516 7  84116358.983 7     -1857.124          43.000
R16  19570972.211 7 104544641.028 7      2050.809          47.000    19570973.953 7  81312480.058 7      1595.073          45.000
C05  39785799.602 5 207175098.230 5         1.586          35.000    39785797.820 6 160200909.483 6          .595          41.000
C19  24002840.875 8 124989062.704 8     -2752.801          50.000
C22  21821232.594 8 113628864.075 8      -281.137          51.000
E02  23943162.578 8 125822173.153 8      1262.375          51.000    23943163.539 8  96409226.363 8       967.328          51.000
E03                                                                  25336151.914 6 102018191.534 6     -1446.646          37.000
E08  21457542.766 8 112760151.563 8       297.336          51.000    21457543.266 8  86400630.987 8       227.865          51.000
E25  25558156.211 5 134309039.865 5     -1595.371          33.000    25558164.258 5 102912147.104 5     -1222.325          34.000
E30  25318484.914 6 133049520.779 6      3137.203          38.000    25318479.586 6 101947024.306 6      2404.040          36.000
> 2020 05 05 03 15  0.0000000  0 15        .000000000000
G05  20581986.867 7 108159069.828 7       395.500          47.000    20581985.516 7  84279788.487 7       308.182          47.000
G07  21649698.945 8 113769919.579 8     -1929.824          51.000    21649697.195 8  88651876.752 8     -1503.759          51.000
G28  22768000.523 8 119646656.581 8      3008.988          51.000    22767998.242 7  93231182.920 7      2344.669          43.000
G30  20355919.914 8 106971138.813 8       -92.840          51.000    20355920.547 8  83354124.675 8       -72.340          51.000
R05  20382077.961 8 108953859.865 8     -2180.977          51.000    20382080.227 8  84741899.691 8     -1696.315          49.000
R15  20252184.461 7 108221521.048 7     -2409.703          45.000    20252186.547 7  84172328.433 7     -1874.211          42.000
R16  19559525.336 7 104483494.565 7      2025.496          47.000    19559526.742 7  81264921.708 7      1575.386          44.000
C05  39785800.797 6 207175104.805 6        -1.867          36.000    39785798.906 6 160200913.746 6         -.930          41.000
C19  24018725.812 7 125071780.062 7     -2761.848          46.000
C22  21822896.148 8 113637525.250 8      -296.320          51.000
E02  23935999.742 8 125784532.819 8      1247.008          51.000    23936000.938 8  96380385.076 8       955.511          51.000
E03  25346949.758 6 133199115.566 6     -1895.363          38.000    25346950.680 5 102061676.988 5     -1452.097          35.000
E08  21455871.148 8 112751367.060 8       288.285          51.000    21455871.578 8  86393900.001 8       220.909          51.000
E25                                                                  25567312.711 5 102948979.064 5     -1232.529          33.000
E30  25300591.641 5 132955505.254 5      3131.883          32.000    25300584.453 5 101874970.349 5      2399.539          35.000
> 2020 05 05 03 15 30.0000000  0 16        .000000000000
G05  20579785.414 7 108147500.762 7       375.586          47.000    20579784.008 7  84270773.643 7       292.664          47.000
G07  21660745.641 8 113827970.426 8     -1940.211          51.000    21660744.031 8  88697111.179 8     -1511.853          51.000
G13  22183134.477 5 116573149.875 5      2472.605          31.000
G28  22750849.000 8 119556521.535 8      2999.852          50.000    22750846.555 7  93160947.845 7      2337.550          45.000
G30  20356495.602 8 106974164.749 8      -108.871          51.000    20356496.219 8  83356482.553 8       -84.835          51.000
R05  20394363.477 8 109019532.300 8     -2197.262          51.000    20394365.641 8  84792978.248 8     -1708.984          49.000
R15  20265770.102 7 108294119.409 7     -2430.387          45.000    20265772.711 6  84228793.867 6     -1890.301          39.000
R16  19548217.930 8 104423093.492 8      2001.148          48.000    19548219.078 7  81217943.108 7      1556.449          44.000
C05  39785808.578 6 207175145.467 6        -2.102          36.000    39785806.750 6 160200945.190 6        -1.302          41.000
C19  24034657.930 7 125154754.562 7     -2769.898          43.000
C22  21824644.289 8 113646627.570 8      -310.539          51.000
E02  23928921.945 8 125747338.879 8      1232.535          51.000    23928923.461 8  96351885.843 8       944.404          51.000
E03  25357788.117 5 133256068.955 5     -1901.660          34.000    25357785.867 5 102105316.704 5     -1457.185          35.000
E08  21454247.820 8 112742835.882 8       280.344          51.000    21454248.141 8  86387363.122 8       214.815          51.000
E25                                                                  25576532.859 5 102986098.906 5     -1242.726          33.000
E30                                                                  25282719.555 6 101803035.696 6      2396.061          36.000
> 2020 05 05 03 16  0.0000000  0 15        .000000000000
G05  20577692.812 7 108136504.480 7       357.270          47.000    20577691.578 7  84262205.113 7       278.392          47.000
G07  21671846.648 8 113886306.998 8     -1949.113          51.000    21671844.789 8  88742568.212 8     -1518.793          51.000
G28  22733744.664 8 119466636.532 8      2992.219          49.000    22733742.586 7  93090907.589 7      2331.599          46.000
G30  20357158.242 8 106977647.323 8      -123.418          51.000    20357158.938 8  83359196.245 8       -96.170          51.000
R05  20406735.797 8 109085669.156 8     -2212.016          51.000    20406738.086 8  84844417.994 8     -1720.457          49.000
R15  20279467.320 7 108367313.464 7     -2449.480          45.000    20279467.898 6  84285722.514 6     -1905.155          37.000
R16  19537043.078 7 104363401.322 7      1978.039          47.000    19537044.414 7  81171515.878 7      1538.475          44.000
C05  39785815.961 6 207175184.018 6        -1.012          36.000    39785814.117 6 160200975.006 6         -.734          41.000
C19  24050631.906 7 125237947.907 7     -2776.211          44.000
C22  21826469.883 8 113656134.211 8      -323.418          51.000
E02  23921921.930 8 125710554.247 8      1219.547          51.000    23921923.391 8  96323700.245 8       934.422          51.000
E03                                                                  25368655.094 6 102149081.510 6     -1461.013          36.000
E08  21452665.734 8 112734520.974 8       273.805          51.000    21452665.742 8  86380991.957 8       209.798          51.000
E25  25585818.047 6 134454382.986 6     -1632.922          37.000    25585820.062 5 103023499.546 5     -1251.239          33.000
E30  25264876.406 5 132767820.700 5      3123.895          34.000    25264876.719 5 101731192.675 5      2393.158          34.000
> 2020 05 05 03 16 30.0000000  0 15        .000000000000
G05  20575707.453 7 108126072.121 7       338.035          47.000    20575706.562 7  84254075.998 7       263.404          47.000
G07  21682999.945 8 113944918.182 8     -1958.547          51.000    21682997.836 8  88788239.248 8     -1526.140          51.000
G28  22716686.109 7 119376995.146 7      2983.746          47.000    22716684.883 7  93021057.143 7      2324.997          47.000
G30  20357905.773 8 106981576.073 8      -138.449          51.000    20357906.750 8  83362257.627 8      -107.883          51.000
R05  20419193.188 8 109152260.153 8     -2227.484          51.000    20419195.266 8  84896210.983 8     -1732.488          49.000
R15  20293273.484 7 108441089.638 7     -2469.070          43.000    20293274.523 6  84343104.009 6     -1920.382          37.000
R16  19525999.438 8 104304410.001 8      1954.375          48.000    19526001.344 7  81125633.740 7      1520.069          45.000
C05  39785821.031 6 207175210.802 6         -.844          36.000    39785819.258 6 160200995.716 6         -.719          41.000
C19  24066647.742 7 125321349.573 7     -2783.852          47.000
C22  21828371.312 8 113666036.034 8      -336.887          51.000
E02  23914998.078 8 125674169.898 8      1205.832          51.000    23914999.000 8  96295821.350 8       923.976          51.000
E03                                                                  25379552.711 5 102192964.075 5     -1465.075          35.000
E08  21451123.102 8 112726413.263 8       266.539          51.000    21451122.656 8  86374779.558 8       204.270          51.000
E25  25595174.008 6 134503540.395 6     -1644.609          37.000    25595175.141 5 103061165.547 5     -1259.745          33.000
E30  25247058.336 6 132674170.965 6      3119.531          39.000    25247053.688 5 101659435.087 5      2390.356          31.000
> 2020 05 05 03 17  0.0000000  0 15        .000000000000
G05  20573825.172 8 108116180.594 8       319.910          48.000    20573824.492 8  84246368.295 8       249.278          48.000
G07  21694200.719 8 114003778.272 8     -1967.105          50.000    21694198.898 8  88834104.259 8     -1532.809          50.000
G28  22699669.438 7 119287576.291 7      2975.910          45.000    22699669.531 7  92951380.093 7      2318.891          45.000
G30  20358733.523 8 106985926.455 8      -152.988          51.000    20358734.484 8  83365647.540 8      -119.212          51.000
R05  20431730.539 8 109219280.231 8     -2241.996          51.000    20431732.922 8  84948337.701 8     -1743.775          49.000
R15  20307183.367 7 108515420.450 7     -2487.891          46.000    20307185.445 5  84400916.896 5     -1935.029          34.000
R16  19515083.117 7 104246096.798 7      1931.617          47.000    19515085.492 7  81080279.022 7      1502.369          44.000
C05  39785819.461 5 207175201.348 5         -.484          35.000    39785817.602 6 160200989.160 6         -.088          41.000
C19  24082700.430 8 125404934.909 8     -2790.125          50.000
C22  21830344.242 8 113676310.064 8      -349.609          51.000
E02  23908146.156 8 125638162.839 8      1192.895          51.000    23908146.758 8  96268231.529 8       914.042          51.000
E03  25390480.992 6 133427880.654 6     -1916.613          37.000    25390475.188 5 102236946.266 5     -1468.538          35.000
E08  21449615.422 8 112718489.727 8       260.059          51.000    21449614.625 8  86368708.283 8       199.242          51.000
E25  25604589.656 5 134553025.932 5     -1655.043          34.000    25604591.562 5 103099078.658 5     -1268.760          32.000
E30  25229255.766 6 132580610.716 6      3116.238          40.000
> 2020 05 05 03 17 30.0000000  0 15        .000000000000
G05  20572059.422 8 108106900.497 8       299.520          48.000    20572058.883 8  84239137.032 8       233.392          48.000
G07  21705461.867 8 114062955.246 8     -1977.480          50.000    21705460.414 8  88880216.190 8     -1540.894          50.000
G28  22682708.766 7 119198452.540 7      2966.160          44.000    22682710.016 7  92881932.992 7      2311.291          43.000
G30  20359654.633 8 106990767.394 8      -169.199          51.000    20359655.375 8  83369419.705 8      -131.844          51.000
R05  20444361.266 8 109286799.988 8     -2258.555          51.000    20444363.805 8  85000853.087 8     -1756.654          49.000
R15  20321209.805 7 108590373.219 7     -2508.461          43.000    20321210.406 5  84459213.436 5     -1951.025          33.000
R16  19504307.516 7 104188534.441 7      1906.516          47.000    19504309.922 7  81035508.320 7      1482.845          44.000
C05  39785824.359 6 207175227.746 6        -1.125          36.000    39785822.516 6 160201008.779 6         -.665          41.000
C19  24098802.344 8 125488772.127 8     -2798.336          51.000
C22  21832401.797 8 113687025.886 8      -364.145          51.000
E02  23901379.477 8 125602603.425 8      1178.246          51.000    23901380.273 8  96240984.718 8       902.842          51.000
E03  25401442.539 6 133485480.734 6     -1922.684          40.000    25401437.883 6 102281081.386 6     -1473.471          38.000
E08  21448156.062 8 112710820.687 8       251.809          51.000    21448155.070 8  86362832.002 8       192.938          51.000
E25  25614077.648 5 134602886.034 5     -1667.516          34.000
E30  25211482.742 6 132487211.362 6      3111.020          39.000
> 2020 05 05 03 18  0.0000000  0 14        .000000000000
G05  20570401.336 8 108098185.816 8       281.027          48.000    20570400.227 8  84232346.374 8       218.982          48.000
G07  21716774.086 8 114122400.711 8     -1986.008          50.000    21716772.703 8  88926537.333 8     -1547.539          50.000
G28  22665795.906 6 119109580.181 6      2958.082          40.000    22665797.898 6  92812681.773 6      2304.999          41.000
G30  20360660.117 8 106996051.168 8      -183.555          51.000    20360661.031 8  83373536.952 8      -143.027          51.000
R05  20457076.211 8 109354771.244 8     -2273.289          50.000    20457079.047 8  85053719.602 8     -1768.117          48.000
R15  20335342.656 7 108665896.614 7     -2526.969          45.000    20335345.367 5  84517953.894 5     -1965.420          33.000
R16  19493663.734 7 104131676.844 7      1883.398          47.000    19493666.102 7  80991285.763 7      1464.865          42.000
C05  39785826.828 6 207175240.558 6         -.199          36.000    39785824.938 6 160201018.710 6         -.281          41.000
C19  24114943.555 8 125572813.793 8     -2804.867          51.000
C22  21834535.289 8 113698137.597 8      -377.055          51.000
E02  23894689.305 8 125567445.516 8      1165.176          51.000    23894690.258 8  96214045.552 8       892.758          51.000
E03  25412429.930 6 133543233.712 6     -1927.789          41.000    25412429.875 6 102325333.569 6     -1477.131          39.000
E08  21446736.359 8 112703360.012 8       245.160          51.000    21446735.156 8  86357115.391 8       187.823          51.000
E30  25193732.047 6 132393927.711 6      3107.367          38.000    25193731.078 5 101444723.714 5      2381.221          35.000
> 2020 05 05 03 18 30.0000000  0 14        .000000000000
G05  20568859.039 8 108090080.842 8       260.652          49.000    20568857.664 8  84226030.796 8       203.106          49.000
G07  21728145.227 8 114182156.563 8     -1996.223          50.000    21728143.867 8  88973100.327 8     -1555.498          50.000
G28  22648938.898 5 119021005.080 5      2948.215          35.000    22648941.570 6  92743662.280 6      2297.313          36.000
G30  20361758.047 8 107001820.422 8      -199.781          51.000    20361758.875 8  83378032.494 8      -155.674          51.000
R05  20469884.500 8 109423237.668 8     -2289.754          51.000    20469886.727 7  85106971.255 7     -1780.920          47.000
R15  20349590.523 7 108742031.576 7     -2547.359          44.000    20349595.406 4  84577170.010 4     -1981.280          28.000
R16  19483160.312 7 104075569.825 7      1858.344          47.000    19483162.398 6  80947646.991 6      1445.375          41.000
C05  39785835.242 6 207175283.836 6         -.828          36.000    39785833.289 6 160201052.177 6         -.970          41.000
C19  24131131.328 8 125657102.041 8     -2813.062          50.000
C22  21836753.172 8 113709688.706 8      -391.707          51.000
E02  23888083.969 8 125532733.133 8      1150.293          51.000    23888084.898 8  96187447.758 8       881.414          51.000
E03  25423457.047 7 133601182.682 7     -1934.195          43.000    25423457.844 6 102369736.021 6     -1482.046          39.000
E08  21445364.688 8 112696151.779 8       236.707          51.000    21445363.344 8  86351592.198 8       181.430          51.000
E30                                                                  25176007.711 6 101373369.804 6      2377.294          38.000
> 2020 05 05 03 19  0.0000000  0 14        .000000000000
G05  20567422.008 8 108082528.835 8       242.059          49.000    20567420.508 8  84220146.105 8       188.617          49.000
G07  21739564.234 8 114242164.201 8     -2004.992          49.000    21739562.945 8  89019859.539 8     -1562.329          49.000
G28  22632129.664 6 118932673.402 6      2939.805          38.000    22632130.477 6  92674832.374 6      2290.760          36.000
G30  20362937.398 8 107008017.310 8      -214.262          51.000    20362937.719 8  83382861.258 8      -166.954          51.000
R05  20482774.344 8 109492140.341 8     -2304.523          51.000    20482775.969 8  85160562.222 8     -1792.407          48.000
R15  20363941.219 7 108818716.219 7     -2565.863          45.000    20363940.641 4  84636786.914 4     -1995.671          26.000
R16  19472786.883 7 104020156.920 7      1835.102          47.000    19472787.883 6  80904548.077 6      1427.301          40.000
C05  39785838.547 6 207175301.186 6         -.254          36.000    39785836.609 6 160201065.570 6         -.480          41.000
C19  24147354.594 8 125741579.360 8     -2819.621          49.000
C22  21839044.867 8 113721623.225 8      -404.711          51.000
E02  23881552.641 8 125498409.948 8      1137.117          51.000    23881553.867 8  96161148.191 8       871.283          51.000
E03  25434510.500 7 133659270.740 7     -1938.855          42.000    25434512.156 6 102414245.045 6     -1485.811          40.000
E08  21444030.328 8 112689139.663 8       229.934          51.000    21444028.875 8  86346219.277 8       176.216          51.000
E30                                                                  25158305.500 6 101302096.741 6      2373.948          40.000
> 2020 05 05 03 19 30.0000000  0 15        .000000000000
G05  20566084.500 8 108075499.797 8       222.980          50.000    20566082.484 8  84214668.948 8       173.751          50.000
G07  21751024.938 8 114302390.699 8     -2013.734          48.000    21751023.594 8  89066789.284 8     -1569.141          48.000
G13  22071200.977 5 115984965.345 5      2427.910          34.000
G28  22615362.312 6 118844556.841 6      2930.848          40.000    22615360.609 5  92606170.138 5      2283.777          34.000
G30  20364191.891 8 107014609.734 8      -228.918          51.000    20364192.312 8  83387998.230 8      -178.375          51.000
R05  20495739.484 8 109561446.933 8     -2319.531          51.000    20495741.594 8  85214467.301 8     -1804.080          48.000
R15  20378388.664 7 108895915.456 7     -2584.555          43.000    20378403.578 5  84696830.329 5     -2010.206          31.000
R16  19462537.516 8 103965407.801 8      1811.273          48.000    19462537.922 6  80861965.443 6      1408.768          41.000
C05  39785830.906 5 207175261.636 5         -.324          35.000    39785829.031 6 160201034.989 6         -.314          41.000
C19  24163607.492 8 125826213.815 8     -2826.227          49.000
C22  21841404.297 8 113733910.673 8      -417.988          51.000
E02  23875089.531 8 125464445.373 8      1123.590          51.000    23875091.023 8  96135123.403 8       860.941          51.000
E03  25445584.312 6 133717466.653 6     -1944.266          41.000    25445586.766 6 102458836.638 6     -1489.885          39.000
E08  21442727.391 8 112682293.101 8       222.871          51.000    21442725.969 8  86340973.210 8       170.768          51.000
E30                                                                  25140618.297 7 101230881.830 7      2370.868          42.000
> 2020 05 05 03 20  0.0000000  0 14        .000000000000
G05  20564879.484 8 108069167.898 8       200.438          49.000    20564877.617 8  84209735.007 8       156.182          49.000
G07  21762560.086 8 114363007.988 8     -2026.168          48.000    21762558.562 8  89114023.553 8     -1578.829          48.000
G28  22598669.836 7 118756832.022 7      2918.527          42.000    22598666.680 6  92537813.216 6      2274.180          36.000
G30  20365554.555 8 107021770.587 8      -247.227          51.000    20365555.531 8  83393578.135 8      -192.644          51.000
R05  20508813.695 8 109631333.742 8     -2338.254          51.000    20508815.688 8  85268823.714 8     -1818.642          48.000
R15  20392963.617 7 108973802.092 7     -2606.914          42.000
R16  19452445.812 8 103911500.842 8      1783.719          48.000    19452446.680 7  80820037.835 7      1387.340          43.000
C05  39785845.430 6 207175337.337 6        -3.230          36.000    39785843.633 6 160201093.532 6        -2.679          41.000
C19  24179923.125 8 125911176.579 8     -2836.570          49.000
C22  21843864.461 8 113746723.697 8      -434.996          51.000
E02  23868728.008 8 125431013.767 8      1106.453          51.000    23868729.266 8  96109506.981 8       847.811          51.000
E03  25456712.164 6 133775944.000 6     -1952.871          40.000    25456714.055 6 102503643.944 6     -1496.604          37.000
E08  21441489.156 8 112675786.500 8       212.172          51.000    21441487.758 8  86335987.633 8       162.579          51.000
E30  25122980.242 6 132022142.260 6      3086.371          38.000    25122979.805 7 101159859.510 7      2364.876          43.000
> 2020 05 05 03 20 30.0000000  0 15        .000000000000
G05  20563770.453 8 108063341.382 8       188.043          49.000    20563769.148 8  84205194.849 8       146.527          49.000
G07  21774132.789 8 114423822.389 8     -2028.156          48.000    21774131.070 8  89161411.408 8     -1580.381          48.000
G13  22043567.492 5 115839730.059 5      2418.980          30.000
G28  22582015.672 7 118669309.196 7      2916.398          45.000    22582012.102 6  92469613.645 6      2272.518          38.000
G30  20366988.641 8 107029306.634 8      -255.215          51.000    20366989.648 8  83399450.375 8      -198.869          51.000
R05  20521959.492 8 109701604.347 8     -2346.484          51.000    20521961.984 8  85323478.588 8     -1825.043          49.000
R15  20407630.227 7 109052177.049 7     -2618.117          42.000
R16  19442475.539 8 103858241.682 8      1766.684          48.000    19442477.156 7  80778614.053 7      1374.087          44.000
C05  39785845.555 5 207175337.818 5         3.375          35.000    39785843.773 6 160201093.886 6         2.501          41.000
C19  24196264.891 8 125996276.031 8     -2836.789          48.000
C22  21846389.500 8 113759872.077 8      -441.719          51.000
E02  23862431.398 8 125397923.363 8      1099.523          51.000    23862432.602 8  96084152.004 8       842.447          51.000
E03  25467856.586 6 133834510.454 6     -1951.426          37.000    25467858.414 6 102548519.493 6     -1495.215          37.000
E08  21440279.172 8 112669428.151 8       211.637          51.000    21440277.820 8  86331115.651 8       162.130          51.000
E30  25105355.156 6 131929512.735 6      3088.664          39.000    25105353.102 7 101088883.634 7      2366.627          43.000
> 2020 05 05 03 21  0.0000000  0 15        .000000000000
G05  20562765.305 8 108058059.656 8       164.996          50.000    20562764.000 8  84201079.212 8       128.568          50.000
G07  21785750.055 7 114484870.818 7     -2040.887          47.000    21785747.891 7  89208981.612 7     -1590.301          47.000
G13  22029787.586 5 115767319.409 5      2409.375          35.000
G28  22565408.156 7 118582030.021 7      2903.059          47.000    22565404.641 6  92401603.882 6      2262.124          40.000
G30  20368501.383 8 107037255.650 8      -273.852          51.000    20368502.305 8  83405644.410 8      -213.391          51.000
R05  20535184.328 8 109772297.356 8     -2365.512          51.000    20535186.484 8  85378462.050 8     -1839.839          48.000
R15  20422395.031 6 109131075.871 6     -2640.652          40.000
R16  19432634.312 8 103805670.982 8      1738.758          48.000    19432636.500 7  80737725.739 7      1352.367          45.000
C05  39785838.602 6 207175301.319 6         -.406          36.000    39785836.742 6 160201065.643 6         -.199          41.000
C19  24212640.188 7 126081549.476 7     -2847.395          47.000
C22  21848986.750 8 113773394.588 8      -459.012          51.000
E02  23856206.938 8 125365213.423 8      1081.871          51.000    23856208.219 8  96059088.561 8       828.909          51.000
E03  25479025.141 6 133893204.543 6     -1960.324          37.000    25479028.023 6 102593492.857 6     -1502.330          36.000
E08  21439105.008 8 112663257.382 8       200.441          51.000    21439103.570 8  86326387.405 8       153.582          51.000
E30  25087747.883 6 131836984.136 6      3080.402          40.000    25087745.867 7 101017985.091 7      2360.281          43.000
> 2020 05 05 03 21 30.0000000  0 14        .000000000000
G05  20561888.922 8 108053453.820 8       142.562          50.000    20561887.523 8  84197490.253 8       111.088          51.000
G07  21797436.359 7 114546282.512 7     -2052.730          47.000    21797433.820 7  89256834.887 7     -1599.530          47.000
G28  22548872.234 7 118495128.171 7      2890.715          47.000    22548868.656 7  92333888.129 7      2252.502          42.000
G30  20370117.398 8 107045747.515 8      -291.762          51.000    20370118.680 8  83412261.468 8      -227.344          51.000
R05  20548512.695 8 109843545.295 8     -2383.805          51.000    20548514.930 8  85433877.075 8     -1854.070          48.000
R15  20437281.820 6 109210628.109 6     -2662.160          39.000
R16  19422947.258 8 103753923.270 8      1711.625          49.000    19422949.938 7  80697477.502 7      1331.264          46.000
C05  39785849.398 6 207175357.477 6        -3.234          36.000    39785847.492 6 160201109.049 6        -2.353          41.000
C19  24229073.992 7 126167125.525 7     -2857.094          46.000
C22  21851680.625 8 113787421.265 8      -475.594          51.000
E02  23850079.672 8 125333015.284 8      1065.094          51.000    23850080.617 8  96034417.266 8       816.087          51.000
E03  25490243.234 6 133952157.104 6     -1969.082          36.000    25490245.133 5 102638664.252 5     -1508.846          35.000
E08  21437991.555 8 112657405.677 8       190.086          51.000    21437990.156 8  86321903.639 8       145.629          51.000
E30  25070184.031 7 131744689.001 7      3072.988          42.000    25070183.258 7 100947265.427 7      2354.612          43.000
> 2020 05 05 03 22  0.0000000  0 15        .000000000000
G05  20561113.094 8 108049376.420 8       124.559          51.000    20561111.492 8  84194313.058 8        97.059          51.000
G07  21809163.164 7 114607907.241 7     -2060.094          47.000    21809160.523 7  89304854.128 7     -1605.268          47.000
G28  22532379.758 7 118408458.041 7      2882.762          47.000    22532376.477 7  92266352.953 7      2246.308          42.000
G30  20371808.289 8 107054632.954 8      -305.137          51.000    20371809.633 8  83419185.192 8      -237.769          51.000
R05  20561916.430 8 109915196.284 8     -2397.617          51.000    20561918.375 8  85489605.618 8     -1864.813          48.000
R15  20452262.820 6 109290679.171 6     -2679.000          39.000
R16  19413386.062 8 103702849.073 8      1688.734          48.000    19413388.977 7  80657753.115 7      1313.460          46.000
C05  39785849.773 5 207175360.256 5        -1.859          35.000    39785847.812 6 160201110.415 6        -1.112          41.000
C19  24245537.016 7 126252856.043 7     -2862.527          43.000
C22  21854443.047 8 113801805.529 8      -487.832          51.000
E02  23844021.805 8 125301181.167 8      1052.586          51.000    23844022.383 8  96010024.888 8       806.539          51.000
E03  25501482.266 5 134011193.668 5     -1973.406          35.000    25501483.953 6 102683919.972 6     -1511.752          37.000
E08  21436910.641 8 112651725.330 8       184.016          51.000    21436909.516 8  86317551.162 8       141.011          51.000
E25  25702441.203 5 135067211.521 5     -1771.863          35.000
E30  25052636.836 7 131652480.536 7      3069.695          43.000    25052636.500 6 100876612.162 6      2352.116          41.000
> 2020 05 05 03 22 30.0000000  0 15        .000000000000
G05  20560450.602 8 108045894.641 8       107.145          51.000    20560448.688 8  84191599.988 8        83.489          51.000
G07  21820943.016 7 114669810.222 7     -2067.055          46.000    21820940.617 7  89353090.209 7     -1610.695          46.000
G28  22515944.281 7 118322089.209 7      2874.914          46.000    22515941.727 7  92199052.542 7      2240.193          45.000
G30  20373586.547 8 107063977.824 8      -318.172          51.000    20373587.945 8  83426466.919 8      -247.923          51.000
R05  20575408.016 8 109987317.741 8     -2410.867          51.000    20575410.398 8  85545700.068 8     -1875.119          49.000
R15  20467349.133 6 109371293.148 6     -2695.637          38.000    20467351.055 4  85066577.372 4     -2096.606          26.000
R16  19403963.953 8 103652517.816 8      1666.402          48.000    19403966.680 7  80618606.592 7      1296.091          45.000
C05  39785852.359 5 207175372.898 5          .387          35.000    39785850.383 6 160201120.971 6          .338          41.000
C19  24262040.477 6 126338806.158 6     -2867.961          39.000
C22  21857287.219 8 113816613.897 8      -499.594          51.000
E02  23838046.180 8 125269778.391 8      1040.719          51.000    23838046.625 8  95985963.039 8       797.413          51.000
E03  25512754.820 5 134070432.890 5     -1976.320          35.000    25512757.070 6 102729311.104 6     -1514.353          36.000
E08  21435875.008 8 112646283.746 8       178.520          51.000    21435874.305 8  86313381.642 8       136.764          51.000
E25  25712581.133 5 135120492.551 5     -1780.820          35.000
E30  25035119.391 7 131560427.194 7      3066.984          42.000    25035118.609 6 100806077.775 6      2349.970          41.000
> 2020 05 05 03 23  0.0000000  0 16        .000000000000
G05  20559890.180 8 108042949.551 8        87.348          51.000    20559888.219 8  84189305.120 8        68.063          51.000
G07  21832764.117 7 114731930.104 7     -2075.930          44.000    21832762.102 7  89401495.323 7     -1617.608          44.000
G13  21975049.875 5 115479650.161 5      2385.742          31.000    21975056.828 4  89984183.333 4      1859.020          29.000
G28  22499554.820 7 118235964.822 7      2864.988          47.000    22499553.172 7  92131942.619 7      2232.458          46.000
G30  20375440.703 8 107073721.462 8      -333.289          51.000    20375442.273 8  83434059.369 8      -259.706          51.000
R05  20588976.125 8 110059848.056 8     -2426.406          51.000    20588978.766 8  85602112.543 8     -1887.205          49.000
R15  20482529.344 6 109452405.980 6     -2713.676          36.000    20482528.281 4  85129663.076 4     -2110.640          25.000
R16  19394669.836 7 103602869.486 7      1641.672          47.000    19394671.625 7  80579991.192 7      1276.856          44.000
C05  39785846.047 6 207175340.170 6          .344          36.000    39785843.898 6 160201094.883 6          .124          41.000
C19  24278576.359 7 126424915.763 7     -2874.777          44.000
C22  21860201.523 8 113831787.590 8      -513.676          51.000
E02  23832141.281 8 125238747.753 8      1026.320          51.000    23832141.617 8  95962186.332 8       786.398          51.000
E03  25524050.891 6 134129790.091 6     -1982.312          37.000    25524052.375 6 102774791.830 6     -1518.762          38.000
E08  21434873.438 8 112641021.869 8       170.551          51.000    21434873.109 8  86309349.811 8       130.679          51.000
E25  25722775.094 5 135174094.890 5     -1792.754          31.000
E30  25017620.703 7 131468470.843 7      3061.645          43.000    25017620.039 6 100735617.749 6      2345.849          40.000
> 2020 05 05 03 23 30.0000000  0 14        .000000000000
G05  20559452.414 8 108040649.808 8        66.961          51.000    20559450.812 8  84187513.111 8        52.177          51.000
G07  21844646.547 7 114794373.525 7     -2085.750          43.000    21844644.938 7  89450152.562 7     -1625.260          44.000
G28  22483233.164 8 118150196.070 8      2854.141          48.000    22483232.125 7  92065109.832 7      2224.006          45.000
G30  20377391.219 8 107083971.094 8      -349.031          51.000    20377392.977 8  83442046.096 8      -271.972          51.000
R05  20602641.562 8 110132896.557 8     -2442.469          51.000    20602644.469 8  85658928.034 8     -1899.698          49.000
R15  20497820.500 6 109534123.459 6     -2732.758          37.000    20497815.859 4  85193193.698 4     -2125.475          26.000
R16  19385523.891 7 103554015.645 7      1616.324          46.000    19385525.797 7  80541993.787 7      1257.141          44.000
C05  39785850.992 6 207175366.348 6         -.992          36.000    39785848.945 6 160201115.102 6         -.616          41.000
C19  24295165.375 7 126511291.055 7     -2882.648          47.000
C22  21863206.383 8 113847434.204 8      -528.414          51.000
E02  23826327.844 8 125208197.979 8      1011.477          51.000    23826327.805 8  95938778.069 8       774.992          51.000
E03  25535390.625 6 134189371.278 6     -1988.742          41.000    25535391.008 6 102820444.944 6     -1523.644          37.000
E08  21433926.820 8 112636048.548 8       162.094          51.000    21433926.781 8  86305539.082 8       124.193          51.000
E30  25000162.125 7 131376721.357 7      3055.980          42.000    25000160.578 6 100665316.238 6      2341.416          38.000
> 2020 05 05 03 24  0.0000000  0 14        .000000000000
G05  20559120.297 8 108038904.990 8        48.676          51.000    20559119.117 8  84186153.512 8        37.929          51.000
G07  21856572.992 7 114857048.352 7     -2093.250          43.000    21856571.477 7  89498990.096 7     -1631.104          44.000
G28  22466962.492 8 118064694.965 8      2845.406          48.000    22466961.914 7  91998485.592 7      2217.200          44.000
G30  20379420.500 8 107094635.121 8      -362.652          51.000    20379422.344 8  83450355.740 8      -282.586          51.000
R05  20616386.695 8 110206370.269 8     -2456.492          51.000    20616389.375 8  85716074.216 8     -1910.605          48.000
R15  20513208.625 6 109616350.361 6     -2749.500          36.000    20513212.969 5  85257157.390 5     -2138.500          31.000
R16  19376510.062 8 103505865.333 8      1593.031          48.000    19376511.438 7  80504543.554 7      1239.024          43.000
C05  39785850.320 6 207175362.578 6          .434          36.000    39785848.125 6 160201112.193 6          .196          41.000
C19  24311787.906 8 126597841.124 8     -2888.230          49.000
C22  21866284.641 8 113863464.250 8      -540.984          51.000
E02  23820588.789 8 125178038.915 8       998.434          51.000    23820588.664 8  95915669.166 8       765.129          51.000
E03  25546755.977 6 134249086.822 6     -1993.031          41.000    25546754.531 5 102866201.059 5     -1527.140          34.000
E08  21433018.172 8 112631273.779 8       155.562          51.000    21433018.344 8  86301880.493 8       119.191          51.000
E30  24982726.695 6 131285089.703 6      3052.289          39.000    24982723.180 6 100595105.028 6      2338.608          39.000
> 2020 05 05 03 24 30.0000000  0 14        .000000000000
G05  20558899.266 8 108037744.261 8        28.848          51.000    20558898.375 8  84185249.044 8        22.479          51.000
G07  21868548.750 7 114919981.538 7     -2102.168          44.000    21868547.141 7  89548028.950 7     -1638.053          45.000
G28  22450748.531 7 117979492.968 7      2835.055          47.000    22450748.883 7  91932094.430 7      2209.134          43.000
G30  20381534.023 8 107105741.356 8      -377.543          51.000    20381535.539 8  83459009.933 8      -294.189          51.000
R05  20630216.648 8 110280297.650 8     -2471.801          51.000    20630218.844 8  85773573.268 8     -1922.512          48.000
R15  20528695.156 5 109699111.593 5     -2767.930          33.000    20528706.664 4  85321527.430 4     -2152.825          28.000
R16  19367633.766 7 103458448.799 7      1568.172          47.000    19367634.883 7  80467664.034 7      1219.689          44.000
C05  39785849.312 6 207175357.350 6          .359          36.000    39785847.141 6 160201108.127 6          .214          41.000
C19  24328448.469 8 126684593.379 8     -2894.973          49.000
C22  21869441.922 8 113879906.562 8      -554.945          51.000
E02  23814929.391 8 125148299.735 8       984.312          51.000    23814929.773 8  95892882.026 8       754.234          51.000
E03  25558151.570 7 134308965.337 7     -1998.641          42.000    25558149.336 5 102912081.971 5     -1531.172          33.000
E08  21432153.070 8 112626726.934 8       147.805          51.000    21432153.336 8  86298396.550 8       113.244          51.000
E30  24965320.766 6 131193606.259 6      3047.094          37.000    24965315.141 6 100525007.343 6      2334.888          40.000
> 2020 05 05 03 25  0.0000000  0 14        .000000000000
G05  20558787.648 8 108037158.288 8        10.004          51.000    20558786.797 8  84184792.450 8         7.795          51.000
G07  21880571.477 7 114983161.161 7     -2110.016          44.000    21880569.836 7  89597259.804 7     -1644.168          43.000
G28  22434590.336 7 117894582.644 7      2825.504          47.000    22434591.352 7  91865930.553 7      2201.694          43.000
G30  20383729.492 8 107117278.499 8      -391.668          51.000    20383731.047 8  83467999.917 8      -305.196          51.000
R05  20644128.875 8 110354667.521 8     -2486.262          51.000    20644131.688 8  85831416.444 8     -1933.762          49.000
R15  20544280.672 6 109782393.551 6     -2784.992          37.000
R16  19358892.961 7 103411757.190 7      1544.406          47.000    19358894.578 7  80431348.352 7      1201.205          44.000
C05  39785846.086 6 207175340.564 6          .871          36.000    39785843.977 6 160201095.141 6          .764          41.000
C19  24345144.953 7 126771536.578 7     -2901.121          47.000
C22  21872676.641 8 113896751.342 8      -568.219          51.000
E02  23809348.164 8 125118970.730 8       970.844          51.000    23809348.875 8  95870409.160 8       743.917          51.000
E03  25569576.086 7 134368996.417 7     -2003.645          42.000    25569575.242 5 102958079.737 5     -1535.060          34.000
E08  21431329.539 8 112622398.432 8       140.680          51.000    21431329.852 8  86295079.920 8       107.823          51.000
E30                                                                  24947933.914 7 100455016.636 7      2331.272          42.000
> 2020 05 05 03 25 30.0000000  0 14        .000000000000
G05  20558788.375 8 108037161.560 8        -9.340          51.000    20558787.469 8  84184795.001 8        -7.278          51.000
G07  21892643.500 7 115046600.116 7     -2118.488          43.000    21892642.008 7  89646692.740 7     -1650.770          43.000
G28  22418491.320 8 117809981.296 8      2815.555          48.000    22418492.062 6  91800007.466 6      2193.942          39.000
G30  20386009.539 8 107129260.026 8      -406.230          51.000    20386011.227 8  83477336.187 8      -316.543          51.000
R05  20658126.164 8 110429493.608 8     -2501.176          51.000    20658129.680 8  85889614.514 8     -1945.359          48.000
R15  20559965.875 5 109866206.993 5     -2802.406          33.000    20559972.930 4  85451496.185 4     -2179.652          26.000
R16  19350290.906 8 103365805.893 8      1519.918          48.000    19350292.875 7  80395608.438 7      1182.158          45.000
C05  39785843.305 6 207175326.554 6          .766          36.000    39785841.297 6 160201084.286 6          .761          41.000
C19  24361880.859 7 126858683.878 7     -2907.723          47.000
C22  21875991.406 8 113914013.208 8      -581.754          51.000
E02  23803847.680 8 125090066.755 8       956.910          51.000    23803848.852 8  95848261.970 8       733.205          51.000
E03  25581031.945 6 134429194.436 6     -2009.191          36.000    25581030.312 5 103004205.317 5     -1539.112          33.000
E08  21430550.281 8 112618303.366 8       133.199          51.000    21430550.852 8  86291942.152 8       102.035          51.000
E30                                                                  24930581.992 7 100385145.188 7      2327.438          43.000
> 2020 05 05 03 26  0.0000000  0 15        .000000000000
G05  20558899.266 8 108037743.622 8       -30.426          51.000    20558898.367 8  84185248.554 8       -23.708          51.000
G07  21904762.391 7 115110285.588 7     -2128.363          42.000    21904761.266 7  89696317.765 7     -1658.465          42.000
G28  22402449.477 7 117725680.500 7      2803.668          46.000    22402449.375 6  91734318.635 6      2184.679          38.000
G30  20388371.820 8 107141673.841 8      -422.355          51.000    20388373.148 8  83487009.286 8      -329.108          51.000
R05  20672206.781 8 110504763.856 8     -2517.891          51.000    20672210.625 8  85948158.050 8     -1958.356          49.000
R15  20575745.742 5 109950536.674 5     -2821.176          32.000    20575761.828 4  85517086.062 4     -2194.248          28.000
R16  19341825.453 7 103320584.618 7      1493.676          47.000    19341827.719 7  80360436.333 7      1161.748          45.000
C05  39785838.984 6 207175304.304 6         -.359          36.000    39785837.141 6 160201067.074 6         -.359          41.000
C19  24378653.266 7 126946023.251 7     -2915.898          46.000
C22  21879384.070 8 113931681.506 8      -597.141          51.000
E02  23798426.062 8 125061577.188 8       941.309          51.000    23798427.922 8  95826432.294 8       721.283          51.000
E03  25592516.508 5 134489548.247 5     -2015.801          35.000    25592515.406 6 103050450.372 6     -1544.703          37.000
E08  21429813.250 8 112614431.305 8       123.902          51.000    21429814.359 8  86288975.252 8        94.962          51.000
E25  25785294.281 6 135502636.313 6     -1858.832          36.000
E30  24913247.008 5 130919994.782 5      3030.578          34.000    24913257.586 7 100315385.779 7      2322.284          43.000
> 2020 05 05 03 26 30.0000000  0 15        .000000000000
G05  20559122.109 8 108038914.063 8       -49.258          51.000    20559120.938 8  84186160.588 8       -38.383          51.000
G07  21916929.508 7 115174225.152 7     -2136.051          42.000    21916928.766 7  89746140.830 7     -1664.455          42.000
G28  22386466.742 7 117641692.427 7      2793.816          42.000    22386465.812 6  91668873.477 6      2177.003          39.000
G30  20390817.906 8 107154528.151 8      -436.156          51.000    20390819.031 8  83497025.635 8      -339.862          51.000
R05  20686371.742 8 110580486.733 8     -2532.055          50.000    20686376.031 8  86007053.622 8     -1969.376          48.000
R15  20591625.867 5 110035388.737 5     -2837.598          33.000    20591646.211 4  85583082.057 4     -2207.020          28.000
R16  19333498.453 7 103276103.659 7      1469.793          47.000    19333500.742 7  80325840.038 7      1143.175          45.000
C05  39785834.812 5 207175281.911 5          .512          35.000    39785833.023 6 160201050.532 6          .057          41.000
C19  24395463.492 7 127033562.832 7     -2921.840          46.000
C22  21882856.539 8 113949765.657 8      -610.180          51.000
E02  23793085.062 8 125033511.699 8       927.941          51.000    23793087.422 8  95804927.555 8       710.972          51.000
E03  25604031.320 6 134550066.854 6     -2020.617          39.000    25604031.781 6 103096821.808 6     -1548.065          38.000
E08  21429120.453 8 112610792.083 8       116.922          51.000    21429122.172 8  86286186.759 8        89.515          51.000
E25  25795928.352 5 135558519.366 5     -1868.246          35.000
E30  24895952.531 5 130829109.788 5      3026.523          34.000    24895962.586 7 100245746.673 7      2318.890          44.000
> 2020 05 05 03 27  0.0000000  0 13        .000000000000
G05  20559458.445 8 108040681.210 8       -68.695          51.000    20559456.977 8  84187537.582 8       -53.529          51.000
G07  21929146.312 7 115238425.402 7     -2144.156          44.000    21929145.352 7  89796166.979 7     -1670.771          44.000
G28  22370544.117 5 117558027.528 5      2783.559          34.000    22370544.195 5  91603680.104 5      2169.007          32.000
G30  20393349.148 8 107167830.021 8      -450.523          51.000    20393350.320 8  83507390.733 8      -351.057          51.000
R05  20700623.273 8 110656669.599 8     -2546.883          51.000    20700627.141 8  86066306.972 8     -1980.909          48.000
R16  19325312.148 7 103232372.592 7      1445.453          47.000    19325314.125 7  80291827.000 7      1124.244          44.000
C05  39785832.531 6 207175270.380 6          .406          36.000    39785830.641 6 160201040.825 6          .408          41.000
C19  24412314.492 8 127121309.417 8     -2927.980          48.000
C22  21886410.852 8 113968273.902 8      -623.844          51.000
E02  23787826.305 8 125005878.690 8       914.250          51.000    23787828.953 8  95783754.205 8       700.487          51.000
E03  25615578.969 6 134610758.301 6     -2025.672          38.000    25615581.594 6 103143325.699 6     -1551.995          41.000
E08  21428473.664 8 112607394.394 8       109.496          51.000    21428475.820 8  86283583.326 8        83.900          51.000
E30  24878690.484 5 130738394.472 5      3021.652          34.000    24878699.117 7 100176235.291 7      2315.083          44.000
> 2020 05 05 03 27 30.0000000  0 13        .000000000000
G05  20559907.914 8 108043042.992 8       -87.449          51.000    20559906.312 8  84189377.927 8       -68.142          51.000
G07  21941412.195 7 115302882.323 7     -2151.738          45.000    21941410.312 7  89846393.108 7     -1676.679          44.000
G30  20395964.945 8 107181576.072 8      -464.457          51.000    20395965.883 8  83518101.948 8      -361.915          51.000
R05  20714960.375 8 110733309.316 8     -2561.023          50.000    20714964.172 8  86125915.624 8     -1991.910          48.000
R15  20623677.242 5 110206687.706 5     -2870.871          33.000    20623674.406 4  85716302.528 4     -2232.909          27.000
R16  19317265.492 7 103189389.868 7      1421.516          47.000    19317267.117 7  80258395.997 7      1105.623          44.000
C05  39785831.367 6 207175263.495 6         1.066          36.000    39785829.492 6 160201036.226 6         1.081          41.000
C19  24429204.812 8 127209259.698 8     -2933.863          48.000
C22  21890046.211 8 113987204.257 8      -636.836          51.000
E02  23782649.758 8 124978676.335 8       900.777          51.000    23782652.367 8  95762910.832 8       690.206          51.000
E03  25627158.734 6 134671620.425 6     -2030.309          39.000    25627163.688 6 103189960.194 6     -1555.889          40.000
E08  21427872.578 8 112604236.629 8       102.426          51.000    21427875.008 8  86281163.739 8        78.500          51.000
E30  24861458.914 5 130647848.291 5      3016.766          33.000    24861467.250 7 100106851.142 7      2311.551          43.000
> 2020 05 05 03 28  0.0000000  0 14        .000000000000
G05  20560447.406 8 108045877.562 8      -106.969          51.000    20560445.555 8  84191586.690 8       -83.349          51.000
G07  21953703.477 7 115367472.420 7     -2159.848          44.000    21953701.008 7  89896723.055 7     -1682.998          43.000
G13  21840655.742 5 114773398.469 5      2322.777          34.000
G28  22338866.750 6 117391530.623 6      2763.184          39.000    22338867.172 6  91473920.673 6      2153.130          39.000
G30  20398641.750 8 107195643.538 8      -478.770          51.000    20398642.656 8  83529063.617 8      -373.067          51.000
R05  20729359.688 8 110810281.042 8     -2575.941          51.000    20729363.273 7  86185782.484 7     -2003.510          47.000
R16  19309335.680 7 103147032.544 7      1396.918          46.000    19309337.703 7  80225451.407 7      1086.492          44.000
C05  39785808.375 6 207175143.479 6         1.809          36.000    39785806.523 6 160200943.465 6         1.121          41.000
C19  24446110.422 7 127297291.896 7     -2940.180          47.000
C22  21893739.609 8 114006436.385 8      -650.598          51.000
E02  23777532.156 8 124951783.258 8       886.758          51.000    23777534.578 8  95742304.446 8       679.416          51.000
E03  25638750.266 6 134732531.023 6     -2035.668          40.000    25638753.719 6 103236631.970 6     -1559.815          39.000
E08  21427294.125 8 112601197.640 8        94.746          51.000    21427296.719 8  86278835.161 8        72.571          51.000
E30  24844233.727 5 130557329.110 5      3011.207          34.000    24844243.906 7 100037502.142 7      2307.480          42.000
> 2020 05 05 03 28 30.0000000  0 13        .000000000000
G05  20561129.203 8 108049460.701 8      -135.594          51.000    20561127.422 8  84194378.750 8      -105.657          51.000
G07  21966072.039 7 115432469.244 7     -2176.945          43.000    21966068.984 7  89947369.901 7     -1696.321          43.000
G28  22323138.703 7 117308877.067 7      2743.410          46.000    22323139.266 7  91409515.329 7      2137.725          46.000
G30  20401431.828 8 107210306.431 8      -502.348          51.000    20401432.844 8  83540489.263 8      -391.437          51.000
R05  20743873.320 8 110887863.483 8     -2600.023          50.000    20743876.531 8  86246124.374 8     -2022.240          48.000
R16  19301575.219 7 103105581.053 7      1362.832          46.000    19301577.789 7  80193211.368 7      1059.977          43.000
C05  39785815.742 6 207175182.068 6        -7.246          36.000    39785813.977 6 160200973.299 6        -6.011          41.000
C19  24463083.156 7 127385677.487 7     -2955.770          46.000
C22  21897543.414 8 114026243.027 8      -673.488          51.000
E02  23772525.961 8 124925474.851 8       863.562          51.000    23772528.289 8  95722146.064 8       661.670          51.000
E03  25650403.875 6 134793765.157 6     -2049.805          37.000    25650406.766 6 103283551.596 6     -1570.887          41.000
E08  21426790.828 8 112598553.105 8        77.855          51.000    21426793.305 8  86276808.825 8        59.706          51.000
E30  24827072.570 6 130467142.301 6      2996.863          36.000    24827081.922 6  99968400.276 6      2296.388          40.000
> 2020 05 05 03 29  0.0000000  0 13        .000000000000
G05  20561918.727 8 108053610.452 8      -145.945          51.000    20561917.227 8  84197612.308 8      -113.727          51.000
G07  21978482.961 6 115497688.928 6     -2175.598          40.000    21978479.844 6  89998190.425 6     -1695.268          40.000
G28  22307468.766 8 117226526.779 8      2741.832          50.000    22307468.922 8  91345346.251 8      2136.492          48.000
G30  20404300.344 8 107225381.347 8      -507.523          51.000    20404301.359 8  83552235.952 8      -395.473          51.000
R05  20758466.047 8 110965870.486 8     -2605.332          50.000    20758469.094 7  86306796.469 7     -2026.369          47.000
R16  19293950.156 7 103064851.148 7      1347.543          45.000    19293953.117 7  80161532.555 7      1048.092          43.000
C05  39785819.000 5 207175199.513 5         1.258          35.000    39785817.164 6 160200985.974 6         1.130          41.000
C19  24480088.672 7 127474234.620 7     -2952.812          45.000
C22  21901422.820 8 114046443.785 8      -678.090          51.000
E02  23767596.508 8 124899569.153 8       858.559          51.000    23767598.750 8  95702296.269 8       657.863          51.000
E03  25662085.141 6 134855140.397 6     -2046.840          37.000    25662088.008 6 103330579.283 6     -1568.041          41.000
E08  21426328.156 8 112596121.345 8        79.223          51.000    21426330.250 8  86274945.531 8        60.685          51.000
E30  24809940.289 6 130377100.265 6      3000.828          39.000    24809947.016 6  99899407.058 6      2299.231          37.000
> 2020 05 05 03 29 30.0000000  0 13        .000000000000
G05  20562811.422 8 108058302.114 8      -166.867          51.000    20562810.180 8  84201268.134 8      -130.026          51.000
G07  21990930.977 7 115563104.566 7     -2185.340          42.000    21990928.336 6  90049163.660 6     -1702.862          41.000
G28  22291852.164 8 117144456.757 8      2729.500          51.000    22291851.953 8  91281395.568 8      2126.883          49.000
G30  20407242.289 8 107240841.964 8      -523.332          51.000    20407243.359 8  83564283.192 8      -407.791          51.000
R05  20773133.258 8 111044275.453 8     -2621.617          51.000    20773136.070 8  86367778.077 8     -2039.036          48.000
R16  19286455.539 7 103024817.604 7      1321.242          47.000    19286458.977 7  80130395.406 7      1027.633          42.000
C05  39785813.211 6 207175169.754 6          .547          36.000    39785811.281 6 160200962.188 6          .459          41.000
C19  24497122.273 7 127562937.256 7     -2960.594          46.000
C22  21905373.297 8 114067013.873 8      -693.285          51.000
E02  23762739.227 8 124874041.315 8       843.156          51.000    23762740.703 8  95682735.986 8       646.049          51.000
E03                                                                  25673790.219 6 103377695.596 6     -1572.880          40.000
E08  21425901.414 8 112593877.771 8        70.125          51.000    21425902.953 8  86273226.426 8        53.729          51.000
E30  24792830.852 6 130287176.350 6      2993.949          40.000    24792833.297 5  99830504.427 5      2294.089          32.000
> 2020 05 05 03 30  0.0000000  0 14        .000000000000
G05  20563800.609 8 108063499.687 8      -186.648          51.000    20563799.344 8  84205318.200 8      -145.440          51.000
G07  22003409.227 6 115628678.844 6     -2193.664          41.000    22003406.680 6  90100260.474 6     -1709.346          41.000
G13  21787908.359 5 114496232.657 5      2297.676          31.000
G28  22276282.367 8 117062634.354 8      2718.320          51.000    22276281.922 8  91217637.837 8      2118.172          48.000
G30  20410250.727 8 107256651.564 8      -537.750          51.000    20410251.914 8  83576602.363 8      -419.026          51.000
R05  20787868.672 8 111123040.953 8     -2636.555          51.000    20787870.750 8  86429040.115 8     -2050.654          49.000
R16  19279085.398 7 102985445.437 7      1296.445          47.000    19279087.961 6  80099772.611 6      1008.346          41.000
C05  39785791.445 6 207175055.570 6          .395          36.000    39785789.609 6 160200874.650 6          .305          41.000
C19  24514178.156 8 127651748.884 8     -2967.188          48.000
C22  21909388.055 8 114087918.191 8      -707.207          51.000
E02  23757946.812 8 124848855.993 8       828.918          51.000    23757947.750 8  95663438.147 8       635.109          51.000
E03  25685507.953 6 134978255.425 6     -2058.891          36.000    25685504.219 5 103424873.169 5     -1577.304          33.000
E08  21425503.797 8 112591787.355 8        62.254          51.000    21425504.781 8  86271624.687 8        47.683          51.000
E30  24775737.094 6 130197336.530 6      2988.691          41.000    24775732.023 5  99761610.251 5      2290.000          32.000
> 2020 05 05 03 30 30.0000000  0 13        .000000000000
G05  20564942.883 8 108069501.759 8      -208.816          51.000    20564941.484 8  84209995.144 8      -162.714          51.000
G07  22015973.930 6 115694708.280 6     -2204.230          38.000    22015971.078 6  90151711.938 6     -1717.582          37.000
G28  22260816.508 8 116981360.335 8      2704.598          50.000    22260816.039 8  91154307.436 8      2107.482          48.000
G30  20413382.164 8 107273107.277 8      -554.562          51.000    20413383.484 8  83589425.000 8      -432.127          51.000
R05  20802727.883 8 111202469.381 8     -2653.914          51.000    20802729.859 8  86490817.730 8     -2064.158          49.000
R16  19271895.758 7 102947038.186 7      1268.977          46.000    19271897.695 7  80069900.325 7       986.982          42.000
C05  39785810.602 6 207175155.375 6        -1.969          36.000    39785808.797 6 160200951.819 6        -1.692          41.000
C19  24531312.492 8 127740963.896 8     -2976.008          48.000
C22  21913523.758 8 114109452.448 8      -723.664          51.000
E02  23753276.062 8 124824311.752 8       812.129          51.000    23753277.188 8  95644631.541 8       622.314          51.000
E03                                                                  25697287.016 5 103472340.369 5     -1583.799          32.000
E08  21425191.961 8 112590148.951 8        51.754          51.000    21425192.672 8  86270369.285 8        39.703          51.000
E30  24758715.695 6 130107880.654 6      2980.031          41.000    24758707.391 5  99693066.170 5      2283.269          35.000
> 2020 05 05 03 31  0.0000000  0 14        .000000000000
G05  20566156.844 8 108075881.293 8      -227.520          51.000    20566155.734 8  84214966.198 8      -177.288          51.000
G07  22028543.766 5 115760764.168 5     -2210.895          35.000    22028540.883 5  90203184.075 5     -1722.775          34.000
G28  22245373.555 8 116900210.232 8      2694.340          48.000    22245372.977 7  91091073.622 7      2099.486          45.000
G30  20416555.055 8 107289780.778 8      -567.988          51.000    20416556.383 8  83602417.337 8      -442.588          51.000
R05  20817629.375 8 111282125.251 8     -2667.793          51.000    20817631.156 8  86552772.269 8     -2074.950          48.000
R15  20738830.188 5 110821986.511 5     -2989.367          32.000    20738821.547 5  86194847.839 5     -2325.063          33.000
R16  19264805.680 7 102909161.958 7      1245.043          47.000    19264806.664 6  80040441.038 6       968.367          41.000
C05  39785789.344 6 207175044.894 6        -1.590          36.000    39785787.539 6 160200866.357 6         -.852          41.000
C19  24548442.695 8 127830157.785 8     -2981.328          49.000
C22  21917699.289 8 114131193.458 8      -736.695          51.000
E02  23748646.055 8 124799981.625 8       798.844          51.000    23748647.281 8  95625989.016 8       612.149          51.000
E03                                                                  25709061.742 5 103519739.693 5     -1586.918          30.000
E08  21424884.773 8 112588535.963 8        44.758          51.000    21424885.516 8  86269133.355 8        34.271          51.000
E30  24741685.867 6 130018382.977 6      2975.492          38.000    24741678.047 6  99624490.071 6      2279.896          38.000
> 2020 05 05 03 31 30.0000000  0 12        .000000000000
G05  20567504.711 8 108082964.847 8      -245.594          51.000    20567503.750 8  84220485.834 8      -191.372          51.000
G07  22041180.656 6 115827171.571 6     -2216.938          39.000    22041178.500 6  90254930.123 6     -1727.487          40.000
G28  22230016.891 8 116819513.448 8      2684.520          48.000    22230016.070 7  91028193.041 7      2091.836          43.000
G30  20419831.312 8 107306997.596 8      -580.691          51.000    20419832.641 8  83615833.057 8      -452.487          51.000
R05  20832634.516 8 111362339.746 8     -2680.867          49.000    20832636.758 8  86615161.344 8     -2085.119          48.000
R16  19257877.391 7 102872149.890 7      1221.602          46.000    19257877.438 6  80011653.866 6       950.135          41.000
C05  39785790.000 6 207175047.780 6          .094          36.000    39785788.102 6 160200868.584 6          .320          41.000
C19  24565630.039 8 127919653.138 8     -2985.918          49.000
C22  21921976.422 8 114153465.136 8      -748.992          51.000
E02  23744119.086 8 124776192.631 8       786.203          51.000    23744119.781 8  95607761.105 8       602.439          51.000
E08  21424644.875 8 112587275.671 8        38.387          51.000    21424645.562 8  86268167.672 8        29.410          51.000
E30  24724710.070 6 129929171.868 6      2971.090          37.000    24724703.414 6  99556133.487 6      2276.627          40.000
> 2020 05 05 03 32  0.0000000  0 14        .000000000000
G05  20568952.758 8 108090574.726 8      -263.621          51.000    20568951.828 8  84226415.612 8      -205.419          51.000
G07  22053850.562 6 115893750.597 6     -2223.305          40.000    22053848.750 6  90306809.862 6     -1732.448          39.000
G28  22214713.328 7 116739094.758 7      2674.793          47.000    22214711.375 6  90965529.200 6      2084.257          40.000
G30  20423176.930 8 107324578.520 8      -593.285          51.000    20423178.164 8  83629532.484 8      -462.300          51.000
R05  20847709.141 8 111442930.434 8     -2693.797          48.000    20847713.266 8  86677842.985 8     -2095.175          48.000
R16  19251076.828 7 102835821.433 7      1198.359          47.000    19251077.062 7  79983398.400 7       932.057          43.000
C05  39785778.289 6 207174987.599 6         1.871          36.000    39785776.492 6 160200822.031 6         1.347          41.000
C19  24582840.273 8 128009272.285 8     -2990.500          50.000
C22  21926321.180 8 114176091.146 8      -761.293          51.000
E02  23739661.203 8 124752766.876 8       773.598          51.000    23739661.484 8  95589811.522 8       592.721          51.000
E03                                                                  25732755.227 5 103615133.032 5     -1592.740          34.000
E08  21424438.539 8 112586190.598 8        32.000          51.000    21424439.062 8  86267336.255 8        24.546          51.000
E25  25916880.438 6 136194068.203 6     -1982.172          36.000
E30  24707752.953 6 129840070.781 6      2966.898          38.000    24707749.141 6  99487861.147 6      2273.463          41.000
> 2020 05 05 03 32 30.0000000  0 14        .000000000000
G05  20570516.141 8 108098790.825 8      -283.184          51.000    20570515.359 8  84232817.753 8      -220.663          51.000
G07  22066567.836 6 115960579.317 6     -2231.074          39.000    22066565.805 6  90358884.155 6     -1738.499          39.000
G28  22199477.836 7 116659035.922 7      2663.273          44.000    22199474.070 6  90903145.740 6      2075.281          39.000
G30  20426606.656 8 107342601.990 8      -607.348          51.000    20426607.797 8  83643576.747 8      -473.258          51.000
R05  20862870.766 8 111523977.687 8     -2708.355          51.000    20862874.664 7  86740879.730 7     -2106.499          47.000
R16  19244419.562 7 102800258.240 7      1173.461          47.000    19244420.039 7  79955738.142 7       912.692          43.000
C05  39785769.641 6 207174942.035 6         2.457          36.000    39785767.969 6 160200787.592 6         1.540          41.000
C19  24600089.414 8 128099092.894 8     -2996.574          50.000
C22  21930749.156 8 114199150.440 8      -775.086          51.000
E02  23735287.711 8 124729784.200 8       759.570          51.000    23735288.102 8  95572201.452 8       581.981          51.000
E03  25744635.188 5 135288972.686 5     -2083.441          33.000    25744639.297 5 103662987.197 5     -1596.484          34.000
E08  21424280.906 8 112585360.898 8        24.266          51.000    21424281.164 8  86266700.519 8        18.587          51.000
E25  25928226.109 5 136253696.351 5     -1992.461          35.000
E30  24690831.414 6 129751160.677 6      2961.367          41.000    24690831.242 7  99419735.201 7      2269.138          43.000
> 2020 05 05 03 33  0.0000000  0 13        .000000000000
G05  20572188.500 8 108107579.859 8      -302.758          51.000    20572187.625 8  84239666.359 8      -235.915          51.000
G07  22079326.312 5 116027623.129 5     -2238.117          35.000    22079323.789 5  90411126.100 5     -1743.981          35.000
G28  22184304.047 7 116579306.701 7      2651.910          43.000    22184301.250 6  90841019.014 6      2066.423          41.000
G30  20430114.078 8 107361033.760 8      -621.406          51.000    20430115.227 8  83657939.181 8      -484.213          51.000
R05  20878111.953 8 111605446.524 8     -2722.883          51.000    20878114.570 8  86804244.364 8     -2117.801          48.000
R16  19237899.188 7 102765427.204 7      1148.598          47.000    19237899.680 7  79928647.343 7       893.354          43.000
C05  39785757.922 5 207174881.559 5         1.828          35.000    39785756.195 6 160200739.991 6         1.625          41.000
C19  24617371.227 8 128189081.060 8     -3002.602          50.000
C22  21935254.344 8 114222610.443 8      -788.957          51.000
E02  23730992.461 8 124707211.821 8       745.422          51.000    23730992.953 8  95554905.751 8       571.120          51.000
E03  25756547.656 6 135351562.791 6     -2089.285          37.000    25756550.336 5 103710952.665 5     -1601.605          32.000
E08  21424165.664 8 112584754.165 8        16.281          51.000    21424165.727 8  86266235.625 8        12.487          51.000
E30  24673941.352 7 129662410.133 7      2955.520          43.000    24673943.531 7  99351731.542 7      2264.676          44.000
> 2020 05 05 03 33 30.0000000  0 13        .000000000000
G05  20573975.727 8 108116972.681 8      -322.695          51.000    20573974.680 8  84246985.429 8      -251.451          51.000
G07  22092131.211 5 116094911.385 5     -2246.805          31.000    22092128.555 5  90463558.627 5     -1750.757          32.000
G28  22169201.125 7 116499940.757 7      2639.867          46.000    22169199.477 7  90779175.370 7      2057.039          43.000
G30  20433705.062 8 107379903.715 8      -635.918          51.000    20433706.078 8  83672643.038 8      -495.520          51.000
R05  20893437.781 8 111687367.447 8     -2737.766          51.000    20893439.594 8  86867960.587 8     -2129.373          49.000
R16  19231521.680 8 102731359.880 8      1123.297          48.000    19231522.758 7  79902150.580 7       873.675          44.000
C05  39785748.844 5 207174833.659 5         1.609          35.000    39785746.977 6 160200702.928 6         1.592          41.000
C19  24634690.727 8 128279266.251 8     -3009.051          49.000
C22  21939842.289 8 114246501.930 8      -803.176          51.000
E02  23726781.125 8 124685080.924 8       730.836          51.000    23726781.695 8  95537948.307 8       559.958          51.000
E03  25768495.383 6 135414337.759 6     -2095.055          37.000
E08  21424098.750 8 112584401.952 8         7.996          51.000    21424098.719 8  86265965.747 8         6.136          51.000
E30  24657088.719 7 129573851.628 7      2949.234          44.000    24657092.234 7  99283875.043 7      2259.881          46.000
> 2020 05 05 03 34  0.0000000  0 15        .000000000000
G05  20575871.516 8 108126934.524 8      -337.594          51.000    20575870.297 8  84254747.906 8      -263.060          51.000
G07  22104975.719 6 116162407.773 6     -2248.949          36.000    22104972.336 6  90516153.194 6     -1752.428          37.000
G13  21684211.703 5 113951290.097 5      2249.348          35.000
G28  22154162.156 8 116420905.573 8      2632.773          48.000    22154160.852 7  90717589.506 7      2051.512          45.000
G30  20437372.445 8 107399175.590 8      -645.129          51.000    20437373.289 8  83687660.112 8      -502.695          51.000
R05  20908841.203 8 111769703.657 8     -2747.441          51.000    20908842.430 8  86931999.815 8     -2136.902          48.000
R15  20841007.508 5 111368023.877 5     -3075.633          32.000
R16  19225280.523 8 102698021.359 8      1103.184          48.000    19225281.781 7  79876220.654 7       858.032          43.000
C05  39785735.531 6 207174764.615 6         6.750          36.000    39785733.766 6 160200649.566 6         4.999          41.000
C19  24652040.773 8 128369612.582 8     -3010.352          49.000
C22  21944506.320 8 114270790.329 8      -812.316          51.000
E02  23722646.984 8 124663356.651 8       721.312          51.000    23722647.844 8  95521302.439 8       552.715          51.000
E03  25780468.359 6 135477253.437 6     -2095.664          37.000
E08  21424073.656 8 112584269.852 8         4.715          51.000    21424073.484 8  86265864.526 8         3.625          51.000
E30  24640266.523 7 129485451.781 7      2947.941          44.000    24640271.180 7  99216140.105 7      2258.797          47.000
> 2020 05 05 03 34 30.0000000  0 15        .000000000000
G05  20577878.453 8 108137479.556 8      -363.773          51.000    20577877.102 8  84262964.798 8      -283.460          51.000
G07  22117861.711 6 116230124.871 6     -2263.555          36.000    22117857.422 6  90568919.690 6     -1763.812          36.000
G13  21671418.289 5 113884070.927 5      2235.121          34.000
G28  22139189.312 8 116342218.211 8      2614.637          48.000    22139188.203 7  90656274.688 7      2037.379          45.000
G30  20441118.859 8 107418862.711 8      -665.664          51.000    20441119.570 8  83703000.733 8      -518.699          51.000
R05  20924324.500 8 111852468.664 8     -2768.590          51.000    20924325.383 8  86996372.597 8     -2153.348          48.000
R15  20858356.562 4 111460713.474 4     -3097.914          27.000
R16  19219178.531 7 102665426.799 7      1071.516          47.000    19219179.812 7  79850869.335 7       833.401          44.000
C05  39785721.062 6 207174689.824 6          .352          36.000    39785719.258 6 160200590.923 6          .224          41.000
C19  24669424.000 8 128460133.168 8     -3022.688          49.000
C22  21949249.633 8 114295489.999 8      -832.777          51.000
E02  23718593.203 8 124642053.692 8       700.562          51.000    23718594.438 8  95504979.387 8       536.771          51.000
E03  25792469.211 5 135540340.151 5     -2107.871          33.000
E08  21424093.188 8 112584372.918 8        -9.949          51.000    21424092.930 8  86265943.493 8        -7.573          51.000
E30  24623477.602 7 129397226.520 7      2935.520          45.000    24623482.938 8  99148538.909 8      2249.231          48.000
> 2020 05 05 03 35  0.0000000  0 16        .000000000000
G05  20579996.883 8 108148610.771 8      -381.488          51.000    20579995.367 8  84271638.460 8      -297.264          51.000
G07  22130789.922 5 116298063.509 5     -2269.188          35.000    22130784.930 5  90621858.896 5     -1768.195          35.000
G09  24441674.758 5 128441867.325 5     -3051.590          32.000
G13  21658656.203 6 113817009.541 6      2230.770          36.000
G28  22124283.406 8 116263884.207 8      2604.512          48.000    22124282.344 7  90595235.215 7      2029.490          46.000
G30  20444944.555 8 107438966.750 8      -677.773          51.000    20444945.219 8  83718666.214 8      -528.135          51.000
R05  20939887.406 8 111935664.202 8     -2781.125          49.000    20939889.109 8  87061080.214 8     -2163.097          49.000
R15  20875774.578 6 111553787.162 6     -3110.898          37.000    20875743.609 4  86763946.538 4     -2419.594          27.000
R16  19213216.547 7 102633579.655 7      1048.316          47.000    19213218.375 7  79826099.343 7       815.357          44.000
C05  39785705.766 6 207174610.047 6         1.871          36.000    39785703.922 6 160200529.209 6         1.601          41.000
C19  24686841.219 8 128550829.733 8     -3026.863          49.000
C22  21954072.688 8 114320603.850 8      -844.707          51.000
E02  23714620.172 8 124621175.061 8       688.066          51.000    23714621.883 8  95488981.463 8       527.280          51.000
E03  25804499.242 5 135603559.523 5     -2110.582          34.000
E08  21424158.086 8 112584714.588 8       -16.113          51.000    21424157.703 8  86266205.294 8       -12.356          51.000
E30  24606722.695 7 129309180.289 7      2931.070          45.000    24606728.305 8  99081074.879 8      2245.825          49.000
> 2020 05 05 03 35 30.0000000  0 17        .000000000000
G05  20582213.109 8 108160256.699 8      -404.547          51.000    20582211.414 8  84280713.191 8      -315.231          51.000
G07  22143746.180 5 116366150.908 5     -2280.000          34.000    22143742.125 5  90674914.046 5     -1776.620          34.000
G09  24459112.062 6 128533500.759 6     -3059.641          36.000
G28  22109431.312 8 116185834.727 8      2589.043          48.000    22109430.477 7  90534417.466 7      2017.436          47.000
G30  20448835.469 8 107459414.932 8      -695.086          51.000    20448836.320 8  83734599.872 8      -541.625          51.000
R05  20955516.555 8 112019216.345 8     -2799.043          49.000    20955519.578 8  87126065.214 8     -2177.033          49.000
R06  19307641.211 6 103029256.644 6      1217.660          38.000
R15  20893263.844 6 111647236.630 6     -3129.145          38.000    20893233.477 4  86836641.265 4     -2433.779          25.000
R16  19207380.617 7 102602407.443 7      1019.730          46.000    19207382.609 7  79801854.295 7       793.124          43.000
C05  39785676.031 6 207174455.375 6        -1.676          36.000    39785674.258 6 160200409.597 6        -1.136          41.000
C19  24704278.547 8 128641630.163 8     -3036.199          48.000
C22  21958961.516 8 114346061.111 8      -862.102          51.000
E02  23710714.258 8 124600649.390 8       670.273          51.000    23710716.133 8  95473254.005 8       513.586          51.000
E03  25816546.078 5 135666870.913 5     -2120.219          34.000
E08  21424255.055 8 112585223.954 8       -27.738          51.000    21424254.453 8  86266595.594 8       -21.242          51.000
E25  25997464.695 5 136617598.294 5     -2055.324          35.000
E30  24589988.438 7 129221243.010 7      2921.414          45.000    24589993.789 8  99013694.339 8      2238.468          49.000
> 2020 05 05 03 36  0.0000000  0 17        .000000000000
G05  20584583.711 8 108172713.853 8      -405.203          51.000    20584581.680 8  84290420.077 8      -315.743          51.000
G07  22156786.641 6 116434682.010 6     -2268.305          38.000    22156784.930 6  90728314.895 6     -1767.510          38.000
G09  24476574.672 5 128625261.661 5     -3043.059          33.000
G28  22094690.141 8 116108368.242 8      2595.871          50.000    22094689.141 7  90474054.002 7      2022.760          46.000
G30  20452848.219 8 107480502.640 8      -690.117          51.000    20452849.359 8  83751031.847 8      -537.757          51.000
R05  20971269.367 8 112103425.664 8     -2793.996          50.000    20971272.312 8  87191561.388 8     -2173.108          48.000
R06  19300852.016 6 102993025.396 6      1218.875          37.000
R15  20910878.820 5 111741372.093 5     -3124.621          32.000
R16  19201727.641 7 102572211.762 7      1014.059          47.000    19201729.492 7  79778368.743 7       788.712          43.000
C05  39785688.367 5 207174519.604 5        17.574          35.000    39785686.656 6 160200459.258 6        13.568          41.000
C19  24721791.938 8 128732826.984 8     -3023.016          48.000
C22  21963972.648 8 114372155.629 8      -857.074          51.000
E02  23706932.156 8 124580773.299 8       675.258          51.000    23706933.758 8  95458024.269 8       517.411          51.000
E03  25828666.438 6 135730561.465 6     -2105.887          37.000
E08  21424440.609 8 112586198.068 8       -16.633          51.000    21424439.898 8  86267342.002 8       -12.754          51.000
E25  26009231.906 5 136679435.649 5     -2045.816          34.000
E30  24573331.359 7 129133712.746 7      2934.633          44.000    24573336.531 8  98946625.671 8      2248.420          49.000
> 2020 05 05 03 36 30.0000000  0 16        .000000000000
G05  20587051.516 8 108185682.736 8      -440.332          51.000    20587049.688 8  84300525.696 8      -343.116          51.000
G07  22169854.773 6 116503356.209 6     -2291.121          40.000    22169853.617 5  90781827.212 5     -1785.295          33.000
G28  22080003.828 8 116031189.179 8      2568.297          51.000    22080002.461 7  90413914.495 7      2001.273          46.000
G30  20456925.578 8 107501929.624 8      -719.336          51.000    20456926.945 8  83767728.194 8      -560.522          51.000
R05  20987088.516 8 112187986.630 8     -2824.055          51.000    20987091.273 8  87257331.008 8     -2196.487          48.000
R06  19294147.031 5 102957254.532 5      1185.359          35.000
R15  20928568.141 6 111835865.313 6     -3155.168          36.000    20928540.609 4  86983419.859 4     -2454.020          26.000
R16  19196200.742 7 102542688.892 7       973.422          47.000    19196202.703 7  79755406.539 7       757.106          43.000
C05  39785685.945 6 207174506.484 6         2.027          36.000    39785684.141 6 160200449.092 6         1.673          41.000
C19  24739324.008 7 128824122.814 7     -3044.258          47.000
C22  21969049.562 8 114398591.161 8      -886.348          51.000
E02  23703216.797 8 124561248.040 8       645.559          51.000    23703218.234 8  95443063.360 8       494.667          51.000
E03  25840802.961 6 135794341.161 6     -2126.781          37.000    25840814.805 5 104050248.750 5     -1629.576          35.000
E08  21424657.836 8 112587338.588 8       -40.227          51.000    21424657.109 8  86268215.915 8       -30.832          51.000
E25  26021038.891 5 136741479.254 5     -2071.312          34.000
E30  24556694.992 7 129046292.141 7      2912.789          44.000    24556699.961 8  98879640.999 8      2231.916          48.000
> 2020 05 05 03 37  0.0000000  0 17        .000000000000
G05  20589610.852 8 108199132.386 8      -464.461          51.000    20589609.055 8  84311005.941 8      -361.918          51.000
G07  22182944.180 6 116572140.908 6     -2302.445          39.000    22182941.984 5  90835425.556 5     -1794.119          35.000
G09  24511529.648 5 128808972.723 5     -3070.578          34.000
G13  21608034.320 5 113550968.200 5      2199.852          31.000
G28  22065366.883 8 115954268.623 8      2551.641          51.000    22065364.984 7  90353976.414 7      1988.291          45.000
G30  20461061.250 8 107523663.504 8      -737.699          51.000    20461062.680 8  83784663.694 8      -574.831          51.000
R05  21002967.680 8 112272866.498 8     -2842.781          51.000    21002969.680 7  87323348.655 7     -2211.052          47.000
R06  19287523.414 6 102921914.475 6      1162.598          38.000
R15  20946307.180 5 111930662.844 5     -3173.988          35.000    20946289.750 4  87057164.761 4     -2468.661          28.000
R16  19190794.250 8 102513807.599 8       943.746          48.000    19190795.664 7  79732943.315 7       734.025          42.000
C05  39785662.688 6 207174386.091 6        -2.578          36.000    39785660.867 6 160200355.194 6        -1.547          41.000
C19  24756868.898 7 128915485.477 7     -3054.699          46.000
C22  21974185.977 8 114425336.884 8      -904.695          51.000
E02  23699562.086 8 124542042.518 8       626.746          51.000    23699563.586 8  95428347.454 8       480.213          51.000
E03  25852949.148 6 135858166.664 6     -2136.758          36.000    25852961.203 6 104099158.655 6     -1637.094          39.000
E08  21424900.781 8 112588614.912 8       -52.887          51.000    21424900.188 8  86269193.887 8       -40.527          51.000
E30  24540074.398 7 128958951.414 7      2901.965          46.000    24540078.422 8  98812717.563 8      2223.521          48.000
> 2020 05 05 03 37 30.0000000  0 15        .000000000000
G05  20592288.992 8 108213206.228 8      -473.605          50.000    20592287.219 8  84321972.579 8      -369.043          50.000
G07  22196085.320 5 116641215.473 5     -2299.602          35.000    22196081.094 5  90889241.015 5     -1791.897          34.000
G28  22050806.859 8 115877752.953 8      2549.688          50.000    22050804.812 7  90294353.808 7      1986.769          45.000
G30  20465282.648 8 107545847.015 8      -740.898          51.000    20465284.133 8  83801949.533 8      -577.323          51.000
R05  21018933.117 8 112358210.577 8     -2846.406          51.000    21018934.555 7  87389727.281 7     -2213.875          46.000
R06  19281009.227 6 102887153.770 6      1154.969          37.000
R15  20964139.602 5 112025988.417 5     -3177.684          33.000    20964122.297 4  87131265.506 4     -2471.541          26.000
R16  19185535.172 7 102485714.151 7       929.379          46.000    19185536.391 7  79711092.864 7       722.850          43.000
C05  39785645.961 6 207174297.970 6         8.402          36.000    39785644.062 6 160200287.828 6         6.346          41.000
C19  24774454.180 7 129007056.336 7     -3049.910          47.000
C22  21979409.383 8 114452535.402 8      -908.219          51.000
E02  23695995.758 8 124523300.788 8       622.977          51.000    23695997.055 8  95413986.912 8       477.346          51.000
E03  25865133.211 6 135922193.629 6     -2131.402          36.000    25865143.898 7 104148218.285 7     -1633.146          42.000
E08  21425196.898 8 112590171.565 8       -50.559          51.000    21425196.570 8  86270386.653 8       -38.740          51.000
E30  24523497.297 8 128871836.020 8      2906.031          49.000    24523499.672 7  98745966.793 7      2226.729          47.000
> 2020 05 05 03 38  0.0000000  0 16        .000000000000
G05  20595065.070 8 108227794.091 8      -501.027          51.000    20595063.289 8  84333339.733 8      -390.411          51.000
G07  22209246.039 5 116710381.398 5     -2314.254          30.000
G28  22036302.641 7 115801534.432 7      2529.418          47.000    22036301.266 7  90234962.715 7      1970.972          45.000
G30  20469568.258 8 107568368.508 8      -762.500          51.000    20469569.977 8  83819498.753 8      -594.156          51.000
R05  21034964.500 8 112443905.078 8     -2868.512          51.000    21034965.086 7  87456378.532 7     -2231.068          47.000
R06  19274583.086 6 102852863.051 6      1129.121          39.000
R15  20982038.867 5 112121637.456 5     -3200.301          33.000
R16  19180402.633 7 102458296.770 7       896.434          47.000    19180403.633 7  79689768.240 7       697.226          43.000
C05  39785614.773 6 207174135.802 6          .785          36.000    39785612.930 6 160200162.424 6          .447          41.000
C19  24792058.328 7 129098724.859 7     -3063.441          47.000
C22  21984698.586 8 114480077.360 8      -929.840          51.000
E02  23692496.711 8 124504912.577 8       600.867          51.000    23692497.766 8  95399897.250 8       460.405          51.000
E03  25877333.125 5 135986304.551 5     -2144.770          34.000    25877342.477 7 104197342.974 7     -1643.380          42.000
E08  21425525.297 8 112591898.778 8       -66.602          51.000    21425525.289 8  86271710.110 8       -51.038          51.000
E25  26056722.875 5 136928993.003 5     -2101.359          35.000
E30  24506942.859 8 128784837.076 8      2891.840          50.000    24506943.602 7  98679305.278 7      2215.834          47.000
> 2020 05 05 03 38 30.0000000  0 15        .000000000000
G05  20598005.703 8 108243245.743 8      -527.961          51.000    20598003.516 8  84345379.983 8      -411.398          50.000
G07  22222502.008 5 116780037.226 5     -2328.883          31.000    22222501.492 5  90997418.941 5     -1814.705          32.000
G28  22021920.945 7 115725965.300 7      2509.652          45.000    22021920.914 7  90176077.647 7      1955.573          44.000
G30  20473984.531 8 107591576.898 8      -783.660          51.000    20473986.266 8  83837583.209 8      -610.644          51.000
R05  21051127.422 8 112530305.106 8     -2890.223          51.000    21051128.594 8  87523578.523 8     -2247.954          49.000
R06  19268312.242 6 102819400.069 6      1103.086          39.000
R16  19175463.289 7 102431911.267 7       863.746          47.000    19175464.469 7  79669246.203 7       671.803          43.000
C05  39785635.797 6 207174245.518 6        -6.688          36.000    39785634.031 6 160200247.228 6        -5.301          41.000
C19  24809747.430 7 129190836.663 7     -3076.188          47.000
C22  21990120.219 8 114508309.662 8      -951.121          51.000
E02  23689131.500 8 124487228.023 8       579.344          51.000    23689132.547 8  95386346.772 8       443.871          51.000
E03  25889615.836 5 136050848.308 5     -2157.070          34.000    25889623.102 6 104246800.866 6     -1652.808          41.000
E08  21425952.898 8 112594147.225 8       -82.039          51.000    21425953.102 8  86273432.948 8       -62.822          51.000
E25  26068773.703 6 136992313.207 6     -2118.422          36.000    26068774.633 5 104968159.058 5     -1623.024          34.000
E30  24490477.492 8 128698306.230 8      2878.121          50.000    24490476.789 7  98613002.428 7      2205.358          47.000
> 2020 05 05 03 39  0.0000000  0 15        .000000000000
G05  20601030.812 8 108259141.371 8      -537.332          51.000    20601028.422 8  84357766.191 8      -418.700          51.000
G07  22235771.438 5 116849772.355 5     -2326.113          31.000    22235769.992 5  91051757.926 5     -1812.562          31.000
G28  22007583.820 7 115650628.793 7      2507.238          45.000    22007584.406 7  90117373.890 7      1953.695          43.000
G30  20478451.516 8 107615051.444 8      -787.098          51.000    20478453.156 8  83855875.063 8      -613.323          51.000
R05  21067341.812 8 112616982.642 8     -2893.945          50.000    21067344.078 8  87590994.354 8     -2250.846          49.000
R06  19262117.188 6 102786341.161 6      1095.207          39.000
R16  19170637.516 7 102406131.271 7       849.227          47.000    19170638.570 7  79649195.103 7       660.510          43.000
C05  39785629.211 6 207174211.328 6         3.277          36.000    39785627.555 6 160200220.764 6         2.706          41.000
C19  24827441.438 7 129282974.915 7     -3071.938          46.000
C22  21995594.766 8 114536816.617 8      -954.949          51.000
E02  23685820.656 8 124469827.800 8       575.180          51.000    23685821.203 8  95373014.140 8       440.707          51.000
E03  25901901.828 5 136115410.042 5     -2152.211          35.000    25901908.117 7 104296270.333 7     -1649.276          43.000
E08  21426400.164 8 112596498.007 8       -80.227          51.000    21426400.422 8  86275234.198 8       -61.388          51.000
E25  26080850.547 5 137055772.158 5     -2117.605          34.000    26080849.859 5 105016783.461 5     -1622.730          33.000
E30  24474021.289 8 128611825.518 8      2881.719          51.000    24474019.242 7  98546737.992 7      2208.124          47.000
> 2020 05 05 03 39 30.0000000  0 15        .000000000000
G05  20604159.211 8 108275580.872 8      -558.691          51.000    20604156.883 8  84370576.203 8      -435.344          51.000
G07  22249073.094 5 116919674.262 5     -2334.969          33.000    22249073.531 5  91106226.961 5     -1819.456          31.000
G28  21993311.016 7 115575627.252 7      2492.746          47.000    21993311.594 7  90058931.152 7      1942.400          43.000
G30  20482987.898 8 107638890.597 8      -802.480          51.000    20482989.594 8  83874451.030 8      -625.312          50.000
R05  21083627.180 8 112704037.892 8     -2909.781          51.000    21083629.883 8  87658704.060 8     -2263.160          49.000
R06  19256017.414 6 102753790.009 6      1074.867          39.000
R16  19165944.055 7 102381058.463 7       822.270          47.000    19165945.562 7  79629694.050 7       639.546          45.000
C05  39785613.953 6 207174132.164 6         1.438          36.000    39785612.383 6 160200159.502 6         1.332          41.000
C19  24845159.359 7 129375237.173 7     -3079.105          47.000
C22  22001140.945 8 114565696.992 8      -970.531          51.000
E02  23682582.758 8 124452811.651 8       559.160          51.000    23682582.609 8  95359975.798 8       428.402          51.000
E03  25914209.500 5 136180088.428 5     -2159.305          35.000    25914216.055 7 104345827.591 7     -1654.637          43.000
E08  21426886.008 8 112599051.430 8       -90.180          51.000    21426886.234 8  86277190.740 8       -69.096          51.000
E25                                                                  26092970.273 5 105065589.408 5     -1631.090          34.000
E30  24457593.586 8 128525496.149 8      2873.406          51.000    24457590.164 7  98480589.525 7      2201.719          46.000
> 2020 05 05 03 40  0.0000000  0 14        .000000000000
G05  20607374.633 8 108292479.349 8      -574.945          50.000    20607372.875 8  84383743.844 8      -448.009          50.000
G28  21979087.031 8 115500879.312 8      2483.387          50.000    21979087.219 7  90000686.026 7      1935.107          43.000
G30  20487577.500 8 107663008.934 8      -812.582          51.000    20487579.109 8  83893244.543 8      -633.181          51.000
R05  21099967.070 8 112791383.521 8     -2920.387          51.000    21099970.312 8  87726639.538 8     -2271.415          50.000
R06  19249996.938 6 102721663.590 6      1059.621          40.000
R16  19161366.711 7 102356607.334 7       800.629          46.000    19161368.953 7  79610676.523 7       622.711          45.000
C05  39785574.094 6 207173924.478 6         4.793          36.000    39785572.398 6 160199998.926 6         3.709          41.000
C19  24862885.039 8 129467538.757 8     -3081.281          48.000
C22  22006742.633 8 114594867.354 8      -981.086          51.000
E02  23679401.734 8 124436095.460 8       548.293          51.000    23679401.461 8  95347167.284 8       420.112          51.000
E03  25926523.406 6 136244799.153 6     -2161.297          36.000    25926529.875 6 104395407.988 6     -1655.942          40.000
E08  21427394.484 8 112601723.890 8       -95.012          51.000    21427394.812 8  86279238.477 8       -72.792          51.000
E25                                                                  26105118.820 5 105114511.055 5     -1635.562          34.000
E30  24441178.852 8 128439235.412 8      2870.258          51.000    24441173.625 7  98414493.652 7      2199.315          45.000
> 2020 05 05 03 40 30.0000000  0 16        .000000000000
G05  20610728.250 8 108310103.871 8      -598.078          51.000    20610726.914 8  84397477.252 8      -466.035          51.000
G07  22275777.367 5 117060000.106 5     -2348.391          32.000
G28  21964962.781 8 115426654.327 8      2467.012          49.000    21964962.242 7  89942848.381 7      1922.347          44.000
G30  20492270.891 8 107687672.391 8      -829.711          51.000    20492272.188 8  83912462.827 8      -646.525          51.000
R05  21116412.125 8 112879290.473 8     -2938.066          51.000    21116415.297 8  87795011.574 8     -2285.163          49.000
R06  19244107.344 6 102690235.186 6      1037.504          40.000
R15  21072809.016 6 112606694.923 6     -3269.238          36.000
R16  19156956.094 7 102333049.102 7       771.918          46.000    19156959.062 7  79592353.454 7       600.378          45.000
C05  39785560.430 6 207173853.064 6         1.734          36.000    39785558.727 6 160199943.669 6         1.359          41.000
C19  24880668.938 8 129560143.214 8     -3090.465          48.000
C22  22012450.922 8 114624592.462 8      -998.539          51.000
E02  23676328.523 8 124419946.487 8       530.383          51.000    23676328.359 8  95334793.400 8       406.439          51.000
E03  25938894.023 6 136309803.115 6     -2170.168          40.000    25938899.164 6 104445216.166 6     -1663.057          37.000
E08  21427976.602 8 112604783.240 8      -106.973          51.000    21427977.062 8  86281582.651 8       -81.909          51.000
E25                                                                  26117346.227 5 105163751.974 5     -1645.649          32.000
E30  24424828.383 8 128353312.025 8      2860.031          51.000    24424821.969 7  98348656.286 7      2191.491          46.000
> 2020 05 05 03 41  0.0000000  0 17        .000000000000
G05  20614189.492 8 108328293.437 8      -614.965          51.000    20614188.117 8  84411650.960 8      -479.193          51.000
G13  21508672.562 5 113028836.975 5      2147.355          32.000
G28  21950907.711 8 115352794.077 8      2456.766          48.000    21950906.844 7  89885294.944 7      1914.363          44.000
G30  20497037.305 8 107712719.196 8      -840.430          51.000    20497038.617 8  83931979.828 8      -654.880          51.000
R05  21132931.328 8 112967594.037 8     -2949.270          51.000    21132934.242 7  87863692.122 7     -2293.876          47.000
R06  19238318.234 6 102659344.548 6      1021.723          40.000
R15  21091206.484 5 112704936.412 5     -3280.629          33.000
R16  19152682.305 7 102310220.856 7       749.598          45.000    19152685.852 7  79574598.152 7       583.020          45.000
C05  39785542.453 5 207173758.835 5         4.293          35.000    39785540.695 6 160199870.793 6         3.298          41.000
C19  24898479.883 7 129652890.218 7     -3093.141          47.000
C21  22995426.180 6 119743250.746 6      2019.555          36.000
C22  22018235.133 8 114654713.124 8     -1009.836          51.000
E02  23673332.781 8 124404204.220 8       518.773          51.000    23673332.320 8  95322731.130 8       397.532          51.000
E03  25951291.227 6 136374943.573 6     -2172.883          41.000    25951293.523 6 104495128.836 6     -1664.763          37.000
E08  21428601.969 8 112608069.459 8      -112.461          51.000    21428602.492 8  86284100.665 8       -86.180          51.000
E25                                                                  26129622.883 5 105213187.756 5     -1650.477          32.000
E30  24408511.711 8 128267566.943 8      2856.039          51.000    24408505.883 8  98282955.542 8      2188.406          48.000
> 2020 05 05 03 41 30.0000000  0 16        .000000000000
G05  20617769.453 8 108347106.541 8      -638.848          51.000    20617767.984 8  84426310.519 8      -497.803          51.000
G07  22302657.742 5 117201257.825 5     -2363.945          31.000
G28  21936933.758 7 115279359.940 7      2439.359          47.000    21936932.633 7  89828073.524 7      1900.800          44.000
G30  20501887.484 8 107738206.703 8      -858.375          51.000    20501889.070 8  83951840.235 8      -668.864          51.000
R05  21149535.023 8 113056352.575 8     -2967.695          50.000    21149537.672 7  87932726.498 7     -2308.211          46.000
R06  19232641.617 6 102629052.432 6       998.363          41.000
R16  19148556.031 7 102288182.054 7       719.980          44.000    19148559.984 7  79557456.871 7       559.985          44.000
C05  39785531.125 6 207173700.884 6          .043          36.000    39785529.391 6 160199825.175 6          .082          41.000
C19  24916329.172 8 129745836.620 8     -3102.949          48.000
C21  22983828.750 5 119682892.843 5      2004.918          32.000
C22  22024106.586 8 114685287.360 8     -1028.145          51.000
E02  23670425.570 8 124388927.260 8       500.086          51.000    23670424.938 8  95311025.393 8       383.180          51.000
E03  25963725.219 7 136440278.944 7     -2182.465          42.000    25963725.102 6 104545190.927 6     -1672.308          38.000
E08  21429281.875 8 112611641.782 8      -125.238          51.000    21429282.328 8  86286837.902 8       -95.983          51.000
E25  26141957.734 5 137376913.100 5     -2167.516          33.000    26141959.945 5 105262839.156 5     -1661.009          31.000
E30  24392240.047 8 128182060.278 8      2844.848          51.000    24392236.438 8  98217437.458 8      2179.830          50.000
> 2020 05 05 03 42  0.0000000  0 19        .000000000000
G05  20621457.914 8 108366489.796 8      -658.398          51.000    20621456.297 8  84441414.350 8      -513.038          51.000
G07  22316158.867 5 117272203.570 5     -2371.062          33.000    22316156.539 5  91380945.616 5     -1847.587          33.000
G09  24687463.953 5 129733497.925 5     -3100.848          34.000
G13  21484258.414 5 112900539.335 5      2130.207          34.000
G28  21923031.320 8 115206301.045 8      2426.223          48.000    21923030.211 7  89771144.551 7      1890.563          45.000
G30  20506811.195 8 107764080.699 8      -871.629          51.000    20506812.672 8  83972001.781 8      -679.191          51.000
R05  21166213.750 8 113145510.919 8     -2981.477          51.000    21166216.227 7  88002071.799 7     -2318.926          47.000
R06  19227067.469 7 102599308.060 7       979.250          42.000
R15  21128211.555 5 112902704.408 5     -3311.336          34.000    21128223.086 4  87813226.024 4     -2575.490          29.000
R16  19144567.898 7 102266878.842 7       694.980          46.000    19144571.406 7  79540887.705 7       540.540          43.000
C05  39785516.484 5 207173624.725 5         -.020          35.000    39785514.820 6 160199766.267 6          .072          41.000
C19  24934206.469 8 129838928.684 8     -3108.270          48.000
C21  22972286.461 5 119622814.025 5      1995.457          31.000
C22  22030054.891 8 114716262.653 8     -1041.973          51.000
E02  23667596.852 8 124374062.704 8       485.746          51.000    23667596.547 8  95299635.671 8       372.237          51.000
E03  25976185.766 6 136505756.021 6     -2187.695          41.000    25976184.195 6 104595361.655 6     -1676.259          38.000
E08  21430006.258 8 112615447.844 8      -133.520          51.000    21430006.711 8  86289754.237 8      -102.370          51.000
E25                                                                  26154345.758 4 105312712.261 4     -1668.306          29.000
E30  24376003.703 8 128096740.576 8      2838.035          51.000    24376002.992 8  98152062.606 8      2174.574          51.000
> 2020 05 05 03 42 30.0000000  0 16        .000000000000
G05  20625253.656 8 108386436.687 8      -674.145          51.000    20625252.117 8  84456957.360 8      -525.307          51.000
G28  21909199.859 8 115133613.671 8      2416.863          51.000    21909198.305 7  89714505.045 7      1883.270          45.000
G30  20511806.977 8 107790333.586 8      -881.219          50.000    20511808.172 8  83992458.550 8      -686.664          50.000
R05  21182965.883 8 113235060.996 8     -2991.414          50.000    21182968.164 7  88071721.845 7     -2326.655          46.000
R06  19221595.281 7 102570107.484 7       964.512          42.000
R15  21146825.961 5 113002149.958 5     -3321.012          31.000    21146831.164 4  87890572.463 4     -2583.012          25.000
R16  19140716.555 7 102246304.257 7       673.711          46.000    19140719.734 7  79524885.268 7       523.997          44.000
C05  39785497.477 6 207173525.075 6         3.816          36.000    39785495.633 6 160199689.221 6         2.879          41.000
C19  24952110.578 8 129932158.874 8     -3109.785          48.000
C21  22960800.930 5 119563009.895 5      1989.008          33.000
C22  22036078.828 8 114747632.641 8     -1052.180          51.000
E02  23664845.500 8 124359604.193 8       475.254          51.000    23664845.508 8  95288557.079 8       364.209          51.000
E03  25988672.031 6 136571368.210 6     -2189.340          41.000    25988670.555 6 104645635.971 6     -1677.558          41.000
E08  21430773.961 8 112619481.915 8      -138.145          51.000    21430774.508 8  86292845.263 8      -105.848          51.000
E25                                                                  26166778.547 5 105362773.819 5     -1671.602          31.000
E30  24359802.203 8 128011603.005 8      2834.973          51.000    24359803.969 8  98086827.299 8      2172.219          51.000
> 2020 05 05 03 43  0.0000000  0 18        .000000000000
G05  20629156.906 8 108406947.978 8      -697.000          51.000    20629155.289 8  84472940.162 8      -543.120          51.000
G07  22343291.461 5 117414736.703 5     -2383.684          34.000
G28  21895439.938 8 115061301.178 8      2400.281          51.000    21895437.852 7  89658157.640 7      1870.349          47.000
G30  20516874.750 8 107816964.818 8      -897.785          51.000    20516875.953 8  84013210.163 8      -699.573          51.000
R05  21199790.773 8 113325002.563 8     -3008.367          49.000    21199793.281 7  88141676.382 7     -2339.841          47.000
R06  19216225.281 7 102541453.724 7       942.082          42.000
R09  22844387.117 6 121987746.453 6      4151.012          36.000    22844383.781 5  94879348.431 5      3228.568          30.000
R15  21165509.750 6 113101968.046 6     -3337.160          37.000    21165514.883 4  87968289.664 4     -2595.569          25.000
R16  19137001.789 8 102226459.013 8       645.344          48.000    19137004.211 7  79509450.096 7       501.934          43.000
C05  39785473.992 6 207173402.778 6          .562          36.000    39785472.180 6 160199594.604 6          .477          41.000
C19  24970040.992 8 130025526.709 8     -3118.309          48.000
C21  22949369.414 5 119503483.174 5      1975.961          33.000
C22  22042178.805 8 114779397.977 8     -1069.230          51.000
E02  23662171.516 8 124345552.526 8       457.777          51.000    23662171.570 8  95277790.231 8       350.738          51.000
E03  26001183.508 6 136637116.202 6     -2197.527          41.000    26001184.164 7 104696014.275 7     -1683.924          42.000
E08  21431585.312 8 112623745.345 8      -149.723          51.000    21431585.750 8  86296112.043 8      -114.755          51.000
E25                                                                  26179259.352 5 105413028.311 5     -1681.302          30.000
E30  24343636.289 8 127926649.802 8      2824.809          51.000    24343639.414 8  98021733.262 8      2164.548          51.000
> 2020 05 05 03 43 30.0000000  0 18        .000000000000
G05  20633185.820 8 108428120.421 8      -713.484          51.000    20633184.156 8  84489438.156 8      -555.962          51.000
G07  22356913.805 5 117486308.987 5     -2387.316          33.000    22356917.477 4  91547830.768 4     -1860.256          29.000
G28  21881770.305 8 114989463.778 8      2389.969          51.000    21881767.992 7  89602180.459 7      1862.313          47.000
G30  20522033.109 8 107844071.163 8      -908.133          51.000    20522034.195 8  84034331.988 8      -707.636          51.000
R05  21216708.172 8 113415433.683 8     -3019.199          51.000    21216710.602 8  88212011.716 8     -2348.266          48.000
R06  19210977.078 7 102513448.343 7       926.109          44.000
R09  22821082.094 6 121863298.125 6      4146.664          36.000    22821079.297 5  94782555.261 5      3225.183          32.000
R15  21184278.711 6 113202254.331 6     -3347.320          36.000
R16  19133442.398 8 102207442.839 8       623.336          48.000    19133443.844 7  79494659.749 7       484.820          43.000
C05  39785464.711 6 207173354.888 6         3.723          36.000    39785462.945 6 160199557.575 6         2.685          41.000
C19  24988015.961 7 130119128.055 7     -3120.707          46.000
C21  22938009.023 5 119444332.504 5      1969.258          34.000
C22  22048373.562 8 114811655.650 8     -1080.242          51.000
E02  23659593.617 8 124332005.688 8       446.426          51.000    23659593.711 8  95267410.202 8       342.031          51.000
E03  26013739.641 6 136703097.793 6     -2199.875          40.000    26013741.859 6 104746571.574 6     -1685.717          41.000
E08  21432459.094 8 112628336.737 8      -155.262          51.000    21432459.156 8  86299630.117 8      -118.931          51.000
E25                                                                  26191807.266 5 105463553.518 5     -1685.702          30.000
E30  24327524.695 8 127841980.483 8      2820.836          51.000    24327528.234 8  97956856.757 8      2161.432          51.000
> 2020 05 05 03 44  0.0000000  0 17        .000000000000
G05  20637320.828 8 108449851.081 8      -732.328          51.000    20637319.570 8  84506371.123 8      -570.645          51.000
G28  21868171.914 8 114918001.624 8      2377.172          51.000    21868169.094 7  89546495.663 7      1852.342          47.000
G30  20527262.125 8 107871548.635 8      -920.762          51.000    20527262.867 8  84055743.002 8      -717.477          51.000
R05  21233697.344 8 113506248.593 8     -3032.133          50.000    21233699.727 7  88282645.540 7     -2358.326          47.000
R06  19205831.250 7 102485988.916 7       907.809          43.000
R09  22797812.516 5 121739048.678 5      4139.848          33.000    22797815.148 5  94685916.857 5      3219.882          33.000
R15  21203114.141 5 113302900.549 5     -3359.168          31.000    21203115.141 4  88124574.560 4     -2612.689          28.000
R16  19130018.477 8 102189150.651 8       599.051          48.000    19130019.250 7  79480432.518 7       465.928          43.000
C05  39785450.266 6 207173279.724 6         4.438          36.000    39785448.531 6 160199499.419 6         3.292          41.000
C19  25006015.797 7 130212859.864 7     -3125.293          45.000
C21  22926702.938 5 119385458.018 5      1959.668          30.000
C22  22054643.039 8 114844303.782 8     -1093.488          51.000
E02  23657092.148 8 124318860.917 8       432.742          51.000    23657092.445 8  95257338.251 8       331.606          51.000
E03  26026320.500 6 136769210.006 6     -2204.859          38.000    26026323.766 6 104797228.933 6     -1689.294          38.000
E08  21433375.852 8 112633153.962 8      -163.027          51.000    21433375.656 8  86303321.239 8      -124.938          51.000
E25  26204399.102 5 137705046.319 5     -2207.887          32.000
E30  24311447.875 8 127757493.795 8      2814.441          51.000    24311451.250 8  97892120.188 8      2156.556          51.000
> 2020 05 05 03 44 30.0000000  0 16        .000000000000
G05  20641560.211 8 108472130.037 8      -751.840          51.000    20641559.242 8  84523731.351 8      -585.849          51.000
G28  21854643.445 8 114846907.267 8      2363.492          51.000    21854639.836 7  89491097.468 7      1841.682          47.000
G30  20532559.570 8 107899386.403 8      -933.953          51.000    20532560.258 8  84077434.783 8      -727.756          51.000
R05  21250755.656 8 113597436.086 8     -3045.953          50.000    21250758.383 7  88353569.082 7     -2369.075          46.000
R06  19200786.469 7 102459068.632 7       888.113          44.000
R09  22774579.086 5 121614991.595 5      4131.117          30.000    22774583.891 5  94589427.974 5      3213.091          34.000
R15  21222014.953 5 113404007.371 5     -3372.617          31.000    21222013.711 4  88203116.499 4     -2623.153          28.000
R16  19126728.070 7 102171572.770 7       573.766          47.000    19126728.516 7  79466760.835 7       446.262          43.000
C05  39785428.734 6 207173167.775 6         4.316          36.000    39785427.016 6 160199412.816 6         3.190          41.000
C19  25024038.891 7 130306711.420 7     -3130.527          47.000
C21  22915448.992 4 119326755.570 4      1948.582          29.000
C22  22060985.641 8 114877332.840 8     -1107.484          51.000
E02  23654665.258 8 124306108.671 8       418.352          51.000    23654665.750 8  95247567.058 8       320.573          51.000
E03  26038924.172 5 136835443.183 5     -2209.859          35.000    26038928.008 5 104847978.900 5     -1692.940          33.000
E08  21434333.875 8 112638188.102 8      -171.605          51.000    21434333.711 8  86307178.557 8      -131.487          51.000
E30  24295404.125 8 127673181.710 8      2807.316          51.000    24295407.070 8  97827517.418 8      2151.028          51.000
> 2020 05 05 03 45  0.0000000  0 14        .000000000000
G05  20645916.242 8 108495021.716 8      -771.027          51.000    20645915.523 8  84541569.011 8      -600.801          51.000
G28  21841197.250 8 114776247.406 8      2350.371          51.000    21841193.195 7  89436037.842 7      1831.458          45.000
G30  20537937.609 8 107927647.647 8      -946.793          51.000    20537938.461 8  84099456.520 8      -737.761          51.000
R05  21267896.188 8 113689060.318 8     -3059.094          51.000    21267898.406 7  88424832.346 7     -2379.295          45.000
R06  19195855.367 7 102432754.378 7       869.367          45.000
R09  22751393.914 5 121491194.623 5      4124.125          31.000    22751400.922 5  94493141.481 5      3207.653          35.000
R16  19123583.734 7 102154774.570 7       549.223          47.000    19123584.180 7  79453695.574 7       427.173          44.000
C05  39785412.492 6 207173082.814 6         4.598          36.000    39785410.789 6 160199347.105 6         3.670          41.000
C19  25042097.625 8 130400745.360 8     -3135.215          48.000
C22  22067414.094 8 114910806.468 8     -1120.863          51.000
E02  23652325.188 8 124293813.302 8       404.605          51.000    23652326.117 8  95238145.941 8       309.977          51.000
E03  26051565.617 6 136901861.376 6     -2214.527          39.000    26051566.859 5 104898863.884 5     -1697.660          30.000
E08  21435345.453 8 112643504.145 8      -179.605          51.000    21435345.594 8  86311251.875 8      -137.611          51.000
E30  24279406.000 8 127589110.144 8      2800.707          51.000    24279408.469 8  97763098.936 8      2146.035          51.000
> 2020 05 05 03 45 30.0000000  0 14        .000000000000
G05  20650386.164 8 108518511.411 8      -796.414          51.000    20650385.727 8  84559872.679 8      -620.582          51.000
G28  21827831.031 8 114706010.593 8      2330.660          50.000    21827827.609 7  89381307.848 7      1816.099          44.000
G30  20543393.273 8 107956317.094 8      -965.867          51.000    20543394.273 8  84121796.338 8      -752.624          51.000
R05  21285115.844 8 113781105.896 8     -3078.703          51.000    21285117.312 7  88496423.324 7     -2394.547          47.000
R06  19191035.727 7 102407034.865 7       843.805          45.000
R09  22728255.781 5 121367646.665 5      4110.918          30.000    22728264.820 5  94397048.671 5      3197.384          34.000
R16  19120582.438 7 102138740.981 7       518.191          46.000    19120582.930 7  79441224.999 7       403.038          44.000
C05  39785398.680 6 207173010.179 6         -.859          36.000    39785397.062 6 160199291.720 6        -1.030          41.000
C19  25060188.711 8 130494946.567 8     -3146.199          49.000
C22  22073925.617 8 114944710.776 8     -1140.750          51.000
E02  23650069.414 8 124281960.813 8       384.293          51.000    23650070.805 8  95229064.178 8       294.464          51.000
E03  26064238.922 6 136968450.527 6     -2225.859          39.000
E08  21436408.078 8 112649088.780 8      -194.008          51.000    21436408.688 8  86315530.999 8      -148.646          51.000
E30  24263451.094 8 127505266.610 8      2787.508          51.000    24263453.242 8  97698855.183 8      2135.913          51.000
> 2020 05 05 03 46  0.0000000  0 14        .000000000000
G05  20654963.789 8 108542567.478 8      -809.496          50.000    20654963.820 8  84578617.660 8      -630.776          50.000
G28  21814539.508 8 114636168.470 8      2323.336          50.000    21814536.883 7  89326885.404 7      1810.392          44.000
G30  20548920.344 8 107985362.550 8      -972.590          51.000    20548921.352 8  84144429.153 8      -757.862          51.000
R05  21302407.727 8 113873539.828 8     -3085.691          50.000    21302409.188 7  88568316.301 7     -2399.985          46.000
R06  19186321.758 7 102381880.831 7       830.934          45.000
R09  22705160.867 5 121244289.091 5      4108.996          31.000    22705169.883 5  94301127.201 5      3195.883          33.000
R16  19117718.250 7 102123440.646 7       499.684          46.000    19117718.883 7  79429324.726 7       388.643          43.000
C05                                                                  39785380.008 6 160199222.871 6         4.147          41.000
C19  25078305.359 8 130589283.172 8     -3145.082          48.000
C22  22080514.133 8 114979014.916 8     -1148.324          51.000
E02  23647892.180 8 124270520.216 8       376.379          51.000    23647893.570 8  95220298.008 8       288.361          51.000
E03  26076937.648 6 137035179.424 6     -2224.660          38.000
E08  21437516.164 8 112654911.654 8      -196.199          51.000    21437517.078 8  86319992.664 8      -150.305          51.000
E30  24247533.773 8 127421621.654 8      2786.723          51.000    24247535.688 8  97634763.587 8      2135.299          51.000
> 2020 05 05 03 46 30.0000000  0 14        .000000000000
G05  20659648.156 8 108567184.815 8      -830.160          49.000    20659648.297 8  84597799.987 8      -646.881          50.000
G28  21801322.922 8 114566718.275 8      2308.238          50.000    21801321.469 7  89272768.381 7      1798.630          44.000
G30  20554517.961 8 108014777.865 8      -986.852          51.000    20554518.672 8  84167350.162 8      -768.975          51.000
R05  21319770.797 8 113966355.641 8     -3100.422          50.000    21319772.352 7  88640506.382 7     -2411.439          47.000
R06  19181713.195 7 102357289.154 7       810.207          45.000
R09  22682108.531 5 121121179.521 5      4100.082          33.000    22682116.914 5  94205375.340 5      3188.953          32.000
R16  19114990.062 7 102108868.065 7       473.480          47.000    19114991.406 7  79417990.513 7       368.263          44.000
C05  39785360.305 6 207172811.118 6         3.590          36.000    39785358.641 6 160199136.956 6         2.978          41.000
C19  25096446.305 7 130683749.029 7     -3151.262          47.000
C22  22087178.430 8 115013713.934 8     -1163.441          51.000
E02  23645792.328 8 124259486.568 8       360.613          51.000    23645793.688 8  95211843.653 8       276.347          51.000
E03  26089660.773 5 137102043.082 5     -2231.473          34.000    26089664.602 5 105052265.134 5     -1709.578          34.000
E08  21438668.859 8 112660968.462 8      -206.078          51.000    21438669.875 8  86324633.601 8      -157.955          51.000
E30  24231653.648 8 127338171.909 8      2778.023          51.000    24231655.117 8  97570821.578 8      2128.579          51.000
> 2020 05 05 03 47  0.0000000  0 14        .000000000000
G05  20664443.523 8 108592384.170 8      -849.777          50.000    20664443.539 8  84617435.838 8      -662.164          50.000
G28  21788185.977 8 114497684.106 8      2294.035          49.000    21788185.469 7  89218975.532 7      1787.560          45.000
G30  20560189.852 8 108044583.076 8     -1000.125          51.000    20560190.102 8  84190575.002 8      -779.318          51.000
R05  21337208.555 7 114059573.540 7     -3113.957          47.000    21337210.914 7  88713009.223 7     -2421.964          47.000
R06  19177214.625 7 102333283.550 7       790.418          47.000
R09  22659103.281 5 120998312.638 5      4091.492          34.000    22659109.008 5  94109812.190 5      3182.272          31.000
R16  19112401.883 7 102095044.566 7       448.195          47.000    19112403.648 7  79407238.918 7       348.593          43.000
C05  39785338.867 6 207172699.027 6         3.871          36.000    39785337.086 6 160199050.280 6         2.921          41.000
C19  25114615.469 7 130778364.019 7     -3156.402          45.000
C22  22093922.352 8 115048828.803 8     -1177.484          51.000
E02  23643774.062 8 124248881.116 8       346.270          51.000    23643775.336 8  95203717.390 8       265.374          51.000
E03  26102413.938 5 137169109.612 5     -2236.852          33.000    26102415.953 5 105103617.660 5     -1713.679          34.000
E08  21439870.172 8 112667281.182 8      -214.777          51.000    21439871.086 8  86329470.614 8      -164.543          51.000
E30  24215815.094 8 127254940.127 8      2770.648          51.000    24215815.828 8  97507046.600 8      2122.940          51.000
> 2020 05 05 03 47 30.0000000  0 15        .000000000000
G05  20669338.453 8 108618106.308 8      -867.586          50.000    20669338.227 8  84637479.051 8      -676.044          50.000
G28  21775117.664 8 114429009.355 8      2281.660          50.000    21775117.586 7  89165462.759 7      1777.917          46.000
G30  20565924.469 8 108074718.383 8     -1011.414          51.000    20565924.680 8  84214057.073 8      -788.112          51.000
R05  21354708.211 7 114153132.914 7     -3125.629          42.000    21354713.336 7  88785777.665 7     -2431.045          46.000
R06  19172815.266 7 102309807.001 7       772.121          47.000
R09  22636133.211 5 120875631.767 5      4084.320          34.000    22636133.773 5  94014393.745 5      3176.694          30.000
R16  19109942.742 7 102081910.106 7       424.906          47.000    19109944.844 7  79397023.236 7       330.483          44.000
C05  39785306.078 6 207172529.143 6         4.934          36.000    39785304.305 6 160198918.097 6         3.951          41.000
C19  25132801.258 7 130873068.956 7     -3159.762          42.000
C21  22849194.250 5 118981741.002 5      1887.926          31.000
C22  22100734.812 8 115084301.348 8     -1189.816          51.000
E02  23641826.500 8 124238645.349 8       333.480          51.000    23641827.508 8  95195874.368 8       255.596          51.000
E03  26115186.688 5 137236229.206 5     -2239.988          34.000    26115186.727 6 105155044.691 6     -1716.633          38.000
E08  21441109.031 8 112673791.940 8      -221.742          51.000    21441109.867 8  86334459.373 8      -169.909          51.000
E30  24200007.273 8 127171869.375 8      2764.820          51.000    24200006.820 8  97443395.021 8      2118.532          50.000
> 2020 05 05 03 48  0.0000000  0 14        .000000000000
G05  20674353.406 8 108644460.301 8      -899.172          49.000    20674352.875 8  84658014.626 8      -700.653          49.000
G28  21762139.172 8 114360806.433 8      2255.270          50.000    21762138.922 7  89112317.607 7      1757.353          45.000
G30  20571742.523 8 108105292.140 8     -1036.660          51.000    20571742.852 8  84237880.780 8      -807.787          51.000
R05  21372293.844 8 114247143.535 8     -3151.645          48.000    21372299.836 7  88858897.015 7     -2451.282          43.000
R06  19168536.234 7 102286973.034 7       740.066          47.000
R09  22613217.102 6 120753251.027 6      4063.930          38.000    22613214.672 5  93919208.845 5      3160.837          31.000
R16  19107633.609 7 102069575.707 7       387.348          47.000    19107636.289 7  79387429.847 7       301.273          44.000
C05  39785282.875 6 207172408.031 6        -7.406          36.000    39785281.109 6 160198824.410 6        -5.549          41.000
C19  25151025.070 7 130967971.234 7     -3176.797          42.000
C22  22107636.609 8 115120240.045 8     -1215.980          51.000
E02  23639969.898 8 124228888.688 8       306.969          50.000    23639971.250 8  95188398.471 8       235.198          51.000
E03  26127998.750 6 137303557.367 6     -2258.039          37.000    26127998.117 6 105206629.930 6     -1729.913          37.000
E08  21442406.680 8 112680610.964 8      -242.777          51.000    21442407.367 8  86339684.335 8      -186.003          51.000
E30  24184251.211 8 127089070.734 8      2745.086          50.000    24184249.375 8  97379951.953 8      2103.404          50.000
> 2020 05 05 03 48 30.0000000  0 14        .000000000000
G05  20679494.844 8 108671479.312 8      -905.961          50.000    20679494.195 8  84679068.397 8      -705.941          50.000
G28  21749257.164 8 114293111.110 8      2253.734          50.000    21749256.453 7  89059567.986 7      1756.157          43.000
G30  20577650.133 8 108136336.711 8     -1036.977          51.000    20577650.141 8  84262071.345 8      -808.034          51.000
R05  21389972.531 8 114341638.165 8     -3152.031          51.000    21389974.688 6  88932392.731 6     -2451.586          39.000
R06  19164384.570 8 102264817.716 8       732.977          48.000
R09  22590363.258 6 120631207.700 6      4068.160          39.000    22590360.219 5  93824286.340 5      3164.131          32.000
R16  19105480.695 7 102058075.167 7       375.270          47.000    19105483.422 7  79378484.990 7       291.876          44.000
C05  39785275.586 6 207172370.088 6         5.215          36.000    39785273.836 6 160198795.032 6         4.186          41.000
C19  25169294.117 7 131063102.902 7     -3169.121          43.000
C22  22114633.805 8 115156678.027 8     -1217.211          51.000
E02  23638210.711 8 124219644.685 8       305.270          51.000    23638212.586 8  95181315.400 8       233.950          51.000
E03  26140856.539 5 137371127.396 5     -2250.395          32.000    26140855.859 5 105258399.110 5     -1724.376          35.000
E08  21443769.555 8 112687772.456 8      -238.730          51.000    21443770.094 8  86345171.716 8      -182.920          51.000
E30  24168553.320 8 127006579.319 8      2750.207          48.000    24168550.875 8  97316744.279 8      2107.346          49.000
> 2020 05 05 03 49  0.0000000  0 15        .000000000000
G05  20684715.523 8 108698914.187 8      -922.891          50.000    20684714.938 8  84700446.213 8      -719.136          50.000
G28  21736424.891 8 114225677.376 8      2241.973          49.000    21736423.055 6  89007022.218 6      1746.992          41.000
G30  20583599.719 8 108167602.194 8     -1047.309          51.000    20583599.406 8  84286434.049 8      -816.085          51.000
R05  21407694.062 8 114436362.608 8     -3162.809          51.000    21407694.398 7  89006067.180 7     -2459.962          44.000
R06  19160313.047 8 102243091.115 8       715.695          48.000
R09  22567524.875 6 120509251.577 6      4062.129          40.000    22567523.930 5  93729431.604 5      3159.437          35.000
R16  19103436.570 7 102047154.913 7       352.945          47.000    19103439.141 7  79369991.453 7       274.513          45.000
C05  39785237.000 6 207172168.965 6         8.207          36.000    39785235.211 6 160198639.509 6         6.253          41.000
C19  25187560.305 7 131158216.395 7     -3171.637          45.000
C21  22816871.734 5 118813492.841 5      1858.160          31.000
C22  22121679.086 8 115193368.769 8     -1228.602          51.000
E02  23636502.102 8 124210664.636 8       293.453          51.000    23636503.766 8  95174434.553 8       224.878          51.000
E03                                                                  26153711.188 5 105310161.545 5     -1726.432          35.000
E08  21445150.438 8 112695028.459 8      -244.883          51.000    21445150.922 8  86350731.509 8      -187.623          51.000
E30  24152865.992 7 126924148.002 7      2745.258          46.000    24152864.695 8  97253582.630 8      2103.491          50.000
> 2020 05 05 03 49 30.0000000  0 15        .000000000000
G05  20690064.203 8 108727020.770 8      -947.582          50.000    20690063.773 8  84722347.437 8      -738.376          50.000
G28  21723691.742 8 114158763.565 8      2222.305          50.000    21723688.477 6  88954881.614 6      1731.666          41.000
G30  20589639.906 8 108199343.879 8     -1065.504          51.000    20589639.898 8  84311167.841 8      -830.263          51.000
R05  21425506.359 8 114531576.265 8     -3181.480          51.000    21425508.023 8  89080122.207 8     -2474.485          49.000
R06  19156371.125 8 102222055.527 8       690.012          48.000
R09  22544751.680 6 120387646.415 6      4048.031          39.000    22544752.867 5  93634849.828 5      3148.469          34.000
R15  21414805.789 5 114434190.848 5     -3494.230          30.000
R16  19101549.617 7 102037075.524 7       322.492          47.000    19101552.422 7  79362151.948 7       250.827          44.000
C05  39785215.883 6 207172059.121 6         2.180          36.000    39785214.164 6 160198554.530 6         1.972          41.000
C19  25205871.727 7 131253564.650 7     -3181.605          45.000
C22  22128821.914 8 115230566.291 8     -1247.922          51.000
E02  23634892.562 8 124202205.009 8       273.668          51.000    23634894.008 8  95167952.489 8       209.730          51.000
E03                                                                  26166612.312 6 105362113.669 6     -1734.792          37.000
E08  21446598.305 8 112702636.165 8      -259.094          51.000    21446598.695 8  86356560.784 8      -198.535          51.000
E30  24137238.859 7 126842034.916 7      2732.273          47.000    24137239.797 8  97190664.778 8      2093.470          50.000
> 2020 05 05 03 50  0.0000000  0 14        .000000000000
G05  20695535.367 8 108755770.389 8      -965.219          51.000    20695534.688 8  84744749.759 8      -752.115          51.000
G28  21711052.781 8 114092344.461 8      2209.500          50.000    21711048.641 7  88903126.448 7      1721.688          42.000
G30  20595765.141 8 108231532.659 8     -1076.605          51.000    20595765.484 8  84336250.008 8      -838.913          51.000
R05  21443404.312 8 114627249.252 8     -3192.867          51.000    21443407.375 8  89154534.539 8     -2483.341          50.000
R06  19152553.883 8 102201684.998 8       671.887          48.000
R09  22522037.969 5 120266366.561 5      4041.469          35.000    22522042.516 5  93540521.034 5      3143.362          33.000
R16  19099814.664 8 102027807.525 8       299.312          48.000    19099816.883 7  79354943.495 7       232.799          44.000
C05  39785206.953 6 207172012.869 6         4.266          36.000    39785205.352 6 160198518.769 6         3.250          41.000
C19  25224222.469 7 131349118.867 7     -3184.805          44.000
C22  22136057.281 8 115268242.803 8     -1260.086          51.000
E02  23633376.719 8 124194237.813 8       261.195          51.000    23633378.172 8  95161847.759 8       200.140          51.000
E03  26179554.000 6 137574495.411 6     -2267.078          36.000    26179555.594 6 105414233.917 6     -1737.327          38.000
E08  21448107.836 8 112710568.330 8      -265.906          51.000    21448108.188 8  86362638.673 8      -203.761          51.000
E30  24121668.453 8 126760213.629 8      2726.434          48.000    24121670.742 8  97127970.510 8      2089.065          51.000
> 2020 05 05 03 50 30.0000000  0 14        .000000000000
G05  20701101.992 8 108785022.449 8      -984.973          50.000    20701101.094 8  84767543.576 8      -767.511          50.000
G28  21698481.867 8 114026282.309 8      2194.672          51.000    21698478.422 7  88851649.430 7      1710.134          45.000
G30  20601948.336 8 108264027.035 8     -1089.723          51.000    20601948.922 8  84361570.300 8      -849.135          51.000
R05  21461361.172 8 114723237.586 8     -3206.227          50.000    21461364.812 8  89229192.136 8     -2493.732          50.000
R06  19148834.867 8 102181839.108 8       651.219          48.000
R09  22499357.039 5 120145272.247 5      4033.297          32.000    22499367.039 5  93446336.576 5      3137.015          30.000
R16  19098204.516 7 102019208.042 7       274.102          47.000    19098206.773 7  79348255.026 7       213.193          45.000
C05  39785183.695 6 207171891.472 6         3.758          36.000    39785182.062 6 160198424.856 6         3.087          41.000
C19  25242585.906 7 131444738.901 7     -3189.762          45.000
C22  22143357.773 8 115306259.198 8     -1274.262          51.000
E02  23631927.945 8 124186622.751 8       246.578          51.000    23631929.195 8  95156012.843 8       188.919          51.000
E03  26192513.195 6 137642595.872 6     -2273.102          36.000    26192514.305 5 105466414.749 5     -1741.212          35.000
E08  21449652.547 8 112718685.430 8      -275.059          51.000    21449652.773 8  86368858.262 8      -210.762          51.000
E30  24106128.141 8 126678545.387 8      2718.352          50.000    24106130.977 8  97065393.543 8      2082.854          51.000
> 2020 05 05 03 51  0.0000000  0 14        .000000000000
G05  20706778.875 8 108814854.313 8     -1005.270          51.000    20706777.898 8  84790789.150 8      -783.327          51.000
G28  21685994.227 8 113960657.244 8      2178.875          51.000    21685991.477 7  88800512.988 7      1697.825          45.000
G30  20608204.344 8 108296903.758 8     -1103.594          51.000    20608205.117 8  84387188.522 8      -859.943          51.000
R05  21479391.547 8 114819619.118 8     -3220.586          50.000    21479395.367 8  89304155.560 8     -2504.900          50.000
R06  19145229.523 8 102162599.258 8       629.949          48.000
R09  22476726.047 5 120024445.846 5      4021.223          31.000
R16  19096734.375 7 102011356.014 7       248.059          47.000    19096736.609 7  79342147.894 7       192.934          44.000
C05  39785160.719 6 207171771.283 6         2.773          36.000    39785159.188 6 160198332.661 6         2.084          41.000
C19  25260976.688 7 131540500.749 7     -3195.734          46.000
C22  22150738.047 8 115344692.555 8     -1289.328          51.000
E02  23630560.969 8 124179437.668 8       230.934          51.000    23630561.625 8  95150507.382 8       176.982          51.000
E03  26205499.898 5 137710835.266 5     -2279.035          34.000
E08  21451247.492 8 112727066.057 8      -285.168          51.000    21451247.398 8  86375279.779 8      -218.511          51.000
E30  24090632.320 8 126597109.699 8      2709.320          50.000    24090635.367 8  97002994.761 8      2075.904          51.000
> 2020 05 05 03 51 30.0000000  0 13        .000000000000
G05  20712566.633 8 108845267.992 8     -1022.891          51.000    20712565.367 8  84814488.129 8      -797.058          51.000
G28  21673590.797 8 113895474.213 8      2165.887          51.000    21673588.398 7  88749721.017 7      1687.704          45.000
G30  20614533.469 8 108330163.986 8     -1114.492          51.000    20614534.383 8  84413105.563 8      -868.435          51.000
R05  21497495.570 8 114916394.668 8     -3231.898          50.000    21497499.680 8  89379425.430 8     -2513.699          49.000
R06  19141738.305 8 102143969.422 8       611.355          48.000
R09  22454147.797 5 119903892.019 5      4014.254          33.000    22454160.695 4  93258624.050 4      3122.204          29.000
R16  19095404.320 7 102004252.854 7       224.844          46.000    19095406.508 7  79336623.217 7       174.878          44.000
C05  39785138.734 6 207171656.807 6         4.234          36.000    39785137.312 6 160198244.159 6         3.235          41.000
C19  25279394.695 7 131636405.655 7     -3198.766          45.000
C22  22158198.922 8 115383545.013 8     -1301.523          51.000
E02  23629276.031 8 124172684.857 8       218.402          51.000    23629276.406 8  95145333.156 8       167.344          51.000
E08  21452893.148 8 112735713.264 8      -292.176          51.000    21452892.773 8  86381905.555 8      -223.872          51.000
E30  24075181.586 8 126515910.538 8      2703.281          50.000    24075184.391 8  96940777.214 8      2071.306          51.000
> 2020 05 05 03 52  0.0000000  0 13        .000000000000
G05  20718460.055 8 108876238.944 8     -1042.371          51.000    20718458.984 8  84838621.345 8      -812.237          51.000
G28  21661267.344 8 113830711.656 8      2151.074          51.000    21661264.641 7  88699256.687 7      1676.162          44.000
G30  20620930.891 8 108363782.855 8     -1127.305          51.000    20620931.859 8  84439302.090 8      -878.416          51.000
R05  21515668.141 8 115013538.821 8     -3245.047          49.000    21515672.547 7  89454981.967 7     -2523.925          46.000
R06  19138357.367 8 102125928.152 8       590.770          48.000
R09  22431617.906 5 119783590.121 5      4005.258          33.000    22431629.047 5  93165055.873 5      3115.197          34.000
R16  19094209.938 7 101997873.990 7       199.703          45.000    19094212.398 7  79331661.893 7       155.325          44.000
C05  39785113.094 6 207171523.854 6         3.676          36.000    39785111.742 6 160198141.308 6         3.102          41.000
C19  25297834.859 7 131732429.018 7     -3203.477          43.000
C22  22165736.234 8 115422793.011 8     -1315.559          51.000
E02  23628068.828 8 124166340.641 8       203.969          51.000    23628069.109 8  95140472.000 8       156.312          51.000
E08  21454585.070 8 112744604.158 8      -301.191          51.000    21454584.578 8  86388718.050 8      -230.714          51.000
E30  24059771.469 8 126434925.797 8      2695.223          50.000    24059773.984 8  96878723.958 8      2065.180          51.000
> 2020 05 05 03 52 30.0000000  0 16        .000000000000
G05  20724457.094 8 108907754.580 8     -1057.879          51.000    20724456.312 8  84863178.987 8      -824.321          51.000
G07  22608005.242 5 118805861.413 5     -2493.277          33.000
G28  21649021.812 8 113766360.154 8      2139.984          51.000    21649017.992 7  88649112.686 7      1667.523          42.000
G30  20627394.125 8 108397747.381 8     -1136.086          51.000    20627394.789 8  84465767.960 8      -885.262          51.000
R05  21533907.547 8 115111038.190 8     -3254.039          48.000    21533910.750 7  89530814.741 7     -2530.922          42.000
R06  19135084.914 7 102108465.733 7       574.176          47.000
R09  22409134.719 5 119663530.742 5      3999.148          32.000    22409144.312 6  93071676.453 6      3110.452          36.000
R15  21533594.102 5 115068965.857 5     -3554.945          31.000
R16  19093148.688 7 101992206.800 7       178.730          45.000    19093151.406 7  79327254.075 7       139.013          44.000
C05  39785081.844 6 207171360.771 6         7.543          36.000    39785080.359 6 160198015.158 6         5.926          41.000
C19  25316294.938 7 131828557.902 7     -3204.387          43.000
C21  22743630.336 5 118432049.968 5      1781.090          31.000
C22  22173347.055 8 115462424.751 8     -1325.672          51.000
E02  23626936.945 8 124160393.111 8       193.406          51.000    23626937.219 8  95135914.808 8       148.191          51.000
E08  21456321.250 8 112753727.644 8      -306.270          51.000    21456320.562 8  86395708.773 8      -234.665          51.000
E30  24044399.984 8 126354145.233 8      2691.059          50.000    24044402.219 8  96816827.154 8      2061.947          51.000
> 2020 05 05 03 53  0.0000000  0 17        .000000000000
G05  20730560.055 8 108939826.025 8     -1080.543          50.000    20730559.367 8  84888169.734 8      -841.982          50.000
G07  22622254.531 5 118880749.153 5     -2502.566          33.000
G13  21226682.289 5 111546979.268 5      1965.195          33.000
G28  21636856.688 8 113702434.572 8      2121.555          48.000    21636851.586 7  88599300.592 7      1653.163          42.000
G30  20633925.242 8 108432068.728 8     -1152.137          51.000    20633925.586 8  84492511.868 8      -897.766          51.000
R05  21552215.539 8 115208903.956 8     -3270.543          48.000    21552215.773 6  89606932.449 6     -2543.759          41.000
R06  19131923.492 7 102091596.794 7       550.082          47.000
R09  22386700.180 5 119543729.530 5      3986.445          33.000    22386708.328 6  92978497.759 6      3100.572          37.000
R15  21553596.648 5 115175841.935 5     -3570.129          35.000
R16  19092222.961 7 101987263.053 7       150.473          45.000    19092225.898 7  79323408.913 7       117.034          45.000
C05  39785047.148 6 207171180.004 6         4.180          36.000    39785045.688 6 160197875.374 6         3.217          41.000
C19  25334777.203 6 131924803.436 6     -3212.133          40.000
C21  22733410.984 5 118378838.505 5      1766.309          31.000
C22  22181033.836 8 115502452.242 8     -1343.070          51.000
E02  23625882.828 8 124154854.509 8       175.574          51.000    23625883.391 8  95131670.965 8       134.576          51.000
E08  21458104.203 8 112763096.787 8      -318.648          51.000    21458103.383 8  86402887.727 8      -244.138          51.000
E30  24029069.523 8 126273582.819 8      2679.461          49.000    24029071.727 8  96755097.487 8      2053.165          51.000
> 2020 05 05 03 53 30.0000000  0 15        .000000000000
G05  20736789.602 8 108972564.306 8     -1098.898          50.000    20736789.266 8  84913680.054 8      -856.284          50.000
G28  21624793.164 7 113639047.647 7      2107.422          42.000    21624788.453 7  88549908.221 7      1642.147          42.000
G30  20640544.992 8 108466856.047 8     -1163.738          51.000    20640545.516 8  84519618.873 8      -906.809          51.000
R05  21570612.750 8 115307246.772 8     -3282.395          48.000    21570610.820 6  89683421.217 6     -2552.974          41.000
R06  19128894.406 7 102075435.319 7       530.656          46.000
R09  22364335.508 4 119424301.364 4      3978.512          29.000    22364341.938 6  92885609.123 6      3094.398          37.000
R15  21573675.633 5 115283129.507 5     -3580.324          34.000
R16  19091453.727 7 101983154.371 7       126.648          45.000    19091456.898 7  79320213.276 7        98.504          44.000
C05  39785030.125 6 207171091.163 6         4.766          36.000    39785028.617 6 160197806.647 6         3.830          41.000
C19  25353302.836 6 132021273.838 6     -3215.996          36.000
C21  22723269.969 4 118326029.739 4      1755.465          29.000
C22  22188817.789 8 115542984.604 8     -1355.957          51.000
E02  23624927.719 8 124149835.085 8       162.277          51.000    23624928.477 8  95127824.927 8       124.300          51.000
E08  21459954.945 8 112772822.577 8      -326.527          51.000    21459954.133 8  86410339.956 8      -250.226          51.000
E30  24013801.219 8 126193350.400 8      2672.441          49.000    24013803.828 8  96693620.661 8      2047.781          51.000
> 2020 05 05 03 54  0.0000000  0 15        .000000000000
G05  20743106.773 8 109005761.815 8     -1117.121          50.000    20743106.562 8  84939548.215 8      -870.484          50.000
G28  21612792.469 6 113575995.222 6      2093.328          40.000    21612790.078 6  88500776.431 6      1631.162          40.000
G30  20647213.891 8 108501901.778 8     -1175.410          51.000    20647214.797 8  84546927.243 8      -915.904          51.000
R05  21589058.203 6 115405855.108 6     -3294.164          40.000    21589057.070 7  89760116.549 7     -2562.128          43.000
R06  19125959.047 7 102059773.477 7       510.828          46.000
R09  22342003.438 4 119305048.596 4      3968.836          28.000    22342007.289 5  92792849.908 5      3086.872          35.000
R15  21593791.578 4 115390671.514 4     -3588.625          29.000
R16  19090801.492 7 101979669.931 7       102.703          44.000    19090804.523 7  79317503.142 7        79.880          44.000
C05  39784991.523 5 207170890.869 5         5.895          35.000    39784990.039 6 160197650.973 6         4.377          41.000
C19  25371836.883 6 132117763.457 6     -3219.738          37.000
C22  22196659.664 8 115583817.210 8     -1368.957          51.000
E02  23624032.086 8 124145128.421 8       148.754          51.000    23624032.781 8  95124218.528 8       113.965          51.000
E03  26284018.547 6 138123446.492 6     -2306.883          38.000
E08  21461834.336 8 112782699.455 8      -334.656          51.000    21461833.523 8  86417907.943 8      -256.470          51.000
E30  23998556.500 8 126113243.183 8      2665.254          49.000    23998559.312 8  96632239.771 8      2042.175          51.000
> 2020 05 05 03 54 30.0000000  0 15        .000000000000
G05  20749534.711 8 109039540.580 8     -1134.438          50.000    20749534.312 8  84965869.317 8      -883.980          50.000
G28  21600881.789 7 113513402.643 7      2080.066          47.000    21600880.141 7  88452002.949 7      1620.831          45.000
G30  20653955.148 8 108537327.794 8     -1185.949          51.000    20653956.133 8  84574531.917 8      -924.116          51.000
R05  21607572.070 6 115504852.535 6     -3305.488          36.000    21607576.969 7  89837114.694 7     -2570.926          43.000
R06  19123141.242 7 102044738.627 7       491.934          46.000
R15  21613968.688 4 115498475.595 4     -3597.352          29.000    21613973.172 4  89832180.834 4     -2797.940          26.000
R16  19090289.562 7 101976934.390 7        79.922          46.000    19090292.672 7  79315375.501 7        62.161          45.000
C05  39784954.875 5 207170699.360 5         7.359          35.000    39784953.312 6 160197502.842 6         5.969          41.000
C19  25390399.266 6 132214392.978 6     -3222.043          40.000
C22  22204582.344 8 115625071.866 8     -1380.941          51.000
E02  23623219.328 8 124140857.401 8       136.418          51.000    23623219.930 8  95120945.946 8       104.507          51.000
E03  26297199.680 6 138192705.669 6     -2309.668          40.000
E08  21463765.953 8 112792851.155 8      -341.676          51.000    21463765.164 8  86425686.512 8      -261.801          51.000
E25  26479800.734 5 139152286.820 5     -2378.715          35.000
E30  23983359.781 8 126033385.761 8      2659.059          50.000    23983361.742 8  96571050.317 8      2037.434          50.000
> 2020 05 05 03 55  0.0000000  0 15        .000000000000
G05  20756083.984 8 109073957.863 8     -1158.992          49.000    20756083.297 8  84992687.966 8      -903.111          49.000
G07  22679663.805 4 119182436.937 4     -2527.363          29.000
G28  21589070.648 8 113451330.020 8      2059.211          51.000    21589068.922 7  88403634.640 7      1604.580          46.000
G30  20660779.555 8 108573190.810 8     -1203.773          51.000    20660780.555 8  84602477.098 8      -938.005          51.000
R05  21626175.445 7 115604297.038 7     -3323.379          46.000    21626180.281 7  89914460.386 7     -2584.853          42.000
R06  19120452.172 7 102030391.257 7       465.617          45.000
R16  19089928.773 7 101975005.692 7        49.613          45.000    19089931.875 7  79313875.417 7        38.588          44.000
C05  39784931.023 5 207170576.071 5         1.996          35.000    39784929.531 6 160197406.743 6         1.408          41.000
C19  25408997.180 6 132311218.664 6     -3231.828          40.000
C22  22212596.906 8 115666805.702 8     -1400.262          51.000
E02  23622500.547 8 124137079.862 8       116.492          51.000    23622500.906 8  95118051.464 8        89.293          51.000
E03  26310422.211 6 138262185.192 6     -2320.898          38.000    26310414.609 5 105941139.581 5     -1778.186          33.000
E08  21465760.992 8 112803336.351 8      -356.199          51.000    21465760.391 8  86433720.626 8      -272.992          51.000
E25  26493421.461 5 139223868.719 5     -2391.785          33.000
E30  23968222.336 8 125953837.623 8      2645.273          51.000    23968222.812 8  96510097.859 8      2026.829          50.000
> 2020 05 05 03 55 30.0000000  0 14        .000000000000
G05  20762756.406 8 109109022.544 8     -1176.648          50.000    20762755.562 8  85020011.080 8      -916.869          50.000
G28  21577360.820 8 113389789.373 8      2045.461          51.000    21577358.609 7  88355680.866 7      1593.866          46.000
G30  20667688.797 8 108609499.174 8     -1214.574          51.000    20667689.992 8  84630769.313 8      -946.421          51.000
R05  21644865.688 8 115704196.709 8     -3334.496          50.000    21644869.477 7  89992160.089 7     -2593.497          43.000
R06  19117894.703 7 102016743.626 7       446.309          45.000
R09  22275374.461 5 118949239.248 5      3938.590          33.000    22275377.102 6  92516089.374 6      3063.342          36.000
R16  19089720.617 7 101973892.272 7        26.551          46.000    19089723.414 7  79313009.410 7        20.651          44.000
C05  39784921.969 6 207170528.789 6         3.289          36.000    39784920.461 6 160197370.142 6         2.486          41.000
C19  25427632.094 6 132408248.862 6     -3234.891          37.000
C22  22220705.406 8 115709027.943 8     -1412.562          51.000
E02  23621877.242 8 124133805.215 8       103.738          51.000    23621877.469 8  95115542.321 8        79.512          51.000
E03                                                                  26323682.148 6 105994553.112 6     -1781.344          38.000
E08  21467821.523 8 112814165.273 8      -363.633          51.000    21467821.211 8  86442018.104 8      -278.664          51.000
E30  23953146.023 8 125874609.891 8      2638.648          51.000    23953145.102 8  96449390.890 8      2021.780          50.000
> 2020 05 05 03 56  0.0000000  0 14        .000000000000
G05  20769516.125 8 109144544.105 8     -1191.852          51.000    20769515.086 8  85047690.223 8      -928.712          51.000
G28  21565716.250 8 113328593.222 8      2033.988          51.000    21565713.891 7  88307995.542 7      1584.926          47.000
G30  20674646.609 8 108646062.022 8     -1223.090          51.000    20674647.828 8  84659259.837 8      -953.057          51.000
R05  21663604.633 8 115804356.787 8     -3343.215          50.000    21663608.070 7  90070062.326 7     -2600.281          46.000
R06  19115432.375 7 102003604.779 7       429.324          45.000
R16  19089628.875 7 101973400.825 7         5.797          45.000    19089631.695 7  79312627.181 7         4.509          44.000
C05  39784891.664 6 207170370.667 6         6.910          36.000    39784890.070 6 160197247.850 6         5.198          41.000
C19  25446268.133 5 132505294.512 5     -3235.516          32.000
C21  22673517.586 5 118066939.268 5      1700.496          32.000
C22  22228871.438 8 115751550.407 8     -1422.516          51.000
E02  23621313.383 8 124130843.598 8        93.371          51.000    23621313.797 8  95113273.035 8        71.517          51.000
E03  26336964.398 5 138401680.755 5     -2325.762          34.000    26336956.961 6 106047997.181 6     -1781.933          39.000
E08  21469911.570 8 112825148.962 8      -368.852          51.000    21469911.602 8  86450434.169 8      -282.633          51.000
E30  23938094.961 8 125795514.407 8      2634.168          51.000    23938093.484 8  96388785.244 8      2018.362          51.000
> 2020 05 05 03 56 30.0000000  0 13        .000000000000
G05  20776383.930 8 109180633.387 8     -1216.031          51.000    20776382.758 8  85075811.743 8      -947.560          51.000
G28  21554158.344 8 113267855.060 8      2013.301          50.000    21554156.438 8  88260667.111 8      1568.806          48.000
G30  20681673.883 8 108682989.590 8     -1240.500          51.000    20681674.930 8  84688034.557 8      -966.623          51.000
R05  21682412.141 8 115904889.222 8     -3360.953          48.000    21682416.180 7  90148254.127 7     -2614.075          46.000
R06  19113087.102 7 101991090.193 7       403.121          45.000
R16  19089674.586 7 101973643.588 7       -24.047          46.000    19089677.047 7  79312815.999 7       -18.703          43.000
C05  39784861.281 6 207170212.389 6         2.004          36.000    39784859.695 6 160197125.446 6         1.193          41.000
C19  25464925.688 5 132602464.716 5     -3245.051          32.000
C22  22237116.055 8 115794483.322 8     -1441.422          51.000
E02  23620830.453 8 124128306.360 8        73.879          51.000    23620831.008 8  95111328.908 8        56.629          51.000
E03  26350264.758 6 138471582.193 6     -2336.047          37.000    26350258.156 6 106101557.134 6     -1790.075          36.000
E08  21472052.422 8 112836399.590 8      -383.121          51.000    21472052.789 8  86459054.766 8      -293.587          51.000
E30  23923090.594 8 125716664.167 8      2620.613          51.000    23923089.406 8  96328367.520 8      2007.949          51.000
> 2020 05 05 03 57  0.0000000  0 14        .000000000000
G05  20783341.430 8 109217194.216 8     -1239.344          51.000    20783340.047 8  85104300.693 8      -965.722          51.000
G07  22737553.938 6 119486621.668 6     -2553.539          37.000    22737555.898 6  93106498.865 6     -1989.780          36.000
G28  21542669.352 8 113207482.062 8      1993.582          48.000    21542668.484 7  88213623.210 7      1553.441          47.000
G30  20688752.188 8 108720185.462 8     -1257.074          51.000    20688753.195 8  84717018.350 8      -979.538          51.000
R05  21701270.812 8 116005695.723 8     -3377.699          49.000    21701275.117 7  90226659.158 7     -2627.096          46.000
R06  19110841.234 7 101979104.888 7       377.887          44.000
R16  19089839.398 7 101974523.004 7       -52.828          46.000    19089841.352 7  79313499.982 7       -41.089          43.000
C05  39784812.789 6 207169959.906 6        -3.164          36.000    39784811.250 6 160196930.094 6        -1.972          41.000
C19  25483587.477 5 132699663.855 5     -3253.016          31.000
C22  22245421.258 8 115837732.082 8     -1459.496          51.000
E02  23620409.867 8 124126098.075 8        55.500          51.000    23620410.617 8  95109636.826 8        42.469          51.000
E03  26363574.422 6 138541538.513 6     -2345.414          36.000    26363566.844 5 106155159.899 5     -1797.141          31.000
E08  21474226.055 8 112847822.621 8      -396.344          51.000    21474226.742 8  86467807.457 8      -303.689          51.000
E30  23908115.086 8 125637965.516 8      2608.160          51.000    23908114.648 8  96268065.944 8      1998.469          51.000
> 2020 05 05 03 57 30.0000000  0 15        .000000000000
G05  20790457.023 8 109254585.576 8     -1247.867          51.000    20790455.312 8  85133436.832 8      -972.364          51.000
G07  22752135.891 5 119563240.103 5     -2548.859          33.000    22752135.836 4  93166201.386 4     -1986.127          29.000
G28  21531318.375 8 113147836.306 8      1988.309          48.000    21531318.719 7  88167145.961 7      1549.331          46.000
G30  20695949.719 8 108758008.077 8     -1259.051          51.000    20695950.828 8  84746490.515 8      -981.079          51.000
R05  21720249.070 8 116107140.387 8     -3379.594          50.000    21720253.164 7  90305560.575 7     -2628.573          46.000
R06  19108763.141 7 101968015.627 7       367.219          45.000
R16  19090191.359 7 101976403.570 7       -66.855          46.000    19090193.359 7  79314962.657 7       -51.999          43.000
C05  39784814.578 6 207169969.466 6         7.805          36.000    39784813.141 6 160196937.543 6         5.911          41.000
C19  25502325.375 5 132797247.396 5     -3246.875          33.000
C21  22644464.430 5 117915658.749 5      1666.109          32.000
C22  22253855.828 8 115881652.750 8     -1463.035          51.000
E02  23620120.297 8 124124578.194 8        51.488          51.000    23620121.211 8  95108472.227 8        39.449          51.000
E03  26376962.578 6 138611910.286 6     -2340.410          39.000    26376955.492 5 106209071.050 5     -1793.029          33.000
E08  21476501.109 8 112859778.401 8      -395.125          51.000    21476502.016 8  86476968.362 8      -302.746          51.000
E30  23893237.086 8 125559779.563 8      2609.914          51.000    23893237.406 8  96208157.225 8      1999.852          51.000
> 2020 05 05 03 58  0.0000000  0 14        .000000000000
G05  20797639.352 8 109292328.539 8     -1272.160          51.000    20797637.633 8  85162846.931 8      -991.294          51.000
G07  22766705.969 6 119639810.085 6     -2559.508          36.000    22766709.023 5  93225857.721 5     -1994.422          34.000
G28  21520015.656 8 113088442.220 8      1967.516          48.000    21520016.359 7  88120864.843 7      1533.129          45.000
G30  20703175.359 8 108795978.513 8     -1276.285          51.000    20703176.523 8  84776077.848 8      -994.508          51.000
R05  21739255.367 8 116208736.024 8     -3397.297          49.000    21739258.594 7  90384579.373 7     -2642.342          43.000
R06  19106763.016 7 101957339.964 7       340.480          46.000
R16  19090639.641 7 101978798.641 7       -96.824          46.000    19090641.570 7  79316825.496 7       -75.308          43.000
C05                                                                  39784774.500 6 160196781.950 6         1.544          41.000
C19  25521047.203 6 132894740.776 6     -3256.535          39.000
C22  22262328.633 8 115925771.779 8     -1482.066          51.000
E02  23619871.016 8 124123268.877 8        31.938          51.000    23619872.281 8  95107468.968 8        24.484          51.000
E03  26390340.008 6 138682219.677 6     -2350.758          39.000    26390337.203 6 106262944.447 6     -1801.059          39.000
E08  21478786.898 8 112871789.968 8      -409.473          51.000    21478787.781 8  86486172.024 8      -313.773          51.000
E30  23878365.852 8 125481630.199 8      2596.156          51.000    23878366.859 8  96148276.534 8      1989.242          51.000
> 2020 05 05 03 58 30.0000000  0 14        .000000000000
G05  20804943.453 8 109330711.986 8     -1287.188          51.000    20804941.664 8  85192756.108 8     -1003.000          51.000
G07  22781316.766 6 119716605.706 6     -2560.875          39.000    22781323.625 5  93285713.321 5     -1995.490          31.000
G28  21508816.672 8 113029590.975 8      1955.547          50.000    21508816.500 7  88075006.734 7      1523.803          43.000
G30  20710483.875 8 108834384.770 8     -1284.391          51.000    20710484.898 8  84806004.793 8     -1000.824          51.000
R05  21758344.078 8 116310775.006 8     -3405.762          48.000    21758346.461 7  90463943.004 7     -2648.926          44.000
R06  19104895.180 7 101947372.901 7       323.605          45.000
R16  19091239.133 7 101982001.365 7      -117.148          47.000    19091240.977 7  79319316.510 7       -91.115          43.000
C05  39784751.969 5 207169642.985 5         5.250          35.000    39784750.492 6 160196685.011 6         4.271          41.000
C19  25539807.477 6 132992429.296 6     -3256.516          41.000
C22  22270894.766 8 115970375.389 8     -1491.949          51.000
E02  23619716.656 8 124122459.042 8        21.535          51.000    23619718.531 8  95106848.439 8        16.540          51.000
E03  26403761.523 6 138752755.752 6     -2352.078          39.000    26403763.070 6 106316991.513 6     -1802.167          41.000
E08  21481138.539 8 112884147.181 8      -414.766          51.000    21481139.367 8  86495640.526 8      -317.810          51.000
E30  23863556.617 8 125403808.104 8      2591.492          51.000    23863558.359 8  96088646.625 8      1985.683          51.000
> 2020 05 05 03 59  0.0000000  0 15        .000000000000
G05  20812311.875 8 109369433.761 8     -1308.020          51.000    20812310.344 8  85222928.922 8     -1019.236          51.000
G07  22795915.836 6 119793331.790 6     -2567.902          38.000    22795924.375 5  93345503.612 5     -2000.972          31.000
G28  21497664.586 8 112970984.315 8      1937.723          51.000    21497663.172 7  88029339.223 7      1509.914          42.000
G30  20717817.805 8 108872924.921 8     -1298.660          51.000    20717818.797 8  84836036.069 8     -1011.943          51.000
R05  21777456.984 7 116412949.805 7     -3419.941          45.000    21777459.945 7  90543412.284 7     -2659.954          44.000
R06  19103103.328 7 101937811.259 7       300.133          47.000
R09  22121768.578 5 118128984.253 5      3868.637          32.000    22121760.766 6  91878080.677 6      3008.943          36.000
R16  19091932.414 7 101985704.597 7      -143.750          47.000    19091934.164 7  79322196.818 7      -111.806          43.000
C05  39784685.172 5 207169295.703 5         3.582          35.000    39784683.859 6 160196416.468 6         2.836          41.000
C19  25558547.695 7 133090013.813 7     -3262.656          42.000
C22  22279496.664 8 116015165.306 8     -1507.719          51.000
E02  23619600.266 8 124121847.801 8         5.352          51.000    23619602.438 8  95106380.083 8         4.107          51.000
E03  26417169.367 6 138823217.641 6     -2359.227          40.000    26417173.094 6 106370981.790 6     -1807.650          41.000
E08  21483498.766 8 112896550.014 8      -425.953          51.000    21483499.734 8  86505143.982 8      -326.284          51.000
E30  23848752.383 8 125326014.076 8      2580.992          51.000    23848754.867 8  96029038.213 8      1977.584          51.000
> 2020 05 05 03 59 30.0000000  0 14        .000000000000
G05  20819855.414 8 109409077.338 8     -1334.965          50.000    20819854.664 8  85253819.995 8     -1040.232          50.000
G28  21486670.664 8 112913208.505 8      1913.910          51.000    21486668.000 7  87984319.129 7      1491.362          43.000
G30  20725288.156 8 108912181.940 8     -1318.559          51.000    20725289.336 8  84866625.944 8     -1027.448          51.000
R05  21796705.508 7 116515853.186 7     -3440.484          45.000    21796710.047 7  90623448.215 7     -2675.929          45.000
R06  19101499.031 7 101929249.691 7       270.551          46.000
R09  22100081.992 5 118013209.043 5      3850.340          30.000    22100082.117 5  91788033.342 5      2994.712          32.000
R16  19092830.148 7 101990500.957 7      -176.250          47.000    19092831.773 7  79325927.333 7      -137.083          43.000
C05  39784687.133 5 207169305.680 5        -4.836          35.000    39784685.758 6 160196424.134 6        -3.425          41.000
C19  25577378.477 7 133188072.036 7     -3274.641          42.000
C22  22288244.977 8 116060720.146 8     -1529.375          51.000
E02  23619633.078 8 124122019.125 8       -16.910          51.000    23619635.242 8  95106511.350 8       -12.951          51.000
E03  26430674.484 6 138894189.402 6     -2372.344          41.000    26430678.734 7 106425362.785 7     -1817.740          42.000
E08  21485978.844 8 112909583.390 8      -443.059          51.000    21485980.242 8  86515130.584 8      -339.537          51.000
E30  23834064.688 8 125248833.860 8      2564.320          50.000    23834067.727 8  95969900.114 8      1964.863          51.000
