     3.02           OBSERVATION DATA    M (MIXED)           RINEX VERSION / TYPE
SAVERINEX           SC600               20200510 125931 LCL PGM / RUN BY / DATE
       G = GPS       R = GLONASS       C = COMPASS          COMMENT
       S = SBAS      J = QZSS          E = GALILEO          COMMENT
BEAN                                                        MARKER NAME
1                                                           MARKER NUMBER
GEODETIC                                                    MARKER TYPE
Unige DICCA         GTER                                    OBSERVER / AGENCY
SC60291900056       SC600               2.12(191226)        REC # / TYPE / VERS
                    HEMA45          NONE                    ANT # / TYPE
  4509407.8091   693652.4678  4442337.6214                  APPROX POSITION XYZ
        0.0000        0.0000        0.0000                  ANTENNA: DELTA H/E/N
G    8 C1C L1C D1C S1C C2Y L2Y D2Y S2Y                      SYS / # / OBS TYPES
R    8 C1C L1C D1C S1C C2P L2P D2P S2P                      SYS / # / OBS TYPES
C    8 C1I L1I D1I S1I C7I L7I D7I S7I                      SYS / # / OBS TYPES
E    8 C1C L1C D1C S1C C7Q L7Q D7Q S7Q                      SYS / # / OBS TYPES
DBHZ                                                        COMMENT
     30.000                                                 INTERVAL
  2020    05    10    10    00    0.0000000     GPS         TIME OF FIRST OBS
  2020    05    10    10    59   30.0000000     GPS         TIME OF LAST OBS
     0                                                      RCV CLOCK OFFS APPL
G L1C  0.00000                                              SYS / PHASE SHIFT
G L2Y  0.00000                                              SYS / PHASE SHIFT
R L1C  0.00000                                              SYS / PHASE SHIFT
R L2P  0.25000                                              SYS / PHASE SHIFT
C L1I  0.00000                                              SYS / PHASE SHIFT
C L7I  0.00000                                              SYS / PHASE SHIFT
E L1C  0.50000                                              SYS / PHASE SHIFT
E L7Q -0.25000                                              SYS / PHASE SHIFT
 13 R04  6 R05  1 R06 -4 R07  5 R09 -2 R10 -5 R13 -2 R14 -7 GLONASS SLOT / FRQ #
    R15  0 R16 -1 R17  4 R18 -3 R19  3                      GLONASS SLOT / FRQ #
 C1C   71.950 C2C   71.950 C2P   71.950                     GLONASS COD/PHS/BIS
    18                                                      LEAP SECONDS
*** Above antenna height is from mark to ANTENNA BOTTOM.    COMMENT
    17     4        0.0000        ANT MEASURE TYPE/HEIGT    COMMENT
    0.0000    0.0000    0.0458    0.0405    0.0000          COMMENT
                    BASE STATION                            COMMENT
                                                            END OF HEADER
> 2020 05 10 10 00  0.0000000  0 18        .000000000000
G02  22922429.625 5 120458181.318 5        92.988          34.000    22922429.805 5  93863512.708 5        72.458          34.000
G06  23713289.375 5 124614156.592 5     -1312.074          34.000    23713293.656 5  97101960.608 5     -1022.392          34.000
G12  20680382.055 8 108676183.529 8     -1541.242          49.000    20680381.125 8  84682710.281 8     -1200.968          49.000
G24  22718781.805 7 119387995.452 7     -3241.527          45.000    22718784.594 7  93029607.196 7     -2525.869          45.000
G25  20180430.914 7 106048884.096 7       341.680          44.000    20180432.789 7  82635499.612 7       266.247          44.000
G29  21552549.125 8 113259433.017 8      2655.391          51.000    21552549.914 8  88254090.047 8      2069.139          51.000
R16  19496694.109 7 104147817.478 7      -406.000          47.000    19496695.594 7  81003875.043 7      -315.778          42.000
R17  22193153.750 6 118760028.620 6     -3636.164          36.000
R18  19593803.328 8 104593080.436 8      -219.891          49.000    19593807.367 8  81350197.075 8      -171.026          49.000
R19  20859503.078 6 111584270.808 6      3591.738          36.000    20859501.852 6  86787773.832 6      2793.577          40.000
C11  23281243.297 5 121231535.453 5     -1804.672          34.000    23281244.352 6  93743961.460 6     -1395.508          40.000
C23  22002244.312 8 114571460.160 8      -781.801          50.000
C25  25098477.023 6 130694322.536 6     -2794.188          39.000
C28  23046532.414 8 120009386.018 8      2659.645          48.000
E11  24568857.188 8 129110188.179 8      2703.613          48.000    24568858.398 8  98928572.565 8      2071.654          49.000
E12  22932494.805 5 120511073.758 5       110.195          32.000    22932498.297 6  92339656.276 6        84.549          37.000
E24  22345981.531 8 117428954.524 8     -1080.109          51.000    22345995.562 8  89978020.505 8      -827.607          51.000
E25  24145647.680 5 126886230.588 5      1203.172          33.000    24145639.922 5  97224485.600 5       922.016          33.000
> 2020 05 10 10 00 30.0000000  0 18        .000000000000
G02  22921874.938 5 120455261.282 5        91.203          34.000    22921871.672 4  93861237.245 4        71.046          26.000
G12  20689132.055 8 108722164.560 8     -1534.832          49.000    20689130.961 8  84718539.650 8     -1195.973          49.000
G24  22737234.617 7 119484966.755 7     -3233.922          44.000    22737238.383 7  93105169.246 7     -2519.936          45.000
G25  20178437.945 7 106038410.826 7       345.984          43.000    20178440.102 7  82627338.610 7       269.595          43.000
G29  21537352.875 8 113179572.581 8      2657.949          51.000    21537351.648 8  88191861.225 8      2071.132          51.000
G32  22303656.648 5 117206500.870 5     -1051.625          34.000    22303658.656 5  91329741.693 5      -819.439          33.000
R16  19498941.047 7 104159819.691 7      -404.938          46.000    19498942.289 6  81013210.101 6      -314.951          41.000
R17  22213504.648 5 118868919.294 5     -3633.957          34.000
R18  19595042.836 8 104599697.800 8      -232.137          49.000    19595047.062 8  81355343.894 8      -180.551          49.000
R19  20839331.617 6 111476373.069 6      3590.750          37.000    20839331.539 6  86703853.376 6      2792.806          41.000
C11  23291605.609 6 121285492.745 6     -1802.301          36.000    23291606.469 6  93785684.669 6     -1393.702          38.000
C23  22006705.297 8 114594689.880 8      -777.418          50.000
C25  25114513.758 6 130777831.088 6     -2783.902          39.000
C28  23031165.195 8 119929359.644 8      2664.766          50.000
E11  24553371.516 8 129028806.267 8      2711.402          49.000    24553371.461 8  98866215.024 8      2077.502          48.000
E12                                                                  22931838.648 6  92337001.339 6        84.663          36.000
E24  22352088.469 8 117461046.674 8     -1069.969          51.000    22352102.273 8  90002610.575 8      -819.819          51.000
E25                                                                  24138709.867 5  97196580.639 5       930.738          33.000
> 2020 05 10 10 01  0.0000000  0 17        .000000000000
G02  22921421.438 4 120452887.938 4        68.812          29.000    22921418.773 4  93859370.939 4        53.623          29.000
G12  20697941.500 8 108768458.210 8     -1549.992          48.000    20697940.203 8  84754612.630 8     -1207.786          48.000
G24  22755738.805 7 119582207.589 7     -3247.395          44.000    22755743.125 7  93180941.328 7     -2530.437          45.000
G25  20176516.383 7 106028313.509 7       328.719          43.000    20176518.625 7  82619470.570 7       256.148          43.000
G29  21522238.234 8 113100140.862 8      2638.809          51.000    21522236.664 8  88129966.429 8      2056.218          51.000
G32  22309732.305 5 117238426.578 5     -1074.953          34.000    22309730.305 5  91354618.922 5      -837.629          34.000
R16  19501277.992 7 104172304.222 7      -425.902          45.000    19501279.711 7  81022920.280 7      -331.257          42.000
R18  19596445.977 8 104607187.659 8      -265.973          50.000    19596450.352 8  81361169.350 8      -206.871          50.000
R19  20819262.555 6 111369020.492 6      3567.816          38.000    20819263.969 7  86620356.927 7      2774.968          42.000
C11  23302049.859 5 121339878.782 5     -1821.250          33.000    23302050.469 6  93827739.344 6     -1408.992          37.000
C23  22011237.633 8 114618290.106 8      -794.582          51.000
C25  25130587.047 7 130861530.938 7     -2794.969          42.000
C28  23015864.922 8 119849680.846 8      2648.414          51.000
E11  24537936.344 8 128947691.172 8      2697.402          48.000    24537934.727 7  98804061.934 7      2066.844          47.000
E12                                                                  22931270.320 6  92334719.220 6        68.395          38.000
E24  22358233.000 8 117493336.884 8     -1081.359          51.000    22358246.570 8  90027352.416 8      -828.565          51.000
E25                                                                  24131811.047 5  97168802.673 5       922.471          32.000
> 2020 05 10 10 01 30.0000000  0 18        .000000000000
G02  22921063.234 5 120451004.595 5        54.512          32.000    22921061.445 4  93857907.989 4        42.461          26.000
G12  20706800.469 8 108815012.698 8     -1555.141          48.000    20706799.023 8  84790888.822 8     -1211.798          48.000
G24  22774284.234 7 119679664.231 7     -3250.961          46.000    22774288.797 7  93256881.559 7     -2533.219          46.000
G25  20174656.664 7 106018541.057 7       321.324          43.000    20174658.805 7  82611855.653 7       250.383          43.000
G29  21507195.320 8 113021088.538 8      2629.941          51.000    21507194.414 8  88068367.239 8      2049.308          51.000
G32  22315909.273 6 117270877.264 6     -1089.551          36.000    22315901.148 5  91379905.185 5      -848.991          35.000
R15  22577021.812 5 120644759.471 5     -3086.707          33.000
R16  19503695.711 7 104185219.951 7      -436.691          46.000    19503697.766 6  81032965.839 6      -339.649          41.000
R18  19598002.906 8 104615497.321 8      -289.504          50.000    19598007.000 8  81367632.400 8      -225.170          50.000
R19  20799287.000 6 111262164.551 6      3554.754          38.000    20799289.047 7  86537246.754 7      2764.812          42.000
C11  23312565.969 5 121394641.033 5     -1830.262          34.000    23312567.164 6  93870084.973 6     -1415.486          39.000
C23  22015831.664 8 114642210.355 8      -801.598          51.000
C25  25146687.461 7 130945370.599 7     -2795.777          42.000
C28  23000621.750 8 119770300.534 8      2642.113          51.000
E11  24522541.828 7 128866793.496 7      2693.836          47.000    24522539.258 7  98742075.419 7      2064.237          47.000
E12                                                                  22930785.945 6  92332770.695 6        60.359          40.000
E24  22364405.602 8 117525774.132 8     -1082.574          51.000    22364419.336 8  90052206.916 8      -829.517          51.000
E25                                                                  24124933.039 5  97141107.788 5       922.614          31.000
> 2020 05 10 10 02  0.0000000  0 18        .000000000000
G06  23743792.172 6 124774441.922 6     -1375.836          36.000    23743793.664 5  97226864.188 5     -1072.098          34.000
G12  20715711.891 8 108861842.828 8     -1569.574          48.000    20715710.070 8  84827379.831 8     -1223.045          48.000
G24  22792873.805 7 119777351.345 7     -3264.031          46.000    22792878.164 7  93333001.376 7     -2543.401          46.000
G25  20172861.766 7 106009108.972 7       304.852          43.000    20172863.461 7  82604505.936 7       237.547          43.000
G29  21492227.008 8 112942432.704 8      2611.316          49.000    21492227.328 8  88007076.950 8      2034.792          50.000
R15  22594380.328 5 120737515.559 5     -3099.746          32.000
R16  19506197.281 7 104198583.422 7      -456.918          46.000    19506199.227 6  81043359.652 6      -355.381          41.000
R17  22275023.938 5 119198096.141 5     -3681.727          34.000
R18  19599716.070 8 104624641.593 8      -322.723          51.000    19599720.125 8  81374744.614 8      -251.007          50.000
R19  20779408.109 6 111155825.042 6      3531.859          38.000    20779409.992 7  86454538.308 7      2747.005          42.000
C11  23323157.227 5 121449793.123 5     -1848.895          35.000    23323158.672 6  93912732.074 6     -1429.661          39.000
C23  22020489.984 8 114666466.327 8      -818.062          50.000
C25  25162817.453 7 131029364.828 7     -2806.484          42.000
C28  22985438.805 8 119691235.780 8      2626.332          51.000
E11  24507191.336 7 128786130.615 7      2680.875          47.000    24507188.789 7  98680268.808 7      2054.234          47.000
E12                                                                  22930387.594 6  92331167.593 6        44.594          41.000
E24  22370609.258 8 117558374.080 8     -1093.270          51.000    22370622.914 8  90077186.092 8      -837.739          50.000
E25                                                                  24118079.844 5  97113513.223 5       915.344          32.000
> 2020 05 10 10 02 30.0000000  0 18        .000000000000
G06  23751686.570 6 124815921.426 6     -1391.148          37.000    23751688.031 5  97259185.817 5     -1084.021          35.000
G12  20724683.188 7 108908987.915 7     -1575.590          47.000    20724681.062 7  84864116.258 7     -1227.732          47.000
G24  22811514.578 7 119875307.315 7     -3268.426          46.000    22811518.570 7  93409330.687 7     -2546.825          46.000
G25  20171139.273 7 106000057.576 7       296.668          43.000    20171140.523 7  82597452.898 7       231.170          43.000
G29  21477342.055 8 112864215.257 8      2601.246          50.000    21477343.188 8  87946128.251 8      2026.945          50.000
R15  22611783.711 5 120830530.074 5     -3104.230          31.000
R16  19508790.445 7 104212436.443 7      -468.746          45.000    19508792.336 6  81054134.217 6      -364.580          41.000
R17  22295685.648 5 119308670.798 5     -3691.855          33.000
R18  19601593.258 8 104634660.399 8      -347.289          51.000    19601597.242 8  81382537.022 8      -270.114          51.000
R19  20759633.422 6 111050046.788 6      3517.934          37.000    20759635.898 7  86372266.382 7      2736.171          43.000
C11  23333830.805 5 121505372.986 5     -1858.562          34.000    23333831.883 6  93955709.913 6     -1437.101          37.000
C23  22025220.562 8 114691098.263 8      -826.180          51.000
C25  25178984.383 7 131113552.851 7     -2808.340          42.000
C28  22970324.172 8 119612528.220 8      2618.789          51.000
E11  24491893.430 7 128705744.589 7      2676.148          46.000    24491891.547 7  98618674.314 7      2050.579          47.000
E12                                                                  22930082.609 6  92329940.758 6        35.585          41.000
E24  22376851.562 8 117591177.249 8     -1095.699          51.000    22376864.945 8  90102320.975 8      -839.520          49.000
E25                                                                  24111260.367 5  97086053.258 5       914.359          32.000
> 2020 05 10 10 03  0.0000000  0 20        .000000000000
G02  22920578.523 5 120448446.848 5         4.594          34.000
G06  23759666.531 5 124857861.363 5     -1406.984          33.000    23759669.367 5  97291866.290 5     -1096.348          34.000
G12  20733690.891 7 108956324.497 7     -1581.957          47.000    20733689.094 7  84901001.892 7     -1232.694          47.000
G24  22830182.547 7 119973407.353 7     -3273.387          45.000    22830186.289 7  93485772.281 7     -2550.691          46.000
G25  20169465.867 7 105991263.928 7       287.891          43.000    20169466.953 7  82590600.723 7       224.333          43.000
G29  21462518.250 8 112786314.937 8      2590.441          51.000    21462518.961 8  87885426.711 8      2018.529          51.000
G32  22335048.453 5 117371470.256 5     -1142.453          33.000
R15  22629222.773 5 120923698.727 5     -3108.980          30.000
R16  19511452.211 7 104226655.075 7      -480.941          47.000    19511454.102 6  81065193.144 6      -374.062          41.000
R17  22316406.516 5 119419556.409 5     -3702.820          32.000    22316408.883 4  92881912.731 4     -2879.971          29.000
R18  19603610.641 8 104645427.753 8      -372.277          51.000    19603614.125 8  81390911.623 8      -289.549          49.000
R19  20739940.992 6 110944708.070 6      3503.266          37.000    20739944.102 7  86290336.292 7      2724.762          44.000
C11  23344562.828 5 121561256.853 5     -1868.500          31.000    23344563.820 6  93998922.888 6     -1445.124          38.000
C23  22030000.117 8 114715984.538 8      -834.699          51.000
C25  25195165.008 6 131197812.083 6     -2810.688          41.000
C28  22955254.852 8 119534057.615 8      2610.832          51.000
E11  24476625.422 7 128625514.285 7      2670.922          47.000    24476624.312 7  98557199.142 7      2046.437          47.000
E12                                                                  22929848.117 7  92328995.920 7        25.992          42.000
E24  22383109.117 8 117624060.797 8     -1098.422          51.000    22383122.406 8  90127517.451 8      -841.672          48.000
E25                                                                  24104450.891 5  97058632.080 5       912.890          33.000
> 2020 05 10 10 03 30.0000000  0 18        .000000000000
G02  22920622.289 6 120448647.763 6       -14.699          37.000
G12  20742764.375 7 109004006.133 7     -1593.512          46.000    20742763.164 7  84938156.394 7     -1241.697          46.000
G24  22848906.867 7 120071804.181 7     -3283.227          46.000    22848910.398 7  93562445.107 7     -2558.358          46.000
G25  20167870.898 7 105982882.529 7       274.219          44.000    20167872.148 7  82584069.733 7       213.674          44.000
G29  21447784.633 8 112708887.265 8      2574.582          51.000    21447784.297 8  87825093.506 8      2006.171          51.000
G32  22341638.336 4 117406100.160 4     -1162.938          28.000    22341614.594 4  91485178.594 4      -906.206          28.000
R15  22646715.945 5 121017166.972 5     -3119.746          30.000
R16  19514211.984 7 104241396.862 7      -498.547          47.000    19514213.992 6  81076658.947 6      -387.759          41.000
R18  19605797.211 8 104657099.478 8      -402.492          51.000    19605800.523 8  81399989.633 8      -313.046          50.000
R19  20720360.984 6 110839970.217 6      3482.910          36.000    20720364.953 7  86208873.549 7      2708.933          44.000
C11  23355382.203 5 121617596.079 5     -1883.801          35.000    23355383.820 6  94042487.941 6     -1456.753          39.000
C23  22034857.953 8 114741278.454 8      -848.355          51.000
C25  25211388.555 6 131282294.732 6     -2818.105          40.000
C28  22940260.648 8 119455978.621 8      2597.680          51.000
E11  24461417.250 7 128545595.918 7      2660.250          47.000    24461416.797 8  98495962.991 8      2038.302          48.000
E12                                                                  22929713.055 7  92328451.279 7        12.709          42.000
E24  22389411.344 8 117657179.288 8     -1106.262          51.000    22389424.594 7  90152893.959 7      -847.583          47.000
E25                                                                  24097678.828 5  97031362.300 5       907.757          32.000
> 2020 05 10 10 04  0.0000000  0 17        .000000000000
G02  22920779.031 6 120449475.092 6       -32.566          36.000
G06  23775985.070 6 124943638.479 6     -1445.242          36.000    23775988.227 6  97358694.038 6     -1126.163          36.000
G12  20751911.547 7 109052074.101 7     -1603.590          46.000    20751910.438 7  84975611.948 7     -1249.551          47.000
G24  22867695.727 7 120170538.685 7     -3291.367          47.000    22867698.477 7  93639381.041 7     -2564.705          47.000
G25  20166362.445 7 105974955.560 7       261.895          44.000    20166364.109 7  82577892.875 7       204.074          44.000
G29  21433149.055 8 112631975.970 8      2560.453          51.000    21433147.922 8  87765162.676 8      1995.161          51.000
R16  19517077.969 7 104256705.685 7      -514.336          47.000    19517079.719 6  81088565.807 6      -400.039          41.000
R18  19608161.000 8 104669717.333 8      -430.980          51.000    19608164.086 8  81409803.521 8      -335.207          49.000
R19  20700901.984 6 110735879.866 6      3464.477          37.000    20700906.305 7  86127914.392 7      2694.593          43.000
C11  23366296.875 5 121674430.587 5     -1897.918          34.000    23366298.375 6  94086435.972 6     -1467.038          38.000
C23  22039802.000 8 114767022.068 8      -860.371          51.000
C25  25227662.570 7 131367042.032 7     -2824.035          42.000
C28  22925349.773 8 119378334.722 8      2586.105          51.000
E11  24446277.125 7 128466033.488 7      2651.387          47.000    24446277.219 8  98434999.578 8      2031.567          48.000
E12                                                                  22929685.328 7  92328339.103 7          .685          43.000
E24  22395766.328 8 117690575.146 8     -1112.531          50.000    22395779.633 7  90178482.975 7      -852.384          46.000
E25                                                                  24090952.648 5  97004283.662 5       903.554          33.000
> 2020 05 10 10 04 30.0000000  0 18        .000000000000
G02  22921005.930 6 120450673.769 6       -48.590          39.000    22921001.133 4  93857651.267 4       -37.838          29.000
G06  23784284.258 6 124987243.036 6     -1462.477          37.000    23784287.688 6  97392671.591 6     -1139.592          37.000
G12  20761083.336 7 109100271.588 7     -1610.879          47.000    20761082.094 7  85013168.419 7     -1255.230          47.000
G24  22886499.523 7 120269352.419 7     -3297.410          46.000    22886500.789 7  93716378.666 7     -2569.414          46.000
G25  20164891.750 7 105967226.844 7       252.160          44.000    20164893.680 7  82571870.516 7       196.488          45.000
G29  21418562.766 8 112555326.651 8      2548.375          49.000    21418562.016 8  87705435.962 8      1985.750          49.000
R15  22681842.102 4 121204887.336 4     -3133.160          26.000
R16  19520001.227 7 104272322.176 7      -528.004          47.000    19520002.961 6  81100711.963 6      -410.670          41.000
R18  19610652.969 8 104683019.942 8      -457.051          51.000    19610655.898 8  81420149.986 8      -355.484          49.000
R19  20681516.836 6 110632179.852 6      3447.750          38.000    20681520.148 6  86047258.854 6      2681.583          41.000
C11  23377257.422 5 121731504.682 5     -1908.906          33.000    23377258.305 6  94130569.275 6     -1475.894          37.000
C23  22044783.469 8 114792961.873 8      -870.191          51.000
C25  25243939.109 6 131451799.438 6     -2827.570          40.000
C28  22910473.742 8 119300873.750 8      2576.660          50.000
E11  24431156.430 7 128386572.669 7      2644.727          46.000    24431157.047 8  98374114.029 8      2026.482          48.000
E12                                                                  22929716.195 7  92328463.078 7        -9.763          43.000
E24  22402125.445 8 117723992.350 8     -1116.469          49.000    22402138.281 7  90204088.397 7      -855.515          44.000
E25                                                                  24084225.562 5  96977194.319 5       901.681          35.000
> 2020 05 10 10 05  0.0000000  0 17        .000000000000
G02  22921333.805 6 120452403.099 6       -67.953          37.000    22921329.344 5  93858998.855 5       -52.932          30.000
G06  23792687.672 6 125031402.628 6     -1482.746          37.000    23792692.375 6  97427081.637 6     -1155.390          36.000
G12  20770309.961 7 109148757.565 7     -1622.508          47.000    20770308.797 7  85050949.700 7     -1264.292          47.000
G24  22905348.391 7 120368403.718 7     -3307.074          46.000    22905348.258 7  93793561.400 7     -2576.944          46.000
G25  20163489.359 7 105959856.139 7       238.219          46.000    20163491.258 7  82566127.111 7       185.625          47.000
G29  21404056.773 8 112479100.345 8      2532.363          51.000    21404057.133 8  87646038.841 8      1973.270          51.000
R16  19523012.602 7 104288408.857 7      -545.516          47.000    19523014.469 7  81113223.812 7      -424.290          42.000
R18  19613303.328 8 104697168.100 8      -487.238          51.000    19613306.438 8  81431154.131 8      -378.960          49.000
R19  20662235.797 6 110529036.546 6      3427.457          37.000    20662238.102 6  85967036.305 6      2665.800          41.000
C11  23388293.750 5 121788974.575 5     -1924.039          35.000    23388294.625 6  94175008.628 6     -1487.608          38.000
C23  22049833.242 8 114819256.230 8      -883.859          51.000
C25  25260247.797 6 131536724.391 6     -2835.113          38.000
C28  22895663.383 8 119223755.503 8      2563.422          48.000
E11  24416085.555 7 128307374.904 7      2634.238          46.000    24416086.656 7  98313430.038 7      2018.424          47.000
E12                                                                  22929835.938 7  92328945.389 7       -23.238          44.000
E24  22408519.047 7 117757590.733 7     -1124.355          47.000    22408531.016 6  90229832.610 6      -861.570          41.000
E25                                                                  24077527.594 6  96950219.988 6       896.068          36.000
> 2020 05 10 10 05 30.0000000  0 17        .000000000000
G02  22921764.523 6 120454670.477 6       -83.730          37.000    22921756.398 4  93860777.560 4       -65.257          27.000
G06  23801197.508 6 125076123.119 6     -1499.047          37.000    23801203.023 6  97461928.804 6     -1168.082          38.000
G12  20779592.820 7 109197538.766 7     -1630.012          47.000    20779591.703 7  85088961.029 7     -1270.139          47.000
G24  22924243.320 7 120467698.041 7     -3312.762          45.000    22924243.234 7  93870933.517 7     -2581.376          45.000
G25  20162156.477 7 105952850.748 7       228.324          47.000    20162158.109 7  82560668.371 7       177.915          47.000
G29  21389633.594 8 112403305.957 8      2520.223          51.000    21389634.336 8  87586978.261 8      1963.807          51.000
R16  19526113.703 7 104304974.343 7      -559.070          47.000    19526115.781 7  81126108.071 7      -434.832          42.000
R18  19616113.266 8 104712168.204 8      -513.203          51.000    19616116.102 8  81442820.868 8      -399.158          48.000
R19  20643060.656 5 110426461.095 5      3410.488          35.000    20643062.867 7  85887255.411 7      2652.602          43.000
C11  23399407.531 6 121846845.710 6     -1935.055          36.000    23399408.258 6  94219758.247 6     -1496.050          37.000
C23  22054952.359 8 114845912.679 8      -893.703          51.000
C25  25276589.789 6 131621823.469 6     -2838.762          38.000
C28  22880920.539 8 119146988.855 8      2553.949          48.000
E11  24401066.250 7 128228449.321 7      2627.281          46.000    24401068.164 7  98252954.603 7      2013.061          47.000
E12                                                                  22930046.297 7  92329791.543 7       -33.565          43.000
E24  22414948.391 7 117791377.783 7     -1128.516          46.000    22414960.375 6  90255721.395 6      -864.746          38.000
E25                                                                  24070859.680 6  96923366.681 6       893.608          36.000
> 2020 05 10 10 06  0.0000000  0 19        .000000000000
G02  22922281.578 5 120457393.286 5       -96.957          34.000    22922277.258 5  93862899.225 5       -75.548          33.000
G06  23809798.367 6 125121320.540 6     -1513.664          36.000    23809803.664 5  97497147.568 5     -1179.478          35.000
G12  20788915.797 7 109246531.488 7     -1635.418          47.000    20788914.477 7  85127137.182 7     -1274.352          47.000
G24  22943168.406 7 120567150.889 7     -3316.523          46.000    22943168.844 7  93948429.206 7     -2584.304          46.000
G25  20160877.453 7 105946128.128 7       220.672          47.000    20160878.828 7  82555429.978 7       171.952          47.000
G29  21375277.492 8 112327862.205 8      2510.148          51.000    21375278.180 8  87528190.911 8      1955.957          51.000
G32  22376094.781 6 117587152.084 6     -1247.723          36.000    22376089.742 5  91626331.691 5      -972.254          31.000
R07  23124846.469 5 123789077.321 5     -2530.742          32.000
R16  19529288.656 7 104321935.495 7      -570.582          46.000    19529291.328 7  81139300.055 7      -443.786          43.000
R18  19619066.695 8 104727935.055 8      -537.027          51.000    19619069.789 8  81455083.979 8      -417.688          49.000
R19  20623976.094 6 110324373.270 6      3396.035          37.000    20623979.422 7  85807853.769 7      2641.358          44.000
C11  23410582.055 5 121905034.261 5     -1943.816          33.000    23410582.492 5  94264753.361 5     -1503.034          33.000
C23  22060125.086 8 114872849.631 8      -901.277          51.000
C25  25292949.406 6 131707014.046 6     -2839.969          38.000
C28  22866230.000 8 119070493.578 8      2546.684          48.000
E11  24386083.578 7 128149715.132 7      2622.398          46.000    24386085.805 7  98192625.814 7      2009.355          46.000
E12  22930336.188 5 120499716.813 5       -55.586          34.000    22930331.477 7  92330938.134 7       -42.298          42.000
E24  22421398.008 7 117825271.063 7     -1130.199          47.000    22421410.438 5  90281691.484 5      -866.012          34.000
E25                                                                  24064205.250 5  96896571.480 5       893.060          34.000
> 2020 05 10 10 06 30.0000000  0 20        .000000000000
G02  22922896.539 6 120460627.335 6      -118.922          38.000    22922893.602 5  93865419.263 5       -92.679          33.000
G06  23818499.977 5 125167048.896 5     -1535.246          34.000    23818505.266 5  97532780.035 5     -1196.293          34.000
G12  20798289.406 7 109295790.084 7     -1648.977          46.000    20798287.844 7  85165520.481 7     -1284.920          46.000
G24  22962134.141 7 120666815.738 7     -3328.141          47.000    22962135.305 7  94026090.120 7     -2593.359          47.000
G25  20159662.648 8 105939743.758 8       204.711          48.000    20159664.109 8  82550455.140 8       159.515          48.000
G29  21360998.883 8 112252825.746 8      2491.922          51.000    21360999.547 8  87469720.953 8      1941.757          51.000
G32  22383279.766 5 117624897.036 5     -1268.789          33.000    22383280.594 5  91655743.250 5      -988.664          32.000
R15  22752542.078 5 121582687.597 5     -3165.270          32.000    22752553.914 4  94564334.416 4     -2461.873          26.000
R16  19532548.523 7 104339349.480 7      -590.508          46.000    19532551.359 7  81152844.252 7      -459.284          43.000
R17  22463561.578 5 120206912.946 5     -3793.973          34.000
R18  19622174.211 8 104744523.891 8      -569.188          50.000    19622177.453 8  81467986.413 8      -442.701          49.000
R19  20604994.328 6 110222832.790 6      3373.074          40.000    20604997.867 7  85728877.832 7      2623.502          43.000
C11  23421827.195 5 121963593.281 5     -1960.367          34.000    23421826.773 5  94310034.831 5     -1515.521          32.000
C23  22065362.391 8 114900122.233 8      -917.113          51.000
C25  25309337.414 6 131792350.334 6     -2848.902          37.000
C28  22851602.117 7 118994326.208 7      2531.004          47.000
E11  24371148.352 7 128071229.491 7      2609.340          47.000    24371149.945 7  98132487.492 7      1999.394          46.000
E12                                                                  22930701.500 6  92332427.485 6       -57.279          41.000
E24  22427878.477 7 117859326.249 7     -1140.301          46.000    22427891.969 5  90307785.609 5      -873.794          34.000
E25                                                                  24057573.625 5  96869882.325 5       885.742          30.000
> 2020 05 10 10 07  0.0000000  0 18        .000000000000
G02  22923584.898 6 120464247.392 6      -136.074          36.000    22923580.188 5  93868232.041 5      -106.014          32.000
G06  23827278.305 5 125213193.250 5     -1553.133          34.000    23827283.820 5  97568744.276 5     -1210.233          32.000
G12  20807689.609 7 109345188.551 7     -1657.688          45.000    20807688.133 7  85204012.795 7     -1291.708          45.000
G24  22981116.211 8 120766565.752 8     -3335.234          48.000    22981117.875 8  94103817.367 8     -2598.887          48.000
G25  20158488.258 8 105933572.091 8       193.484          48.000    20158489.961 8  82545646.045 8       150.767          48.000
G29  21346774.047 8 112178072.733 8      2478.238          51.000    21346774.820 8  87411471.890 8      1931.095          51.000
R15  22770285.727 5 121677545.605 5     -3172.543          32.000
R16  19535869.438 7 104357089.408 7      -605.645          46.000    19535872.133 7  81166641.967 7      -471.057          43.000
R17  22484827.117 5 120320707.652 5     -3805.879          32.000    22484827.070 4  93582876.736 4     -2960.131          27.000
R18  19625411.602 8 104761805.605 8      -596.555          50.000    19625414.766 8  81481427.733 8      -463.987          49.000
R19  20586092.312 6 110121715.631 6      3354.379          41.000    20586094.641 6  85650231.187 6      2608.964          41.000
C11  23433120.164 6 122022396.633 6     -1973.082          38.000    23433120.023 6  94355505.293 6     -1525.552          39.000
C23  22070640.383 8 114927606.309 8      -928.395          51.000
C25  25325729.492 6 131877707.320 6     -2854.488          39.000
C28  22837013.625 7 118918363.930 7      2519.844          47.000
E11  24356236.883 8 127992868.676 8      2601.000          48.000    24356237.992 7  98072444.824 7      1993.073          46.000
E12  22931135.172 6 120503934.806 6       -89.793          37.000    22931132.469 6  92334163.294 6       -68.668          40.000
E24  22434365.906 8 117893417.989 8     -1145.867          48.000    22434380.555 6  90333907.757 6      -877.870          40.000
> 2020 05 10 10 07 30.0000000  0 17        .000000000000
G06  23836214.750 5 125260156.580 5     -1574.324          34.000    23836219.812 5  97605339.096 5     -1226.746          33.000
G12  20817197.945 7 109395155.250 7     -1670.473          46.000    20817196.773 7  85242947.882 7     -1301.667          46.000
G24  23000196.055 8 120866827.423 8     -3346.086          49.000    23000197.352 8  94181943.338 8     -2607.340          49.000
G25  20157435.906 8 105928041.859 8       178.062          48.000    20157437.641 8  82541336.797 8       138.753          48.000
G29  21332684.727 8 112104033.586 8      2460.359          51.000    21332685.445 8  87353779.081 8      1917.166          51.000
R15  22788132.227 5 121772930.496 5     -3183.773          35.000
R16  19539333.156 7 104375591.745 7      -624.883          46.000    19539335.797 7  81181032.656 7      -486.017          43.000
R17  22506215.641 5 120435166.730 5     -3821.395          30.000    22506218.586 4  93671900.429 4     -2972.199          28.000
R18  19628860.148 8 104780214.445 8      -627.852          50.000    19628863.453 8  81495745.721 8      -488.329          49.000
R19  20567351.883 6 110021462.176 6      3331.895          41.000    20567352.195 6  85572256.339 6      2591.477          40.000
C11  23444541.609 6 122081867.185 6     -1988.609          36.000    23444541.953 6  94401491.773 6     -1538.175          40.000
C23  22076040.820 8 114955726.887 8      -943.582          51.000
C25  25342207.203 6 131963508.987 6     -2862.906          38.000
C28  22822547.102 8 118843033.175 8      2504.957          48.000
E11  24341431.508 8 127915063.172 8      2588.586          49.000    24341431.945 7  98012827.664 7      1983.504          47.000
E12                                                                  22931706.086 6  92336473.899 6       -83.475          38.000
E24  22440942.188 8 117927975.125 8     -1155.250          49.000    22440956.836 7  90360386.597 7      -885.177          42.000
> 2020 05 10 10 08  0.0000000  0 19        .000000000000
G02  22925354.797 6 120473567.811 6      -181.938          37.000
G06  23845236.500 5 125307566.043 5     -1599.984          35.000    23845240.516 5  97642281.516 5     -1246.741          35.000
G12  20826741.281 7 109445305.852 7     -1687.086          45.000    20826740.508 7  85282026.257 7     -1314.612          46.000
G24  23019300.133 8 120967216.108 8     -3360.660          50.000    23019301.133 8  94260168.228 8     -2618.696          50.000
G25  20156432.531 8 105922769.560 8       159.223          48.000    20156434.180 8  82537228.522 8       124.070          48.000
G29  21318658.125 8 112030326.210 8      2439.082          50.000    21318658.953 8  87296344.775 8      1900.583          50.000
G32  22405442.703 5 117741392.825 5     -1332.566          34.000
R15  22806007.070 6 121868451.292 6     -3198.305          37.000    22806026.594 4  94786602.503 4     -2487.573          28.000
R16  19542866.984 7 104394467.414 7      -647.867          47.000    19542869.344 7  81195713.722 7      -503.897          43.000
R17  22527656.125 5 120549895.612 5     -3840.852          30.000    22527658.109 4  93761133.862 4     -2987.332          27.000
R18  19632446.586 8 104799359.053 8      -662.848          50.000    19632449.992 8  81510635.971 8      -515.548          49.000
R19  20548699.461 6 109921685.064 6      3305.508          38.000    20548698.438 6  85494651.983 6      2570.954          38.000
C11  23456016.633 5 122141622.741 5     -2008.430          35.000    23456018.305 5  94447698.725 5     -1553.154          33.000
C23  22081490.359 8 114984104.118 8      -962.293          51.000
C25  25358697.555 6 132049374.555 6     -2875.211          40.000
C28  22808129.688 8 118767955.486 8      2486.176          49.000
E11  24326659.078 8 127837431.203 8      2572.758          50.000    24326659.156 7  97953343.467 7      1971.298          47.000
E12                                                                  22932350.273 6  92339065.210 6      -100.526          37.000
E24  22447534.000 8 117962614.315 8     -1168.254          50.000    22447547.953 7  90386928.305 7      -895.123          45.000
> 2020 05 10 10 08 30.0000000  0 19        .000000000000
G02  22926400.078 5 120479003.362 5      -192.344          34.000
G06  23854358.602 5 125355502.114 5     -1610.965          34.000    23854362.195 5  97679634.261 5     -1255.297          34.000
G12  20836334.953 7 109495721.390 7     -1689.477          44.000    20836334.492 7  85321311.055 7     -1316.475          44.000
G24  23038443.664 8 121067811.702 8     -3361.113          50.000    23038444.305 8  94338554.371 8     -2619.052          50.000
G25  20155493.938 8 105917837.317 8       154.254          48.000    20155495.461 8  82533385.232 8       120.198          48.000
G29  21304710.859 8 111957033.694 8      2431.586          51.000    21304711.508 8  87239233.720 8      1894.742          51.000
G32  22413038.039 5 117781301.597 5     -1342.953          33.000    22413034.828 5  91777635.840 5     -1046.460          32.000
R15  22823936.406 5 121964201.812 5     -3199.566          35.000    22823937.930 4  94861049.590 4     -2488.555          27.000
R16  19546486.375 7 104413800.785 7      -656.641          46.000    19546488.758 7  81210750.764 7      -510.720          43.000
R17  22549163.914 4 120664973.865 4     -3847.051          29.000
R18  19636186.367 8 104819321.743 8      -683.602          50.000    19636189.695 8  81526162.482 8      -531.690          49.000
R19  20530151.672 6 109822471.851 6      3293.281          37.000    20530150.156 6  85417486.160 6      2561.441          38.000
C11  23467562.555 6 122201743.131 6     -2014.484          40.000
C23  22087004.594 8 115012819.589 8      -967.246          51.000
C25  25375215.883 7 132135384.655 7     -2873.840          43.000
C28  22793776.641 8 118693213.785 8      2481.223          49.000
E11  24311935.344 8 127760056.617 8      2570.352          49.000    24311934.875 7  97894056.460 7      1969.508          46.000
E12                                                                  22933079.922 5  92342000.028 5      -107.374          32.000
E24  22454156.992 8 117997417.825 8     -1167.289          50.000    22454169.922 7  90413595.929 7      -894.533          46.000
> 2020 05 10 10 09  0.0000000  0 16        .000000000000
G02  22927501.297 6 120484827.161 6      -197.461          36.000
G06  23863557.188 5 125403839.853 5     -1616.930          35.000    23863561.430 5  97717300.035 5     -1259.945          34.000
G12  20845955.578 7 109546277.928 7     -1686.164          44.000    20845954.961 7  85360705.755 7     -1313.894          43.000
G24  23057602.477 8 121168489.493 8     -3355.953          49.000    23057603.227 8  94417004.550 8     -2615.028          49.000
G25  20154596.570 8 105913121.836 8       154.902          48.000    20154598.031 8  82529710.827 8       120.703          48.000
G29  21290819.680 8 111884034.287 8      2429.797          51.000    21290819.930 8  87182351.063 8      1893.348          51.000
R16  19550168.141 7 104433467.089 7      -659.652          46.000    19550169.773 7  81226046.784 7      -513.063          43.000
R17  22570714.352 5 120780271.762 5     -3845.977          30.000
R18  19640055.500 8 104839975.403 8      -698.617          50.000    19640059.039 8  81542226.441 8      -543.369          49.000
R19  20511687.148 6 109723700.418 6      3286.281          39.000    20511685.914 6  85340663.948 6      2555.993          40.000
C11  23479154.633 6 122262103.983 6     -2014.539          38.000    23479160.586 5  94540821.081 5     -1557.824          33.000
C23  22092560.180 8 115041751.279 8      -966.723          51.000
C25  25391738.570 7 132221416.360 7     -2866.918          43.000
C28  22779464.453 8 118618687.391 8      2481.996          48.000
E11  24297237.070 8 127682817.891 8      2573.512          49.000    24297236.352 7  97834873.550 7      1971.977          46.000
E24  22460787.922 8 118032262.551 8     -1160.902          50.000    22460800.234 8  90440295.119 8      -889.514          48.000
> 2020 05 10 10 09 30.0000000  0 19        .000000000000
G02  22928726.141 6 120491265.077 6      -229.508          36.000
G06  23872884.594 5 125452856.134 5     -1648.578          35.000    23872890.117 5  97755494.500 5     -1284.606          34.000
G12  20855655.766 7 109597253.099 7     -1709.523          43.000    20855655.219 7  85400426.649 7     -1332.096          43.000
G24  23076829.195 8 121269525.656 8     -3377.277          48.000    23076830.070 8  94495733.993 8     -2631.648          48.000
G25  20153793.383 7 105908901.475 7       129.016          47.000    20153794.711 8  82526422.232 8       100.532          48.000
G29  21277037.461 8 111811607.656 8      2401.145          51.000    21277037.586 8  87125914.754 8      1871.022          51.000
G32  22428511.719 5 117862621.187 5     -1380.254          31.000    22428498.008 5  91840941.184 5     -1075.510          31.000
R15  22859876.859 4 122156249.894 4     -3217.273          29.000    22859884.531 5  95010448.834 5     -2502.324          30.000
R16  19553965.336 7 104453750.083 7      -689.906          46.000    19553966.883 7  81241822.446 7      -536.597          44.000
R17  22592355.375 5 120896068.389 5     -3872.227          31.000
R18  19644106.812 8 104861601.436 8      -740.629          50.000    19644110.219 8  81559046.679 8      -576.042          49.000
R19  20493359.109 6 109625657.825 6      3252.453          39.000    20493358.898 7  85264408.602 7      2529.686          42.000
C11  23490844.219 5 122322979.131 5     -2041.434          30.000    23490847.664 5  94587893.717 5     -1578.182          33.000
C23  22098210.367 8 115071175.215 8      -992.457          51.000
C25  25408317.266 7 132307744.711 7     -2886.133          43.000
C28  22765246.867 8 118544653.720 8      2456.031          49.000
E11  24282617.562 7 127605995.107 7      2550.266          47.000    24282617.758 7  97776009.378 7      1954.171          46.000
E12  22934777.391 5 120523067.989 5      -172.039          33.000
E24  22467479.602 8 118067426.998 8     -1180.895          50.000    22467491.844 8  90467239.296 8      -904.922          49.000
> 2020 05 10 10 10  0.0000000  0 17        .000000000000
G02  22930025.641 5 120498097.362 5      -238.230          31.000
G06  23882312.594 5 125502399.364 5     -1657.848          31.000    23882318.969 5  97794099.546 5     -1291.835          32.000
G12  20865406.984 7 109648496.415 7     -1710.785          42.000    20865406.336 7  85440356.489 7     -1333.082          42.000
G24  23096094.727 7 121370768.851 7     -3376.246          46.000    23096096.000 7  94574624.773 7     -2630.841          46.000
G25  20153055.906 7 105905026.274 7       125.270          47.000    20153056.922 7  82523402.587 7        97.613          47.000
G29  21263335.789 8 111739605.211 8      2394.922          51.000    21263336.109 8  87069808.988 8      1866.173          51.000
G32  22436403.258 4 117904094.781 4     -1389.648          29.000    22436392.578 4  91873263.511 4     -1082.852          29.000
R16  19557849.336 7 104474498.050 7      -697.410          46.000    19557851.492 7  81257959.713 7      -542.430          44.000
R17  22614058.508 5 121012207.238 5     -3875.383          31.000
R18  19648311.484 8 104884045.715 8      -759.770          51.000    19648315.031 8  81576503.344 8      -590.932          49.000
R19  20475139.258 6 109528194.858 6      3241.133          38.000    20475140.344 7  85188604.068 7      2520.884          43.000
C11  23502604.500 6 122384218.151 6     -2045.520          37.000    23502604.055 5  94635247.646 5     -1581.587          33.000
C23  22103926.852 8 115100942.899 8      -996.051          51.000
C25  25424923.516 7 132394220.342 7     -2882.992          43.000
C28  22751095.953 8 118470965.582 8      2452.359          50.000
E11  24268049.289 7 127529440.009 7      2549.332          47.000    24268049.930 7  97717350.315 7      1953.462          46.000
E24  22474203.469 8 118102761.343 8     -1178.746          50.000    22474216.070 8  90494313.641 8      -903.189          50.000
> 2020 05 10 10 10 30.0000000  0 15        .000000000000
G06  23891818.172 5 125552350.275 5     -1676.938          33.000    23891825.305 5  97833022.244 5     -1306.708          35.000
G12  20875186.852 7 109699889.020 7     -1721.395          42.000    20875185.672 7  85480402.597 7     -1341.349          42.000
G24  23115376.430 7 121472099.224 7     -3384.668          45.000    23115378.062 7  94653583.433 7     -2637.407          45.000
G25  20152361.945 7 105901378.510 7       112.277          47.000    20152362.578 7  82520560.205 7        87.489          47.000
G29  21249692.883 8 111667911.003 8      2379.035          51.000    21249693.258 8  87013943.403 8      1853.794          51.000
R16  19561798.258 7 104495591.958 7      -714.617          46.000    19561800.445 7  81274366.102 7      -555.813          44.000
R17  22635801.797 4 121128750.112 4     -3888.395          29.000
R18  19652646.797 8 104907187.053 8      -788.629          51.000    19652649.672 8  81594502.150 8      -613.375          48.000
R19  20457006.070 6 109431195.295 6      3219.781          37.000    20457007.773 7  85113159.970 7      2504.274          42.000
C11  23514412.547 6 122445702.485 6     -2059.090          38.000    23514409.227 5  94682791.205 5     -1592.270          33.000
C23  22109686.836 8 115130937.893 8     -1009.227          51.000
C25  25441535.844 7 132480725.836 7     -2889.461          45.000
C28  22736989.570 8 118397507.979 8      2439.160          51.000
E11  24253510.336 8 127453036.677 8      2538.668          48.000    24253510.148 7  97658807.498 7      1945.222          45.000
E24  22480937.219 8 118138148.044 8     -1186.070          49.000    22480950.180 8  90521428.136 8      -908.819          50.000
> 2020 05 10 10 11  0.0000000  0 15        .000000000000
G06  23901462.344 5 125603031.100 5     -1681.191          34.000    23901469.930 5  97872513.692 5     -1310.028          33.000
G12  20885056.617 7 109751753.892 7     -1716.008          43.000    20885055.469 7  85520816.857 7     -1337.149          42.000
G24  23134736.047 7 121573839.066 7     -3377.441          45.000    23134737.227 7  94732861.108 7     -2631.776          45.000
G25  20151772.734 7 105898282.042 7       114.887          47.000    20151773.227 7  82518147.347 7        89.522          46.000
G29  21236170.383 8 111596849.645 8      2378.793          51.000    21236170.617 8  86958570.930 8      1853.605          51.000
R16  19565873.398 7 104517361.934 7      -715.836          45.000    19565875.641 7  81291298.300 7      -556.761          44.000
R17  22657646.352 5 121245643.710 5     -3884.285          30.000
R18  19657173.930 8 104931352.687 8      -801.570          51.000    19657176.898 8  81613297.670 8      -623.444          48.000
R19  20439021.602 6 109334992.128 6      3214.559          38.000    20439023.492 6  85038335.335 6      2500.212          41.000
C11  23526327.852 5 122507750.846 5     -2057.191          32.000    23526324.188 4  94730770.926 4     -1590.718          28.000
C23  22115552.406 8 115161481.225 8     -1006.641          51.000
C25  25458215.742 7 132567581.318 7     -2880.562          46.000
C28  22722989.422 8 118324603.262 8      2441.512          51.000
E11  24239062.281 8 127377110.680 8      2543.648          48.000    24239061.359 7  97600630.437 7      1949.050          45.000
E24  22487742.391 8 118173911.131 8     -1177.684          48.000    22487755.625 8  90548831.021 8      -902.348          51.000
> 2020 05 10 10 11 30.0000000  0 15        .000000000000
G06  23911162.883 5 125654005.752 5     -1712.598          32.000    23911169.305 5  97912234.158 5     -1334.489          30.000
G12  20894933.477 6 109803656.502 6     -1739.086          41.000    20894932.727 6  85561260.418 6     -1355.129          40.000
G24  23154090.805 7 121675552.430 7     -3398.418          45.000    23154092.094 7  94812118.219 7     -2648.118          45.000
G25  20151205.617 7 105895302.621 7        89.012          46.000    20151205.961 7  82515825.753 7        69.357          46.000
G29  21222685.867 8 111525988.237 8      2350.453          51.000    21222685.867 8  86903354.229 8      1831.522          51.000
R16  19569992.688 7 104539367.024 7      -745.973          45.000    19569995.172 7  81308413.378 7      -580.201          45.000
R17  22679509.258 5 121362641.899 5     -3910.320          30.000
R18  19661809.922 8 104956099.764 8      -843.020          51.000    19661812.828 8  81632545.380 8      -655.682          48.000
R19  20421104.086 6 109239146.800 6      3180.273          38.000    20421105.914 7  84963789.046 7      2473.549          42.000
C11  23538268.938 6 122569931.234 6     -2082.988          36.000    23538268.508 5  94778853.142 5     -1610.279          30.000
C23  22121440.922 8 115192142.845 8     -1032.320          51.000
C25  25474879.930 7 132654355.795 7     -2899.367          46.000
C28  22709013.070 8 118251822.710 8      2415.672          51.000
E11  24224622.531 7 127301229.492 7      2520.195          47.000    24224621.086 7  97542487.726 7      1931.113          46.000
E24  22494536.742 7 118209616.572 7     -1197.504          47.000    22494550.508 8  90576189.718 8      -917.550          51.000
> 2020 05 10 10 12  0.0000000  0 16        .000000000000
G02  22936286.773 6 120531007.704 6      -326.250          36.000
G06  23921000.656 5 125705702.428 5     -1747.555          33.000    23921007.367 5  97952517.310 5     -1361.731          31.000
G12  20904898.875 6 109856025.653 6     -1764.980          40.000    20904898.398 6  85602067.500 6     -1375.312          40.000
G24  23173521.156 7 121777666.606 7     -3421.832          43.000    23173524.953 7  94891687.717 7     -2666.363          43.000
G25  20150742.422 7 105892870.045 7        60.492          47.000    20150742.891 7  82513930.231 7        47.134          47.000
G29  21209321.633 8 111455757.839 8      2319.090          51.000    21209321.125 8  86848629.238 8      1807.083          51.000
R15  22950491.852 4 122640490.952 4     -3264.621          28.000    22950495.242 4  95387042.729 4     -2539.150          26.000
R16  19574237.883 7 104562044.539 7      -778.750          45.000    19574240.828 7  81326051.429 7      -605.694          45.000
R18  19666636.242 8 104981863.362 8      -887.316          51.000    19666639.227 8  81652583.751 8      -690.135          48.000
R19  20403336.273 6 109144100.396 6      3143.273          40.000    20403338.266 7  84889864.093 7      2444.768          43.000
C11  23550317.320 5 122632667.490 5     -2111.613          35.000    23550315.711 5  94827364.301 5     -1632.867          34.000
C23  22127433.922 8 115223348.637 8     -1060.625          51.000
C25  25491609.945 7 132741474.272 7     -2920.949          46.000
C28  22695142.578 8 118179593.646 8      2387.090          51.000
E11  24210273.234 7 127225824.523 7      2494.152          47.000    24210271.430 7  97484709.925 7      1911.110          46.000
E24  22501401.891 7 118245694.218 7     -1220.156          47.000    22501416.055 8  90603833.655 8      -934.910          51.000
> 2020 05 10 10 12 30.0000000  0 16        .000000000000
G12  20914920.961 6 109908692.809 6     -1753.352          41.000    20914920.148 7  85643106.831 7     -1366.248          42.000
G24  23192996.234 7 121880013.487 7     -3408.023          45.000    23193002.328 7  94971438.563 7     -2655.603          45.000
G25  20150351.570 7 105890816.907 7        69.363          47.000    20150352.273 8  82512330.385 8        54.049          48.000
G29  21196045.797 8 111385992.329 8      2325.059          50.000    21196045.219 8  86794266.509 8      1811.734          50.000
G32  22477307.273 5 118119035.252 5     -1472.457          33.000    22477322.312 5  92040848.789 5     -1147.369          34.000
R15  22968758.570 4 122738056.357 4     -3251.480          29.000
R16  19578577.375 7 104585225.277 7      -773.691          46.000    19578580.102 7  81344080.902 7      -601.760          44.000
R17  22723491.992 4 121597984.787 4     -3928.004          28.000    22723498.344 4  94576231.420 4     -3055.114          29.000
R18  19671620.828 8 105008471.399 8      -893.449          51.000    19671623.602 7  81673278.887 7      -694.905          47.000
R19  20385686.922 6 109049685.782 6      3143.707          40.000    20385688.812 7  84816430.519 7      2445.109          44.000
C11  23562439.523 5 122695791.619 5     -2103.477          31.000    23562438.883 5  94876175.966 5     -1626.635          33.000
C23  22133499.453 8 115254932.933 8     -1051.848          51.000
C25  25508373.984 7 132828770.085 7     -2905.500          47.000
C28  22681345.992 8 118107751.670 8      2395.539          51.000
E11  24195982.711 7 127150730.087 7      2505.398          45.000    24195981.414 7  97427170.042 7      1919.715          46.000
E24  22508305.945 7 118281976.923 7     -1205.418          44.000    22508320.477 8  90631634.685 8      -923.575          50.000
> 2020 05 10 10 13  0.0000000  0 17        .000000000000
G02  22940022.750 6 120550627.402 6      -340.773          37.000    22940016.141 4  93935531.112 4      -265.538          27.000
G12  20924962.625 6 109961464.070 6     -1761.891          41.000    20924962.508 6  85684227.304 6     -1372.899          41.000
G24  23212479.562 7 121982396.948 7     -3414.613          47.000    23212485.977 7  95051217.877 7     -2660.738          47.000
G25  20149996.312 8 105888949.483 8        57.910          48.000    20149997.031 8  82510875.250 8        45.125          48.000
G29  21182821.414 8 111316499.476 8      2310.609          50.000    21182821.500 8  86740116.253 8      1800.475          50.000
G32  22485769.992 6 118163498.022 6     -1489.062          40.000    22485788.789 6  92075495.170 6     -1160.311          39.000
R15  22987035.984 5 122835732.301 5     -3258.414          32.000
R16  19582974.359 7 104608712.889 7      -789.293          46.000    19582977.008 7  81362349.018 7      -613.898          45.000
R17  22745554.320 4 121716024.075 4     -3938.473          29.000    22745557.094 5  94668000.223 5     -3063.260          30.000
R18  19676726.484 8 105035725.424 8      -920.469          51.000    19676729.133 7  81694476.457 7      -715.920          47.000
R19  20368119.102 6 108955709.468 6      3123.773          38.000    20368121.500 7  84743337.810 7      2429.602          45.000
C11  23574599.305 6 122759109.929 6     -2115.188          36.000    23574598.578 5  94925137.576 5     -1635.745          31.000
C23  22139601.039 8 115286703.873 8     -1063.523          51.000
C25  25525135.227 7 132916050.521 7     -2910.305          47.000
C28  22667587.281 8 118036106.324 8      2383.594          51.000
E11  24181714.391 7 127075754.251 7      2496.121          42.000    24181714.367 7  97369721.038 7      1912.570          47.000
E24  22515212.148 7 118318271.138 7     -1211.383          44.000    22515227.188 8  90659444.542 8      -928.116          50.000
> 2020 05 10 10 13 30.0000000  0 17        .000000000000
G02  22942025.914 6 120561152.879 6      -358.918          37.000
G12  20935055.664 6 110014504.473 6     -1771.871          39.000    20935055.594 6  85725557.483 6     -1380.682          39.000
G24  23232001.688 8 122084981.181 8     -3422.223          48.000    23232007.391 8  95131153.607 8     -2666.667          48.000
G25  20149708.031 8 105887433.739 8        45.215          48.000    20149708.789 8  82509694.138 8        35.232          48.000
G29  21169680.672 8 111247446.634 8      2295.016          50.000    21169681.633 8  86686308.866 8      1788.324          50.000
G32  22494327.555 6 118208467.675 6     -1507.117          40.000    22494346.023 5  92110536.476 5     -1174.377          31.000
R16  19587460.297 7 104632676.682 7      -806.105          45.000    19587463.266 7  81380987.528 7      -626.971          44.000
R17  22767672.141 4 121834335.433 4     -3949.828          27.000    22767674.820 5  94760061.011 5     -3072.092          30.000
R18  19681984.367 8 105063791.898 8      -948.457          51.000    19681987.297 7  81716305.949 7      -737.689          46.000
R19  20350664.297 6 108862343.424 6      3102.809          36.000    20350668.359 7  84670719.784 7      2413.296          44.000
C11  23586827.859 5 122822784.814 5     -2127.840          34.000    23586827.133 6  94974375.021 6     -1645.317          38.000
C23  22145769.930 8 115318825.990 8     -1076.000          48.000
C25  25541925.125 7 133003479.234 7     -2916.137          47.000
C28  22653898.328 8 117964823.428 8      2370.594          51.000
E11  24167500.188 7 127001064.611 7      2485.371          42.000    24167502.039 7  97312491.332 7      1904.312          47.000
E12  22945098.352 5 120577310.199 5      -283.730          33.000    22945085.242 6  92390380.473 6      -217.859          40.000
E24  22522152.391 7 118354742.919 7     -1218.066          44.000    22522167.641 8  90687390.484 8      -933.369          48.000
> 2020 05 10 10 14  0.0000000  0 17        .000000000000
G02  22944136.242 5 120572245.227 5      -377.645          35.000
G06  23961282.094 5 125917363.851 5     -1797.512          33.000    23961286.609 5  98117448.893 5     -1400.658          34.000
G12  20945207.883 6 110067856.323 6     -1781.992          38.000    20945207.844 6  85767130.364 6     -1388.568          38.000
G24  23251569.820 8 122187807.322 8     -3429.836          49.000    23251574.109 8  95211277.835 8     -2672.599          49.000
G25  20149494.734 8 105886312.695 8        32.539          48.000    20149495.867 8  82508820.585 8        25.355          48.000
G29  21156632.375 8 111178878.082 8      2279.207          51.000    21156633.844 8  86632878.832 8      1776.005          51.000
G32  22502987.508 5 118253985.165 5     -1524.465          32.000    22503003.750 5  92146005.006 5     -1187.883          32.000
R16  19592043.828 7 104657161.049 7      -823.043          47.000    19592046.930 7  81400030.929 7      -640.145          44.000
R18  19687402.250 8 105092712.784 8      -976.602          51.000    19687405.188 7  81738799.968 7      -759.579          46.000
R19  20333332.719 6 108769635.091 6      3080.973          36.000    20333337.672 7  84598613.292 7      2396.312          44.000
C11  23599131.875 5 122886856.878 5     -2141.027          31.000    23599132.078 6  95023919.662 6     -1655.306          39.000
C23  22152013.766 8 115351342.092 8     -1088.863          48.000
C25  25558751.523 7 133091098.066 7     -2922.172          47.000
C28  22640287.320 8 117893947.150 8      2357.355          51.000
E11  24153349.688 7 126926705.877 7      2474.594          43.000    24153352.312 7  97255515.153 7      1896.051          47.000
E12                                                                  22946763.273 6  92397132.029 6      -230.280          40.000
E24  22529135.164 7 118391435.573 7     -1225.223          45.000    22529150.227 7  90715505.634 7      -938.768          47.000
> 2020 05 10 10 14 30.0000000  0 17        .000000000000
G02  22946338.703 5 120583816.528 5      -395.266          35.000
G06  23971590.367 5 125971529.192 5     -1815.477          33.000    23971593.852 5  98159655.578 5     -1414.663          32.000
G12  20955402.852 6 110121431.150 6     -1791.316          39.000    20955402.914 6  85808876.873 6     -1395.831          38.000
G24  23271166.680 8 122290785.372 8     -3436.902          48.000    23271169.625 8  95291520.445 8     -2678.106          48.000
G25  20149339.664 8 105885498.385 8        20.348          48.000    20149341.109 8  82508186.044 8        15.855          48.000
G29  21143659.961 8 111110706.737 8      2264.031          51.000    21143661.367 8  86579758.307 8      1764.180          51.000
G32  22511733.977 5 118299961.591 5     -1541.418          30.000    22511757.664 5  92181889.924 5     -1201.114          30.000
R16  19596708.055 7 104682077.215 7      -839.453          46.000    19596711.211 7  81419410.158 7      -652.908          43.000
R18  19692963.102 8 105122396.583 8     -1003.938          51.000    19692966.258 7  81761887.377 7      -780.840          46.000
R19  20316108.508 6 108677498.156 6      3059.859          36.000    20316113.383 7  84526951.216 7      2379.894          43.000
C11  23611495.844 5 122951236.979 5     -2153.320          33.000    23611496.188 6  95073702.481 6     -1664.495          40.000
C23  22158316.914 8 115384165.112 8     -1101.027          50.000
C25  25575597.547 7 133178819.062 7     -2927.535          46.000
C28  22626737.570 8 117823391.798 8      2344.777          50.000
E11  24139246.273 7 126852591.757 7      2464.539          45.000    24139248.758 7  97198726.441 7      1888.512          47.000
E12  22948517.883 5 120595281.889 5      -315.727          35.000    22948518.180 6  92404198.470 6      -242.166          40.000
E24  22536143.227 7 118428261.229 7     -1231.535          45.000    22536157.906 7  90743722.719 7      -943.551          45.000
> 2020 05 10 10 15  0.0000000  0 16        .000000000000
G06  23981996.125 5 126026209.240 5     -1830.543          35.000    23981998.797 6  98202263.374 6     -1426.394          37.000
G12  20965648.641 6 110175271.226 6     -1798.773          40.000    20965648.477 6  85850830.154 6     -1401.645          40.000
G24  23290800.203 7 122393957.385 7     -3441.953          47.000    23290802.391 7  95371914.196 7     -2682.041          46.000
G25  20149251.258 8 105885034.074 8         9.953          48.000    20149252.812 8  82507824.249 8         7.756          48.000
G29  21130771.828 8 111042977.407 8      2250.578          51.000    21130772.586 8  86526982.220 8      1753.697          51.000
G32  22520578.992 6 118346435.857 6     -1557.316          36.000    22520594.367 4  92218069.212 4     -1213.454          27.000
R16  19601461.523 7 104707469.600 7      -854.082          46.000    19601464.531 7  81439159.775 7      -664.286          43.000
R18  19698674.594 8 105152885.161 8     -1029.355          51.000    19698678.008 7  81785600.736 7      -800.610          45.000
R19  20299000.688 6 108585980.022 6      3040.344          39.000    20299004.758 7  84455770.451 7      2364.712          42.000
C11  23623926.711 5 123015966.078 5     -2163.121          32.000    23623926.938 5  95123755.166 5     -1672.696          35.000
C23  22164687.562 8 115417338.053 8     -1111.336          51.000
C25  25592470.922 7 133266684.310 7     -2930.863          45.000
C28  22613257.914 8 117753201.674 8      2333.863          50.000
E11  24125198.922 8 126778767.312 8      2456.398          48.000    24125200.367 7  97142159.696 7      1882.202          46.000
E12  22950359.359 5 120604952.003 5      -330.059          31.000    22950359.188 6  92411612.641 6      -252.797          38.000
E24  22543184.547 7 118465263.387 7     -1236.008          43.000    22543198.703 6  90772075.049 6      -947.161          41.000
> 2020 05 10 10 15 30.0000000  0 18        .000000000000
G02  22951036.742 5 120608511.438 5      -429.059          34.000
G06  23992495.688 6 126081384.916 6     -1847.602          37.000    23992498.875 6  98245257.411 6     -1439.686          38.000
G12  20975941.430 6 110229358.284 6     -1807.633          40.000    20975940.531 6  85892975.891 6     -1408.548          39.000
G24  23310466.422 7 122497303.424 7     -3448.367          45.000    23310468.336 7  95452443.558 7     -2687.039          45.000
G25  20149226.156 8 105884902.362 8        -1.730          48.000    20149227.812 8  82507721.623 8        -1.348          48.000
G29  21117964.766 8 110975673.838 8      2235.832          51.000    21117964.938 8  86474537.910 8      1742.210          51.000
G32  22529515.859 6 118393389.615 6     -1574.125          38.000    22529521.070 6  92254606.299 6     -1226.597          38.000
R16  19606300.977 8 104733321.291 8      -869.863          48.000    19606303.930 7  81459266.628 7      -676.560          43.000
R17  22856715.945 5 122310869.137 5     -3991.324          31.000
R18  19704533.109 8 105184159.115 8     -1056.109          51.000    19704536.602 7  81809924.909 7      -821.421          45.000
R19  20282006.234 6 108495066.241 6      3020.059          40.000    20282009.102 7  84385059.785 7      2348.938          42.000
C11  23636420.289 5 123081043.899 5     -2174.457          31.000    23636420.070 5  95174062.719 5     -1681.564          32.000
C23  22171122.195 8 115450843.771 8     -1122.953          51.000
C25  25609368.430 7 133354675.751 7     -2935.570          45.000
C28  22599845.375 8 117683360.955 8      2321.715          50.000
E11  24111204.008 8 126705216.673 8      2446.688          50.000    24111203.852 7  97085802.755 7      1874.639          46.000
E12  22952284.609 6 120615066.030 6      -344.922          38.000    22952284.195 6  92419360.832 6      -264.207          37.000
E24  22550255.961 7 118502424.829 7     -1241.906          44.000    22550269.781 6  90800549.324 6      -951.513          37.000
> 2020 05 10 10 16  0.0000000  0 17        .000000000000
G02  22953534.094 4 120621635.050 4      -446.348          28.000
G06  24003093.125 6 126137076.016 6     -1864.309          37.000    24003096.961 6  98288653.092 6     -1452.705          36.000
G12  20986284.961 6 110283713.461 6     -1816.359          38.000    20986283.164 6  85935330.561 6     -1415.342          37.000
G24  23330169.445 7 122600844.360 7     -3454.348          44.000    23330171.453 7  95533124.801 7     -2691.703          44.000
G25  20149268.492 8 105885124.790 8       -13.082          49.000    20149270.234 8  82507894.949 8       -10.194          49.000
G29  21105242.758 8 110908818.689 8      2221.145          50.000    21105242.812 8  86422443.009 8      1730.762          50.000
G32  22538546.656 6 118440842.146 6     -1590.000          40.000    22538551.258 6  92291582.220 6     -1238.970          38.000
R16  19611230.930 7 104759655.029 7      -885.773          47.000    19611233.344 7  81479748.410 7      -688.935          43.000
R18  19710542.477 8 105216238.000 8     -1082.539          50.000    19710546.336 7  81834875.197 7      -841.975          45.000
R19  20265129.211 6 108404782.101 6      2999.016          41.000    20265130.969 7  84314838.848 7      2332.568          42.000
C11  23648980.836 5 123146451.874 5     -2185.637          33.000    23648981.078 6  95224640.238 6     -1690.239          36.000
C23  22177624.891 8 115484703.718 8     -1134.391          51.000
C25  25626294.820 7 133442813.935 7     -2940.301          46.000
C28  22586504.266 8 117613892.449 8      2309.477          49.000
E11  24097265.656 8 126631963.154 8      2436.988          50.000    24097263.977 7  97029673.458 7      1867.279          47.000
E12  22954296.133 6 120625635.269 6      -359.594          37.000    22954294.344 5  92427459.294 5      -275.871          32.000
E24  22557362.406 7 118539767.242 7     -1247.602          46.000    22557373.914 5  90829162.277 5      -955.535          31.000
> 2020 05 10 10 16 30.0000000  0 18        .000000000000
G02  22956127.938 5 120635262.576 5      -459.754          35.000
G06  24013785.453 5 126193265.342 5     -1877.703          35.000    24013790.094 6  98332436.960 6     -1463.145          36.000
G12  20996676.492 6 110338320.590 6     -1821.398          37.000    20996674.250 6  85977881.526 6     -1419.272          36.000
G24  23349905.867 7 122704562.310 7     -3456.984          43.000    23349907.852 7  95613943.927 7     -2693.754          43.000
G25  20149375.367 8 105885686.078 8       -21.055          50.000    20149377.172 8  82508332.323 8       -16.403          50.000
G29  21092602.891 8 110842398.094 8      2209.949          49.000    21092603.250 8  86370686.688 8      1722.038          50.000
G32  22547668.453 7 118488776.037 7     -1602.566          42.000    22547668.133 5  92328933.316 5     -1248.753          35.000
R16  19616248.234 7 104786455.451 7      -897.793          47.000    19616250.383 7  81500593.168 7      -698.286          43.000
R17  22901595.352 5 122551023.811 5     -4007.031          34.000
R18  19716699.453 8 105249104.388 8     -1105.367          50.000    19716703.109 7  81860437.959 7      -859.727          44.000
R19  20248367.656 7 108315115.332 7      2981.809          43.000    20248368.422 7  84245098.063 7      2319.184          42.000
C11                                                                  23661606.023 6  95275474.580 6     -1696.401          37.000
C23  22184192.648 8 115518902.788 8     -1142.469          51.000
C25  25643246.711 7 133531082.897 7     -2941.281          47.000
C28  22573232.125 8 117544782.356 8      2300.871          49.000
E11  24083380.625 8 126558993.146 8      2430.566          48.000    24083378.492 8  96973761.384 8      1862.421          48.000
E12  22956390.898 6 120636645.705 6      -371.383          39.000    22956386.914 5  92435895.837 5      -284.539          31.000
E24  22564500.391 8 118577275.548 8     -1249.801          48.000    22564509.844 5  90857935.302 5      -957.942          34.000
> 2020 05 10 10 17  0.0000000  0 17        .000000000000
G06  24024572.375 5 126249953.750 5     -1902.879          30.000    24024576.922 5  98376609.677 5     -1482.766          31.000
G12  21007116.109 6 110393181.589 6     -1837.801          41.000    21007114.258 6  86020630.300 6     -1432.053          40.000
G24  23369675.930 7 122808458.433 7     -3471.340          43.000    23369677.055 7  95694901.837 7     -2704.943          43.000
G25  20149547.148 8 105886588.882 8       -40.801          50.000    20149549.117 8  82509035.798 8       -31.793          50.000
G29  21080046.141 8 110776415.325 8      2187.078          49.000    21080046.992 8  86319271.545 8      1704.217          49.000
G32  22556882.023 7 118537191.695 7     -1627.039          45.000    22556881.477 5  92366659.748 5     -1267.820          33.000
R16  19621353.477 7 104813725.807 7      -921.949          47.000    19621355.672 7  81521803.431 7      -717.075          44.000
R17  22924107.062 5 122671469.005 5     -4024.250          34.000
R18  19723004.078 8 105282758.729 8     -1140.004          50.000    19723007.547 7  81886613.580 7      -886.670          44.000
R19  20231722.602 7 108226071.799 7      2952.668          42.000    20231722.516 7  84175842.018 7      2296.523          42.000
C11                                                                  23674294.773 6  95326566.022 6     -1711.241          37.000
C23  22190826.164 8 115553443.643 8     -1161.973          51.000
C25  25660224.023 7 133619484.457 7     -2953.859          46.000
C28  22560030.078 8 117476034.699 8      2280.562          50.000
E11  24069549.227 7 126486310.860 7      2412.930          46.000    24069547.750 8  96918069.768 8      1848.850          49.000
E12  22958570.602 6 120648099.701 6      -394.008          41.000    22958569.680 5  92444633.195 5      -301.887          31.000
E24  22571670.055 8 118614952.577 8     -1263.633          48.000    22571679.789 6  90886804.667 6      -968.148          38.000
> 2020 05 10 10 17 30.0000000  0 17        .000000000000
G12  21017613.523 6 110448345.970 6     -1840.180          39.000    21017612.320 6  86063615.511 6     -1433.909          38.000
G24  23389489.484 7 122912580.559 7     -3471.199          45.000    23389488.562 7  95776035.865 7     -2704.834          45.000
G25  20149793.500 8 105887883.281 8       -46.242          51.000    20149795.422 8  82510044.415 8       -36.033          51.000
G29  21067582.961 8 110710921.964 8      2178.289          50.000    21067583.914 8  86268237.761 8      1697.371          51.000
G32  22566196.367 7 118586136.964 7     -1637.000          46.000    22566193.469 6  92404798.995 6     -1275.587          41.000
R16  19626556.305 7 104841517.797 7      -931.688          45.000    19626558.453 7  81543419.419 7      -724.646          44.000
R17  22946678.445 5 122792242.972 5     -4028.055          32.000
R18  19729465.422 8 105317249.850 8     -1160.234          49.000    19729469.000 7  81913440.034 7      -902.405          45.000
R19  20215203.258 6 108137705.826 6      2937.688          39.000    20215203.180 7  84107112.956 7      2284.868          42.000
C11  23687054.914 5 123344764.939 5     -2218.254          32.000    23687056.344 5  95377951.487 5     -1714.990          35.000
C23  22197534.859 8 115588376.046 8     -1167.598          51.000
C25  25677235.703 7 133708067.433 7     -2952.441          46.000
C28  22546907.539 8 117407700.542 8      2274.227          51.000
E03  26881534.453 6 141263429.928 6     -1996.957          40.000    26881550.445 6 108240849.662 6     -1530.097          36.000
E11  24055781.812 7 126413968.125 7      2409.320          46.000    24055781.594 8  96862638.306 8      1846.049          49.000
E12  22960843.859 5 120660046.819 5      -403.094          35.000
E24  22578881.445 8 118652848.608 8     -1263.516          50.000    22578891.547 6  90915841.841 6      -967.876          40.000
> 2020 05 10 10 18  0.0000000  0 16        .000000000000
G12  21028146.859 6 110503698.986 6     -1849.879          39.000    21028145.945 6  86106747.729 6     -1441.464          39.000
G24  23409324.602 7 123016812.851 7     -3477.711          47.000    23409323.273 7  95857255.741 7     -2709.908          47.000
G25  20150092.703 8 105889455.260 8       -58.426          51.000    20150094.539 8  82511269.325 8       -45.527          51.000
G29  21055191.930 8 110645805.396 8      2162.852          51.000    21055192.641 8  86217497.610 8      1685.339          51.000
G32  22575589.344 7 118635495.675 7     -1653.648          45.000    22575589.766 7  92443260.306 7     -1288.557          45.000
R16  19631834.820 7 104869716.195 7      -948.180          44.000    19631836.953 7  81565351.509 7      -737.473          44.000
R18  19736061.602 8 105352459.699 8     -1186.988          49.000    19736065.219 7  81940825.494 7      -923.213          44.000
R19  20198788.617 6 108049904.449 6      2915.664          37.000    20198788.984 6  84038822.962 6      2267.736          41.000
C11  23699905.125 5 123411616.137 5     -2229.680          30.000    23699868.719 5  95429542.009 5     -1724.242          33.000
C23  22204296.828 8 115623587.074 8     -1179.777          51.000
C25  25694260.141 7 133796718.043 7     -2957.676          45.000
C28  22533842.625 8 117339668.284 8      2261.273          50.000
E03  26892960.078 6 141323477.096 6     -2006.395          38.000    26892975.719 6 108286859.883 6     -1537.544          36.000
E11  24042058.148 7 126341852.519 7      2398.742          47.000    24042058.625 8  96807380.876 8      1838.072          48.000
E12  22963189.133 6 120672372.500 6      -418.727          36.000
E24  22586113.328 8 118690849.771 8     -1269.887          50.000    22586123.750 6  90944959.621 6      -972.877          41.000
> 2020 05 10 10 18 30.0000000  0 16        .000000000000
G12  21038734.492 6 110559337.338 6     -1858.961          37.000    21038733.859 6  86150102.236 6     -1448.544          37.000
G24  23429199.016 8 123121251.123 8     -3484.664          48.000    23429199.055 8  95938636.163 8     -2715.323          48.000
G25  20150463.227 8 105891401.984 8       -71.180          51.000    20150465.047 8  82512786.241 8       -55.465          51.000
G29  21042891.523 8 110581163.818 8      2146.793          51.000    21042891.820 8  86167127.561 8      1672.829          51.000
G32  22585078.797 7 118685362.780 7     -1670.602          45.000    22585081.242 7  92482117.747 7     -1301.767          45.000
R16  19637208.062 7 104898419.923 7      -965.363          44.000    19637210.555 7  81587676.644 7      -750.838          45.000
R18  19742810.180 8 105388484.453 8     -1214.422          48.000    19742813.898 7  81968844.766 7      -944.547          45.000
R19  20182498.906 6 107962769.954 6      2893.098          39.000    20182500.406 7  83971051.676 7      2250.187          42.000
C11  23712785.477 5 123478693.956 5     -2241.883          32.000    23712750.297 5  95481410.489 5     -1733.031          34.000
C23  22211131.031 8 115659173.000 8     -1192.465          51.000
C25  25711315.312 7 133885531.740 7     -2963.133          43.000
C28  22520853.969 8 117272035.597 8      2247.828          49.000
E03  26904440.359 5 141383811.688 5     -2015.785          35.000    26904454.898 6 108333090.292 6     -1544.524          36.000
E11  24028397.109 8 126270062.890 8      2387.539          49.000    24028397.797 8  96752373.244 8      1829.404          48.000
E12  22965625.586 6 120685173.561 6      -434.492          37.000
E24  22593383.430 8 118729053.427 8     -1276.727          49.000    22593394.719 7  90974232.527 7      -978.244          42.000
> 2020 05 10 10 19  0.0000000  0 16        .000000000000
G12  21049372.430 6 110615237.701 6     -1868.051          41.000    21049371.492 6  86193660.956 6     -1455.624          41.000
G24  23449107.922 7 123225871.212 7     -3490.441          46.000    23449109.633 7  96020158.252 7     -2719.824          46.000
G25  20150900.820 8 105893701.131 8       -82.680          51.000    20150902.602 8  82514577.792 8       -64.426          51.000
G29  21030677.453 8 110516975.894 8      2131.809          51.000    21030677.195 8  86117111.015 8      1661.150          51.000
G32  22594660.172 7 118735713.684 7     -1686.473          46.000    22594663.578 7  92521352.234 7     -1314.131          45.000
R16  19642671.711 7 104927607.270 7      -981.180          44.000    19642674.766 7  81610377.914 7      -763.140          45.000
R18  19749707.008 7 105425299.489 7     -1240.500          47.000    19749710.508 7  81997478.674 7      -964.833          45.000
R19  20166331.477 7 107876282.545 7      2871.910          42.000    20166333.039 7  83903783.709 7      2233.708          42.000
C11  23725731.984 5 123546107.073 5     -2253.230          33.000    23725696.281 6  95533538.405 6     -1741.957          37.000
C23  22218032.539 8 115695111.816 8     -1204.000          51.000
C25  25728397.133 7 133974485.606 7     -2967.508          42.000
C28  22507938.016 8 117204781.743 8      2235.199          49.000
E03  26915970.961 6 141444409.601 6     -2024.520          36.000    26915983.664 5 108379522.416 5     -1551.282          34.000
E11  24014794.734 8 126198578.547 8      2377.359          50.000    24014794.773 7  96697599.537 7      1821.688          47.000
E12                                                                  22968149.578 5  92483223.382 5      -344.614          30.000
E24  22600687.430 8 118767437.499 8     -1282.637          50.000    22600698.320 6  91003643.683 6      -982.934          41.000
> 2020 05 10 10 19 30.0000000  0 17        .000000000000
G06  24079948.258 5 126540933.965 5     -1968.973          34.000    24079946.617 5  98603350.874 5     -1534.267          32.000
G12  21060056.375 7 110671380.486 7     -1864.219          43.000    21060054.375 7  86237408.602 7     -1452.635          42.000
G24  23469046.992 7 123330652.224 7     -3483.922          45.000    23469050.312 7  96101805.754 7     -2714.744          45.000
G25  20151401.898 8 105896333.835 8       -81.824          51.000    20151403.594 8  82516629.250 8       -63.759          51.000
G29  21018546.055 8 110453223.903 8      2129.258          51.000    21018545.281 8  86067434.131 8      1659.162          51.000
G32  22604329.398 7 118786527.188 7     -1689.996          45.000    22604333.883 7  92560947.198 7     -1316.880          44.000
R16  19648222.508 7 104957259.006 7      -984.402          46.000    19648225.688 7  81633440.380 7      -765.646          45.000
R18  19756747.391 8 105462883.084 8     -1253.914          48.000    19756750.922 7  82026710.400 7      -975.266          46.000
R19  20150282.180 7 107790426.238 7      2863.152          42.000    20150283.453 7  83837006.612 7      2226.896          42.000
C11  23738739.008 4 123613834.887 4     -2251.129          29.000    23738702.438 6  95585909.735 6     -1740.797          36.000
C23  22224998.336 8 115731384.836 8     -1203.324          51.000
C25  25745501.773 6 134063560.099 6     -2959.992          40.000
C28  22495092.188 8 117137889.322 8      2235.074          50.000
E03  26927547.672 6 141505250.115 6     -2020.723          37.000    26927557.234 5 108426140.453 5     -1548.289          33.000
E11  24001247.359 8 126127382.210 8      2379.832          50.000    24001246.109 7  96643046.533 7      1823.612          45.000
E12                                                                  22970753.914 5  92493705.416 5      -346.212          32.000
E24  22608022.320 8 118805983.226 8     -1276.004          49.000    22608032.094 6  91033178.722 6      -977.714          41.000
> 2020 05 10 10 20  0.0000000  0 18        .000000000000
G02  22977045.164 6 120745193.579 6      -584.145          36.000
G06  24091307.359 5 126600633.292 5     -1997.496          31.000    24091308.438 4  98649869.765 4     -1556.494          28.000
G12  21070793.922 7 110727806.634 7     -1884.727          42.000    21070791.648 7  86281377.022 7     -1468.618          42.000
G24  23489023.656 7 123435633.925 7     -3501.922          44.000    23489028.500 7  96183609.681 7     -2728.770          44.000
G25  20151974.266 8 105899341.716 8      -105.766          51.000    20151975.906 8  82518973.050 8       -82.415          51.000
G29  21006504.875 8 110389950.515 8      2102.012          48.000    21006504.258 8  86018130.178 8      1637.928          49.000
G32  22614094.031 7 118837842.663 7     -1717.977          44.000    22614099.781 7  92600933.270 7     -1338.683          43.000
R16  19653868.547 7 104987418.286 7     -1013.098          47.000    19653871.602 7  81656897.589 7      -787.965          45.000
R18  19763939.703 7 105501275.412 7     -1292.367          47.000    19763942.703 7  82056571.059 7     -1005.174          46.000
R19  20134359.297 6 107705246.564 6      2828.867          41.000    20134360.094 7  83770755.797 7      2200.230          42.000
C11                                                                  23751775.828 5  95638554.705 5     -1758.742          34.000
C23  22232036.000 8 115768033.442 8     -1227.094          51.000
C25  25762637.078 6 134152795.600 6     -2976.402          39.000
C28  22482324.523 8 117071401.012 8      2210.320          50.000
E03  26939178.727 6 141566373.036 6     -2041.531          39.000    26939185.719 5 108472974.789 5     -1564.242          32.000
E11  23987762.625 8 126056517.162 8      2357.531          50.000    23987759.969 7  96588747.387 7      1806.324          42.000
E12                                                                  22973452.898 5  92504555.848 5      -367.224          35.000
E24  22615396.070 7 118844732.472 7     -1294.270          47.000    22615406.344 7  91062869.693 7      -991.758          42.000
> 2020 05 10 10 20 30.0000000  0 19        .000000000000
G02  22980419.969 6 120762924.818 6      -597.664          36.000    22980413.312 4  94100950.168 4      -465.712          26.000
G06  24102750.570 5 126660808.940 5     -2011.211          33.000    24102752.570 5  98696742.766 5     -1567.177          32.000
G12  21081569.906 6 110784436.457 6     -1889.977          40.000    21081568.266 6  86325504.090 6     -1472.709          41.000
G24  23509022.703 7 123540735.548 7     -3504.609          43.000    23509029.312 7  96265507.051 7     -2730.864          43.000
G25  20152602.867 8 105902645.676 8      -114.281          51.000    20152604.508 8  82521547.562 8       -89.050          51.000
G29  20994540.180 8 110327077.893 8      2089.879          49.000    20994539.664 8  85969138.532 8      1628.480          49.000
G32  22623938.625 7 118889578.757 7     -1730.746          43.000    22623944.211 7  92641247.081 7     -1348.633          42.000
R16  19659594.789 7 105018005.187 7     -1025.832          47.000    19659597.703 7  81680687.385 7      -797.869          44.000
R18  19771267.391 7 105540393.667 7     -1315.184          47.000    19771271.141 7  82086996.395 7     -1022.921          47.000
R19  20118548.234 6 107620666.011 6      2810.328          40.000    20118548.570 6  83704970.969 6      2185.814          41.000
C11  23764921.148 5 123750163.328 5     -2282.039          31.000    23764901.875 5  95691411.223 5     -1764.747          34.000
C23  22239130.734 8 115804979.210 8     -1235.730          51.000
C25  25779789.562 6 134242112.924 6     -2977.793          39.000
C28  22469619.242 8 117005239.709 8      2200.699          49.000
E03  26950848.508 6 141627697.391 6     -2046.734          40.000    26950850.773 4 108519908.533 4     -1568.145          29.000
E11  23974325.750 8 125985905.938 8      2350.391          49.000    23974320.664 6  96534642.752 6      1800.841          40.000
E12                                                                  22976222.211 5  92515708.554 5      -376.239          34.000
E24  22622792.922 7 118883606.307 7     -1296.965          42.000    22622804.391 7  91092656.091 7      -993.742          43.000
E25                                                                  23883371.562 5  96168436.128 5       783.112          35.000
> 2020 05 10 10 21  0.0000000  0 18        .000000000000
G06  24114292.609 5 126721477.180 5     -2031.266          35.000    24114297.703 5  98744016.675 5     -1582.807          31.000
G12  21092401.867 7 110841359.337 7     -1902.391          43.000    21092400.680 7  86369859.571 7     -1482.382          43.000
G24  23529062.164 7 123646044.858 7     -3514.066          46.000    23529069.453 7  96347566.194 7     -2738.234          46.000
G25  20153304.992 8 105906335.948 8      -129.684          51.000    20153306.633 8  82524423.096 8      -101.052          51.000
G29  20982669.570 8 110264697.078 8      2070.930          50.000    20982669.156 8  85920530.162 8      1613.714          50.000
G32  22633879.414 6 118941823.350 6     -1750.402          39.000    22633883.836 6  92681957.064 6     -1363.953          40.000
R16  19665418.148 7 105049111.886 7     -1045.777          47.000    19665421.109 7  81704881.450 7      -813.382          44.000
R18  19778748.172 8 105580326.979 8     -1344.895          48.000    19778751.766 7  82118055.607 7     -1046.029          46.000
R19  20102866.367 6 107536779.552 6      2784.273          39.000    20102866.719 6  83639725.976 6      2165.546          41.000
C11  23778101.617 5 123818879.556 5     -2296.754          33.000    23778098.461 5  95744546.894 5     -1776.156          30.000
C23  22246300.078 8 115842311.567 8     -1251.098          51.000
C25  25796975.836 6 134331600.726 6     -2985.938          41.000
C28  22456993.773 8 116939496.150 8      2184.242          48.000
E03  26962574.023 6 141689311.589 6     -2059.012          39.000
E11  23960954.289 8 125915640.384 8      2336.113          49.000    23960947.336 6  96480802.990 6      1790.024          41.000
E12                                                                  22979081.125 6  92527232.166 6      -390.462          36.000
E24  22630230.484 6 118922695.139 6     -1306.621          38.000    22630243.086 7  91122607.274 7     -1001.252          42.000
E25                                                                  23877568.047 5  96145057.560 5       776.707          33.000
> 2020 05 10 10 21 30.0000000  0 18        .000000000000
G06  24125927.719 6 126782625.765 6     -2045.844          36.000    24125933.914 5  98791664.796 5     -1594.167          34.000
G12  21103280.570 7 110898528.432 7     -1909.250          42.000    21103279.945 7  86414406.890 7     -1487.730          42.000
G24  23549132.883 7 123751514.641 7     -3517.629          47.000    23549139.750 7  96429750.406 7     -2741.010          47.000
G25  20154071.797 8 105910366.129 8      -139.344          51.000    20154073.578 8  82527563.495 8      -108.580          51.000
G29  20970884.156 8 110202762.929 8      2057.625          51.000    20970883.688 8  85872269.829 8      1603.347          51.000
G32  22643907.281 6 118994527.714 6     -1764.105          39.000    22643908.766 6  92723025.356 6     -1374.631          39.000
R16  19671330.156 8 105080691.503 8     -1059.965          48.000    19671332.773 7  81729443.356 7      -824.417          43.000
R18  19786372.453 8 105621025.973 8     -1368.871          48.000    19786376.156 7  82149710.390 7     -1064.674          47.000
R19  20087305.648 6 107453542.955 6      2764.348          39.000    20087306.102 7  83574986.384 7      2150.048          42.000
C11  23791350.164 5 123887908.778 5     -2305.922          30.000    23791355.852 4  95797924.597 4     -1783.130          29.000
C23  22253534.852 8 115879984.560 8     -1260.840          51.000
C25  25814185.906 6 134421212.136 6     -2988.512          41.000
C28  22444439.969 8 116874125.670 8      2173.359          49.000
E03  26974345.570 6 141751167.354 6     -2065.379          38.000
E11  23947639.836 8 125845675.691 8      2327.566          48.000    23947633.648 7  96427193.723 7      1783.562          43.000
E12  22982025.172 5 120771356.789 5      -522.656          33.000    22982024.445 6  92539090.789 6      -400.495          37.000
E24  22637700.297 6 118961952.689 6     -1311.137          37.000    22637713.977 7  91152687.797 7     -1004.434          42.000
E25                                                                  23871793.086 5  96121794.480 5       774.127          33.000
> 2020 05 10 10 22  0.0000000  0 19        .000000000000
G02  22991146.906 6 120819272.118 6      -651.621          36.000
G06  24137652.688 6 126844241.210 6     -2061.879          37.000    24137658.773 5  98839676.783 5     -1606.653          33.000
G12  21114204.000 7 110955931.542 7     -1917.957          44.000    21114203.477 7  86459136.584 7     -1494.509          44.000
G24  23569231.688 8 123857131.398 8     -3523.758          48.000    23569237.555 8  96512049.117 8     -2745.788          48.000
G25  20154901.141 8 105914724.886 8      -151.445          51.000    20154903.172 8  82530959.931 8      -118.009          51.000
G29  20959181.711 8 110141265.204 8      2041.875          51.000    20959180.859 8  85824349.518 8      1591.071          51.000
G32  22654020.922 6 119047678.128 6     -1779.902          40.000    22654021.406 6  92764441.251 6     -1386.940          39.000
R16  19677328.555 7 105112733.475 7     -1076.512          46.000    19677331.031 7  81754364.873 7      -837.287          44.000
R18  19794137.578 8 105662476.404 8     -1394.930          49.000    19794141.219 7  82181949.626 7     -1084.945          47.000
R19  20071865.086 6 107370947.835 6      2741.801          40.000    20071865.750 7  83510745.746 7      2132.512          44.000
C11  23804661.047 5 123957120.634 5     -2316.566          30.000
C23  22260832.578 8 115917987.059 8     -1272.980          51.000
C25  25831416.812 6 134510935.187 6     -2993.504          41.000
C28  22431956.352 8 116809118.453 8      2160.121          50.000
E03  26986160.359 6 141813251.580 6     -2074.117          36.000
E11  23934380.867 7 125776002.170 7      2316.887          47.000    23934376.891 7  96373807.554 7      1775.256          45.000
E12                                                                  22985049.586 6  92551275.316 6      -411.919          38.000
E24  22645200.742 6 119001367.956 6     -1317.355          40.000    22645214.438 7  91182889.177 7     -1009.268          42.000
E25                                                                  23866040.812 5  96098638.658 5       769.661          32.000
> 2020 05 10 10 22 30.0000000  0 19        .000000000000
G02  22994916.242 5 120839080.230 5      -668.992          35.000
G06  24149471.000 6 126906347.103 6     -2078.309          37.000    24149475.039 5  98888070.885 5     -1619.464          31.000
G12  21125176.633 7 111013593.476 7     -1926.441          42.000    21125176.039 7  86504067.931 7     -1501.123          42.000
G24  23589362.953 8 123962918.239 8     -3529.383          49.000    23589366.102 8  96594480.321 8     -2750.171          49.000
G25  20155797.906 8 105919437.631 8      -163.215          51.000    20155800.086 8  82534632.208 8      -127.180          51.000
G29  20947567.141 8 110080230.305 8      2026.469          51.000    20947565.820 8  85776789.838 8      1579.067          50.000
G32  22664223.906 7 119101297.739 7     -1795.465          42.000    22664223.367 6  92806222.738 6     -1399.067          41.000
R16  19683417.945 7 105145263.385 7     -1092.641          46.000    19683420.898 7  81779665.878 7      -849.832          44.000
R18  19802048.062 8 105704701.684 8     -1420.641          50.000    19802051.367 8  82214791.511 8     -1104.940          48.000
R19  20056549.680 6 107289022.905 6      2719.457          41.000    20056551.273 7  83447026.386 7      2115.133          45.000
C11  23818034.102 5 124026772.381 5     -2327.125          32.000
C23  22268198.648 8 115956344.097 8     -1284.695          51.000
C25  25848673.266 6 134600794.113 6     -2997.867          40.000
C28  22419547.453 8 116744500.847 8      2147.242          50.000
E03  26998022.367 5 141875564.792 5     -2082.445          35.000
E11  23921182.320 7 125706646.730 7      2306.402          46.000    23921180.852 7  96320665.100 7      1767.276          47.000
E12  22988161.242 5 120803598.497 5      -553.070          34.000    22988161.648 6  92563804.729 6      -423.703          39.000
E24  22652736.883 7 119040966.499 7     -1323.180          44.000    22652750.023 7  91213230.978 7     -1013.877          43.000
E25  23860319.094 5 125386823.940 5       998.719          34.000    23860319.727 5  96075623.084 5       765.306          31.000
> 2020 05 10 10 23  0.0000000  0 18        .000000000000
G06  24161383.570 6 126968948.634 6     -2094.402          36.000    24161385.984 5  98936851.261 5     -1631.987          30.000
G12  21136199.781 6 111071521.143 6     -1934.715          41.000    21136198.633 6  86549206.353 6     -1507.570          41.000
G24  23609527.805 8 124068881.028 8     -3534.141          50.000    23609526.820 8  96677048.570 8     -2753.882          50.000
G25  20156763.484 8 105924511.702 8      -174.324          51.000    20156765.656 8  82538586.035 8      -135.837          51.000
G29  20936042.266 8 110019666.555 8      2011.711          50.000    20936040.930 8  85729597.320 8      1567.567          51.000
G32  22674517.344 6 119155391.383 6     -1810.246          41.000    22674518.195 6  92848373.551 6     -1410.584          41.000
R16  19689600.656 7 105178289.710 7     -1108.430          46.000    19689603.242 7  81805353.033 7      -862.112          44.000
R18  19810104.586 8 105747706.850 8     -1445.688          50.000    19810107.773 8  82248239.976 8     -1124.424          48.000
R19  20041361.758 6 107207778.634 6      2697.500          41.000    20041363.891 7  83383836.422 7      2098.056          46.000
C11  23831470.367 5 124096752.442 5     -2337.391          32.000    23831487.805 5  95959542.871 5     -1807.062          33.000
C23  22275634.398 8 115995062.979 8     -1295.977          51.000
C25  25865956.133 6 134690795.285 6     -3001.484          37.000
C28  22407215.055 8 116680281.441 8      2134.770          51.000
E03  27009933.234 5 141938156.404 5     -2089.902          34.000
E11  23908046.289 7 125637618.324 7      2296.457          45.000    23908046.469 7  96267773.254 7      1759.482          47.000
E12  22991360.031 6 120820407.229 6      -567.219          36.000    22991360.570 6  92576684.174 6      -434.532          38.000
E24  22660309.484 7 119080755.839 7     -1328.766          44.000    22660322.891 7  91243718.930 7     -1018.040          44.000
E25  23854633.586 5 125356949.648 5       993.746          35.000    23854633.219 5  96052722.859 5       761.310          31.000
> 2020 05 10 10 23 30.0000000  0 19        .000000000000
G02  23002746.695 5 120880225.079 5      -701.910          35.000
G06  24173380.586 6 127031993.156 6     -2109.449          36.000    24173381.836 4  98985976.837 4     -1643.730          26.000
G12  21147263.961 6 111129663.248 6     -1941.883          41.000    21147262.523 6  86594511.860 6     -1513.158          40.000
G24  23629715.992 8 124174967.600 8     -3538.391          49.000    23629713.703 8  96759713.322 8     -2757.191          49.000
G25  20157788.250 8 105929896.489 8      -184.879          51.000    20157790.266 8  82542781.971 8      -144.061          51.000
G29  20924597.594 8 109959524.354 8      1997.449          50.000    20924596.453 8  85682733.302 8      1556.457          50.000
G32  22684891.445 6 119209906.162 6     -1824.449          41.000    22684893.000 7  92890852.557 7     -1421.652          42.000
R16  19695866.344 7 105211761.200 7     -1123.414          45.000    19695869.078 7  81831386.380 7      -873.766          44.000
R18  19818296.906 8 105791437.642 8     -1469.977          51.000    19818300.281 8  82282252.824 8     -1143.315          48.000
R19  20026291.945 6 107127166.259 6      2676.449          41.000    20026294.445 7  83321137.933 7      2081.686          45.000
C11  23844960.453 4 124167008.504 4     -2346.523          29.000    23844976.844 5  96013869.316 5     -1814.659          33.000
C23  22283129.898 8 116034093.588 8     -1306.508          51.000
C25  25883256.086 6 134780887.718 6     -3004.488          36.000
C28  22394949.695 8 116616411.373 8      2122.875          51.000
E03  27021882.906 5 142000953.013 5     -2096.535          31.000
E11  23894963.781 7 125568867.975 7      2286.699          47.000    23894964.352 7  96215094.421 7      1752.143          47.000
E12  22994634.297 6 120837621.493 6      -580.773          37.000    22994636.180 6  92589874.344 6      -445.164          38.000
E24  22667907.828 7 119120685.669 7     -1333.555          45.000    22667921.836 7  91274314.475 7     -1021.898          43.000
E25  23848970.477 5 125327185.430 5       989.602          34.000    23848971.711 5  96029922.719 5       758.125          32.000
> 2020 05 10 10 24  0.0000000  0 18        .000000000000
G02  23006800.008 6 120901526.158 6      -719.789          36.000
G06  24185464.422 5 127095493.496 5     -2125.543          32.000    24185465.789 5  99035457.647 5     -1656.270          32.000
G12  21158371.531 7 111188033.729 7     -1951.090          42.000    21158370.148 7  86639995.323 7     -1520.330          43.000
G24  23649930.000 8 124281190.670 8     -3544.793          49.000    23649928.734 8  96842484.453 8     -2762.179          48.000
G25  20158874.906 8 105935606.788 8      -197.527          51.000    20158876.836 8  82547231.563 8      -153.914          51.000
G29  20913236.242 8 109899819.543 8      1981.090          51.000    20913235.320 8  85636210.128 8      1543.706          51.000
G32  22695348.188 7 119264854.380 7     -1840.664          45.000    22695350.320 7  92933669.337 7     -1434.284          42.000
R16  19702218.609 7 105245693.166 7     -1140.488          45.000    19702221.148 7  81857777.893 7      -887.049          44.000
R18  19826627.500 8 105835906.665 8     -1496.219          51.000    19826630.500 8  82316839.839 8     -1163.726          48.000
R19  20011343.938 6 107047204.168 6      2652.805          41.000    20011346.367 7  83258945.203 7      2063.293          46.000
C11                                                                  23858521.609 5  96068419.062 5     -1823.352          32.000
C23  22290687.906 8 116073450.601 8     -1319.113          51.000
C25  25900576.359 5 134871085.396 5     -3010.402          34.000
C28  22382754.195 8 116552906.616 8      2109.051          51.000
E11  23881937.742 8 125500412.034 8      2275.012          48.000    23881937.719 7  96162641.171 7      1743.170          47.000
E12  22997990.125 6 120855255.588 6      -596.555          38.000    22997991.547 6  92603386.186 6      -457.097          39.000
E24  22675536.039 8 119160770.790 8     -1340.516          48.000    22675550.219 7  91305029.059 7     -1027.217          44.000
E25  23843335.094 5 125297570.842 5       982.574          30.000    23843337.312 5  96007233.566 5       753.172          32.000
> 2020 05 10 10 24 30.0000000  0 15        .000000000000
G12  21169533.453 7 111246689.765 7     -1958.723          42.000    21169532.398 7  86685701.310 7     -1526.280          42.000
G24  23670180.508 8 124387605.747 8     -3549.086          48.000    23670180.625 8  96925405.234 8     -2765.522          48.000
G25  20160034.492 8 105941700.694 8      -208.270          51.000    20160036.453 8  82551980.059 8      -162.288          51.000
G29  20901969.445 8 109840611.272 8      1966.562          51.000    20901968.641 8  85590073.855 8      1532.389          51.000
G32  22705898.047 7 119320291.830 7     -1854.812          45.000    22705898.031 6  92976867.342 6     -1445.308          41.000
R16  19708667.930 7 105280145.524 7     -1155.934          45.000    19708670.766 7  81884574.143 7      -899.059          44.000
R18  19835107.109 8 105881170.509 8     -1520.703          51.000    19835110.164 8  82352045.044 8     -1182.769          48.000
R19  19996529.203 6 106967953.991 6      2631.301          40.000    19996531.484 7  83197306.189 7      2046.567          44.000
C23  22298319.508 8 116113191.492 8     -1329.844          51.000
C25  25917928.648 6 134961444.938 6     -3013.707          36.000
C28  22370639.844 8 116489825.966 8      2096.805          51.000
E03  27045918.188 5 142127254.655 5     -2113.734          33.000
E11  23868978.945 8 125432310.172 8      2265.375          49.000    23868978.234 8  96110459.213 8      1735.816          48.000
E12  23001437.117 6 120873366.855 6      -610.223          40.000    23001437.258 6  92617263.664 6      -467.699          38.000
E24  22683205.133 7 119201069.609 7     -1345.484          47.000    22683219.383 7  91335907.395 7     -1031.177          43.000
> 2020 05 10 10 25  0.0000000  0 16        .000000000000
G12  21180730.703 7 111305530.926 7     -1966.461          42.000    21180729.727 7  86731551.515 7     -1532.307          42.000
G24  23690448.188 7 124494112.217 7     -3553.688          47.000    23690449.453 7  97008397.258 7     -2769.107          47.000
G25  20161248.016 8 105948078.239 8      -219.273          51.000    20161250.039 8  82556949.577 8      -170.862          51.000
G29  20890777.750 8 109781800.489 8      1951.738          49.000    20890777.250 8  85544247.287 8      1520.835          49.000
G32  22716521.398 7 119376116.095 7     -1869.223          44.000    22716520.234 7  93020366.735 7     -1456.537          42.000
R16  19715195.828 7 105315016.462 7     -1171.348          46.000    19715198.461 7  81911695.984 7      -911.048          45.000
R18  19843715.734 8 105927124.685 8     -1545.414          51.000    19843718.672 8  82387787.178 8     -1201.989          48.000
R19  19981829.062 6 106889317.109 6      2609.051          41.000    19981830.867 7  83136144.161 7      2029.262          43.000
C11  23885811.258 4 124379676.096 4     -2377.383          27.000    23885828.883 4  96178342.203 4     -1838.283          29.000
C23  22306005.570 8 116153217.226 8     -1340.871          51.000
C25  25935294.016 6 135051866.421 6     -3016.953          37.000
C28  22358588.297 8 116427071.601 8      2084.434          51.000
E03  27057996.328 5 142190728.773 5     -2120.219          35.000    27058009.688 5 108951377.679 5     -1624.472          34.000
E11  23856068.180 7 125364463.977 7      2255.379          47.000    23856067.586 8  96058473.158 8      1728.246          48.000
E12  23004954.992 6 120891854.770 6      -624.461          40.000    23004956.250 6  92631429.736 6      -478.396          39.000
E24  22690895.016 7 119241482.405 7     -1351.016          46.000    22690910.039 7  91366872.965 7     -1035.011          42.000
> 2020 05 10 10 25 30.0000000  0 17        .000000000000
G02  23019552.578 5 120968551.410 5      -769.844          35.000
G12  21191986.133 7 111364678.085 7     -1974.738          43.000    21191985.195 7  86777640.200 7     -1538.757          43.000
G24  23710755.594 7 124600829.663 7     -3558.727          45.000    23710758.031 7  97091553.692 7     -2773.034          45.000
G25  20162538.633 8 105954860.835 8      -230.805          51.000    20162540.695 8  82562234.713 8      -179.848          51.000
G29  20879684.703 8 109723509.303 8      1936.445          49.000    20879684.492 8  85498825.552 8      1508.918          49.000
G32  22727240.953 7 119432446.098 7     -1883.824          42.000    22727240.031 6  93064260.196 6     -1467.915          41.000
R16  19721825.344 7 105350430.045 7     -1187.523          46.000    19721828.141 7  81939239.884 7      -923.629          45.000
R18  19852476.398 8 105973889.939 8     -1570.219          51.000    19852479.438 8  82424160.150 8     -1221.281          48.000
R19  19967266.797 6 106811419.954 6      2586.422          40.000    19967268.508 6  83075557.505 6      2011.664          41.000
C11                                                                  23899555.195 5  96233625.724 5     -1845.934          34.000
C23  22313769.711 8 116193648.026 8     -1352.469          51.000
C25  25952694.898 6 135142469.260 6     -3020.883          38.000
C28  22346623.070 8 116364765.054 8      2071.477          51.000
E03  27070128.852 5 142254486.794 5     -2128.133          35.000    27070142.680 5 109000228.874 5     -1630.510          32.000
E11  23843228.914 7 125296996.424 7      2244.746          46.000    23843229.039 8  96006777.262 8      1719.913          49.000
E12  23008567.906 6 120910839.997 6      -639.215          38.000    23008569.781 6  92645976.876 6      -489.653          38.000
E24  22698630.141 7 119282130.602 7     -1356.930          47.000    22698644.320 6  91398018.996 6     -1039.648          38.000
> 2020 05 10 10 26  0.0000000  0 17        .000000000000
G02  23023988.461 5 120991875.993 5      -786.723          31.000
G12  21203279.633 7 111424024.263 7     -1983.395          42.000    21203278.086 7  86823883.951 7     -1545.505          42.000
G24  23731082.406 7 124707649.285 7     -3564.289          45.000    23731085.680 7  97174789.735 7     -2777.368          45.000
G25  20163886.164 8 105961942.134 8      -243.000          51.000    20163888.188 8  82567752.612 8      -189.351          51.000
G29  20868671.328 8 109665632.436 8      1920.352          51.000    20868670.930 8  85453726.696 8      1496.378          51.000
G32  22738035.828 6 119489173.039 6     -1899.258          40.000    22738037.477 6  93108462.983 6     -1479.938          40.000
R16  19728536.102 7 105386278.577 7     -1204.168          45.000    19728539.125 7  81967122.059 7      -936.575          45.000
R18  19861368.141 8 106021355.437 8     -1595.844          51.000    19861371.406 7  82461077.765 7     -1241.212          47.000
R19  19952823.219 7 106734156.921 7      2563.078          42.000    19952824.609 6  83015464.117 6      1993.508          41.000
C11                                                                  23913330.312 5  96289105.619 5     -1853.996          35.000
C23  22321591.516 8 116234378.506 8     -1364.629          51.000
C25  25970110.297 6 135233147.354 6     -3025.727          40.000
C28  22334724.086 8 116302802.249 8      2057.848          51.000
E03  27082297.836 5 142318433.433 5     -2136.375          35.000
E11  23830441.586 7 125229802.667 7      2233.398          46.000    23830442.766 8  95955291.172 8      1711.141          49.000
E12  23012255.055 6 120930215.534 6      -654.383          37.000    23012254.688 6  92660823.107 6      -501.449          37.000
E24  22706389.875 7 119322908.197 7     -1363.395          44.000    22706401.570 5  91429264.194 5     -1044.712          35.000
> 2020 05 10 10 26 30.0000000  0 16        .000000000000
G12  21214627.547 7 111483656.891 7     -1990.762          43.000    21214625.461 7  86870350.950 7     -1551.240          43.000
G24  23751445.195 7 124814657.146 7     -3568.324          44.000    23751448.680 7  97258172.468 7     -2780.512          44.000
G25  20165307.172 8 105969410.035 8      -253.641          51.000    20165309.273 8  82573571.753 8      -197.642          51.000
G29  20857754.219 8 109608259.042 8      1905.688          51.000    20857753.594 8  85409020.187 8      1484.951          51.000
G32  22748922.383 6 119546382.367 6     -1913.172          39.000    22748926.266 6  93153041.655 6     -1490.786          39.000
R16  19735345.219 7 105422652.003 7     -1219.375          46.000    19735348.062 7  81995412.514 7      -948.406          45.000
R18  19870407.547 8 106069607.945 8     -1619.809          51.000    19870410.430 8  82498607.463 8     -1259.851          48.000
R19  19938515.828 7 106657620.070 7      2540.977          43.000    19938516.453 7  82955935.503 7      1976.315          42.000
C11                                                                  23927171.398 5  96344847.692 5     -1861.106          34.000
C23  22329487.648 8 116275495.701 8     -1375.289          51.000
C25  25987556.758 6 135323986.851 6     -3028.809          39.000
C28  22322907.961 8 116241271.472 8      2045.496          51.000
E03  27094519.664 5 142382650.790 5     -2143.043          34.000
E11  23817723.852 7 125162972.212 7      2223.074          47.000    23817725.203 8  95904083.425 8      1703.481          49.000
E12  23016033.109 6 120950068.609 6      -668.289          38.000    23016032.570 6  92676035.208 6      -511.886          38.000
E24  22714190.727 7 119363903.262 7     -1368.469          43.000    22714200.383 5  91460674.884 5     -1048.534          31.000
> 2020 05 10 10 27  0.0000000  0 16        .000000000000
G12  21226020.070 6 111543527.821 6     -2000.082          37.000    21226018.797 6  86917003.611 6     -1558.512          39.000
G24  23771834.453 7 124921804.201 7     -3574.852          43.000    23771838.016 7  97341663.624 7     -2785.599          43.000
G25  20166792.812 8 105977217.506 8      -266.902          51.000    20166794.867 8  82579655.497 8      -207.976          51.000
G29  20846923.805 8 109551342.897 8      1888.656          51.000    20846922.852 8  85364669.955 8      1471.680          51.000
G32  22759891.422 7 119604024.602 7     -1929.492          43.000    22759897.492 7  93197957.662 7     -1503.500          43.000
R16  19742243.727 7 105459502.669 7     -1237.133          46.000    19742246.703 7  82024074.121 7      -962.217          45.000
R18  19879584.680 8 106118596.666 8     -1646.133          51.000    19879587.953 8  82536709.810 8     -1280.326          48.000
R19  19924335.695 7 106581764.842 7      2516.293          42.000    19924336.102 7  82896937.028 7      1957.117          44.000
C11  23941068.539 5 124667397.213 5     -2418.105          30.000    23941053.312 5  96400720.492 5     -1870.174          31.000
C23  22337449.375 8 116316952.970 8     -1388.551          51.000
C25  26005024.508 6 135414940.299 6     -3034.469          38.000
C28  22311165.594 8 116180127.352 8      2030.766          50.000
E03  27106784.695 5 142447114.012 5     -2152.605          33.000
E11  23805067.336 8 125096459.521 8      2211.035          49.000    23805068.211 8  95853119.161 8      1694.155          50.000
E12  23019893.430 6 120970351.524 6      -683.805          36.000    23019894.898 6  92691576.688 6      -524.137          38.000
E24  22722024.594 7 119405068.934 7     -1375.949          42.000    22722030.758 5  91492202.336 5     -1054.173          32.000
> 2020 05 10 10 27 30.0000000  0 17        .000000000000
G02  23037900.352 5 121064991.580 5      -839.742          34.000
G12  21237456.039 6 111603627.858 6     -2010.039          38.000    21237455.523 6  86963834.724 6     -1566.267          38.000
G24  23792247.992 7 125029080.111 7     -3580.801          42.000    23792252.133 7  97425255.166 7     -2790.234          42.000
G25  20168341.445 8 105985355.670 8      -279.586          51.000    20168343.406 8  82585996.918 8      -217.859          51.000
G29  20836177.992 8 109494875.901 8      1872.031          50.000    20836177.336 8  85320669.698 8      1458.726          50.000
G32  22770940.555 7 119662088.323 7     -1945.270          42.000    22770947.453 7  93243202.102 7     -1515.794          42.000
R16  19749230.203 7 105496821.501 7     -1254.641          46.000    19749232.945 7  82053099.881 7      -975.832          44.000
R18  19888897.680 8 106168309.874 8     -1671.953          51.000    19888900.727 7  82575375.626 7     -1300.408          47.000
R19  19910281.703 6 106506584.489 6      2491.812          39.000    19910282.109 7  82838463.462 7      1938.076          44.000
C11  23955024.812 4 124740054.377 4     -2430.066          29.000
C23  22345474.789 8 116358741.375 8     -1401.223          51.000
C25  26022511.672 6 135505998.029 6     -3039.758          36.000
C28  22299495.672 8 116119362.222 8      2016.340          49.000
E03  27119088.906 5 142511770.260 5     -2160.707          35.000    27119090.844 5 109197350.137 5     -1655.840          30.000
E11  23792470.188 8 125030257.244 8      2199.031          50.000    23792470.250 8  95802392.741 8      1684.984          50.000
E12  23023833.102 5 120991054.609 5      -699.645          34.000    23023835.211 6  92707440.161 6      -536.486          36.000
E24  22729889.414 7 119446396.578 7     -1383.102          42.000    22729895.562 5  91523866.874 5     -1059.462          35.000
> 2020 05 10 10 28  0.0000000  0 17        .000000000000
G02  23042731.008 5 121090386.398 5      -854.910          30.000
G12  21248943.953 6 111663996.327 6     -2016.102          39.000    21248943.328 6  87010875.110 6     -1570.985          39.000
G24  23812693.180 6 125136523.296 6     -3583.691          39.000    23812698.523 6  97508977.044 6     -2792.493          39.000
G25  20169960.734 8 105993864.796 8      -289.234          51.000    20169962.664 8  82592627.396 8      -225.377          51.000
G29  20825525.117 8 109438899.269 8      1858.203          50.000    20825525.227 8  85277051.511 8      1447.950          50.000
G32  22782076.695 6 119720611.257 6     -1957.801          37.000    22782083.812 6  93288804.431 6     -1525.553          37.000
R16  19756311.914 7 105534650.065 7     -1268.730          46.000    19756314.469 7  82082522.063 7      -986.790          43.000
R18  19898353.375 8 106218785.614 8     -1694.613          51.000    19898356.680 7  82614634.542 7     -1318.033          47.000
R19  19896361.109 6 106432122.803 6      2470.891          36.000    19896362.156 7  82780548.803 7      1921.804          44.000
C11  23969042.914 4 124813089.205 4     -2437.699          29.000
C23  22353571.273 8 116400900.854 8     -1410.922          51.000
C25  26040025.812 6 135597199.121 6     -3041.781          37.000
C28  22287906.438 8 116059017.211 8      2005.051          50.000
E03  27131438.391 6 142576657.885 6     -2166.602          36.000
E11  23779940.109 8 124964407.285 8      2189.680          50.000    23779939.602 8  95751936.275 8      1677.815          50.000
E12  23027860.398 5 121012217.468 5      -712.055          35.000    23027860.930 5  92723655.862 5      -546.001          35.000
E24  22737792.242 6 119487926.566 6     -1386.957          41.000    22737801.266 6  91555688.554 6     -1062.694          40.000
> 2020 05 10 10 28 30.0000000  0 16        .000000000000
G12  21260472.469 6 111724580.764 6     -2022.844          39.000    21260472.234 6  87058083.752 6     -1576.242          39.000
G24  23833160.094 6 125244079.574 6     -3587.043          40.000    23833166.867 6  97592787.069 6     -2795.098          39.000
G25  20171640.711 8 106002692.750 8      -299.410          51.000    20171642.656 8  82599506.321 8      -233.310          51.000
G29  20814956.781 8 109383361.686 8      1843.992          51.000    20814956.961 8  85233775.484 8      1436.880          51.000
G32  22793290.359 6 119779538.784 6     -1970.906          39.000    22793296.453 6  93334722.075 6     -1535.771          39.000
R16  19763479.453 7 105572935.623 7     -1283.535          47.000    19763481.555 7  82112299.703 7      -998.305          43.000
R18  19907941.570 8 106269968.008 8     -1717.672          51.000    19907944.758 7  82654443.062 7     -1335.967          47.000
R19  19882564.914 6 106358329.560 6      2448.594          37.000    19882567.094 7  82723154.014 7      1904.462          43.000
C11                                                                  23983096.555 5  96570024.550 5     -1890.378          31.000
C23  22361728.930 8 116443379.565 8     -1421.102          51.000
C25  26057556.875 6 135688491.013 6     -3044.473          39.000
C28  22276388.789 8 115999041.839 8      1993.117          51.000
E03  27143822.875 6 142641739.891 6     -2172.652          36.000
E11  23767467.141 8 124898858.923 8      2179.902          50.000    23767466.266 8  95701710.907 8      1670.336          50.000
E12                                                                  23031965.164 6  92740183.410 6      -556.046          36.000
E24  22745723.273 6 119529607.103 6     -1391.727          40.000    22745735.422 7  91587625.587 7     -1066.418          43.000
> 2020 05 10 10 29  0.0000000  0 17        .000000000000
G12  21272044.023 6 111785391.698 6     -2032.035          39.000    21272044.141 6  87105468.893 6     -1583.404          40.000
G24  23853650.898 6 125351758.789 6     -3592.406          40.000    23853658.641 6  97676692.937 6     -2799.278          40.000
G25  20173383.547 8 106011850.820 8      -311.934          51.000    20173385.391 8  82606642.473 8      -243.065          51.000
G29  20804474.609 8 109328275.089 8      1827.449          51.000    20804474.336 8  85190850.927 8      1423.989          51.000
G32  22804583.172 7 119838879.843 7     -1986.062          42.000    22804588.203 7  93380961.807 7     -1547.584          42.000
R09  20743514.773 5 110769213.263 5      2818.746          35.000
R16  19770734.555 7 105611690.043 7     -1300.918          47.000    19770736.547 7  82142442.011 7     -1011.825          43.000
R18  19917663.656 8 106321865.622 8     -1743.062          51.000    19917666.883 7  82694807.874 7     -1355.715          47.000
R19  19868897.203 6 106285218.458 6      2424.375          40.000    19868899.891 7  82666289.846 7      1885.625          45.000
C11                                                                  23997223.609 5  96626868.514 5     -1898.963          32.000
C23  22369949.562 8 116486188.658 8     -1433.762          49.000
C25  26075107.328 6 135779883.958 6     -3049.266          40.000
C28  22264944.797 8 115939448.430 8      1978.824          51.000
E03  27156245.383 6 142707025.675 6     -2180.422          36.000
E11  23755053.797 8 124833624.978 8      2167.824          49.000    23755052.703 8  95651726.463 8      1661.114          49.000
E12                                                                  23036148.812 6  92757030.817 6      -567.848          36.000
E24  22753685.672 7 119571449.574 7     -1398.641          43.000    22753699.734 7  91619686.752 7     -1071.686          44.000
> 2020 05 10 10 29 30.0000000  0 18        .000000000000
G02  23057792.773 5 121169541.337 5      -906.559          32.000
G12  21283673.414 5 111846506.352 5     -2042.391          33.000    21283674.109 5  87153090.724 5     -1591.473          32.000
G24  23874179.570 6 125459636.629 6     -3599.203          40.000    23874187.992 6  97760753.543 6     -2804.574          40.000
G25  20175203.961 8 106021416.745 8      -325.816          51.000    20175205.750 8  82614096.436 8      -253.883          51.000
G29  20794093.328 8 109273718.316 8      1809.535          51.000    20794092.117 8  85148339.222 8      1410.027          51.000
G32  22815968.820 7 119898709.551 7     -2002.777          43.000    22815972.695 7  93427582.251 7     -1560.612          43.000
R09  20727695.828 4 110684737.979 4      2808.094          29.000
R16  19778092.125 7 105650992.406 7     -1319.379          47.000    19778094.250 7  82173010.506 7     -1026.184          44.000
R18  19927534.141 8 106374554.614 8     -1769.531          51.000    19927537.461 7  82735788.198 7     -1376.302          47.000
R19  19855373.219 6 106212871.623 6      2398.520          41.000    19855376.070 7  82610020.120 7      1865.515          46.000
C11                                                                  24011416.141 4  96683981.685 4     -1908.176          28.000
C23  22378248.281 8 116529405.096 8     -1447.512          49.000
C25  26092691.797 6 135871454.209 6     -3055.145          40.000
C28  22253589.250 8 115880315.216 8      1963.336          51.000
E03  27168719.836 5 142772586.122 5     -2190.160          33.000
E11  23742715.047 8 124768784.661 8      2154.762          49.000    23742713.766 8  95602043.654 8      1651.051          49.000
E12                                                                  23040426.578 6  92774257.056 6      -580.769          36.000
E24  22761693.922 7 119613532.003 7     -1406.750          44.000    22761708.883 7  91651931.775 7     -1078.022          45.000
> 2020 05 10 10 30  0.0000000  0 16        .000000000000
G12  21295344.031 6 111907790.219 6     -2048.246          37.000    21295342.391 6  87200866.142 6     -1596.036          37.000
G24  23894727.273 6 125567613.818 6     -3601.535          41.000    23894735.273 6  97844891.587 6     -2806.394          41.000
G25  20177083.375 8 106031292.878 8      -334.984          51.000    20177085.148 8  82621792.115 8      -261.027          51.000
G29  20783794.328 8 109219594.474 8      1796.281          51.000    20783792.609 8  85106164.812 8      1399.700          51.000
G32  22827428.055 7 119958927.508 7     -2014.254          42.000    22827431.453 7  93474505.284 7     -1569.548          42.000
R09  20711913.711 4 110600462.870 4      2802.656          29.000
R16  19785533.555 7 105690743.900 7     -1333.137          47.000    19785535.711 7  82203928.334 7     -1036.884          45.000
R18  19937533.797 8 106427933.179 8     -1791.289          51.000    19937536.758 8  82777304.840 8     -1393.228          48.000
R19  19841973.852 7 106141192.142 7      2377.527          42.000    19841976.797 7  82554269.461 7      1849.188          46.000
C11  24025650.523 5 125107865.864 5     -2474.516          30.000
C23  22386607.531 8 116572931.957 8     -1456.637          50.000
C25  26110292.023 6 135963104.074 6     -3056.684          40.000
C28  22242303.648 8 115821546.551 8      1952.320          51.000
E11  23730432.648 8 124704241.830 8      2146.102          49.000    23730431.297 8  95552588.791 8      1644.436          48.000
E12  23044803.445 5 121101259.228 5      -769.391          32.000    23044780.695 6  92791786.753 6      -589.689          36.000
E24  22769729.016 7 119655756.980 7     -1410.379          45.000    22769744.078 7  91684285.978 7     -1080.695          46.000
> 2020 05 10 10 30 30.0000000  0 16        .000000000000
G02  23068313.953 5 121224810.231 5      -937.883          30.000
G12  21307055.336 6 111969337.697 6     -2055.090          39.000    21307054.445 6  87248825.198 6     -1601.363          38.000
G24  23915298.281 6 125675711.714 6     -3604.816          41.000    23915304.648 6  97929123.658 6     -2808.951          41.000
G25  20179026.227 8 106041502.614 8      -345.758          51.000    20179027.953 8  82629747.755 8      -269.422          51.000
G29  20773581.742 8 109165927.804 8      1781.285          51.000    20773580.656 8  85064346.627 8      1388.014          51.000
G32  22838964.625 6 120019554.644 6     -2027.645          39.000    22838968.031 6  93521747.209 6     -1579.980          39.000
R16  19793063.727 8 105730968.622 8     -1348.668          48.000    19793066.219 7  82235214.225 7     -1048.964          45.000
R18  19947666.367 8 106482021.489 8     -1814.609          51.000    19947669.672 8  82819373.545 8     -1411.363          48.000
R19  19828704.117 6 106070206.472 6      2354.660          41.000    19828707.016 7  82499058.405 7      1831.405          45.000
C11  24039933.555 4 125182245.801 4     -2483.336          29.000    24039941.859 5  96798882.732 5     -1920.629          32.000
C23  22395030.812 8 116616792.405 8     -1467.445          51.000
C25  26127911.953 6 136054855.901 6     -3059.996          40.000
C28  22231092.539 8 115763166.777 8      1939.738          51.000
E11  23718211.586 8 124640021.394 8      2135.383          48.000    23718210.156 8  95503380.931 8      1636.256          48.000
E12                                                                  23049214.070 6  92809637.234 6      -600.123          36.000
E24  22777795.820 7 119698148.048 7     -1415.590          47.000    22777811.211 7  91716767.424 7     -1084.679          47.000
> 2020 05 10 10 31  0.0000000  0 15        .000000000000
G12  21318814.812 5 112031135.157 5     -2064.574          35.000    21318815.461 6  87296979.067 6     -1608.762          36.000
G24  23935896.188 6 125783950.437 6     -3610.367          41.000    23935900.445 7  98013465.458 7     -2813.273          42.000
G25  20181036.672 8 106052067.924 8      -358.219          51.000    20181038.414 8  82637980.456 8      -279.135          51.000
G29  20763460.352 8 109112741.082 8      1764.770          51.000    20763459.836 8  85022902.424 8      1375.145          51.000
G32  22850582.289 6 120080610.433 6     -2042.641          37.000    22850586.625 6  93569323.124 6     -1591.671          37.000
R16  19800686.625 8 105771688.890 8     -1365.695          48.000    19800689.117 7  82266885.557 7     -1062.207          45.000
R18  19957935.758 8 106536839.323 8     -1839.508          51.000    19957939.000 8  82862009.612 8     -1430.728          48.000
R19  19815567.789 6 105999939.323 6      2330.133          40.000    19815571.227 7  82444406.194 7      1812.326          45.000
C11                                                                  24054278.641 5  96856622.540 5     -1928.422          34.000
C23  22403522.094 8 116661008.079 8     -1479.809          51.000
C25  26145555.234 6 136146730.518 6     -3064.477          38.000
C28  22219960.336 8 115705198.784 8      1925.316          51.000
E11  23706056.422 8 124576146.797 8      2123.160          49.000    23706055.023 8  95454438.062 8      1626.879          48.000
E12                                                                  23053729.984 6  92827824.722 6      -611.859          37.000
E24  22785898.641 8 119740727.350 8     -1422.527          48.000    22785913.859 7  91749393.113 7     -1090.072          46.000
> 2020 05 10 10 31 30.0000000  0 17        .000000000000
G02  23079212.758 6 121282100.827 6      -970.363          36.000
G12  21330616.875 5 112093156.409 5     -2071.074          35.000    21330618.016 5  87345307.245 5     -1613.827          35.000
G24  23956515.828 7 125892302.561 7     -3613.531          42.000    23956518.273 6  98097895.632 6     -2815.742          41.000
G25  20183109.875 8 106062963.322 8      -368.598          51.000    20183111.750 8  82646470.373 8      -287.219          51.000
G29  20753425.891 8 109060009.831 8      1750.188          51.000    20753425.336 8  84981813.128 8      1363.782          51.000
G32  22862276.781 7 120142066.692 7     -2054.996          43.000    22862281.188 7  93617211.104 7     -1601.296          42.000
R16  19808397.523 8 105812879.373 8     -1380.844          48.000    19808399.906 7  82298922.589 7     -1073.993          45.000
R18  19968336.164 8 106592357.778 8     -1862.152          51.000    19968339.445 8  82905190.622 8     -1448.341          49.000
R19  19802561.484 6 105930367.357 6      2307.648          40.000    19802565.281 7  82390294.693 7      1794.841          45.000
C11                                                                  24068667.172 5  96914565.719 5     -1934.790          33.000
C23  22412076.781 8 116705553.562 8     -1490.215          51.000
C25  26163215.695 5 136238701.863 5     -3067.617          34.000
C28  22208902.344 8 115647618.402 8      1913.020          51.000
E11  23693962.844 8 124512594.017 8      2113.113          50.000    23693961.312 7  95405741.807 7      1619.246          47.000
E12  23058343.375 5 121172406.563 5      -811.887          35.000    23058324.914 6  92846329.106 6      -622.200          36.000
E24  22794032.344 8 119783469.602 8     -1427.430          48.000    22794047.031 7  91782143.656 7     -1093.637          45.000
E25  23762572.383 5 124873162.243 5       902.348          35.000    23762578.836 5  95682054.565 5       690.853          34.000
> 2020 05 10 10 32  0.0000000  0 16        .000000000000
G12  21342464.727 6 112155415.663 6     -2079.824          40.000    21342464.844 6  87393820.923 6     -1620.642          40.000
G24  23977159.266 7 126000781.206 7     -3618.707          42.000    23977161.586 7  98182424.386 7     -2819.775          42.000
G25  20185248.812 8 106074203.932 8      -381.395          51.000    20185250.742 8  82655229.296 8      -297.191          51.000
G29  20743481.000 8 109007749.694 8      1733.328          51.000    20743480.469 8  84941090.973 8      1350.648          51.000
G32  22874050.297 7 120203936.087 7     -2069.930          45.000    22874054.125 7  93665420.975 7     -1612.932          45.000
R16  19816199.344 8 105854555.505 8     -1398.188          48.000    19816201.828 7  82331337.330 7     -1087.479          45.000
R18  19978870.008 8 106648589.033 8     -1887.090          51.000    19978873.422 8  82948926.057 8     -1467.737          49.000
R19  19789689.195 7 105861508.274 7      2282.539          42.000    19789692.828 7  82336737.663 7      1775.311          45.000
C11                                                                  24083108.742 5  96972722.418 5     -1942.504          31.000
C23  22420697.344 8 116750443.783 8     -1502.875          51.000
C25  26180895.961 5 136330784.010 5     -3071.762          31.000
C28  22197921.758 8 115590441.773 8      1898.324          51.000
E11  23681934.031 8 124449379.651 8      2100.883          51.000    23681932.078 8  95357304.839 8      1609.684          48.000
E12  23063012.656 5 121196971.318 5      -827.020          34.000    23063001.492 6  92865161.365 6      -633.975          36.000
E24  22802199.836 7 119826390.225 7     -1434.449          46.000    22802214.805 7  91815030.873 7     -1099.222          45.000
E25                                                                  23757445.742 5  95661391.303 5       686.222          33.000
> 2020 05 10 10 32 30.0000000  0 17        .000000000000
G12  21354360.508 6 112217925.757 6     -2087.074          41.000    21354359.898 6  87442530.136 6     -1626.289          41.000
G24  23997829.102 6 126109399.007 6     -3622.172          41.000    23997831.805 6  98267061.556 6     -2822.472          41.000
G25  20187456.148 8 106085803.633 8      -391.859          51.000    20187458.250 8  82664268.014 8      -305.342          51.000
G29  20733628.555 8 108955975.819 8      1718.512          51.000    20733628.047 8  84900747.730 8      1339.103          51.000
G32  22885904.828 7 120266229.778 7     -2082.637          46.000    22885907.648 7  93713961.487 7     -1622.837          46.000
R16  19824094.852 7 105896731.740 7     -1413.367          46.000    19824096.977 7  82364141.046 7     -1099.286          44.000
R18  19989539.609 8 106705544.132 8     -1909.727          51.000    19989542.859 8  82993224.441 8     -1485.346          49.000
R19  19776953.516 7 105793378.739 7      2259.633          42.000    19776956.695 7  82283748.048 7      1757.495          45.000
C11                                                                  24097605.391 5  97031101.618 5     -1949.554          30.000
C23  22429386.648 8 116795692.266 8     -1513.496          51.000
C25  26198602.359 5 136422989.794 5     -3074.203          31.000
C28  22187021.719 8 115533683.689 8      1885.695          51.000
E03  27244366.242 5 143170110.901 5     -2228.816          33.000
E11  23669972.641 8 124386518.981 8      2090.234          51.000    23669970.656 7  95309138.900 7      1601.512          47.000
E12  23067762.180 5 121221912.830 5      -840.906          33.000    23067762.281 6  92884331.439 6      -644.154          36.000
E24  22810403.406 7 119869503.221 7     -1439.664          43.000    22810419.125 7  91848065.453 7     -1103.239          42.000
E25  23752343.203 5 124819403.621 5       889.863          34.000    23752347.312 5  95640869.886 5       682.229          33.000
> 2020 05 10 10 33  0.0000000  0 16        .000000000000
G12  21366296.016 6 112280644.939 6     -2094.258          38.000    21366294.820 6  87491402.139 6     -1631.895          38.000
G24  24018516.688 6 126218111.717 6     -3625.711          40.000    24018520.023 6  98351772.668 6     -2825.229          40.000
G25  20189723.797 8 106097720.065 8      -402.977          51.000    20189726.062 8  82673553.545 8      -314.008          51.000
G29  20723860.367 8 108904645.795 8      1703.066          51.000    20723859.883 8  84860750.335 8      1327.065          51.000
G32  22897831.461 8 120328902.825 8     -2095.773          48.000    22897833.992 7  93762797.575 7     -1633.070          47.000
R16  19832075.906 7 105939364.879 7     -1429.141          45.000    19832077.781 7  82397300.150 7     -1111.554          44.000
R18  20000336.016 8 106763176.911 8     -1932.770          51.000    20000339.523 8  83038049.952 8     -1503.265          49.000
R19  19764346.688 7 105725938.072 7      2236.125          42.000    19764349.602 7  82231294.215 7      1739.211          46.000
C23  22438136.695 8 116841256.908 8     -1524.398          51.000
C25  26216326.570 5 136515276.460 5     -3078.461          33.000
C28  22176194.680 8 115477303.270 8      1872.625          51.000
E03  27257110.148 5 143237076.316 5     -2235.105          34.000
E11  23658070.484 8 124323971.167 8      2079.152          51.000    23658068.344 7  95261212.662 7      1593.105          47.000
E12  23072593.984 5 121247317.078 5      -854.402          34.000    23072600.180 6  92903806.292 6      -654.717          37.000
E24  22818635.836 6 119912766.373 6     -1444.961          40.000    22818651.594 6  91881215.123 6     -1107.220          37.000
E25  23747274.883 5 124792770.862 5       885.465          33.000    23747275.805 5  95620458.410 5       677.949          33.000
> 2020 05 10 10 33 30.0000000  0 16        .000000000000
G12  21378277.008 5 112343604.382 5     -2102.316          33.000    21378275.031 5  87540461.412 5     -1638.169          32.000
G24  24039227.930 6 126326950.032 6     -3630.168          40.000    24039231.719 6  98436581.675 6     -2828.705          41.000
G25  20192058.078 8 106109986.521 8      -414.770          51.000    20192060.414 8  82683111.828 8      -323.197          51.000
G29  20714183.438 8 108853793.820 8      1687.125          51.000    20714182.945 8  84821125.413 8      1314.643          51.000
G32  22909836.156 8 120391985.895 8     -2109.617          48.000    22909838.586 8  93811953.172 8     -1643.861          48.000
R16  19840148.445 7 105982488.963 7     -1445.602          43.000    19840150.867 7  82430841.109 7     -1124.354          44.000
R18  20011265.344 8 106821518.083 8     -1956.438          51.000    20011268.711 8  83083426.393 8     -1521.674          49.000
R19  19751875.047 6 105659222.606 6      2211.609          41.000    19751877.906 7  82179404.445 7      1720.144          45.000
C23  22446953.812 8 116887170.638 8     -1536.219          51.000
C25  26234072.594 5 136607675.983 5     -3081.711          34.000
C28  22165446.859 8 115421334.599 8      1858.711          51.000
E03  27269889.750 5 143304242.528 5     -2242.945          32.000
E11  23646233.961 8 124261770.936 8      2067.461          51.000    23646231.758 7  95213552.771 7      1584.167          47.000
E12  23077510.219 5 121273139.578 5      -868.426          32.000    23077518.984 5  92923610.774 5      -665.447          35.000
E24  22826902.625 5 119956213.215 5     -1451.148          34.000    22826916.781 5  91914505.575 5     -1111.916          33.000
E25  23742239.141 5 124766308.659 5       879.027          33.000    23742239.367 6  95600182.908 6       673.499          36.000
> 2020 05 10 10 34  0.0000000  0 18        .000000000000
G12  21390302.633 6 112406796.597 6     -2109.949          38.000    21390299.852 6  87589702.096 6     -1644.110          39.000
G24  24059961.484 6 126435904.919 6     -3633.449          39.000    24059964.766 6  98521481.522 6     -2831.262          39.000
G25  20194457.539 8 106122595.327 8      -425.578          51.000    20194459.797 8  82692936.866 8      -331.619          51.000
G29  20704596.586 8 108803413.649 8      1671.906          51.000    20704596.281 8  84781868.135 8      1302.784          51.000
G32  22921916.914 8 120455468.645 8     -2122.395          48.000    22921919.461 8  93861420.202 8     -1653.817          48.000
R09  20587427.914 5 109935696.712 5      2736.672          30.000    20587425.930 4  85505548.291 4      2128.523          26.000
R16  19848311.453 7 106026096.766 7     -1461.141          44.000    19848314.469 7  82464758.305 7     -1136.443          44.000
R18  20022325.258 8 106880556.854 8     -1979.090          51.000    20022328.820 8  83129345.445 8     -1539.292          50.000
R19  19739537.406 7 105593226.721 7      2188.348          43.000    19739540.258 7  82128074.331 7      1702.048          45.000
C11  24141393.305 5 125710569.749 5     -2546.988          30.000
C23  22455836.695 8 116933425.613 8     -1547.059          51.000
C25  26251838.227 5 136700179.977 5     -3084.602          33.000
C28  22154776.711 8 115365771.118 8      1845.742          50.000
E03  27282709.570 5 143371606.650 5     -2248.820          33.000    27282722.992 5 109856198.086 5     -1722.886          35.000
E11  23634462.062 8 124199911.986 8      2056.711          49.000    23634460.008 7  95166154.409 7      1575.847          47.000
E12  23082508.141 5 121299399.781 5      -882.418          34.000    23082516.797 5  92943738.337 5      -675.911          35.000
E24  22835203.500 5 119999800.263 5     -1456.656          35.000    22835213.062 5  91947955.035 5     -1116.298          35.000
E25  23737236.422 5 124740018.055 5       873.297          33.000    23737236.719 6  95580038.157 6       669.655          36.000
> 2020 05 10 10 34 30.0000000  0 17        .000000000000
G12  21402370.125 5 112470209.510 5     -2117.961          33.000    21402368.164 5  87639114.772 5     -1650.362          34.000
G24  24080714.539 6 126544963.017 6     -3637.590          38.000    24080717.023 6  98606461.775 6     -2834.489          39.000
G25  20196920.031 8 106135535.182 8      -437.285          51.000    20196922.086 8  82703019.880 8      -340.742          51.000
G29  20695097.492 8 108753494.171 8      1655.855          51.000    20695097.219 8  84742969.860 8      1290.277          51.000
G32  22934070.922 7 120519337.150 7     -2135.781          47.000    22934073.719 7  93911187.823 7     -1664.248          47.000
R16  19856563.117 7 106070176.757 7     -1477.645          46.000    19856566.492 7  82499042.734 7     -1149.279          44.000
R18  20033513.188 8 106940278.368 8     -2002.520          51.000    20033516.773 8  83175795.519 8     -1557.515          50.000
R19  19727333.219 7 105527941.312 7      2163.895          43.000    19727335.359 7  82077296.800 7      1683.029          45.000
C11  24156090.375 5 125787102.743 5     -2555.633          31.000
C23  22464782.891 8 116980010.503 8     -1558.699          51.000
C25  26269621.258 5 136792776.206 5     -3088.934          31.000
C28  22144181.805 8 115310602.682 8      1831.977          48.000
E03  27295563.789 5 143439155.613 5     -2255.730          32.000    27295578.375 6 109907959.406 6     -1728.043          37.000
E11  23622752.875 8 124138384.466 8      2045.086          48.000    23622751.453 7  95119009.994 7      1566.999          47.000
E12  23087583.656 6 121326077.579 6      -896.797          36.000    23087593.812 5  92964179.755 5      -687.066          35.000
E24  22843537.000 6 120043588.580 6     -1462.773          41.000    22843544.969 6  91981507.073 6     -1120.826          39.000
E25                                                                  23732264.539 6  95560016.029 6       665.315          36.000
> 2020 05 10 10 35  0.0000000  0 17        .000000000000
G06  24473425.891 4 128608720.520 4     -2452.836          28.000
G12  21414483.047 5 112533867.465 5     -2125.859          32.000    21414482.578 5  87688715.976 5     -1656.517          32.000
G24  24101490.617 6 126654144.274 6     -3641.082          38.000    24101492.102 6  98691537.994 6     -2837.210          37.000
G25  20199449.516 8 106148827.543 8      -448.578          51.000    20199451.586 8  82713377.566 8      -349.541          51.000
G29  20685690.297 8 108704057.533 8      1640.168          51.000    20685689.883 8  84704447.823 8      1278.053          51.000
G32  22946301.781 7 120583610.206 7     -2148.801          47.000    22946304.266 7  93961270.700 7     -1674.393          47.000
R16  19864907.688 8 106114750.754 8     -1493.773          48.000    19864910.883 7  82533711.366 7     -1161.827          44.000
R18  20044832.406 8 107000701.337 8     -2025.480          51.000    20044835.812 8  83222791.160 8     -1575.374          50.000
R19  19715266.836 7 105463390.466 7      2139.691          43.000    19715267.969 7  82027090.611 7      1664.204          44.000
C11  24170839.273 4 125863907.085 4     -2564.133          29.000
C23  22473796.406 8 117026946.427 8     -1570.051          51.000
C28  22133667.328 8 115255851.636 8      1818.395          49.000
E03                                                                  27308472.602 6 109959876.602 6     -1732.811          36.000
E11  23611111.070 7 124077211.288 7      2033.543          47.000    23611110.273 8  95072137.079 8      1558.166          48.000
E12  23092742.359 5 121353179.367 5      -909.840          33.000    23092751.914 5  92984950.690 5      -697.479          34.000
E24  22851907.250 7 120087563.740 7     -1468.629          44.000    22851914.703 7  92015202.322 7     -1125.349          42.000
E25                                                                  23727327.164 6  95540133.603 6       660.709          36.000
> 2020 05 10 10 35 30.0000000  0 16        .000000000000
G02  23126588.461 6 121531022.340 6     -1102.969          39.000
G24  24122291.523 6 126763455.270 6     -3645.895          37.000    24122292.211 6  98776715.347 6     -2840.960          37.000
G25  20202047.641 8 106162480.951 8      -461.133          51.000    20202049.820 8  82724016.583 8      -359.321          51.000
G29  20676376.500 8 108655112.966 8      1623.316          51.000    20676376.148 8  84666309.195 8      1264.922          50.000
G32  22958610.711 7 120648293.676 7     -2162.871          46.000    22958612.789 7  94011673.375 7     -1685.354          46.000
R16  19873346.414 8 106159827.516 8     -1510.840          49.000    19873349.398 7  82568771.039 7     -1175.101          44.000
R18  20056284.242 8 107061831.345 8     -2049.391          51.000    20056287.680 8  83270336.720 8     -1593.970          50.000
R19  19703339.539 6 105399585.072 6      2114.672          41.000    19703339.664 7  81977464.186 7      1644.745          44.000
C11                                                                  24185643.734 5  97385565.792 5     -1990.398          31.000
C23  22482879.148 8 117074241.619 8     -1582.484          51.000
C28  22123235.094 8 115201527.420 8      1803.742          50.000
E03  27321392.281 5 143574885.419 5     -2269.055          35.000    27321406.000 5 110011954.760 5     -1738.716          35.000
E11  23599538.906 7 124016402.442 7      2020.840          47.000    23599539.258 8  95025543.310 8      1548.352          48.000
E12  23097984.688 5 121380725.047 5      -925.379          35.000    23097992.555 5  93006057.089 5      -708.961          35.000
E24  22860313.453 7 120131734.525 7     -1475.609          47.000    22860321.727 7  92049047.382 7     -1130.569          43.000
E25  23722421.969 5 124662168.515 5       855.543          31.000    23722426.383 6  95520397.930 6       655.702          36.000
> 2020 05 10 10 36  0.0000000  0 16        .000000000000
G02  23132928.508 6 121564352.131 6     -1118.570          38.000    23132902.273 5  94725390.563 5      -871.628          34.000
G24  24143113.922 6 126872879.403 6     -3648.797          37.000    24143114.797 6  98861980.820 6     -2843.221          37.000
G25  20204711.633 8 106176480.558 8      -472.102          51.000    20204713.867 8  82734925.368 8      -367.871          51.000
G29  20667153.180 8 108606646.177 8      1607.914          50.000    20667153.375 8  84628542.878 8      1252.920          50.000
G32  22970994.203 7 120713370.016 7     -2175.406          46.000    22970996.344 7  94062382.189 7     -1695.125          46.000
R16  19881876.539 8 106205392.191 8     -1526.531          48.000    19881879.117 7  82604210.195 7     -1187.302          43.000
R18  20067865.102 8 107123650.136 8     -2071.719          51.000    20067868.297 8  83318418.002 8     -1611.337          50.000
R19  19691548.984 6 105336512.178 6      2090.672          40.000    19691548.734 7  81928407.513 7      1626.078          44.000
C11                                                                  24200498.547 5  97445372.346 5     -1996.702          33.000
C23  22492028.219 8 117121881.175 8     -1593.324          51.000
C28  22112882.281 8 115147616.269 8      1790.457          51.000
E03  27334362.242 5 143643045.133 5     -2274.977          34.000    27334375.266 5 110064180.969 5     -1743.044          32.000
E11  23588033.656 7 123955944.435 7      2009.656          47.000    23588034.992 8  94979218.337 8      1539.986          49.000
E12  23103308.336 5 121408692.861 5      -939.180          33.000    23103315.102 5  93027486.888 5      -719.212          35.000
E24  22868753.531 7 120176086.216 7     -1481.152          47.000    22868763.172 7  92083031.128 7     -1134.864          43.000
E25                                                                  23717559.406 6  95500798.314 6       651.092          36.000
> 2020 05 10 10 36 30.0000000  0 16        .000000000000
G02  23139354.266 6 121598117.787 6     -1129.227          39.000    23139328.445 4  94751701.222 4      -879.917          29.000
G24  24163946.828 6 126982358.438 6     -3646.785          38.000    24163947.203 6  98947289.026 6     -2841.654          38.000
G25  20207430.844 8 106190770.216 8      -477.590          51.000    20207433.125 8  82746060.164 8      -372.145          51.000
G29  20658010.508 8 108558602.000 8      1598.016          50.000    20658010.875 8  84591105.887 8      1245.207          50.000
G32  22983441.102 7 120778780.381 7     -2182.434          45.000    22983443.195 7  94113351.299 7     -1700.598          45.000
R16  19890487.148 8 106251387.937 8     -1536.758          48.000    19890489.492 7  82639984.604 7     -1195.259          43.000
R18  20079563.625 8 107186097.315 8     -2088.266          50.000    20079566.742 8  83366988.015 8     -1624.207          50.000
R19  19679885.047 6 105274117.022 6      2072.070          41.000    19679884.680 7  81879877.945 7      1611.610          43.000
C11  24215378.984 4 126095805.092 4     -2585.129          29.000    24215393.688 5  97505336.133 5     -1998.246          32.000
C23  22501232.508 8 117169809.316 8     -1598.895          51.000
C28  22102598.312 8 115094063.595 8      1782.711          51.000
E03  27347358.805 5 143711340.046 5     -2275.148          35.000
E11  23576585.336 8 123895782.466 8      2004.129          48.000    23576586.727 8  94933120.227 8      1535.661          49.000
E12                                                                  23108707.141 5  93049196.415 5      -725.770          32.000
E24  22877216.875 7 120220562.925 7     -1481.082          47.000    22877226.711 7  92117110.676 7     -1134.885          42.000
E25                                                                  23712715.914 5  95481292.224 5       651.281          35.000
> 2020 05 10 10 37  0.0000000  0 17        .000000000000
G02  23145874.281 6 121632381.216 6     -1152.770          39.000    23145850.891 4  94778399.716 4      -898.286          28.000
G12  21463373.828 5 112790817.389 5     -2158.031          34.000
G24  24184802.688 6 127091954.961 6     -3657.449          41.000    24184801.516 6  99032688.884 6     -2849.960          41.000
G25  20210217.352 8 106205413.985 8      -496.445          51.000    20210219.742 8  82757470.888 8      -386.841          51.000
G29  20648960.117 7 108511044.806 7      1574.762          47.000    20648960.789 7  84554048.372 7      1227.087          47.000
G32  22995963.453 7 120844586.147 7     -2202.566          46.000    22995965.172 7  94164628.498 7     -1716.286          46.000
R16  19899190.625 7 106297879.830 7     -1560.492          47.000    19899192.617 7  82676144.952 7     -1213.716          43.000
R18  20091391.430 8 107249234.729 8     -2118.465          51.000    20091394.602 8  83416094.899 8     -1647.695          50.000
R19  19668359.414 6 105212466.811 6      2040.090          39.000    19668359.609 7  81831927.789 7      1586.740          43.000
C11  24230319.789 5 126173639.589 5     -2600.484          31.000    24230338.758 5  97565504.928 5     -2010.878          32.000
C23  22510504.156 8 117218089.266 8     -1617.621          51.000
C28  22092395.445 8 115040933.894 8      1761.496          51.000
E03  27360393.773 6 143779832.308 6     -2288.832          37.000    27360405.023 5 110169008.873 5     -1753.873          33.000
E11  23565206.180 8 123835981.995 8      1985.105          49.000    23565206.977 8  94887299.110 8      1520.992          49.000
E12  23114178.773 5 121465830.326 5      -967.836          33.000    23114180.062 5  93071233.989 5      -741.586          33.000
E24  22885716.148 8 120265228.902 8     -1494.406          48.000    22885726.984 7  92151335.258 7     -1145.050          42.000
E25                                                                  23707908.945 6  95461929.412 6       641.203          36.000
> 2020 05 10 10 37 30.0000000  0 17        .000000000000
G02  23152493.070 5 121667163.651 5     -1167.059          33.000
G12  21475707.594 5 112855636.271 5     -2163.730          35.000    21475705.914 5  87939430.872 5     -1686.030          35.000
G24  24205685.219 7 127201688.402 7     -3659.145          42.000    24205683.820 6  99118195.364 6     -2851.284          41.000
G25  20213075.414 8 106220433.559 8      -505.805          51.000    20213077.789 8  82769174.444 8      -394.134          51.000
G29  20640006.531 7 108463996.969 7      1560.848          47.000    20640007.297 7  84517387.743 7      1216.245          47.000
G32  23008564.898 7 120910806.327 7     -2213.207          47.000    23008565.898 7  94216228.622 7     -1724.577          47.000
R16  19907990.906 7 106344889.906 7     -1574.539          46.000    19907992.727 7  82712708.332 7     -1224.641          43.000
R18  20103351.812 8 107313081.013 8     -2138.980          48.000    20103354.977 8  83465753.124 8     -1663.648          50.000
R19  19656977.523 6 105151585.971 6      2017.520          40.000    19656978.703 7  81784576.057 7      1569.185          43.000
C11  24245319.836 5 126251735.495 5     -2607.254          32.000    24245336.828 5  97625893.546 5     -2015.762          31.000
C23  22519847.234 8 117266742.341 8     -1626.926          51.000
C28  22082277.797 8 114988249.620 8      1749.738          51.000
E03  27373470.461 5 143848541.710 5     -2292.973          35.000    27373479.547 5 110221659.292 5     -1757.094          32.000
E11  23553900.352 8 123776566.188 8      1974.930          49.000    23553900.461 8  94841772.740 8      1513.273          49.000
E12  23119737.406 5 121495040.232 5      -980.496          33.000    23119738.406 5  93093605.510 5      -750.798          31.000
E24  22894255.578 7 120310106.017 7     -1498.410          45.000    22894267.977 7  92185721.607 7     -1148.234          43.000
E25  23703132.789 5 124560802.655 5       832.234          33.000    23703142.852 6  95442727.068 6       638.099          36.000
> 2020 05 10 10 38  0.0000000  0 17        .000000000000
G02  23159206.695 6 121702445.998 6     -1189.637          36.000
G12  21488086.562 6 112920698.947 6     -2178.344          37.000    21488087.930 6  87990128.995 6     -1697.414          37.000
G24  24226590.094 6 127311539.474 6     -3669.277          41.000    24226589.992 6  99203793.453 6     -2859.180          41.000
G25  20216001.617 8 106235810.855 8      -524.160          51.000    20216003.898 8  82781156.748 8      -408.436          51.000
G29  20631147.328 8 108417441.473 8      1537.938          49.000    20631147.641 8  84481110.721 8      1198.393          49.000
G32  23021241.312 7 120977420.165 7     -2232.625          46.000    23021241.898 7  94268135.477 7     -1739.708          47.000
R16  19916884.820 7 106392399.898 7     -1597.695          45.000    19916886.891 7  82749660.530 7     -1242.652          45.000
R18  20115441.148 8 107377614.636 8     -2168.379          50.000    20115444.477 8  83515945.946 8     -1686.517          50.000
R19  19645736.797 6 105091458.053 6      1986.051          39.000    19645738.484 7  81737809.905 7      1544.706          43.000
C11  24260371.391 5 126330095.918 5     -2621.754          31.000    24260386.031 5  97686486.823 5     -2027.406          30.000
C23  22529258.586 8 117315750.463 8     -1645.105          51.000
C28  22072242.328 8 114935993.905 8      1729.070          51.000
E03  27386585.648 6 143917448.262 6     -2305.715          37.000    27386591.352 5 110274457.738 5     -1766.588          32.000
E11  23542664.383 8 123717518.279 8      1956.281          49.000    23542663.891 8  94796528.262 8      1499.023          49.000
E12  23125377.023 5 121524676.120 5     -1000.566          32.000
E24  22902831.711 7 120355176.462 7     -1511.133          44.000    22902844.883 6  92220256.074 6     -1157.959          41.000
E25  23698401.844 5 124535941.093 5       820.277          34.000    23698412.406 5  95423671.945 5       628.461          34.000
> 2020 05 10 10 38 30.0000000  0 16        .000000000000
G02  23166014.883 5 121738224.840 5     -1200.988          33.000
G12  21500513.672 5 112986001.869 5     -2180.156          32.000    21500514.516 5  88041014.341 5     -1698.826          31.000
G24  24247516.273 6 127421503.292 6     -3667.168          40.000    24247517.586 6  99289479.430 6     -2857.537          40.000
G25  20218995.516 8 106251543.541 8      -530.078          51.000    20218997.648 8  82793415.982 8      -413.048          51.000
G29  20622381.406 8 108371376.107 8      1527.711          50.000    20622382.008 8  84445215.653 8      1190.424          50.000
G32  23033991.367 7 121044422.555 7     -2239.531          46.000    23033992.320 7  94320345.085 7     -1745.089          46.000
R16  19925871.828 7 106440407.590 7     -1608.324          46.000    19925874.094 7  82786999.836 7     -1250.919          45.000
R18  20127658.133 7 107442829.640 7     -2184.906          47.000    20127661.484 8  83566668.713 8     -1699.372          49.000
R19  19634636.633 6 105032082.400 6      1966.770          39.000    19634638.789 7  81691628.874 7      1529.710          42.000
C11  24275472.164 5 126408716.605 5     -2625.254          33.000    24275485.211 5  97747315.268 5     -2029.650          31.000
C23  22538737.680 8 117365111.039 8     -1650.918          51.000
C28  22062288.789 8 114884165.297 8      1720.762          51.000
E03  27399737.680 5 143986547.655 5     -2306.113          35.000    27399739.414 5 110327398.958 5     -1766.726          30.000
E11  23531498.133 8 123658837.248 8      1950.188          50.000    23531496.883 8  94751564.897 8      1494.368          48.000
E24  22911443.867 6 120400438.029 6     -1511.641          41.000    22911458.367 6  92254937.001 6     -1158.156          39.000
E25  23693705.977 5 124511265.258 5       819.418          34.000    23693717.438 5  95404762.875 5       628.339          34.000
> 2020 05 10 10 39  0.0000000  0 15        .000000000000
G12  21512968.602 6 113051452.379 6     -2190.301          38.000    21512969.453 6  88092014.812 6     -1706.722          39.000
G24  24268445.945 6 127531486.227 6     -3672.582          37.000    24268448.242 6  99375180.364 6     -2861.755          36.000
G25  20222039.508 8 106267539.389 8      -543.848          51.000    20222041.461 8  82805880.279 8      -423.777          51.000
G29  20613691.664 8 108325709.225 8      1509.352          51.000    20613692.445 8  84409631.077 8      1176.118          51.000
G32  23046797.242 7 121111718.503 7     -2254.293          47.000    23046798.867 7  94372783.466 7     -1756.592          47.000
R16  19934934.578 7 106488819.153 7     -1626.918          45.000    19934937.086 7  82824653.261 7     -1265.381          46.000
R18  20139984.656 7 107508629.467 7     -2209.617          47.000    20139987.844 8  83617846.356 8     -1718.591          49.000
R19  19623660.719 6 104973367.426 6      1939.555          40.000    19623662.344 7  81645961.694 7      1508.543          42.000
C11  24290603.719 5 126487504.135 5     -2635.035          34.000    24290616.398 5  97808238.795 5     -2038.011          30.000
C23  22548267.195 8 117414732.533 8     -1664.656          51.000
C28  22052400.156 8 114832673.415 8      1704.496          51.000
E03  27412908.531 5 144055797.876 5     -2314.398          34.000
E11  23520384.227 8 123600432.261 8      1936.148          50.000    23520382.578 8  94706813.056 8      1483.596          49.000
E24  22920073.352 6 120445798.664 6     -1520.000          37.000    22920090.445 6  92289693.838 6     -1164.508          38.000
E25  23689028.602 5 124486685.517 5       810.973          33.000    23689040.312 5  95385948.903 5       621.481          33.000
> 2020 05 10 10 39 30.0000000  0 15        .000000000000
G12  21525479.609 5 113117201.951 5     -2192.969          33.000    21525480.961 5  88143248.259 5     -1708.807          32.000
G24  24289407.641 5 127641638.365 5     -3671.531          32.000    24289410.266 5  99461013.135 5     -2860.933          33.000
G25  20225162.492 8 106283950.339 8      -550.496          51.000    20225164.188 8  82818668.030 8      -428.958          51.000
G29  20605107.094 8 108280593.396 8      1498.137          51.000    20605107.391 8  84374475.882 8      1167.379          51.000
G32  23059687.414 7 121179457.265 7     -2261.820          47.000    23059689.703 7  94425566.903 7     -1762.457          47.000
R16  19944101.594 7 106537789.244 7     -1637.992          45.000    19944104.719 7  82862741.096 7     -1273.994          45.000
R18  20152448.938 7 107575164.668 7     -2226.488          46.000    20152452.391 8  83669595.971 8     -1731.713          48.000
R19  19612837.773 6 104915470.036 6      1919.898          41.000    19612839.047 7  81600930.437 7      1493.257          43.000
C11  24305795.367 5 126566607.117 5     -2638.609          34.000
C23  22557875.602 8 117464765.174 8     -1671.176          51.000
C28  22042605.383 8 114781669.742 8      1695.410          51.000
E03  27426128.570 6 144125244.863 6     -2315.633          36.000
E11  23509351.852 8 123542456.616 8      1928.926          50.000    23509349.992 8  94662390.191 8      1477.957          49.000
E24  22928751.898 6 120491410.678 6     -1521.035          38.000    22928769.906 6  92324643.252 6     -1165.471          38.000
E25  23684399.469 5 124462357.713 5       810.023          35.000    23684408.344 5  95367305.883 5       620.676          35.000
> 2020 05 10 10 40  0.0000000  0 14        .000000000000
G24  24310372.906 5 127751812.357 5     -3682.215          33.000    24310375.969 5  99546862.899 5     -2869.258          31.000
G25  20228336.789 8 106300631.025 8      -570.551          51.000    20228338.273 8  82831665.965 8      -444.585          51.000
G29  20596599.461 8 108235884.036 8      1473.492          50.000    20596599.602 8  84339637.428 8      1148.179          50.000
G32  23072633.883 7 121247490.733 7     -2282.621          47.000    23072636.172 7  94478579.967 7     -1778.666          47.000
R16  19953345.758 7 106587169.808 7     -1662.996          44.000    19953348.891 7  82901148.237 7     -1293.441          44.000
R18  20165022.484 7 107642284.493 7     -2257.125          45.000    20165026.172 7  83721800.290 7     -1755.542          47.000
R19  19602139.961 6 104858243.749 6      1886.047          40.000    19602141.297 7  81556421.125 7      1466.925          44.000
C11  24321019.164 5 126645928.962 5     -2655.102          30.000
C23  22567535.078 8 117515064.725 8     -1691.035          51.000
C28  22032876.844 8 114731011.159 8      1672.797          51.000
E03  27439367.461 5 144194793.295 5     -2329.969          35.000    27439375.367 5 110486981.067 5     -1785.319          33.000
E11  23498373.758 8 123484766.269 8      1907.871          51.000    23498372.070 8  94618185.935 8      1461.944          49.000
E24  22937453.016 7 120537128.886 7     -1535.965          42.000    22937468.953 6  92359674.034 6     -1176.848          39.000
E25  23679791.562 6 124438138.191 6       795.465          38.000    23679797.766 6  95348748.051 6       609.425          38.000
> 2020 05 10 10 40 30.0000000  0 16        .000000000000
G12  21550614.984 5 113249268.179 5     -2204.648          35.000    21550612.398 5  88246157.310 5     -1717.905          34.000
G24  24331363.430 5 127862116.452 5     -3674.168          35.000    24331366.227 5  99632814.152 5     -2862.988          35.000
G25  20231583.359 8 106317692.044 8      -570.043          51.000    20231584.773 8  82844960.254 8      -444.189          51.000
G29  20588190.062 8 108191692.018 8      1469.367          51.000    20588190.453 8  84305202.079 8      1144.958          51.000
G32  23085656.938 8 121315926.759 8     -2282.945          48.000    23085659.133 8  94531906.689 8     -1778.921          48.000
R16  19962687.680 7 106637073.366 7     -1667.137          44.000    19962691.000 7  82939962.114 7     -1296.662          43.000
R18  20177726.258 7 107710097.734 7     -2266.945          44.000    20177729.961 7  83774543.962 7     -1763.177          46.000
R19  19591589.023 6 104801803.450 6      1873.316          40.000    19591590.336 7  81512523.129 7      1457.024          44.000
C11                                                                  24336290.531 4  97992153.856 4     -2049.810          29.000
C23  22577266.469 8 117565740.532 8     -1690.586          51.000
C28  22023235.961 8 114680808.165 8      1670.703          51.000
E03                                                                  27452649.922 6 110540432.420 6     -1780.623          36.000
E11  23487471.172 8 123427473.155 8      1908.004          50.000    23487469.594 8  94574286.050 8      1461.935          49.000
E12  23154757.711 5 121679069.714 5     -1058.168          33.000
E24  22946195.250 7 120583064.008 7     -1529.871          44.000    22946209.141 6  92394871.121 6     -1172.323          39.000
E25  23675225.164 6 124414137.430 6       801.133          38.000    23675230.188 6  95330357.817 6       613.948          40.000
> 2020 05 10 10 41  0.0000000  0 16        .000000000000
G12  21563245.680 5 113315655.864 5     -2216.773          31.000    21563247.086 4  88297905.566 4     -1727.341          29.000
G24  24352371.844 6 127972515.985 6     -3681.723          36.000    24352374.789 6  99718839.652 6     -2868.878          36.000
G25  20234895.797 8 106335099.542 8      -586.281          51.000    20234897.250 8  82858524.532 8      -456.843          51.000
G29  20579872.984 8 108147984.202 8      1448.645          51.000    20579873.242 8  84271144.021 8      1128.814          51.000
G32  23098749.500 7 121384728.660 7     -2299.762          47.000    23098751.867 7  94585518.510 7     -1792.025          47.000
R16  19972121.211 7 106687465.448 7     -1688.133          46.000    19972124.336 7  82979155.929 7     -1312.992          43.000
R18  20190552.844 7 107778566.668 7     -2293.469          45.000    20190556.312 7  83827797.557 7     -1783.809          45.000
R19  19581179.250 7 104746116.363 7      1843.508          42.000    19581180.328 7  81469210.942 7      1433.839          45.000
C11                                                                  24351615.680 5  98053853.396 5     -2059.587          31.000
C23  22587063.820 8 117616758.744 8     -1706.551          51.000
C28  22013676.430 8 114631028.110 8      1652.020          51.000
E03  27465958.383 5 144334584.910 5     -2333.918          30.000    27465957.672 6 110594017.433 6     -1788.641          36.000
E11  23476637.789 8 123370544.768 8      1891.434          50.000    23476636.625 8  94530665.629 8      1449.283          50.000
E12  23160865.484 5 121711155.503 5     -1076.840          34.000
E24  22954971.984 7 120629182.479 7     -1540.590          44.000    22954984.945 6  92430208.601 6     -1180.425          41.000
E25  23670693.875 6 124390322.236 6       790.500          40.000    23670698.055 6  95312109.891 6       605.732          41.000
> 2020 05 10 10 41 30.0000000  0 14        .000000000000
G24  24373396.938 6 128083002.256 6     -3684.652          38.000    24373399.109 6  99804932.798 6     -2871.161          38.000
G25  20238272.938 8 106352847.049 8      -597.590          51.000    20238274.430 8  82872353.750 8      -465.654          51.000
G29  20571646.750 8 108104754.913 8      1432.652          51.000    20571646.656 8  84237458.888 8      1116.352          51.000
G32  23111909.766 7 121453887.195 7     -2311.598          47.000    23111912.633 7  94639408.251 7     -1801.245          47.000
R16  19981645.117 7 106738339.799 7     -1704.074          47.000    19981648.094 7  83018724.842 7     -1325.394          43.000
R18  20203500.242 7 107847681.237 7     -2314.902          43.000    20203503.461 7  83881553.365 7     -1800.480          45.000
R19  19570909.547 6 104691177.866 6      1818.387          41.000    19570910.406 7  81426480.982 7      1414.301          45.000
C11                                                                  24366983.875 5  98115733.250 5     -2065.879          33.000
C23  22596925.914 8 117668112.763 8     -1717.719          51.000
C28  22004197.062 8 114581665.439 8      1638.117          51.000
E03                                                                  27479295.977 5 110647729.626 5     -1792.670          35.000
E11  23465872.734 8 123313975.913 8      1879.391          49.000    23465872.273 8  94487320.685 8      1440.047          51.000
E24  22963782.258 7 120675477.987 7     -1546.516          45.000    22963794.234 6  92465681.747 6     -1185.055          40.000
E25  23666196.297 6 124366687.131 6       784.332          39.000    23666199.734 6  95293999.843 6       601.065          41.000
> 2020 05 10 10 42  0.0000000  0 15        .000000000000
G02  23216160.492 6 122001777.835 6     -1314.348          36.000
G24  24394452.891 6 128193647.513 6     -3690.387          38.000    24394453.055 6  99891149.747 6     -2875.632          38.000
G25  20241728.992 8 106371008.515 8      -611.625          51.000    20241730.359 8  82886505.540 8      -476.591          51.000
G29  20563525.539 8 108062078.067 8      1413.965          51.000    20563524.742 8  84204204.241 8      1101.791          51.000
G32  23125151.125 7 121523473.569 7     -2326.078          46.000    23125154.766 7  94693631.394 7     -1812.528          46.000
R16  19991273.281 7 106789771.178 7     -1723.023          47.000    19991276.336 7  83058726.994 7     -1340.132          43.000
R18  20216582.477 7 107917513.359 7     -2338.953          45.000    20216585.320 7  83935867.240 7     -1819.186          44.000
R19  19560794.055 6 104637064.913 6      1790.523          41.000    19560794.758 7  81384393.154 7      1392.629          44.000
C11                                                                  24382409.180 5  98177848.605 5     -2073.817          33.000
C23  22606866.961 8 117719875.588 8     -1731.574          51.000
C28  21994811.852 8 114532794.396 8      1621.449          51.000
E03                                                                  27492678.695 5 110701624.212 5     -1799.117          35.000
E11  23455190.336 8 123257841.875 8      1864.453          48.000    23455190.547 8  94444308.920 8      1428.595          51.000
E24  22972640.031 7 120722024.697 7     -1555.016          45.000    22972651.234 6  92501347.367 6     -1191.485          39.000
E25  23661746.727 6 124343306.873 6       775.863          38.000    23661749.469 6  95276085.113 6       594.337          41.000
> 2020 05 10 10 42 30.0000000  0 15        .000000000000
G02  23223689.133 5 122041335.232 5     -1326.285          32.000
G24  24415509.555 5 128304295.826 5     -3690.566          35.000    24415507.586 5  99977369.040 5     -2875.772          35.000
G25  20245234.578 8 106389430.034 8      -620.699          51.000    20245235.750 8  82900859.967 8      -483.662          51.000
G29  20555480.242 8 108019800.306 8      1400.270          51.000    20555479.047 8  84171260.569 8      1091.122          51.000
G32  23138444.258 7 121593331.080 7     -2335.355          47.000    23138448.102 7  94748065.796 7     -1819.758          47.000
R16  20000976.359 7 106841603.024 7     -1736.648          46.000    20000979.164 7  83099040.644 7     -1350.727          44.000
R18  20229768.789 7 107987902.786 7     -2357.910          44.000    20229771.375 7  83990614.608 7     -1833.927          42.000
R19  19550803.750 6 104583622.513 6      1768.078          41.000    19550803.828 7  81342826.856 7      1375.172          43.000
C11  24397863.766 5 127046060.605 5     -2686.672          30.000    24397863.445 5  98240080.032 5     -2078.354          32.000
C23  22616857.070 8 117771894.409 8     -1740.438          51.000
C28  21985491.570 8 114484263.267 8      1609.801          51.000
E03                                                                  27506077.453 5 110755581.776 5     -1801.275          33.000
E11  23444561.672 7 123201990.037 7      1854.562          47.000    23444562.391 8  94401513.375 8      1421.133          51.000
E24  22981516.289 7 120768668.928 7     -1558.676          44.000    22981526.922 6  92537087.679 6     -1194.184          38.000
E25  23657316.250 6 124320028.244 6       771.891          41.000    23657318.492 6  95258248.275 6       591.440          38.000
> 2020 05 10 10 43  0.0000000  0 15        .000000000000
G02  23231311.508 6 122081391.453 6     -1343.023          36.000
G24  24436586.219 6 128415052.408 6     -3692.930          36.000    24436582.430 6 100063672.708 6     -2877.614          36.000
G25  20248810.086 8 106408219.129 8      -631.734          51.000    20248811.117 8  82915500.824 8      -492.261          51.000
G29  20547531.359 8 107978029.615 8      1384.598          51.000    20547530.648 8  84138712.025 8      1078.907          51.000
G32  23151809.297 8 121663564.545 8     -2346.738          48.000    23151812.945 8  94802793.131 8     -1828.627          48.000
R16  20010774.836 7 106893945.045 7     -1752.453          46.000    20010777.562 7  83139751.082 7     -1363.019          44.000
R18  20243079.523 7 108058955.733 7     -2378.730          44.000    20243081.766 6  84045877.989 6     -1850.124          41.000
R19  19540959.211 6 104530962.362 6      1743.000          40.000    19540959.242 7  81301868.982 7      1355.667          44.000
C11  24413367.602 5 127126794.200 5     -2694.582          32.000    24413366.641 5  98302508.325 5     -2083.586          31.000
C23  22626916.664 8 117824275.540 8     -1751.316          51.000
C28  21976256.859 8 114436179.480 8      1596.141          50.000
E03                                                                  27519511.531 5 110809683.346 5     -1805.169          35.000
E11  23434007.602 8 123146529.155 8      1843.023          48.000    23434008.711 8  94359017.406 8      1412.196          51.000
E24  22990431.836 7 120815518.368 7     -1564.250          44.000    22990440.164 6  92572985.226 6     -1198.339          36.000
E25  23652926.148 7 124296959.728 7       766.082          42.000    23652927.609 6  95240572.378 6       587.007          38.000
> 2020 05 10 10 43 30.0000000  0 15        .000000000000
G12  21627067.469 5 113650971.125 5     -2253.582          35.000    21627056.297 5  88559187.730 5     -1756.032          35.000
G24  24457660.148 6 128525800.182 6     -3695.949          36.000    24457656.867 6 100149969.555 6     -2879.963          36.000
G25  20252433.516 8 106427259.742 8      -643.102          51.000    20252434.578 8  82930337.665 8      -501.118          51.000
G29  20539657.164 8 107936650.775 8      1368.586          51.000    20539656.594 8  84106468.767 8      1066.431          51.000
G32  23165223.312 7 121734055.008 7     -2358.168          46.000    23165226.859 7  94857720.713 7     -1837.537          47.000
R16  20020646.930 7 106946678.856 7     -1768.605          47.000    20020649.227 7  83180766.260 7     -1375.582          44.000
R18  20256491.594 7 108130550.437 7     -2399.785          42.000    20256494.289 6  84101562.826 6     -1866.497          39.000
R19  19531239.078 6 104478967.543 6      1717.664          40.000    19531239.594 7  81261428.608 7      1335.964          44.000
C11  24428898.312 5 127207665.446 5     -2702.367          31.000    24428896.688 5  98365043.137 5     -2089.291          34.000
C23  22637023.500 8 117876903.612 8     -1762.590          51.000
C28  21967086.258 8 114388428.878 8      1581.867          50.000
E03                                                                  27532958.953 6 110863838.332 6     -1809.108          37.000
E11  23423506.203 7 123091344.475 7      1830.914          47.000    23423507.195 8  94316733.070 8      1402.842          50.000
E24  22999364.117 6 120862457.183 6     -1570.332          41.000    22999371.148 6  92608951.324 6     -1203.328          37.000
E25  23648554.516 6 124273985.965 6       760.008          41.000    23648555.180 6  95222969.154 6       582.445          39.000
> 2020 05 10 10 44  0.0000000  0 15        .000000000000
G02  23246823.141 5 122162879.941 5     -1368.141          31.000
G24  24478777.742 6 128636778.463 6     -3692.105          37.000    24478774.844 5 100236446.064 5     -2876.968          35.000
G25  20256150.789 8 106446793.470 8      -648.863          51.000    20256151.922 8  82945558.760 8      -505.608          51.000
G29  20531903.680 8 107895905.786 8      1357.980          51.000    20531902.820 8  84074719.393 8      1058.167          51.000
G32  23178731.562 7 121805041.308 7     -2364.023          47.000    23178735.328 7  94913034.670 7     -1842.096          47.000
R16  20030638.141 7 107000049.843 7     -1778.879          46.000    20030640.469 7  83222276.993 7     -1383.572          43.000
R18  20270050.984 7 108202929.057 7     -2415.094          46.000    20270053.414 5  84157857.282 5     -1878.409          35.000
R19  19521689.305 6 104427885.716 6      1698.145          40.000    19521690.680 7  81221698.329 7      1320.779          44.000
C11                                                                  24444498.672 5  98427868.012 5     -2090.744          34.000
C23  22647223.484 8 117930017.809 8     -1768.211          51.000
C28  21958026.398 8 114341251.703 8      1573.363          51.000
E03  27546465.531 5 144757652.307 5     -2360.910          35.000    27546467.781 6 110918230.524 6     -1808.794          38.000
E11  23413103.766 7 123036678.955 7      1823.980          47.000    23413104.484 8  94274846.509 8      1397.667          49.000
E24  23008358.820 6 120909727.215 6     -1570.758          41.000    23008367.062 6  92645171.134 6     -1203.418          39.000
E25  23644247.195 6 124251349.490 6       759.492          41.000    23644247.523 6  95205624.320 6       582.044          39.000
> 2020 05 10 10 44 30.0000000  0 16        .000000000000
G12  21652884.688 6 113786656.325 6     -2268.359          39.000    21652874.148 6  88664907.758 6     -1767.544          39.000
G24  24499886.156 6 128747706.922 6     -3701.238          36.000    24499883.117 5 100322883.718 5     -2884.091          35.000
G25  20259908.781 8 106466541.519 8      -665.859          51.000    20259910.016 8  82960946.838 8      -518.851          51.000
G29  20524217.875 8 107855515.837 8      1336.707          51.000    20524217.148 8  84043246.727 8      1041.590          51.000
G32  23192280.617 7 121876241.765 7     -2380.773          46.000    23192284.914 7  94968515.512 7     -1855.148          46.000
R09  20276051.688 5 108273006.098 5      2535.496          33.000
R16  20040695.719 7 107053774.193 7     -1800.516          46.000    20040697.875 7  83264062.581 7     -1400.401          43.000
R18  20283703.336 7 108275804.913 7     -2441.293          45.000    20283705.383 5  84214538.424 5     -1898.786          34.000
R19  19512257.734 6 104377434.943 6      1667.266          39.000    19512259.555 7  81182458.837 7      1296.762          45.000
C11                                                                  24460120.180 5  98490767.874 5     -2100.576          34.000
C23  22657463.539 8 117983341.485 8     -1784.730          51.000
C28  21949024.062 8 114294372.472 8      1553.945          51.000
E03  27559977.422 6 144828660.556 6     -2371.344          36.000    27559983.156 6 110972644.823 6     -1817.028          39.000
E11  23402747.484 8 122982254.991 8      1806.227          48.000    23402747.000 8  94233145.042 8      1383.983          48.000
E24  23017363.719 6 120957049.769 6     -1582.137          41.000    23017374.875 6  92681431.285 6     -1212.254          41.000
E25  23639950.664 7 124228772.305 7       747.902          42.000    23639951.703 6  95188324.915 6       573.167          39.000
> 2020 05 10 10 45  0.0000000  0 17        .000000000000
G02  23262706.344 5 122246339.341 5     -1405.488          35.000
G12  21665857.375 5 113854831.299 5     -2276.281          34.000    21665848.500 5  88718031.156 5     -1773.723          33.000
G24  24521020.398 6 128858831.049 6     -3703.391          39.000    24521017.945 5 100409425.657 5     -2885.750          33.000
G25  20263742.820 8 106486689.392 8      -677.301          51.000    20263744.156 8  82976646.485 8      -527.767          51.000
G29  20516635.141 8 107815667.214 8      1320.094          51.000    20516634.156 8  84012195.874 8      1028.648          51.000
G32  23205905.273 7 121947839.206 7     -2392.250          47.000    23205909.672 7  95024305.690 7     -1864.094          46.000
R09  20261827.461 6 108197102.548 6      2524.344          36.000
R16  20050854.055 7 107108040.970 7     -1817.184          43.000    20050856.633 7  83306270.044 7     -1413.365          43.000
R18  20297483.188 7 108349362.915 7     -2462.590          44.000    20297487.688 5  84271750.313 5     -1915.345          30.000
R19  19502980.031 6 104327805.459 6      1641.465          40.000    19502982.305 7  81143858.141 7      1276.698          46.000
C11                                                                  24475796.156 5  98553883.430 5     -2106.895          33.000
C23  22667779.055 8 118037058.229 8     -1796.211          51.000
C28  21940114.938 8 114247975.903 8      1539.375          51.000
E03  27573532.469 5 144899888.372 5     -2377.055          34.000    27573538.711 6 111027221.915 6     -1821.248          39.000
E11  23392472.617 8 122928259.394 8      1793.613          49.000    23392471.289 7  94191771.800 7      1374.327          47.000
E24  23026414.125 7 121004610.706 7     -1588.422          42.000    23026428.344 7  92717874.067 7     -1217.010          42.000
E25  23635701.000 7 124206440.752 7       741.078          42.000    23635703.234 6  95171213.790 6       567.743          40.000
> 2020 05 10 10 45 30.0000000  0 16        .000000000000
G02  23270770.172 5 122288744.450 5     -1420.203          35.000
G12  21678869.117 6 113923236.013 6     -2282.668          37.000    21678867.422 6  88771333.345 6     -1778.702          37.000
G24  24542171.016 6 128969977.161 6     -3705.195          38.000    24542168.133 3 100496032.937 3     -2887.153          21.000
G25  20267643.703 8 106507189.339 8      -688.117          51.000    20267645.289 8  82992620.464 8      -536.195          51.000
G29  20509146.016 8 107776312.499 8      1304.559          51.000    20509144.711 8  83981529.891 8      1016.539          51.000
G32  23219595.930 7 122019782.977 7     -2402.879          47.000    23219599.867 7  95080365.711 7     -1872.376          47.000
R16  20061105.164 7 107162801.182 7     -1832.422          45.000    20061108.039 7  83348861.336 7     -1425.214          44.000
R18  20311380.820 7 108423550.601 7     -2482.387          42.000
R19  19493846.977 6 104278950.159 6      1616.652          41.000    19493849.461 7  81105859.611 7      1257.399          46.000
C11                                                                  24491515.555 5  98617176.560 5     -2112.577          33.000
C23  22678160.836 8 118091120.302 8     -1806.945          51.000
C28  21931289.633 8 114202015.408 8      1525.789          51.000
E03                                                                  27587124.461 6 111081923.673 6     -1824.594          39.000
E11  23382270.359 8 122874645.495 8      1781.922          50.000    23382267.594 7  94150691.024 7      1365.366          47.000
E24  23035500.961 7 121052362.372 7     -1593.812          43.000    23035516.453 7  92754463.067 7     -1221.377          42.000
E25  23631489.227 7 124184307.910 7       735.602          43.000    23631493.000 6  95154254.843 6       563.607          41.000
> 2020 05 10 10 46  0.0000000  0 17        .000000000000
G12  21691919.438 6 113991825.591 6     -2289.570          36.000    21691917.445 6  88824779.785 6     -1784.081          37.000
G24  24563329.188 6 129081161.857 6     -3707.023          38.000
G25  20271603.305 8 106527997.491 8      -699.098          51.000    20271605.125 8  83008834.590 8      -544.751          51.000
G29  20501742.617 8 107737408.415 8      1289.156          51.000    20501741.320 8  83951215.032 8      1004.537          51.000
G32  23233343.578 8 122092026.323 8     -2413.223          49.000    23233347.016 8  95136659.172 8     -1880.436          49.000
R09  20233577.867 4 108046179.773 4      2505.086          29.000    20233579.430 4  84035921.326 4      1948.400          29.000
R16  20071440.305 7 107218010.089 7     -1848.000          45.000    20071443.375 7  83391801.613 7     -1437.333          44.000
R18  20325387.359 7 108498320.181 7     -2502.066          43.000    20325412.180 4  84387592.811 4     -1946.046          29.000
R19  19484850.609 6 104230826.055 6      1591.715          41.000    19484852.844 7  81068429.748 7      1238.000          45.000
C11                                                                  24507271.078 5  98680611.978 5     -2116.824          32.000
C23  22688600.438 8 118145483.933 8     -1817.418          50.000
C28  21922539.562 8 114156448.284 8      1512.148          51.000
E03                                                                  27600731.648 6 111136715.006 6     -1827.925          40.000
E11  23372132.844 8 122821370.748 8      1770.102          51.000    23372129.820 8  94109870.138 8      1356.195          48.000
E12  23226146.422 5 122054223.386 5     -1209.238          33.000
E24  23044615.852 7 121100261.210 7     -1599.312          42.000    23044631.344 7  92791164.781 7     -1225.411          42.000
E25  23627307.500 7 124162330.754 7       729.648          44.000    23627312.156 7  95137415.188 7       559.144          42.000
> 2020 05 10 10 46 30.0000000  0 16        .000000000000
G02  23287167.828 5 122374880.580 5     -1451.984          34.000
G12  21705017.727 5 114060660.885 5     -2298.977          35.000    21705018.031 6  88878417.588 6     -1791.407          36.000
G24  24584505.898 6 129192443.717 6     -3711.414          38.000    24584544.328 5 100669547.235 5     -2892.020          33.000
G25  20275633.180 8 106549174.396 8      -711.871          51.000    20275635.023 8  83025336.055 8      -554.705          51.000
G29  20494436.594 8 107699015.621 8      1271.371          51.000    20494435.750 8  83921298.585 8       990.679          51.000
G32  23247159.023 8 122164627.047 8     -2425.676          49.000    23247162.211 8  95193231.109 8     -1890.140          49.000
R16  20081870.930 7 107273729.172 7     -1865.730          45.000    20081874.250 7  83435138.669 7     -1451.124          44.000
R18  20339513.906 7 108573729.570 7     -2524.293          42.000
R19  19476002.742 6 104183496.383 6      1564.391          40.000    19476004.820 7  81031617.791 7      1216.748          45.000
C11                                                                  24523073.641 5  98744234.874 5     -2123.665          31.000
C23  22699109.414 8 118200208.849 8     -1830.062          49.000
C28  21913876.641 8 114111335.357 8      1496.348          51.000
E03                                                                  27614373.047 6 111191640.888 6     -1832.984          39.000
E11  23362071.555 8 122768496.975 8      1755.762          51.000    23362068.680 8  94069356.493 8      1345.339          48.000
E24  23053770.328 7 121148367.916 7     -1606.867          44.000    23053786.133 6  92828025.742 6     -1231.158          41.000
E25  23623167.148 7 124140570.653 7       722.027          45.000    23623171.719 6  95120741.872 6       553.182          41.000
> 2020 05 10 10 47  0.0000000  0 16        .000000000000
G02  23295508.031 6 122418712.957 6     -1465.816          37.000
G12  21718165.352 5 114129754.404 5     -2304.188          34.000    21718167.141 5  88932256.737 5     -1795.468          34.000
G24  24605703.328 6 129303834.558 6     -3711.184          38.000
G25  20279735.797 8 106570733.821 8      -721.562          51.000    20279737.617 8  83042135.594 8      -562.256          51.000
G29  20487230.578 8 107661148.451 8      1256.895          51.000    20487230.297 8  83891791.731 8       979.401          51.000
G32  23261044.539 8 122237596.040 8     -2435.094          49.000    23261047.680 8  95250090.022 8     -1897.479          49.000
R16  20092400.141 7 107329972.420 7     -1880.090          47.000    20092403.305 7  83478883.399 7     -1462.292          44.000
R18  20353762.531 6 108649789.260 6     -2542.676          41.000    20353779.562 4  84505402.800 4     -1977.637          29.000
R19  19467306.305 6 104136976.450 6      1540.613          40.000    19467308.453 7  80995435.656 7      1198.258          45.000
C11                                                                  24538925.000 5  98808077.205 5     -2127.903          31.000
C23  22709690.930 8 118255308.352 8     -1839.480          50.000
C28  21905303.156 8 114066691.050 8      1483.770          51.000
E03                                                                  27628050.914 6 111246710.378 6     -1835.543          37.000
E11  23352089.172 8 122716039.158 8      1744.965          51.000    23352086.969 8  94029161.574 8      1337.078          49.000
E24  23062967.141 7 121196696.512 7     -1611.219          44.000    23062982.156 6  92865056.730 6     -1234.603          40.000
E25  23619070.656 7 124119042.310 7       717.074          45.000    23619074.109 7  95104246.111 7       549.644          42.000
> 2020 05 10 10 47 30.0000000  0 16        .000000000000
G12  21731341.070 5 114198967.496 5     -2315.070          34.000    21731342.547 5  88986207.619 5     -1803.948          35.000
G24  24626899.375 6 129415217.842 6     -3717.082          36.000    24626901.953 6 100843031.972 6     -2896.431          36.000
G25  20283889.477 8 106592561.237 8      -736.520          51.000    20283891.266 8  83059143.956 8      -573.911          51.000
G29  20480103.062 8 107623692.311 8      1237.258          51.000    20480102.891 8  83862605.123 8       964.097          51.000
G32  23274977.750 8 122310815.922 8     -2449.105          49.000    23274981.156 8  95307144.434 8     -1908.394          49.000
R16  20103005.594 8 107386622.867 8     -1899.676          48.000    20103008.438 7  83522944.826 7     -1477.526          43.000
R18  20368110.164 6 108726378.948 6     -2566.164          41.000    20368124.703 4  84564972.664 4     -1995.905          27.000
R19  19458740.031 6 104091151.486 6      1511.352          39.000    19458741.742 7  80959794.013 7      1175.493          44.000
C11                                                                  24554803.141 4  98872003.746 4     -2136.572          29.000
C23  22720322.766 8 118310668.567 8     -1853.984          51.000
C28  21896797.156 8 114022402.559 8      1466.098          50.000
E03  27641716.961 5 145258199.188 5     -2403.648          34.000    27641742.180 6 111301834.266 6     -1841.589          36.000
E11  23342164.383 8 122663883.891 8      1729.051          51.000    23342162.500 8  93989198.473 8      1324.884          49.000
E12  23247234.773 6 122165036.986 6     -1252.285          36.000
E24  23072184.742 7 121245132.612 7     -1620.781          45.000    23072198.336 6  92902170.091 6     -1241.894          38.000
E25  23614996.445 7 124097631.981 7       707.301          45.000    23614998.883 7  95087840.824 7       542.018          42.000
> 2020 05 10 10 48  0.0000000  0 14        .000000000000
G24  24648113.820 5 129526698.613 5     -3716.430          35.000    24648116.898 5 100929900.014 5     -2895.925          34.000
G25  20288114.398 8 106614762.630 8      -744.918          51.000    20288116.047 8  83076443.727 8      -580.456          51.000
G29  20473073.938 8 107586753.802 8      1223.969          51.000    20473073.867 8  83833821.851 8       953.742          51.000
G32  23288978.320 7 122384389.903 7     -2456.934          47.000    23288981.844 8  95364474.740 8     -1914.497          48.000
R16  20113707.469 7 107443788.234 7     -1912.820          47.000    20113709.922 7  83567406.749 7     -1487.749          43.000
R18  20382577.297 6 108803603.085 6     -2583.301          40.000    20382581.273 4  84625035.754 4     -2009.237          29.000
R19  19450323.625 6 104046130.249 6      1488.633          38.000    19450325.633 7  80924777.500 7      1157.826          45.000
C23  22731024.445 8 118366394.259 8     -1862.191          51.000
C28  21888379.945 8 113978575.703 8      1454.535          51.000
E03  27655440.680 5 145330315.625 5     -2404.875          34.000    27655466.719 6 111357092.314 6     -1842.975          36.000
E11  23332317.547 8 122612138.463 8      1719.637          50.000    23332315.750 8  93949549.390 8      1317.659          49.000
E12  23254411.789 5 122202738.630 5     -1262.262          35.000
E24  23081442.750 7 121293782.445 7     -1623.711          44.000    23081455.586 6  92939447.184 6     -1244.238          38.000
E25  23610965.000 7 124076446.565 7       704.004          43.000    23610966.961 7  95071607.831 7       539.381          43.000
> 2020 05 10 10 48 30.0000000  0 13        .000000000000
G24  24669336.109 5 129638223.403 5     -3718.754          32.000    24669340.312 5 101016802.462 5     -2897.721          33.000
G25  20292400.633 8 106637286.751 8      -756.977          51.000    20292402.148 8  83093994.987 8      -589.852          51.000
G29  20466133.500 8 107550281.931 8      1207.164          51.000    20466133.453 8  83805402.209 8       940.647          51.000
G32  23303035.938 7 122458263.765 7     -2468.195          45.000    23303039.414 7  95422038.741 7     -1923.272          46.000
R16  20124495.461 7 107501416.130 7     -1929.453          46.000    20124497.984 7  83612228.432 7     -1500.686          43.000
R18  20397152.383 6 108881405.660 6     -2604.004          41.000    20397159.648 5  84685548.914 5     -2025.336          31.000
R19  19442048.148 6 104001862.244 6      1462.258          39.000    19442050.359 7  80890346.851 7      1137.312          44.000
C23  22741786.430 8 118422434.189 8     -1873.914          51.000
C28  21880042.227 8 113935160.412 8      1439.539          51.000
E03  27669188.172 5 145402564.093 5     -2410.926          32.000    27669214.594 6 111412443.785 6     -1847.171          36.000
E11  23322539.078 8 122560752.806 8      1706.016          49.000    23322537.383 8  93910175.979 8      1307.168          49.000
E24  23090731.953 7 121342594.956 7     -1630.621          45.000    23090744.992 6  92976848.891 6     -1249.344          40.000
E25  23606966.391 7 124055435.699 7       696.559          44.000    23606968.539 7  95055508.562 7       533.840          43.000
> 2020 05 10 10 49  0.0000000  0 12        .000000000000
G25  20296755.773 8 106660173.167 8      -768.273          51.000    20296757.273 8  83111828.550 8      -598.655          51.000
G29  20459289.711 8 107514316.776 8      1191.082          51.000    20459289.062 8  83777377.415 8       928.116          51.000
G32  23317157.461 7 122532474.257 7     -2478.520          45.000    23317160.914 7  95479865.090 7     -1931.314          45.000
R16  20135377.250 7 107559546.358 7     -1945.199          45.000    20135380.359 7  83657440.820 7     -1512.936          44.000
R18  20411843.031 6 108959823.585 6     -2623.441          39.000    20411847.289 4  84746540.517 4     -2040.457          28.000
R19  19433921.508 6 103958388.841 6      1436.426          40.000    19433923.031 7  80856534.196 7      1117.223          43.000
C23  22752616.211 8 118478827.241 8     -1884.926          51.000
C28  21871790.797 8 113892196.566 8      1425.266          50.000
E03                                                                  27682992.312 5 111467917.500 5     -1850.634          35.000
E11  23312836.617 8 122509767.608 8      1693.219          49.000    23312834.508 8  93871109.410 8      1297.377          48.000
E24  23100059.375 7 121391609.901 7     -1636.582          43.000    23100072.664 6  93014405.738 6     -1254.010          41.000
E25  23603008.781 7 124034639.717 7       690.184          43.000    23603010.961 7  95039573.979 7       528.896          43.000
> 2020 05 10 10 49 30.0000000  0 14        .000000000000
G12  21784472.805 6 114478172.098 6     -2339.555          39.000    21784475.906 6  89203786.165 6     -1823.036          38.000
G25  20301168.508 8 106683361.950 8      -778.246          51.000    20301170.125 8  83129897.721 8      -606.426          51.000
G29  20452531.195 8 107478798.646 8      1176.172          51.000    20452529.711 8  83749700.952 8       916.498          51.000
G32  23331331.430 8 122606958.596 8     -2487.652          48.000    23331334.578 8  95537904.823 8     -1938.430          48.000
R09  20136634.531 4 107528503.762 4      2427.602          27.000
R16  20146341.844 7 107618118.113 7     -1959.879          47.000    20146345.547 7  83702996.613 7     -1524.350          44.000
R18  20426635.891 6 109038791.828 6     -2641.602          39.000    20426640.109 5  84807960.336 5     -2054.576          32.000
R19  19425932.156 6 103915650.597 6      1412.160          41.000    19425933.586 7  80823293.362 7      1098.347          44.000
C23  22763502.297 8 118535513.660 8     -1894.559          51.000
C28  21863614.992 8 113849625.500 8      1412.262          50.000
E03                                                                  27696788.594 5 111523466.101 5     -1853.085          34.000
E11  23303199.242 8 122459124.110 8      1682.191          49.000    23303197.070 7  93832304.694 7      1288.958          47.000
E24  23109412.969 6 121440767.586 6     -1641.301          40.000    23109426.234 6  93052071.989 6     -1257.527          40.000
E25  23599080.648 7 124013999.639 7       685.203          43.000    23599083.047 7  95023758.844 7       525.023          43.000
> 2020 05 10 10 50  0.0000000  0 14        .000000000000
G12  21797855.109 6 114548492.688 6     -2347.984          36.000    21797856.680 5  89258581.293 5     -1829.607          35.000
G24  24733065.016 5 129973136.192 5     -3724.043          33.000    24733071.023 5 101277793.221 5     -2901.858          34.000
G25  20305648.078 8 106706902.531 8      -790.340          51.000    20305649.852 8  83148241.015 8      -615.849          51.000
G29  20445866.969 8 107443777.021 8      1159.434          51.000    20445865.484 8  83722411.385 8       903.455          51.000
G32  23345566.609 8 122681763.423 8     -2498.621          48.000    23345569.609 8  95596194.232 8     -1946.981          48.000
R16  20157398.664 8 107677181.175 8     -1976.848          48.000    20157402.266 7  83748934.524 7     -1537.548          44.000
R18  20441541.406 6 109118357.704 6     -2661.652          37.000    20441546.328 5  84869844.909 5     -2070.171          32.000
R19  19418090.070 7 103873698.836 7      1385.332          42.000    19418091.180 7  80790664.270 7      1077.480          43.000
C23  22774453.930 8 118592542.073 8     -1906.496          51.000
C28  21855524.945 8 113807496.965 8      1397.191          51.000
E03                                                                  27710613.414 5 111579125.940 5     -1856.911          30.000
E11  23293636.742 8 122408873.018 8      1668.832          49.000    23293633.828 7  93793800.630 7      1278.671          47.000
E24  23118803.000 6 121490117.616 6     -1647.961          41.000    23118816.453 7  93089885.684 7     -1262.807          42.000
E25  23595191.758 7 123993565.765 7       677.957          44.000    23595194.688 7  95008101.714 7       519.429          44.000
> 2020 05 10 10 50 30.0000000  0 13        .000000000000
G12  21811288.531 6 114619096.207 6     -2354.562          41.000    21811290.188 6  89313596.882 6     -1834.727          37.000
G24  24754343.102 6 130084954.076 6     -3726.023          37.000    24754349.219 6 101364923.965 6     -2903.398          37.000
G25  20310205.805 8 106730853.463 8      -801.816          51.000    20310207.383 8  83166904.071 8      -624.789          51.000
G29  20439308.242 8 107409310.930 8      1143.020          51.000    20439307.125 8  83695554.694 8       890.665          51.000
G32  23359873.375 8 122756944.321 8     -2508.770          48.000    23359876.477 8  95654776.688 8     -1954.888          49.000
R16  20168558.609 8 107736794.916 8     -1992.652          48.000    20168562.156 7  83795300.742 7     -1549.844          43.000
R18  20456569.133 6 109198576.515 6     -2681.422          37.000    20456572.000 5  84932237.310 5     -2085.550          30.000
R19  19410406.484 6 103832594.200 6      1359.395          41.000    19410406.688 7  80758693.999 7      1057.307          43.000
C23  22785481.969 8 118649970.018 8     -1917.477          51.000
C28  21847531.250 8 113765869.585 8      1382.648          51.000
E11  23284160.531 8 122359073.885 8      1655.992          50.000    23284157.695 8  93755642.872 8      1268.883          48.000
E24  23128241.297 7 121539718.744 7     -1654.070          43.000    23128255.406 7  93127891.739 7     -1267.446          43.000
E25  23591353.789 7 123973397.449 7       671.062          45.000    23591357.250 7  94992648.064 7       514.445          44.000
> 2020 05 10 10 51  0.0000000  0 13        .000000000000
G12  21824750.688 6 114689844.847 6     -2361.777          39.000    21824749.367 6  89368725.640 6     -1840.349          38.000
G24  24775618.641 6 130196757.101 6     -3727.578          38.000    24775624.719 6 101452043.071 6     -2904.612          39.000
G25  20314815.531 8 106755077.399 8      -813.281          51.000    20314816.852 8  83185779.859 8      -633.729          51.000
G29  20432829.117 8 107375263.275 8      1126.766          51.000    20432828.180 8  83669024.020 8       877.996          50.000
G32  23374224.969 8 122832361.116 8     -2519.098          49.000    23374228.203 8  95713542.984 8     -1962.933          49.000
R16  20179795.336 7 107796819.219 7     -2008.922          47.000    20179798.539 7  83841986.266 7     -1562.498          42.000
R18  20471692.531 5 109279304.997 5     -2700.504          32.000    20471695.523 5  84995026.099 5     -2100.389          32.000
R19  19402855.102 6 103792198.524 6      1333.375          40.000    19402855.453 7  80727275.168 7      1037.072          44.000
C23  22796560.422 8 118707661.128 8     -1928.609          50.000
C28  21839607.641 8 113724607.980 8      1368.090          50.000
E11  23274744.461 8 122309590.621 8      1642.758          51.000    23274741.648 8  93717727.170 8      1258.820          49.000
E24  23137701.945 7 121589433.892 7     -1660.383          44.000    23137715.336 6  93165985.150 6     -1272.110          41.000
E25  23587540.711 7 123953358.326 7       664.766          45.000    23587544.312 7  94977293.413 7       509.324          45.000
> 2020 05 10 10 51 30.0000000  0 14        .000000000000
G02  23374405.672 5 122833329.059 5     -1604.000          32.000
G12  21838253.297 7 114760803.637 7     -2369.621          43.000    21838253.828 7  89424018.124 7     -1846.458          42.000
G24  24796903.750 6 130308609.174 6     -3729.621          36.000    24796909.602 6 101539200.371 6     -2906.204          36.000
G25  20319489.633 8 106779639.858 8      -825.133          51.000    20319490.867 8  83204919.439 8      -642.961          51.000
G29  20426441.500 8 107341699.854 8      1109.965          49.000    20426441.258 8  83642870.684 8       864.908          49.000
G32  23388633.383 8 122908076.444 8     -2529.559          49.000    23388636.734 8  95772541.903 8     -1971.088          49.000
R16  20191121.266 7 107857320.532 7     -2025.273          45.000    20191123.945 7  83889042.827 7     -1575.213          42.000
R18  20486923.516 5 109360592.191 5     -2719.844          34.000    20486926.445 5  85058236.528 5     -2115.437          30.000
R19  19395448.867 6 103752579.464 6      1306.777          40.000    19395449.203 7  80696460.362 7      1016.382          43.000
C23  22807702.164 8 118765679.869 8     -1940.094          51.000
C28  21831766.828 8 113683777.759 8      1352.984          51.000
E11  23265401.344 8 122260489.851 8      1629.395          51.000    23265398.875 8  93680104.543 8      1248.557          49.000
E24  23147196.695 7 121639328.855 7     -1667.117          44.000    23147208.930 6  93204216.289 6     -1277.207          40.000
E25  23583764.672 7 123933514.814 7       657.168          45.000    23583768.430 7  94962088.636 7       503.673          45.000
> 2020 05 10 10 52  0.0000000  0 15        .000000000000
G02  23383597.648 5 122881638.795 5     -1617.625          32.000
G12  21851794.906 6 114831966.609 6     -2375.547          40.000    21851796.523 6  89479469.732 6     -1851.079          41.000
G24  24818197.062 5 130420503.058 5     -3730.309          34.000    24818202.250 5 101626390.276 5     -2906.737          35.000
G25  20324227.086 8 106804535.427 8      -835.676          51.000    20324228.250 8  83224318.578 8      -651.176          51.000
G29  20420145.156 8 107308615.292 8      1094.711          49.000    20420145.133 8  83617090.505 8       853.022          49.000
G32  23403096.867 8 122984081.949 8     -2538.480          48.000    23403100.234 8  95831766.924 8     -1978.040          48.000
R09  20069307.172 5 107168935.876 5      2367.645          32.000    20069301.961 4  83353638.218 4      1841.504          28.000
R16  20202535.133 7 107918292.854 7     -2040.605          44.000    20202537.930 7  83936465.693 7     -1587.141          42.000
R18  20502267.242 6 109442457.136 6     -2738.410          38.000    20502257.266 4  85121904.625 4     -2129.878          29.000
R19  19388187.055 6 103713732.666 6      1281.773          40.000    19388186.750 7  80666246.164 7       996.935          44.000
C23  22818905.625 8 118824020.461 8     -1950.246          50.000
C28  21824007.750 8 113643374.127 8      1339.422          51.000
E11  23256129.844 8 122211767.279 8      1617.727          48.000    23256127.609 8  93642771.661 8      1239.566          49.000
E24  23156725.047 7 121689398.217 7     -1672.125          46.000    23156735.586 6  93242581.099 6     -1281.095          39.000
E25  23580025.016 7 123913862.275 7       651.777          44.000    23580028.750 7  94947030.181 7       499.459          46.000
> 2020 05 10 10 52 30.0000000  0 13        .000000000000
G02  23392881.664 4 122930421.594 4     -1634.492          29.000
G12  21865381.156 6 114903362.255 6     -2384.793          41.000    21865379.602 6  89535102.679 6     -1858.280          41.000
G25  20329033.484 8 106829792.869 8      -848.844          51.000    20329034.641 8  83243999.706 8      -661.437          51.000
G29  20413946.289 8 107276038.642 8      1076.457          51.000    20413945.781 8  83591706.118 8       838.798          51.000
G32  23417620.258 7 123060403.621 7     -2550.285          47.000    23417623.539 7  95891238.309 7     -1987.235          47.000
R16  20214042.781 7 107979765.309 7     -2058.359          44.000    20214045.680 6  83984277.592 6     -1600.946          41.000
R18  20517709.430 5 109524926.180 5     -2759.168          30.000    20517710.641 5  85186031.759 5     -2146.007          31.000
R19  19381075.000 6 103675688.141 6      1253.816          40.000    19381075.234 7  80636656.006 7       975.191          45.000
C23  22830176.273 8 118882711.027 8     -1963.211          50.000
C28  21816336.039 8 113603426.250 8      1323.125          50.000
E11  23246934.836 7 122163452.798 7      1602.836          45.000    23246934.234 8  93605751.459 8      1228.144          50.000
E24  23166291.891 7 121739671.032 7     -1680.184          44.000    23166302.000 6  93281101.792 6     -1287.422          40.000
E25  23576327.523 7 123894430.455 7       642.871          45.000    23576330.922 7  94932140.852 7       492.733          46.000
> 2020 05 10 10 53  0.0000000  0 12        .000000000000
G12  21879006.617 6 114974963.573 6     -2390.113          40.000    21879003.727 6  89590895.920 6     -1862.426          40.000
G25  20333903.688 8 106855385.741 8      -858.574          51.000    20333904.930 8  83263942.206 8      -669.019          51.000
G29  20407839.172 8 107243943.857 8      1061.934          51.000    20407838.227 8  83566697.236 8       827.484          51.000
G32  23432198.078 7 123137012.013 7     -2558.250          47.000    23432201.062 7  95950933.130 7     -1993.442          47.000
R16  20225638.875 7 108041710.528 7     -2072.766          43.000    20225642.102 7  84032457.195 7     -1612.151          42.000
R18  20533260.062 6 109607937.935 6     -2776.285          40.000    20533263.711 5  85250596.856 5     -2159.339          30.000
R19  19374108.055 6 103638420.241 6      1229.418          39.000    19374108.414 7  80607669.845 7       956.214          45.000
C23  22841509.344 8 118941724.881 8     -1972.312          51.000
C28  21808747.148 8 113563908.531 8      1310.191          51.000
E11  23237811.859 7 122115521.043 7      1591.582          44.000    23237813.766 8  93569024.521 8      1219.413          50.000
E24  23175891.117 6 121790121.092 6     -1684.348          40.000    23175902.859 6  93319758.276 6     -1290.649          41.000
E25  23572667.094 7 123875193.730 7       638.336          45.000    23572670.227 7  94917401.030 7       489.001          46.000
> 2020 05 10 10 53 30.0000000  0 12        .000000000000
G12  21892670.609 6 115046767.328 6     -2396.551          36.000    21892668.789 6  89646846.846 6     -1867.445          36.000
G25  20338837.227 8 106881311.472 8      -869.328          51.000    20338838.484 8  83284144.088 8      -677.399          51.000
G29  20401823.078 8 107212328.581 8      1046.289          51.000    20401822.258 8  83542061.992 8       815.290          51.000
G32  23446829.602 7 123213901.737 7     -2567.168          47.000    23446832.312 7  96010847.166 7     -2000.391          47.000
R16  20237323.172 7 108104125.749 7     -2087.895          46.000    20237326.516 7  84081002.341 7     -1623.918          42.000
R18  20548916.133 6 109691502.714 6     -2794.430          36.000    20548911.766 5  85315601.441 5     -2173.454          30.000
R19  19367285.477 6 103601927.423 6      1203.777          39.000    19367286.852 7  80579286.548 7       936.271          46.000
C23  22852904.273 8 119001059.102 8     -1982.734          51.000
C28  21801240.562 8 113524819.061 8      1296.316          50.000
E11  23228762.828 7 122067970.610 7      1579.047          46.000    23228765.305 8  93532589.749 8      1209.886          50.000
E24  23185523.734 6 121840746.066 6     -1690.012          40.000    23185536.977 7  93358548.808 7     -1294.824          42.000
E25  23569043.344 7 123856150.510 7       632.027          46.000    23569046.227 7  94902809.477 7       484.254          46.000
> 2020 05 10 10 54  0.0000000  0 14        .000000000000
G02  23421226.305 5 123079374.815 5     -1676.422          31.000
G12  21906368.336 5 115118747.868 5     -2403.574          35.000    21906367.031 5  89702935.533 5     -1872.921          34.000
G25  20343829.297 8 106907544.817 8      -880.723          51.000    20343830.539 8  83304585.653 8      -686.277          51.000
G29  20395893.500 8 107181167.370 8      1029.926          51.000    20395893.016 8  83517780.529 8       802.540          51.000
G32  23461509.516 7 123291044.608 7     -2576.680          47.000    23461511.812 7  96070958.450 7     -2007.805          47.000
R09  20016637.219 5 106887662.771 5      2320.594          34.000    20016623.828 4  83134859.604 4      1804.903          26.000
R16  20249091.102 7 108166984.844 7     -2103.922          47.000    20249094.047 7  84129892.722 7     -1636.384          42.000
R18  20564690.562 5 109775734.516 5     -2813.324          32.000    20564670.648 5  85381025.651 5     -2188.156          32.000
R19  19360603.047 6 103566184.725 6      1177.598          39.000    19360605.602 7  80551486.695 7       915.909          46.000
C23  22864355.531 8 119060688.226 8     -1993.645          50.000
C28  21793810.945 8 113486133.396 8      1281.645          49.000
E11  23219782.828 8 122020777.238 8      1566.145          48.000    23219784.203 8  93496428.594 8      1199.991          49.000
E24  23195186.078 7 121891520.763 7     -1695.906          42.000    23195199.984 7  93397454.158 7     -1299.601          44.000
E25  23565451.727 7 123837276.419 7       625.305          46.000    23565454.219 7  94888347.511 7       479.040          46.000
> 2020 05 10 10 54 30.0000000  0 13        .000000000000
G25  20348889.758 8 106934137.934 8      -892.535          51.000    20348891.016 8  83325307.573 8      -695.482          51.000
G29  20390060.156 8 107150512.439 8      1013.266          51.000    20390059.734 8  83493893.582 8       789.561          51.000
G32  23476246.961 7 123368489.939 7     -2586.715          47.000    23476248.969 7  96131305.422 7     -2015.622          47.000
R09  20003631.602 5 106818243.337 5      2307.445          33.000
R16  20260951.836 8 108230340.275 8     -2120.227          48.000    20260954.492 7  84179169.120 7     -1649.068          43.000
R18  20580536.430 6 109860393.891 6     -2831.781          36.000    20580526.391 4  85446871.631 4     -2202.503          29.000
R19  19354071.469 6 103531246.310 6      1150.965          40.000    19354073.883 7  80524312.339 7       895.192          45.000
C23  22875873.180 8 119120663.537 8     -2005.016          51.000
C28  21786468.711 8 113447903.847 8      1266.469          49.000
E03  27836104.391 5 146279718.561 5     -2460.555          34.000    27836100.289 5 112084442.882 5     -1885.246          31.000
E11  23210880.961 8 121973994.180 8      1552.566          49.000    23210880.641 8  93460581.852 8      1189.626          48.000
E24  23204887.492 7 121942497.753 7     -1702.715          43.000    23204901.859 7  93436514.423 7     -1304.696          44.000
E25  23561902.102 7 123818624.518 7       618.082          45.000    23561904.547 7  94874055.798 7       473.476          47.000
> 2020 05 10 10 55  0.0000000  0 12        .000000000000
G25  20354020.867 8 106961102.483 8      -903.926          51.000    20354022.219 8  83346318.900 8      -704.358          51.000
G29  20384325.531 8 107120375.968 8       997.047          51.000    20384324.930 8  83470410.623 8       776.920          51.000
G32  23491043.383 7 123446246.410 7     -2596.062          45.000    23491045.664 7  96191894.827 7     -2022.906          45.000
R09  19990704.320 5 106749253.252 5      2294.969          31.000    19990711.977 4  83027195.275 4      1784.976          26.000
R16  20272907.750 8 108294203.716 8     -2136.148          48.000    20272910.039 7  84228840.632 7     -1661.449          43.000
R19  19347692.805 6 103497124.852 6      1124.891          40.000    19347695.367 7  80497773.456 7       874.915          46.000
C23  22887459.859 8 119180996.047 8     -2015.941          50.000
C28  21779216.867 8 113410142.486 8      1252.055          49.000
E03  27850167.477 5 146353617.236 5     -2464.270          32.000    27850165.680 5 112141074.373 5     -1888.060          31.000
E11  23202059.414 8 121927634.162 8      1539.383          49.000    23202057.836 8  93425059.267 8      1179.521          48.000
E24  23214629.445 7 121993688.780 7     -1708.836          45.000    23214644.180 7  93475738.681 7     -1309.326          44.000
E25  23558397.172 7 123800207.381 7       611.082          46.000    23558399.688 7  94859943.958 7       468.193          47.000
> 2020 05 10 10 55 30.0000000  0 13        .000000000000
G12  21947715.305 5 115336010.952 5     -2425.102          30.000
G25  20359211.070 8 106988377.418 8      -916.391          51.000    20359212.641 8  83367572.082 8      -714.071          51.000
G29  20378677.969 8 107090697.241 8       979.793          51.000    20378677.062 8  83447284.353 8       763.475          51.000
G32  23505886.820 7 123524250.006 7     -2606.191          44.000    23505889.539 7  96252676.821 7     -2030.802          44.000
R16  20284946.633 7 108358512.529 7     -2152.840          47.000    20284948.555 7  84278858.590 7     -1674.431          43.000
R18  20612558.969 5 110031251.612 5     -2869.176          32.000    20612565.695 5  85579877.953 5     -2231.584          33.000
R19  19341455.484 6 103463759.097 6      1097.617          40.000    19341458.102 7  80471822.335 7       853.702          45.000
C23  22899103.117 8 119241624.869 8     -2027.793          50.000
C28  21772043.578 8 113372789.430 8      1236.363          49.000
E03                                                                  27864245.953 4 112197771.400 4     -1891.610          29.000
E11  23193307.141 8 121881637.278 8      1525.055          51.000    23193304.805 8  93389814.925 8      1168.623          48.000
E24  23224400.656 7 122045032.978 7     -1716.113          44.000    23224415.406 7  93515080.354 7     -1314.911          43.000
E25  23554925.578 7 123781964.841 7       603.242          46.000    23554928.094 7  94845965.908 7       462.245          47.000
> 2020 05 10 10 56  0.0000000  0 12        .000000000000
G12  21961581.047 6 115408864.454 6     -2428.691          36.000    21961572.961 5  89928986.788 5     -1892.487          35.000
G25  20364469.516 8 107016011.389 8      -924.094          51.000    20364471.227 8  83389105.046 8      -720.073          51.000
G29  20373126.562 8 107061524.754 8       967.109          51.000    20373125.273 8  83424552.556 8       753.592          51.000
G32  23520786.141 7 123602546.722 7     -2611.629          45.000    23520789.367 7  96313687.236 7     -2035.036          45.000
R16  20297077.750 7 108423315.899 7     -2165.188          45.000    20297080.234 7  84329261.194 7     -1684.035          45.000
R19  19335369.031 6 103431199.258 6      1074.969          40.000    19335371.109 7  80446498.004 7       836.087          44.000
C23  22910812.062 8 119302597.862 8     -2035.102          49.000
C28  21764957.945 8 113335893.471 8      1225.246          49.000
E03  27878343.461 5 146501687.205 5     -2469.480          33.000
E11  23184633.258 8 121836053.207 8      1515.582          51.000    23184630.781 8  93354886.915 8      1161.311          48.000
E24  23234209.953 7 122096579.293 7     -1718.641          43.000    23234224.648 7  93554576.847 7     -1316.824          43.000
E25  23551496.906 8 123763946.564 8       599.883          48.000    23551499.242 7  94832159.697 7       459.570          47.000
> 2020 05 10 10 56 30.0000000  0 12        .000000000000
G12  21975474.289 6 115481868.584 6     -2439.336          37.000    21975464.430 6  89985872.980 6     -1900.790          38.000
G25  20369781.922 8 107043928.773 8      -938.578          51.000    20369783.641 8  83410858.826 8      -731.360          51.000
G29  20367657.141 8 107032783.079 8       947.672          51.000    20367655.664 8  83402156.458 8       738.446          51.000
G32  23535726.477 7 123681057.899 7     -2623.973          45.000    23535730.266 7  96374864.741 7     -2044.654          45.000
R16  20309286.836 7 108488536.022 7     -2184.344          45.000    20309289.742 7  84379987.940 7     -1698.934          44.000
R19  19329418.859 6 103399369.302 6      1045.289          41.000    19329420.914 7  80421741.423 7       813.006          44.000
C23  22922572.852 8 119363839.445 8     -2049.090          50.000
C28  21757946.344 8 113299380.157 8      1207.492          51.000
E11  23176023.531 8 121790807.313 8      1499.410          51.000    23176021.008 8  93320218.035 8      1148.845          48.000
E12  23387491.719 5 122902099.106 5     -1479.301          33.000
E24  23244042.500 6 122148252.193 6     -1727.984          40.000    23244057.711 7  93594170.326 7     -1323.998          42.000
E25  23548096.664 7 123746077.739 7       589.980          47.000    23548098.977 8  94818467.995 8       452.003          48.000
> 2020 05 10 10 57  0.0000000  0 12        .000000000000
G12  21989418.570 6 115555144.694 6     -2444.332          40.000    21989411.258 6  90042971.145 6     -1904.677          39.000
G25  20375171.547 8 107072251.484 8      -948.375          51.000    20375173.203 8  83432928.469 8      -738.994          51.000
G29  20362292.766 8 107004594.193 8       932.816          51.000    20362291.508 8  83380191.103 8       726.870          51.000
G32  23550730.320 7 123759902.516 7     -2631.219          45.000    23550734.586 7  96436302.079 7     -2050.300          45.000
R16  20321597.570 7 108554296.900 7     -2198.578          46.000    20321600.406 7  84431135.279 7     -1710.005          44.000
R19  19323628.438 6 103368394.034 6      1020.645          40.000    19323630.117 7  80397649.570 7       793.835          43.000
C23  22934408.578 8 119425470.051 8     -2058.410          50.000
C28  21751031.602 8 113263370.880 8      1194.332          51.000
E11  23167501.453 8 121746022.592 8      1487.586          51.000    23167499.109 8  93285902.497 8      1139.782          49.000
E12  23395972.625 5 122946664.534 5     -1490.805          33.000
E24  23253921.852 6 122200173.855 6     -1732.492          39.000    23253937.492 6  93633954.421 6     -1327.437          41.000
E25  23544748.469 8 123728481.294 8       584.277          48.000    23544750.531 8  94804984.991 8       447.777          48.000
> 2020 05 10 10 57 30.0000000  0 11        .000000000000
G12  22003394.836 6 115628590.476 6     -2451.742          39.000    22003389.664 6  90100201.528 6     -1910.455          39.000
G25  20380618.805 8 107100877.579 8      -959.887          51.000    20380620.523 8  83455234.517 8      -747.964          51.000
G29  20357013.938 8 106976856.120 8       916.559          51.000    20357013.055 8  83358577.020 8       714.202          51.000
G32  23565777.648 7 123838975.723 7     -2639.977          45.000    23565781.641 7  96497917.543 7     -2057.125          45.000
R16  20333989.586 7 108620494.440 7     -2214.324          44.000    20333992.812 7  84482622.219 7     -1722.255          43.000
R19  19317978.484 6 103338170.195 6       994.320          41.000    19317980.141 7  80374142.160 7       773.363          45.000
C23  22946299.680 8 119487388.174 8     -2069.164          51.000
C28  21744193.930 8 113227765.079 8      1179.559          51.000
E11  23159047.914 8 121701598.146 8      1474.234          51.000    23159045.812 8  93251862.992 8      1129.629          50.000
E24  23263829.500 6 122252242.501 6     -1738.555          38.000    23263844.070 6  93673851.202 6     -1332.169          40.000
E25  23541432.766 8 123711056.125 8       577.645          49.000    23541434.555 8  94791633.236 8       442.605          49.000
> 2020 05 10 10 58  0.0000000  0 12        .000000000000
G12  22017405.016 6 115702214.392 6     -2457.488          39.000    22017401.602 6  90157570.746 6     -1914.923          39.000
G25  20386125.547 8 107129816.228 8      -970.301          51.000    20386127.523 8  83477784.100 8      -756.079          51.000
G29  20351822.898 8 106949578.193 8       901.012          51.000    20351822.039 8  83337321.494 8       702.090          51.000
G32  23580869.344 7 123918283.876 7     -2648.086          44.000    23580872.664 7  96559716.058 7     -2063.447          44.000
R16  20346464.945 7 108687137.161 7     -2229.402          44.000    20346467.797 6  84534455.435 6     -1733.980          41.000
R18  20694411.664 5 110468099.646 5     -2954.867          34.000
R19  19312471.047 6 103308707.831 6       968.871          40.000    19312472.438 7  80351226.994 7       753.566          44.000
C23  22958247.648 8 119549602.445 8     -2079.258          51.000
C28  21737435.734 8 113192572.391 8      1165.684          51.000
E11  23150664.898 8 121657544.104 8      1461.758          51.000    23150662.977 8  93218107.311 8      1120.060          50.000
E24  23273767.375 6 122304467.616 6     -1743.992          41.000    23273780.773 6  93713867.870 6     -1336.315          41.000
E25  23538151.555 8 123693812.411 8       571.191          49.000    23538153.195 8  94778420.528 8       437.648          50.000
> 2020 05 10 10 58 30.0000000  0 12        .000000000000
G12  22031461.375 6 115776084.472 6     -2469.719          37.000    22031459.633 6  90215131.741 6     -1924.459          38.000
G25  20391704.906 8 107159135.870 8      -987.016          51.000    20391706.914 8  83500630.570 8      -769.103          51.000
G29  20346732.812 8 106922828.908 8       879.441          51.000    20346731.711 8  83316477.901 8       685.279          51.000
G32  23596018.055 7 123997892.419 7     -2661.895          42.000    23596020.969 7  96621748.632 7     -2074.204          42.000
R16  20359036.750 7 108754294.338 7     -2250.496          44.000    20359039.633 7  84586688.752 7     -1750.389          42.000
R19  19307118.945 6 103280077.276 6       937.145          40.000    19307120.016 7  80328958.782 7       728.890          44.000
C23  22970265.336 8 119612180.172 8     -2095.352          51.000
C27  24970554.148 5 130028234.928 5      3242.500          34.000
C28  21730770.141 8 113157861.148 8      1145.625          51.000
E11  23142365.391 8 121613929.970 8      1443.266          51.000    23142363.570 8  93184688.693 8      1105.921          50.000
E24  23283748.859 7 122356917.776 7     -1755.426          42.000    23283762.539 7  93754056.899 7     -1345.052          43.000
E25  23534918.086 8 123676819.456 8       558.945          49.000    23534919.836 8  94765399.956 8       428.289          50.000
> 2020 05 10 10 59  0.0000000  0 12        .000000000000
G12  22045555.266 5 115850151.801 5     -2471.387          32.000    22045554.141 5  90272846.533 5     -1925.756          33.000
G25  20397347.570 8 107188788.023 8      -993.492          51.000    20397349.469 8  83523736.136 8      -774.150          51.000
G29  20341733.898 8 106896559.812 8       868.160          51.000    20341733.109 8  83296008.496 8       676.488          51.000
G32  23611213.883 6 124077749.901 6     -2665.574          39.000    23611217.156 6  96683975.188 6     -2077.071          39.000
R16  20371695.625 7 108821915.990 7     -2261.383          43.000    20371698.492 6  84639283.325 6     -1758.853          41.000
R19  19301913.336 6 103252229.697 6       915.547          40.000    19301914.188 7  80307299.544 7       712.092          45.000
C23  22982343.320 8 119675072.827 8     -2101.176          51.000
C27  24951864.320 5 129930915.554 5      3242.352          35.000
C28  21724187.484 8 113123583.713 8      1135.867          51.000
E11  23134139.992 8 121570708.148 8      1434.848          49.000    23134138.453 8  93151570.685 8      1099.399          50.000
E24  23293763.938 7 122409544.696 7     -1756.500          42.000    23293777.508 7  93794381.378 7     -1345.860          42.000
E25  23531723.195 8 123660029.759 8       556.855          50.000    23531725.258 8  94752535.111 8       426.711          50.000
> 2020 05 10 10 59 30.0000000  0 12        .000000000000
G25  20403055.570 8 107218783.473 8     -1005.074          51.000    20403057.461 8  83547109.198 8      -783.175          51.000
G29  20336828.438 8 106870781.907 8       851.629          51.000    20336828.055 8  83275921.811 8       663.607          51.000
G32  23626458.938 6 124157864.202 6     -2674.422          39.000    23626462.609 6  96746401.946 6     -2083.968          40.000
R16  20384443.383 7 108890013.049 7     -2277.137          44.000    20384446.477 7  84692247.655 7     -1771.109          42.000
R19  19296855.992 6 103225176.726 6       889.125          40.000    19296856.812 7  80286258.348 7       691.542          44.000
C23  22994483.477 8 119738290.564 8     -2112.070          51.000
C27  24933205.258 5 129833755.235 5      3236.996          34.000
C28  21717690.133 8 113089751.302 8      1120.777          51.000
E11  23125991.336 8 121527890.506 8      1420.945          49.000    23125990.180 8  93118762.372 8      1088.758          50.000
E12  23439390.664 5 123174829.117 5     -1551.422          33.000
E24  23303814.758 7 122462359.324 7     -1762.977          43.000    23303827.789 7  93834849.741 7     -1350.972          42.000
E25  23528569.008 8 123643455.031 8       549.445          50.000    23528571.500 8  94739834.989 8       421.036          51.000
