     3.02           OBSERVATION DATA    M (MIXED)           RINEX VERSION / TYPE
SAVERINEX           SC600               20200504 065931 LCL PGM / RUN BY / DATE
       G = GPS       R = GLONASS       C = COMPASS          COMMENT
       S = SBAS      J = QZSS          E = GALILEO          COMMENT
BEAN                                                        MARKER NAME
1                                                           MARKER NUMBER
GEODETIC                                                    MARKER TYPE
Unige DICCA         GTER                                    OBSERVER / AGENCY
SC60291900056       SC600               2.12(191226)        REC # / TYPE / VERS
                    HEMA45          NONE                    ANT # / TYPE
  4509407.8091   693652.4678  4442337.6214                  APPROX POSITION XYZ
        0.0000        0.0000        0.0000                  ANTENNA: DELTA H/E/N
G    8 C1C L1C D1C S1C C2Y L2Y D2Y S2Y                      SYS / # / OBS TYPES
R    8 C1C L1C D1C S1C C2P L2P D2P S2P                      SYS / # / OBS TYPES
C    8 C1I L1I D1I S1I C7I L7I D7I S7I                      SYS / # / OBS TYPES
E    8 C1C L1C D1C S1C C7Q L7Q D7Q S7Q                      SYS / # / OBS TYPES
DBHZ                                                        COMMENT
     30.000                                                 INTERVAL
  2020    05    04    04    00    0.0000000     GPS         TIME OF FIRST OBS
  2020    05    04    04    59   30.0000000     GPS         TIME OF LAST OBS
     0                                                      RCV CLOCK OFFS APPL
G L1C  0.00000                                              SYS / PHASE SHIFT
G L2Y  0.00000                                              SYS / PHASE SHIFT
R L1C  0.00000                                              SYS / PHASE SHIFT
R L2P  0.25000                                              SYS / PHASE SHIFT
C L1I  0.00000                                              SYS / PHASE SHIFT
C L7I  0.00000                                              SYS / PHASE SHIFT
E L1C  0.50000                                              SYS / PHASE SHIFT
E L7Q -0.25000                                              SYS / PHASE SHIFT
 12 R02 -4 R03  5 R04  6 R05  1 R10 -5 R13 -2 R14 -7 R15  0 GLONASS SLOT / FRQ #
    R16 -1 R17  4 R18 -3 R19  3                             GLONASS SLOT / FRQ #
 C1C   71.950 C2C   71.950 C2P   71.950                     GLONASS COD/PHS/BIS
    18                                                      LEAP SECONDS
*** Above antenna height is from mark to ANTENNA BOTTOM.    COMMENT
    17     4        0.0000        ANT MEASURE TYPE/HEIGT    COMMENT
    0.0000    0.0000    0.0458    0.0405    0.0000          COMMENT
                    BASE STATION                            COMMENT
                                                            END OF HEADER
> 2020 05 04 04 00  0.0000000  0 12        .000000000000
G05  20768174.766 8 109137494.885 8     -1192.020          51.000    20768173.875 8  85042199.354 8      -928.846          51.000
G28  21568006.219 8 113340710.569 8      2032.344          51.000    21568004.141 7  88317410.829 7      1583.644          47.000
G30  20672665.688 8 108635663.885 8     -1225.090          51.000    20672667.008 8  84651148.793 8      -954.615          51.000
R04  21579069.281 6 115554937.741 6     -3297.121          39.000    21579073.195 7  89876095.140 7     -2564.431          43.000
R05  19175117.453 8 102501992.156 8          .973          51.000    19175119.797 8  79723772.438 8          .757          48.000
R15  19136665.039 8 102260624.511 8      -125.348          51.000    19136667.383 7  79536017.384 7       -97.493          47.000
R16  21400625.914 7 114318329.912 7      3653.633          46.000    21400630.203 6  88914258.339 6      2841.717          41.000
C05  39783345.383 6 207162318.304 6         1.133          36.000    39783343.836 6 160191025.216 6         1.051          41.000
C21  22407434.203 8 116681507.744 8     -1831.047          51.000
C26  21872924.141 8 113897998.242 8      1536.793          51.000
E21  24255608.344 8 127464093.766 8      1839.246          51.000    24255610.219 8  97667284.508 8      1409.254          51.000
E27  24234901.242 6 127355272.166 6     -1079.227          39.000    24234902.391 7  97583907.069 7      -826.919          43.000
> 2020 05 04 04 00 30.0000000  0 14        .000000000000
G05  20775004.078 8 109173382.182 8     -1202.027          51.000    20775002.969 8  85070163.481 8      -936.645          51.000
G07  22719999.383 5 119394348.787 5     -2533.594          35.000    22719993.164 5  93034578.682 5     -1974.229          30.000
G28  21556418.109 8 113279812.655 8      2025.914          51.000    21556416.359 7  88269957.908 7      1578.634          47.000
G30  20679665.172 8 108672445.649 8     -1228.461          51.000    20679666.398 8  84679809.895 8      -957.242          51.000
R04  21597542.008 6 115653877.566 6     -3300.562          40.000    21597548.023 6  89953048.388 6     -2567.104          41.000
R05  19175140.578 8 102502115.104 8       -10.781          51.000    19175142.961 8  79723868.054 8        -8.385          48.000
R14  21635424.094 5 115328949.229 5     -3582.348          32.000    21635426.703 4  89700324.237 4     -2786.273          28.000
R15  19137406.461 8 102264586.962 8      -140.484          51.000    19137408.750 7  79539099.294 7      -109.266          47.000
R16  21380116.648 7 114208768.083 7      3648.949          44.000    21380119.398 6  88829043.604 6      2838.075          38.000
C05  39783306.398 6 207162114.844 6        10.051          36.000    39783304.805 6 160190867.855 6         8.077          41.000
C21  22417989.961 8 116736472.924 8     -1834.926          51.000
C26  21864077.984 8 113851929.546 8      1532.871          51.000
E21  24245112.188 8 127408934.189 8      1836.438          51.000    24245114.570 8  97625019.366 8      1407.176          51.000
E27  24241068.344 6 127387681.858 6     -1082.875          41.000    24241069.875 7  97608740.499 7      -829.858          43.000
> 2020 05 04 04 01  0.0000000  0 15        .000000000000
G05  20781952.578 8 109209896.377 8     -1226.887          51.000    20781951.398 8  85098616.095 8      -956.016          51.000
G07  22734511.258 6 119470611.307 6     -2544.883          37.000    22734486.930 5  93094004.034 5     -1983.019          31.000
G28  21544928.156 8 113219434.668 8      2004.699          48.000    21544927.398 8  88222910.123 8      1562.103          48.000
G30  20686745.305 8 108709651.107 8     -1246.531          51.000    20686746.539 8  84708801.152 8      -971.323          51.000
R04  21616099.641 7 115753258.568 7     -3319.184          45.000    21616105.508 6  90030344.711 6     -2581.587          40.000
R05  19175291.914 8 102502925.804 8       -37.754          51.000    19175294.133 7  79724498.574 7       -29.364          47.000
R14  21655644.617 4 115436773.015 4     -3599.000          29.000    21655653.844 4  89784192.192 4     -2799.222          26.000
R15  19138294.570 8 102269334.155 8      -170.586          51.000    19138297.039 8  79542791.570 8      -132.678          48.000
R16  21359694.703 7 114099676.071 7      3629.441          45.000    21359695.383 6  88744194.344 6      2822.902          37.000
C05  39783278.688 5 207161970.701 5         5.012          35.000    39783277.141 6 160190756.390 6         3.640          41.000
C21  22428629.883 8 116791876.174 8     -1853.328          51.000
C24  25874081.594 6 134733137.051 6      3171.750          38.000
C26  21855315.898 8 113806300.075 8      1514.426          51.000
E21  24234694.242 8 127354185.906 8      1818.949          51.000    24234697.312 8  97583069.380 8      1393.728          51.000
E27  24247319.625 6 127420531.254 6     -1101.574          40.000    24247321.359 7  97633910.786 7      -843.857          42.000
> 2020 05 04 04 01 30.0000000  0 14        .000000000000
G05  20789019.906 8 109247034.460 8     -1246.121          51.000    20789018.477 8  85127554.869 8      -971.003          51.000
G07  22749067.250 5 119547090.773 5     -2551.230          34.000    22749035.117 4  93153598.350 4     -1987.966          28.000
G28  21533536.453 8 113159576.322 8      1988.848          48.000    21533537.031 7  88176267.233 7      1549.748          45.000
G30  20693905.359 8 108747276.561 8     -1258.988          51.000    20693906.672 8  84738119.687 8      -981.030          51.000
R04  21634741.539 8 115853076.650 8     -3332.340          48.000    21634744.820 6  90107980.920 6     -2591.823          39.000
R05  19175572.188 8 102504423.603 8       -59.188          51.000    19175573.906 7  79725663.503 7       -46.035          46.000
R15  19139328.695 8 102274862.476 8      -195.129          51.000    19139331.562 8  79547091.379 8      -151.767          48.000
R16  21339360.938 7 113991053.566 7      3615.082          46.000    21339360.258 6  88659710.250 6      2811.730          40.000
C05  39783261.945 6 207161883.752 6         3.691          36.000    39783260.477 6 160190689.106 6         3.184          41.000
C21  22439353.414 8 116847714.555 8     -1866.309          51.000
C24  25855830.656 6 134638089.137 6      3167.152          39.000
C26  21846637.281 8 113761107.996 8      1501.191          51.000
E21  24224354.148 8 127299847.589 8      1806.605          51.000    24224358.219 8  97541433.522 8      1384.300          51.000
E27  24253653.961 6 127453816.693 6     -1114.562          37.000    24253655.438 7  97659415.319 7      -854.051          42.000
> 2020 05 04 04 02  0.0000000  0 14        .000000000000
G05  20796178.219 8 109284651.007 8     -1265.340          51.000    20796176.688 8  85156866.464 8      -985.979          51.000
G07  22763635.477 6 119623688.255 6     -2556.699          36.000    22763637.320 6  93213284.361 6     -1992.233          36.000
G28  21522217.281 8 113100095.892 8      1972.902          49.000    21522218.055 7  88129918.830 7      1537.327          44.000
G30  20701117.727 8 108785176.854 8     -1271.457          51.000    20701119.039 8  84767652.363 8      -990.746          51.000
R04  21653438.461 8 115953183.457 8     -3345.309          50.000    21653439.211 6  90185841.667 6     -2601.910          40.000
R05  19175953.727 8 102506463.503 8       -80.621          51.000    19175955.539 7  79727250.061 7       -62.705          46.000
R15  19140481.609 8 102281024.452 8      -219.508          51.000    19140484.922 7  79551884.046 7      -170.725          47.000
R16  21319088.062 7 113882757.542 7      3600.910          46.000    21319088.391 7  88575480.028 7      2800.705          43.000
C05  39783228.891 6 207161711.368 6         3.855          36.000    39783227.391 6 160190555.785 6         3.057          41.000
C21  22450132.750 8 116903844.874 8     -1879.312          51.000
C24  25837588.703 5 134543082.352 5      3162.996          35.000
C26  21838014.961 8 113716211.104 8      1488.184          51.000
E21  24214064.609 8 127245776.328 8      1794.527          51.000    24214069.461 8  97500002.272 8      1374.944          51.000
E27  24260043.406 6 127487393.419 6     -1127.500          39.000    24260044.898 7  97685142.976 7      -864.027          42.000
> 2020 05 04 04 02 30.0000000  0 15        .000000000000
G05  20803440.438 8 109322814.044 8     -1280.461          51.000    20803438.703 8  85186603.896 8      -997.762          51.000
G07  22778228.219 6 119700378.965 6     -2557.996          38.000    22778233.242 4  93273043.198 4     -1993.250          29.000
G28  21510984.281 8 113041064.729 8      1960.902          51.000    21510983.969 7  88083920.531 7      1527.976          43.000
G30  20708395.289 8 108823420.008 8     -1279.746          51.000    20708396.414 8  84797452.203 8      -997.208          51.000
R04  21672201.172 7 116053648.003 7     -3354.012          47.000    21672201.750 6  90263980.691 6     -2608.679          41.000
R05  19176450.266 8 102509117.406 8       -97.992          51.000    19176451.836 7  79729314.167 7       -76.216          45.000
R14  21716647.055 5 115761930.924 5     -3625.191          33.000
R15  19141766.188 8 102287889.308 8      -239.875          51.000    19141769.531 7  79557223.384 7      -186.569          47.000
R16  21298889.133 7 113774860.906 7      3590.668          47.000    21298891.227 7  88491560.399 7      2792.742          45.000
C05  39783192.625 6 207161522.483 6         7.109          36.000    39783191.117 6 160190409.697 6         5.636          41.000
C21  22460981.297 8 116960335.139 8     -1888.277          51.000
C24  25819367.688 5 134448186.780 5      3161.652          31.000
C26  21829462.469 8 113671678.586 8      1479.062          51.000
E21  24203839.266 8 127192042.456 8      1786.156          51.000    24203844.141 8  97458829.535 8      1368.625          51.000
E27  24266500.945 6 127521329.586 6     -1136.410          37.000    24266502.812 7  97711146.062 7      -870.867          42.000
> 2020 05 04 04 03  0.0000000  0 15        .000000000000
G05  20810816.266 8 109361574.478 8     -1300.648          51.000    20810814.562 8  85216806.839 8     -1013.492          51.000
G07  22792858.484 6 119777258.473 6     -2564.191          38.000
G28  21499847.180 8 112982535.470 8      1943.938          51.000    21499845.570 7  88038313.331 7      1514.756          43.000
G30  20715747.391 8 108862055.380 8     -1293.027          51.000    20715748.383 8  84827557.680 8     -1007.554          51.000
R04  21691038.508 7 116154520.431 7     -3367.816          45.000    21691040.172 7  90342437.036 7     -2619.413          42.000
R05  19177071.258 8 102512438.189 8      -120.465          50.000    19177072.180 7  79731896.966 7       -93.695          45.000
R14  21737087.695 6 115870892.041 6     -3635.773          36.000    21737081.781 5  90121785.456 5     -2827.827          30.000
R15  19143191.820 8 102295507.264 8      -265.109          51.000    19143194.961 8  79563148.467 8      -206.196          48.000
R16  21278775.398 8 113667417.988 8      3575.223          48.000    21278778.539 7  88407993.677 7      2780.729          46.000
C05  39783162.797 6 207161367.849 6         6.086          36.000    39783161.336 7 160190289.729 7         4.703          42.000
C21  22471908.320 8 117017234.966 8     -1902.160          51.000
C24  25801177.383 5 134353499.812 5      3156.387          31.000
C26  21820989.719 8 113627561.103 8      1465.008          51.000
E21  24193688.109 8 127138697.536 8      1773.047          51.000    24193692.211 8  97417954.864 8      1358.526          51.000
E27  24273036.383 6 127555674.783 6     -1150.328          41.000    24273038.766 7  97737462.554 7      -881.405          42.000
> 2020 05 04 04 03 30.0000000  0 15        .000000000000
G05  20818298.672 8 109400896.533 8     -1320.492          50.000    20818297.734 8  85247447.373 8     -1028.958          51.000
G07  22807517.672 6 119854291.597 6     -2570.379          37.000    22807518.195 5  93392929.638 5     -2002.893          34.000
G28  21488799.500 8 112924476.104 8      1927.023          51.000    21488796.891 7  87993072.268 7      1501.577          43.000
G30  20723167.328 8 108901047.418 8     -1306.039          51.000    20723168.461 8  84857941.074 8     -1017.693          51.000
R04  21709944.031 7 116255764.141 7     -3381.461          44.000    21709947.102 6  90421182.207 6     -2630.022          41.000
R05  19177811.297 8 102516392.305 8      -142.723          50.000    19177811.727 7  79734972.369 7      -111.010          46.000
R14  21757582.031 6 115980135.937 6     -3646.293          36.000    21757577.555 5  90206752.862 5     -2836.009          30.000
R15  19144751.836 8 102303842.273 8      -290.191          51.000    19144754.891 7  79569631.266 7      -225.704          47.000
R16  21258740.766 7 113560396.408 7      3559.953          47.000    21258744.227 7  88324754.669 7      2768.852          46.000
C05  39783133.047 6 207161212.155 6         4.688          36.000    39783131.570 6 160190169.683 6         3.776          41.000
C21  22482907.023 8 117074509.724 8     -1915.809          51.000
C24  25783009.586 5 134258896.953 5      3151.391          32.000
C26  21812590.078 8 113583825.161 8      1451.141          51.000
E21  24183604.641 8 127085708.307 8      1759.973          51.000    24183607.375 8  97377352.737 8      1348.544          51.000
E27  24279643.266 7 127590393.743 7     -1163.934          42.000    24279646.570 6  97764065.371 6      -891.764          41.000
> 2020 05 04 04 04  0.0000000  0 14        .000000000000
G05  20825890.500 8 109440794.207 8     -1339.273          50.000    20825890.398 8  85278536.454 8     -1043.590          51.000
G28  21477844.234 8 112866903.773 8      1911.254          51.000    21477841.375 7  87948210.699 7      1489.289          43.000
G30  20730657.836 8 108940409.953 8     -1317.895          51.000    20730659.008 8  84888613.153 8     -1026.931          51.000
R04  21728921.617 7 116357392.964 7     -3393.727          44.000    21728926.430 7  90500226.822 7     -2639.568          44.000
R05  19178672.812 8 102520996.681 8      -164.047          50.000    19178673.281 7  79738553.551 7      -127.592          47.000
R14  21778132.047 5 116089674.738 5     -3655.484          35.000    21778128.086 4  90291949.687 4     -2843.155          28.000
R15  19146448.508 8 102312908.159 8      -313.988          51.000    19146451.062 8  79576682.515 8      -244.213          48.000
R16  21238788.195 7 113453814.656 7      3545.742          46.000    21238791.820 7  88241857.724 7      2757.799          45.000
C05  39783106.125 6 207161071.971 6         5.227          36.000    39783104.680 6 160190061.279 6         3.613          41.000
C21  22493980.391 8 117132173.687 8     -1928.285          51.000
C24  25764867.453 6 134164440.587 6      3146.699          36.000
C26  21804266.359 8 113540486.161 8      1438.273          51.000
E21  24173591.797 8 127033090.853 8      1747.988          51.000    24173593.422 8  97337035.483 8      1339.350          51.000
E27  24286323.352 6 127625500.228 6     -1176.359          40.000    24286327.805 6  97790965.240 6      -901.414          40.000
> 2020 05 04 04 04 30.0000000  0 15        .000000000000
G05  20833588.469 8 109481248.078 8     -1358.281          51.000    20833588.805 8  85310058.943 8     -1058.401          51.000
G07  22836909.070 6 120008766.531 6     -2581.152          36.000
G28  21466978.117 8 112809802.288 8      1894.938          50.000    21466975.547 7  87903716.022 7      1476.575          45.000
G30  20738215.070 8 108980123.431 8     -1330.195          51.000    20738216.164 8  84919558.711 8     -1036.516          51.000
R04  21747968.789 7 116459386.512 7     -3406.289          46.000    21747973.297 7  90579555.040 7     -2649.336          44.000
R05  19179652.711 8 102526234.077 8      -185.570          50.000    19179653.242 7  79742627.073 7      -144.332          47.000
R14  21798734.281 6 116199486.352 6     -3665.320          37.000    21798729.234 4  90377381.738 4     -2850.802          27.000
R15  19148278.242 8 102322685.136 8      -338.250          49.000    19148280.562 8  79584286.830 8      -263.083          48.000
R16  21218915.172 7 113347656.432 7      3530.984          46.000    21218918.203 7  88159290.197 7      2746.321          44.000
C05  39783078.656 5 207160929.968 5         4.699          35.000    39783077.188 6 160189950.674 6         3.395          41.000
C21  22505125.102 8 117190208.119 8     -1941.152          51.000
C24  25746750.094 6 134070113.729 6      3141.820          38.000
C26  21796016.305 8 113497526.452 8      1425.188          51.000
E21  24163646.547 8 126980827.962 8      1735.715          51.000    24163647.648 8  97296989.898 8      1329.969          51.000
E27  24293073.930 7 127660975.146 7     -1189.164          43.000    24293077.250 6  97818147.312 6      -911.336          38.000
> 2020 05 04 04 05  0.0000000  0 15        .000000000000
G05  20841393.562 8 109522263.137 8     -1376.379          51.000    20841393.938 8  85342018.735 8     -1072.500          51.000
G07  22851674.320 5 120086324.837 5     -2585.668          35.000    22851690.023 5  93573835.700 5     -2014.800          32.000
G28  21456203.148 8 112753180.358 8      1879.543          50.000    21456201.141 7  87859595.050 7      1464.579          45.000
G30  20745840.023 8 109020193.230 8     -1341.395          51.000    20745841.070 8  84950781.931 8     -1045.242          51.000
R04  21767085.641 7 116561749.897 7     -3418.098          47.000    21767088.742 7  90659170.998 7     -2658.520          44.000
R05  19180752.508 8 102532112.427 8      -206.480          51.000    19180753.164 8  79747199.137 8      -160.596          48.000
R14  21819387.633 6 116309574.065 6     -3674.199          36.000    21819380.930 4  90463005.533 4     -2857.714          27.000
R15  19150242.258 8 102333178.500 8      -361.477          50.000    19150244.383 8  79592448.311 8      -281.151          49.000
R16  21199123.398 7 113241931.092 7      3516.992          47.000    21199125.625 7  88077059.387 7      2735.438          43.000
C05  39783051.859 6 207160789.805 6         4.926          36.000    39783050.453 6 160189843.026 6         3.555          41.000
C21  22516341.406 8 117248618.957 8     -1953.145          50.000
C24  25728659.039 6 133975924.446 6      3137.738          40.000
C26  21787841.023 8 113454953.107 8      1412.805          51.000
E21  24153770.336 8 126928927.213 8      1724.090          51.000    24153771.219 8  97257221.799 8      1321.056          51.000
E27  24299895.773 7 127696823.964 7     -1201.281          42.000    24299897.844 6  97845615.877 6      -920.301          36.000
> 2020 05 04 04 05 30.0000000  0 15        .000000000000
G05  20849304.281 8 109563833.193 8     -1394.973          51.000    20849304.500 8  85374410.960 8     -1086.992          51.000
G07  22866450.625 5 120163972.505 5     -2590.922          33.000    22866463.828 5  93634340.294 5     -2018.894          33.000
G28  21445518.773 8 112697033.576 8      1863.461          51.000    21445517.188 7  87815844.294 7      1452.047          47.000
G30  20753531.398 8 109060611.584 8     -1353.152          51.000    20753532.516 8  84982276.734 8     -1054.404          51.000
R04  21786268.961 8 116664474.812 8     -3430.309          48.000    21786272.109 7  90739068.158 7     -2668.018          44.000
R05  19181971.125 8 102538626.334 8      -227.883          51.000    19181972.227 8  79752265.487 8      -177.242          49.000
R14  21840088.789 6 116419927.768 6     -3682.969          36.000    21840082.328 4  90548834.115 4     -2864.531          26.000
R15  19152338.648 8 102344380.269 8      -385.395          50.000    19152340.734 8  79601160.786 8      -299.751          49.000
R16  21179411.828 7 113136634.660 7      3502.453          47.000    21179413.578 7  87995162.180 7      2724.130          43.000
C05  39783024.695 6 207160648.113 6         4.504          36.000    39783023.266 6 160189733.417 6         3.655          41.000
C21  22527628.297 8 117307399.054 8     -1965.637          50.000
C24  25710593.891 6 133881867.452 6      3132.754          41.000
C26  21779738.664 8 113412760.046 8      1399.938          51.000
E21  24143962.062 8 126877383.005 8      1712.090          51.000    24143962.961 8  97217726.902 8      1311.840          51.000
E27  24306787.328 7 127733039.002 7     -1213.309          45.000    24306789.508 5  97873365.078 5      -929.483          35.000
> 2020 05 04 04 06  0.0000000  0 14        .000000000000
G05  20857323.281 8 109605971.675 8     -1412.398          51.000    20857322.766 8  85407246.127 8     -1100.570          51.000
G28  21434928.000 8 112641378.922 8      1848.578          49.000    21434927.070 8  87772477.031 8      1440.450          49.000
G30  20761291.711 8 109101392.170 8     -1363.734          51.000    20761292.930 8  85014053.794 8     -1062.650          51.000
R04  21805522.469 8 116767574.728 8     -3441.164          49.000    21805525.594 7  90819256.992 7     -2676.458          43.000
R05  19183311.656 8 102545792.459 8      -247.945          51.000    19183313.148 8  79757839.121 8      -192.849          49.000
R14  21860839.547 6 116530572.077 6     -3690.750          36.000    21860832.227 4  90634867.752 4     -2870.577          25.000
R15  19154570.680 8 102356304.261 8      -407.699          49.000    19154572.227 8  79610434.968 8      -317.099          50.000
R16  21159783.852 7 113031785.358 7      3489.121          47.000    21159785.250 7  87913612.728 7      2713.761          43.000
C05  39782999.867 6 207160518.905 6         6.148          36.000    39782998.531 6 160189633.524 6         4.476          41.000
C21  22538989.500 8 117366562.493 8     -1976.789          50.000
C24  25692557.438 6 133787958.995 6      3129.551          40.000
C26  21771712.328 8 113370962.555 8      1388.406          51.000
E21  24134224.773 8 126826211.319 8      1701.242          51.000    24134225.867 8  97178517.448 8      1303.510          51.000
E27  24313751.500 7 127769634.268 7     -1224.488          45.000    24313753.562 5  97901409.621 5      -938.370          31.000
> 2020 05 04 04 06 30.0000000  0 15        .000000000000
G05  20865443.289 8 109648640.076 8     -1431.281          51.000    20865441.805 8  85440494.212 8     -1115.284          51.000
G07  22896054.633 5 120319578.963 5     -2599.852          30.000
G28  21424423.773 8 112586181.071 8      1832.102          50.000    21424423.680 8  87729465.739 8      1427.612          48.000
G30  20769113.594 8 109142496.488 8     -1375.754          51.000    20769114.680 8  85046083.131 8     -1072.016          51.000
R04  21824839.055 8 116871010.438 8     -3453.672          48.000    21824841.344 6  90899707.002 6     -2686.189          41.000
R05  19184767.273 8 102553574.433 8      -269.883          51.000    19184768.719 8  79763891.756 8      -209.912          48.000
R14  21881632.336 5 116641440.197 5     -3699.863          34.000    21881631.695 4  90721098.445 4     -2877.674          28.000
R15  19156930.094 8 102368911.127 8      -431.824          51.000    19156931.586 8  79620240.302 8      -335.866          49.000
R16  21140232.836 7 112927347.756 7      3474.266          46.000    21140234.664 7  87832383.499 7      2702.207          42.000
C05  39782970.484 6 207160365.575 6         5.422          37.000    39782969.094 6 160189514.899 6         4.247          41.000
C21  22550418.047 8 117426071.820 8     -1989.648          51.000
C24  25674542.836 6 133694163.468 6      3124.477          40.000
C26  21763755.164 8 113329524.224 8      1375.051          51.000
E21  24124551.453 8 126775375.890 8      1688.715          51.000    24124552.703 8  97139565.635 8      1293.989          51.000
E27  24320780.492 7 127806571.320 7     -1237.109          45.000
> 2020 05 04 04 07  0.0000000  0 14        .000000000000
G05  20873670.156 8 109691870.451 8     -1449.699          51.000    20873667.891 8  85474180.215 8     -1129.639          51.000
G28  21414013.461 8 112531475.302 8      1815.992          50.000    21414013.430 7  87686837.839 7      1415.059          46.000
G30  20777003.180 8 109183956.478 8     -1387.277          51.000    20777004.039 8  85078389.604 8     -1080.995          51.000
R04  21844224.117 7 116974813.746 7     -3465.484          47.000    21844225.711 6  90980442.909 6     -2695.377          40.000
R05  19186344.516 8 102562006.830 8      -291.215          51.000    19186346.242 8  79770450.260 8      -226.503          48.000
R14  21902477.523 5 116752575.451 5     -3708.402          35.000    21902483.664 4  90807536.873 4     -2884.313          27.000
R15  19159423.352 8 102382233.157 8      -455.191          49.000    19159424.852 8  79630601.856 8      -354.038          49.000
R16  21120765.719 7 112823358.231 7      3459.562          46.000    21120768.016 7  87751502.790 7      2690.774          42.000
C05  39782942.820 6 207160222.091 6         5.020          36.000    39782941.406 6 160189403.147 6         4.105          41.000
C21  22561919.539 8 117485959.197 8     -2001.863          51.000
C24  25656557.109 6 133600515.128 6      3119.684          39.000
C26  21755872.898 8 113288478.257 8      1362.387          51.000
E21  24114948.336 8 126724910.827 8      1676.625          51.000    24114949.750 8  97100897.604 8      1284.648          51.000
E27  24327880.633 7 127843882.269 7     -1249.270          46.000
> 2020 05 04 04 07 30.0000000  0 14        .000000000000
G05  20881998.180 8 109735633.822 8     -1467.652          51.000    20881995.703 8  85508281.544 8     -1143.625          51.000
G28  21403692.016 8 112477235.623 8      1800.113          50.000    21403691.859 7  87644573.134 7      1402.683          46.000
G30  20784954.836 8 109225743.009 8     -1398.414          51.000    20784955.719 8  85110950.527 8     -1089.673          51.000
R04  21863671.875 8 117078954.617 8     -3477.168          48.000    21863672.047 6  91061441.301 6     -2704.467          36.000
R05  19188038.664 8 102571062.638 8      -312.406          51.000    19188040.383 8  79777493.640 8      -242.983          48.000
R14  21923370.906 5 116863945.914 5     -3716.770          34.000
R15  19162044.602 8 102396240.468 8      -478.375          51.000    19162046.383 8  79641496.429 8      -372.072          49.000
R16  21101377.367 7 112719791.083 7      3444.992          45.000    21101380.289 7  87670950.588 7      2679.438          42.000
C05  39782911.508 6 207160058.967 6         5.477          36.000    39782910.141 6 160189276.980 6         4.540          41.000
C21  22573487.852 8 117546196.364 8     -2013.766          51.000
C24  25638595.539 6 133506987.620 6      3115.426          40.000
C26  21748060.297 8 113247797.466 8      1349.809          51.000
E21  24105410.273 8 126674789.225 8      1664.875          51.000    24105411.766 8  97062492.726 8      1275.674          51.000
E27  24335046.562 7 127881538.155 7     -1261.141          44.000
> 2020 05 04 04 08  0.0000000  0 14        .000000000000
G05  20890430.211 8 109779945.354 8     -1486.762          51.000    20890427.844 8  85542810.005 8     -1158.516          51.000
G28  21393462.773 8 112423480.470 8      1783.141          50.000    21393462.289 7  87602685.996 7      1389.460          46.000
G30  20792971.484 8 109267871.189 8     -1410.578          51.000    20792972.422 8  85143777.669 8     -1099.152          51.000
R04  21883186.039 8 117183448.171 8     -3489.547          49.000    21883180.797 5  91142713.847 5     -2714.101          33.000
R05  19189852.828 8 102580759.946 8      -334.539          51.000    19189854.328 8  79785035.972 8      -260.200          48.000
R14  21944311.227 5 116975565.089 5     -3724.988          32.000
R15  19164796.750 8 102410948.393 8      -502.457          49.000    19164798.852 8  79652935.902 8      -390.800          49.000
R16  21082071.000 7 112616665.569 7      3429.391          42.000    21082074.836 6  87590741.871 6      2667.307          41.000
C05  39782879.703 6 207159893.721 6         5.137          36.000    39782878.430 6 160189149.165 6         3.900          41.000
C21  22585126.359 8 117606798.832 8     -2026.746          51.000
C24  25620661.695 7 133413598.544 7      3110.203          42.000
C26  21740321.453 8 113207498.571 8      1336.305          51.000
E21  24095940.719 8 126625028.419 8      1652.031          51.000    24095942.234 8  97024364.301 8      1265.890          51.000
E27  24342280.602 7 127919554.223 7     -1273.840          44.000
> 2020 05 04 04 08 30.0000000  0 14        .000000000000
G05  20898965.141 8 109824798.444 8     -1504.168          51.000    20898963.039 8  85577760.471 8     -1172.079          51.000
G28  21383324.953 8 112370206.175 8      1767.738          51.000    21383324.570 7  87561173.582 7      1377.461          46.000
G30  20801051.883 8 109310334.067 8     -1421.105          51.000    20801052.766 8  85176865.595 8     -1107.355          51.000
R04  21902764.477 8 117288286.876 8     -3500.457          48.000    21902757.156 6  91224254.981 6     -2722.578          38.000
R05  19191786.336 8 102591093.969 8      -355.188          51.000    19191787.922 8  79793073.510 8      -276.257          48.000
R14  21965296.477 5 117087423.754 5     -3732.484          35.000
R15  19167678.625 8 102426349.303 8      -524.996          50.000    19167681.172 8  79664914.376 8      -408.333          49.000
R16  21062847.141 7 112513978.754 7      3415.422          42.000    21062850.859 6  87510874.377 6      2656.439          41.000
C05  39782846.508 5 207159720.793 5         5.414          35.000    39782845.195 6 160189015.427 6         4.446          41.000
C21  22596834.141 8 117667760.086 8     -2038.105          51.000
C24  25602754.062 7 133320343.486 7      3106.344          42.000
C26  21732654.562 8 113167576.204 8      1324.332          50.000
E21  24086538.727 8 126575623.575 8      1640.738          51.000    24086540.844 8  96986508.641 8      1257.159          51.000
E27  24349581.945 7 127957923.698 7     -1284.965          45.000    24349585.055 6  98045668.820 6      -984.760          36.000
> 2020 05 04 04 09  0.0000000  0 15        .000000000000
G05  20907602.727 8 109870191.222 8     -1522.348          51.000    20907601.148 8  85613131.477 8     -1186.245          51.000
G28  21373278.922 8 112317414.019 8      1751.406          49.000    21373278.117 7  87520036.825 7      1364.732          45.000
G30  20809195.547 8 109353129.695 8     -1432.270          51.000    20809196.484 8  85210212.820 8     -1116.054          51.000
R04  21922404.914 7 117393468.099 7     -3512.016          42.000    21922401.953 7  91306062.544 7     -2731.571          44.000
R05  19193839.008 8 102602065.129 8      -376.621          51.000    19193840.562 8  79801606.614 8      -292.928          48.000
R14  21986325.625 5 117199518.008 5     -3740.605          32.000
R15  19170689.516 8 102442441.022 8      -548.199          51.000    19170692.516 8  79677430.153 8      -426.377          49.000
R16  21043705.758 6 112411731.904 6      3400.473          41.000    21043709.547 7  87431349.033 7      2644.812          42.000
C05  39782811.641 6 207159539.708 6         6.156          36.000    39782810.430 6 160188875.405 6         4.528          41.000
C21  22608610.203 8 117729078.855 8     -2050.164          51.000
C24  25584872.859 6 133227223.192 6      3101.414          41.000
C26  21725059.477 8 113128030.092 8      1311.645          50.000
E19  23896875.148 6 125578922.742 6       760.340          41.000    23896873.164 6  96222805.474 6       582.460          39.000
E21  24077204.508 8 126526574.983 8      1628.668          51.000    24077207.539 8  96948925.948 8      1247.973          51.000
E27  24356950.148 7 127996644.747 7     -1296.996          43.000    24356958.453 6  98075338.186 6      -993.629          38.000
> 2020 05 04 04 09 30.0000000  0 16        .000000000000
G05  20916344.367 8 109916131.245 8     -1538.910          51.000    20916343.242 8  85648928.881 8     -1199.151          51.000
G13  20962723.055 5 110159852.257 5      1760.281          33.000
G28  21363326.469 8 112265114.554 8      1736.617          49.000    21363325.305 7  87479283.951 7      1353.208          45.000
G30  20817403.930 8 109396265.710 8     -1442.070          51.000    20817404.992 8  85243825.272 8     -1123.691          51.000
R04  21942110.539 7 117498999.381 7     -3522.047          43.000    21942111.945 7  91388142.488 7     -2739.364          46.000
R05  19196012.555 8 102613683.581 8      -396.551          51.000    19196014.094 8  79810643.159 8      -308.428          48.000
R14  22007399.500 4 117311853.607 4     -3747.430          29.000
R15  19173831.344 8 102459231.014 8      -569.777          51.000    19173834.492 8  79690489.015 8      -443.160          48.000
R16  21024649.508 7 112309936.949 7      3387.168          43.000    21024654.117 7  87352175.165 7      2634.461          42.000
C05  39782777.141 6 207159359.564 6         7.309          36.000    39782775.820 6 160188736.047 6         5.845          41.000
C21  22620455.961 8 117790763.237 8     -2060.828          51.000
C24  25567020.523 6 133134247.697 6      3098.145          39.000
C26  21717538.906 8 113088869.536 8      1300.367          50.000
E19  23892557.453 6 125556231.434 6       753.895          41.000    23892555.938 6  96205418.650 6       577.459          40.000
E21  24067939.859 8 126477892.419 8      1618.172          51.000    24067943.852 8  96911623.716 8      1239.901          51.000
E27  24364386.359 7 128035725.124 7     -1307.160          44.000    24364395.727 6  98105282.896 6     -1001.345          39.000
> 2020 05 04 04 10  0.0000000  0 15        .000000000000
G05  20925185.406 8 109962591.563 8     -1557.176          51.000    20925184.125 8  85685131.722 8     -1213.384          51.000
G28  21353463.312 8 112213284.568 8      1719.969          49.000    21353462.469 7  87438896.911 7      1340.235          45.000
G30  20825672.055 8 109439715.416 8     -1453.418          51.000    20825673.156 8  85277682.151 8     -1132.533          51.000
R04  21961877.141 7 117604852.984 7     -3533.887          45.000    21961881.117 7  91470473.097 7     -2748.576          47.000
R05  19198302.805 8 102625924.630 8      -418.375          51.000    19198304.164 8  79820163.975 8      -325.403          49.000
R14  22028512.602 5 117424401.466 5     -3755.168          31.000
R15  19177098.656 8 102476691.885 8      -593.078          51.000    19177102.242 8  79704069.692 8      -461.283          48.000
R16  21005674.094 7 112208570.793 7      3371.754          44.000    21005678.680 7  87273334.774 7      2622.475          42.000
C05  39782737.906 6 207159155.164 6         7.242          36.000    39782736.625 6 160188577.982 6         5.570          41.000
C21  22632366.875 8 117852787.216 8     -2072.977          51.000
C24  25549194.250 6 133041393.073 6      3093.461          39.000
C26  21710087.695 8 113050069.608 8      1287.418          51.000
E19  23888281.391 6 125533761.272 6       745.152          41.000    23888280.727 6  96188201.225 6       571.015          40.000
E21  24058740.352 8 126429551.361 8      1605.707          51.000    24058744.953 8  96874583.155 8      1230.314          51.000
E27  24371886.266 7 128075138.355 7     -1319.277          42.000    24371894.438 6  98135482.623 6     -1010.914          40.000
> 2020 05 04 04 10 30.0000000  0 15        .000000000000
G05  20934130.633 8 110009597.781 8     -1573.484          51.000    20934129.164 8  85721759.930 8     -1226.092          51.000
G28  21343694.727 8 112161952.239 8      1705.168          48.000    21343694.461 7  87398897.702 7      1328.702          45.000
G30  20834004.742 8 109483503.953 8     -1462.848          51.000    20834005.789 8  85311803.082 8     -1139.881          51.000
R04  21981709.461 7 117711054.164 7     -3543.484          46.000    21981714.398 7  91553073.995 7     -2756.046          47.000
R05  19200714.461 8 102638816.336 8      -438.082          51.000    19200716.461 8  79830190.841 8      -340.730          49.000
R14  22049670.258 4 117537184.991 4     -3760.734          28.000
R15  19180496.312 8 102494848.639 8      -614.395          51.000    19180499.711 7  79718191.607 7      -477.862          47.000
R16  20986784.398 7 112107662.658 7      3358.312          45.000    20986788.633 6  87194850.639 6      2612.018          41.000
C05  39782699.070 5 207158953.014 5         8.953          35.000    39782697.773 6 160188421.625 6         7.083          41.000
C21  22644348.320 8 117915176.249 8     -2083.305          51.000
C24  25531395.609 6 132948686.982 6      3090.332          41.000
C26  21702711.242 8 113011656.813 8      1276.371          51.000
E19  23884052.359 6 125511540.013 6       739.129          41.000    23884052.758 6  96171174.539 6       566.301          41.000
E21  24049611.711 8 126381579.074 8      1595.434          51.000    24049616.117 8  96837825.169 8      1222.487          51.000
E27  24379454.664 6 128114909.507 6     -1328.902          38.000    24379461.109 7  98165956.664 7     -1018.358          42.000
> 2020 05 04 04 11  0.0000000  0 15        .000000000000
G05  20943183.289 8 110057167.658 8     -1594.484          51.000    20943181.719 8  85758827.344 8     -1242.455          51.000
G28  21334025.352 8 112111138.263 8      1685.684          50.000    21334024.812 7  87359302.362 7      1313.520          44.000
G30  20842405.242 8 109527648.704 8     -1476.820          51.000    20842406.305 8  85346201.585 8     -1150.769          51.000
R04  22001610.680 7 117817619.941 7     -3557.582          46.000    22001614.992 7  91635958.472 7     -2767.008          45.000
R05  19203251.109 8 102652378.472 8      -462.680          51.000    19203254.031 8  79840739.153 8      -359.865          49.000
R14  22070875.633 5 117650219.704 5     -3771.652          33.000    22070889.461 4  91505754.689 4     -2933.516          27.000
R15  19184027.609 8 102513718.824 8      -640.297          51.000    19184030.922 8  79732868.411 8      -498.009          48.000
R16  20967984.477 7 112007234.007 7      3340.270          47.000    20967987.789 6  87116739.460 6      2597.987          40.000
C05  39782664.258 5 207158771.640 5         6.270          35.000    39782662.898 6 160188281.371 6         4.887          41.000
C21  22656403.398 8 117977948.081 8     -2098.176          51.000
C24  25513626.695 6 132856149.134 6      3082.246          41.000
C26  21695412.977 8 112973650.037 8      1260.734          51.000
E19  23879874.430 6 125489587.128 6       727.887          41.000    23879875.570 6  96154353.475 6       557.863          41.000
E21  24040557.445 8 126333995.158 8      1580.262          51.000    24040560.930 8  96801364.750 8      1210.886          51.000
E27  24387094.594 6 128155056.272 6     -1343.797          41.000    24387098.727 7  98196718.498 7     -1029.869          42.000
> 2020 05 04 04 11 30.0000000  0 16        .000000000000
G05  20952338.703 8 110105277.189 8     -1612.555          51.000    20952337.000 8  85796315.277 8     -1256.536          51.000
G07  23045805.148 5 121106521.686 5     -2645.543          35.000    23045803.289 5  94368708.284 5     -2061.462          35.000
G28  21324450.891 8 112060821.894 8      1668.934          50.000    21324449.688 7  87320094.790 7      1300.468          44.000
G30  20850869.039 8 109572126.083 8     -1487.984          51.000    20850870.039 8  85380859.268 8     -1159.468          51.000
R04  22021575.219 7 117924526.194 7     -3568.992          47.000    22021578.680 7  91719107.796 7     -2775.883          43.000
R05  19205909.156 8 102666589.629 8      -484.445          50.000    19205912.898 8  79851792.248 8      -376.791          49.000
R14  22092123.383 5 117763479.750 5     -3778.586          31.000    22092138.094 4  91593848.767 4     -2938.900          24.000
R15  19187687.758 8 102533277.548 8      -663.340          51.000    19187691.305 7  79748080.778 7      -515.931          47.000
R16  20949270.562 7 111907264.776 7      3324.750          47.000    20949271.805 6  87038985.638 6      2585.917          38.000
C05  39782629.211 5 207158589.701 5         6.367          35.000    39782627.938 6 160188140.278 6         4.854          41.000
C21  22668527.688 8 118041079.781 8     -2110.273          51.000
C24  25495884.305 6 132763758.673 6      3077.199          41.000
C26  21688188.219 8 112936027.439 8      1247.816          51.000
E19  23875743.820 6 125467881.625 6       719.500          41.000    23875745.102 7  96137721.988 7       551.314          42.000
E21  24031572.914 8 126286778.072 8      1567.844          51.000    24031575.477 8  96765185.413 8      1201.380          51.000
E27  24394802.055 7 128195555.181 7     -1355.672          42.000    24394803.859 7  98227750.066 7     -1038.791          43.000
> 2020 05 04 04 12  0.0000000  0 16        .000000000000
G05  20961597.773 8 110153932.446 8     -1630.676          51.000    20961596.023 8  85834228.460 8     -1270.653          51.000
G07  23060914.672 5 121185941.394 5     -2648.934          34.000    23060916.289 4  94430593.794 4     -2064.113          28.000
G28  21314972.852 8 112011012.489 8      1652.137          51.000    21314971.062 7  87281282.307 7      1287.379          43.000
G30  20859397.281 8 109616942.293 8     -1499.211          51.000    20859398.094 8  85415780.972 8     -1168.216          51.000
R04  22041604.516 7 118031778.367 7     -3580.449          47.000    22041606.766 7  91802526.129 7     -2784.797          42.000
R05  19208690.586 8 102681458.205 8      -506.266          50.000    19208694.578 8  79863356.690 8      -393.762          50.000
R14  22113413.906 5 117876969.557 5     -3786.410          32.000
R15  19191478.086 8 102553530.991 8      -686.285          51.000    19191480.977 7  79763833.442 7      -533.777          47.000
R16  20930644.477 7 111807764.866 7      3309.215          47.000    20930644.781 6  86961596.864 6      2573.837          40.000
C05  39782595.445 6 207158413.200 6         6.383          36.000    39782594.242 6 160188004.156 6         4.733          41.000
C21  22680721.852 8 118104577.971 8     -2122.387          51.000
C24  25478170.531 6 132671524.292 6      3072.309          40.000
C26  21681038.672 8 112898796.789 8      1234.711          51.000
E19  23871661.867 6 125446431.879 6       710.996          41.000    23871663.250 7  96121286.462 7       544.717          42.000
E21  24022659.695 8 126239936.169 8      1555.402          51.000    24022661.570 8  96729293.569 8      1191.784          51.000
E27  24402577.445 6 128236412.494 6     -1367.746          38.000    24402578.336 7  98259056.272 7     -1047.977          43.000
> 2020 05 04 04 12 30.0000000  0 15        .000000000000
G05  20970957.547 8 110203118.393 8     -1648.387          51.000    20970955.977 8  85872555.164 8     -1284.457          51.000
G28  21305589.117 8 111961698.015 8      1635.590          51.000    21305586.352 7  87242855.440 7      1274.486          44.000
G30  20867987.164 8 109662082.244 8     -1509.980          51.000    20867988.016 8  85450954.955 8     -1176.608          51.000
R04  22061695.930 8 118139360.600 8     -3591.559          48.000    22061695.656 6  91886201.110 6     -2793.438          38.000
R05  19211592.344 8 102696971.212 8      -527.840          50.000    19211596.617 8  79875422.334 8      -410.542          49.000
R14  22134743.875 5 117990671.805 5     -3793.398          32.000    22134766.898 4  91770598.627 4     -2950.427          26.000
R15  19195395.516 8 102574463.418 8      -709.016          51.000    19195398.297 7  79780114.238 7      -551.454          47.000
R16  20912103.188 7 111708722.756 7      3293.711          44.000    20912104.711 6  86884564.172 6      2561.778          41.000
C05  39782560.242 5 207158229.225 5         5.941          35.000    39782559.102 6 160187862.628 6         4.667          41.000
C21  22692983.148 8 118168428.131 8     -2134.164          51.000
C24  25460483.930 6 132579433.673 6      3067.227          38.000
C26  21673961.625 8 112861944.645 8      1222.133          51.000
E19  23867626.102 7 125425225.314 7       702.656          42.000    23867627.859 7  96105037.262 7       538.384          43.000
E21  24013815.531 8 126193456.476 8      1543.266          51.000    24013816.602 8  96693679.245 8      1182.508          51.000
E27  24410418.000 6 128277613.032 6     -1378.996          39.000    24410418.703 7  98290625.572 7     -1056.669          44.000
> 2020 05 04 04 13  0.0000000  0 15        .000000000000
G05  20980420.359 8 110252847.184 8     -1666.578          51.000    20980419.055 8  85911304.867 8     -1298.635          51.000
G28  21296302.625 8 111912893.823 8      1618.316          51.000    21296299.719 7  87204826.201 7      1261.026          45.000
G30  20876641.062 8 109707558.585 8     -1521.441          51.000    20876642.242 8  85486391.064 8     -1185.539          51.000
R04  22081850.844 8 118247285.542 8     -3603.211          48.000    22081847.797 6  91970142.627 6     -2802.497          38.000
R05  19214617.469 8 102713143.539 8      -550.039          50.000    19214621.828 8  79888000.786 8      -427.811          48.000
R14  22156115.039 5 118104597.393 5     -3801.328          33.000
R15  19199442.336 8 102596087.076 8      -732.230          51.000    19199444.547 7  79796932.637 7      -569.513          46.000
R16  20893650.320 7 111610155.218 7      3277.684          45.000    20893653.422 7  86807900.509 7      2549.309          43.000
C05  39782526.555 6 207158054.148 6         5.715          36.000    39782525.328 6 160187726.465 6         4.277          41.000
C21  22705314.633 8 118232643.265 8     -2146.535          51.000
C24  25442827.445 5 132487501.888 5      3062.004          33.000
C26  21666959.836 8 112825485.142 8      1208.793          51.000
E19  23863639.500 7 125404277.052 7       694.176          42.000    23863641.523 7  96088985.996 7       531.623          43.000
E21  24005043.078 8 126147353.765 8      1530.418          51.000    24005043.297 8  96658353.789 8      1172.649          51.000
E27  24418326.367 6 128319169.906 6     -1391.125          41.000    24418326.734 7  98322467.788 7     -1066.020          44.000
> 2020 05 04 04 13 30.0000000  0 15        .000000000000
G05  20989985.648 8 110303115.342 8     -1684.812          51.000    20989984.797 8  85950474.856 8     -1312.841          51.000
G28  21287112.836 8 111864599.626 8      1601.141          51.000    21287110.227 7  87167194.372 7      1247.642          46.000
G30  20885358.227 8 109753367.188 8     -1532.734          51.000    20885359.547 8  85522086.074 8     -1194.338          51.000
R04  22102067.336 7 118355548.163 7     -3614.641          46.000    22102065.461 6  92054346.839 6     -2811.390          41.000
R05  19217766.070 8 102729973.608 8      -572.207          50.000    19217769.930 8  79901090.812 8      -445.050          49.000
R14  22177527.680 5 118218740.316 5     -3808.566          35.000
R15  19203617.594 8 102618397.112 8      -755.242          51.000    19203619.453 7  79814284.881 7      -587.411          47.000
R16  20875286.969 7 111512061.675 7      3261.605          45.000    20875290.953 7  86731605.503 7      2536.804          44.000
C05                                                                  39782492.344 6 160187593.578 6         4.159          41.000
C21  22717715.859 8 118297219.749 8     -2158.816          51.000
C24  25425198.906 5 132395727.344 5      3056.277          34.000
C26  21660032.969 8 112789415.697 8      1195.609          51.000
E19  23859701.977 7 125383585.247 7       685.414          42.000    23859703.711 7  96073131.207 7       525.116          43.000
E21  23996341.617 8 126101625.932 8      1517.820          51.000    23996341.188 8  96623315.575 8      1162.972          51.000
E27  24426301.406 6 128361078.863 6     -1402.891          38.000    24426301.469 7  98354579.761 7     -1075.023          44.000
> 2020 05 04 04 14  0.0000000  0 16        .000000000000
G05  20999653.547 8 110353923.108 8     -1701.945          50.000    20999653.148 8  85990065.312 8     -1326.191          50.000
G07  23121616.062 5 121504941.130 5     -2666.676          34.000
G28  21278020.422 8 111816818.676 8      1584.723          51.000    21278017.836 7  87129962.474 7      1234.849          46.000
G30  20894138.805 8 109799508.706 8     -1542.945          51.000    20894139.805 8  85558040.495 8     -1202.295          51.000
R04  22122345.836 7 118464148.663 7     -3625.023          45.000    22122347.398 7  92138813.917 7     -2819.463          43.000
R05  19221038.461 8 102747464.018 8      -593.402          50.000    19221042.008 8  79914694.441 8      -461.538          49.000
R14  22198981.414 6 118333099.151 6     -3815.258          37.000    22198989.297 4  92036858.762 4     -2967.423          25.000
R15  19207921.273 8 102641393.779 8      -777.402          51.000    19207923.148 7  79832171.188 7      -604.646          46.000
R16  20857013.633 7 111414446.515 7      3246.488          45.000    20857018.250 7  86655682.574 7      2525.046          44.000
C05  39782461.859 5 207157716.968 5         6.125          35.000    39782460.625 6 160187465.659 6         4.745          41.000
C21  22730186.898 8 118362158.651 8     -2170.051          51.000
C24  25407601.008 6 132304113.128 6      3051.969          37.000
C26  21653181.305 8 112753738.525 8      1183.254          51.000
E19  23855814.109 7 125363152.887 7       677.352          44.000    23855815.266 7  96057475.229 7       518.914          44.000
E21  23987711.648 8 126056275.774 8      1506.020          51.000    23987711.055 8  96588566.745 8      1153.939          51.000
E27  24434342.562 5 128403340.584 5     -1414.004          34.000    24434343.266 7  98386962.107 7     -1083.547          44.000
> 2020 05 04 04 14 30.0000000  0 16        .000000000000
G05  21009420.016 8 110405247.644 8     -1719.473          51.000    21009420.031 8  86030058.450 8     -1339.849          51.000
G07  23136850.867 5 121584993.610 5     -2670.039          34.000    23136849.195 5  94741511.900 5     -2080.553          30.000
G28  21269021.633 8 111769531.124 8      1567.961          51.000    21269019.031 7  87093115.007 7      1221.788          46.000
G30  20902978.383 8 109845960.218 8     -1553.543          51.000    20902978.938 8  85594236.460 8     -1210.553          51.000
R04  22142683.367 7 118573063.220 7     -3635.723          45.000    22142687.703 7  92223525.250 7     -2827.784          44.000
R05  19224430.164 8 102765593.655 8      -615.031          50.000    19224433.445 8  79928795.239 8      -478.358          49.000
R14  22220471.430 6 118447648.586 6     -3821.684          38.000    22220480.047 4  92125958.205 4     -2972.418          28.000
R15  19212349.023 8 102665053.194 8      -799.617          51.000    19212350.359 7  79850572.935 7      -621.924          46.000
R16  20838825.531 7 111317290.217 7      3230.781          43.000    20838831.000 7  86580116.516 7      2512.830          43.000
C05                                                                  39782426.039 6 160187326.257 6         4.730          41.000
C21  22742723.227 8 118427437.709 8     -2181.598          51.000
C24  25390031.383 6 132212639.125 6      3046.805          40.000
C26  21646400.820 8 112718432.459 8      1170.605          51.000
E19  23851971.828 7 125342959.453 7       668.934          44.000    23851972.258 7  96042002.335 7       512.580          44.000
E21  23979149.430 8 126011282.450 8      1493.746          51.000    23979149.148 8  96554091.335 8      1144.580          51.000
E27  24442446.906 6 128445927.281 6     -1425.117          36.000    24442448.219 7  98419597.322 7     -1092.060          44.000
> 2020 05 04 04 15  0.0000000  0 15        .000000000000
G05  21019286.266 8 110457094.804 8     -1737.066          51.000    21019286.328 8  86070458.829 8     -1353.558          51.000
G28  21260118.430 8 111722746.184 8      1550.961          51.000    21260115.766 7  87056659.166 7      1208.541          46.000
G30  20911878.055 8 109892727.876 8     -1564.254          51.000    20911878.555 8  85630678.781 8     -1218.899          51.000
R04  22163081.562 7 118682297.504 7     -3646.586          45.000    22163087.312 7  92308485.250 7     -2836.234          45.000
R05  19227943.102 8 102784370.862 8      -636.852          51.000    19227945.680 8  79943399.726 8      -495.329          49.000
R14  22241997.578 6 118562393.106 6     -3828.535          37.000    22242004.297 4  92215203.944 4     -2977.753          27.000
R15  19216901.578 8 102689380.810 8      -822.195          51.000    19216903.047 7  79869494.426 7      -639.482          46.000
R16  20820724.734 7 111220602.423 7      3214.914          44.000    20820730.609 6  86504914.894 6      2500.489          39.000
C05  39782391.156 5 207157349.045 5         6.539          35.000    39782390.008 6 160187181.132 6         4.872          41.000
C21  22755326.078 8 118493063.337 8     -2193.395          51.000
C24  25372491.094 6 132121313.933 6      3041.625          40.000
C26  21639692.953 8 112683505.059 8      1157.809          51.000
E19  23848176.609 7 125323013.615 7       660.496          45.000    23848176.562 7  96026719.159 7       506.118          44.000
E21  23970656.680 8 125966654.128 8      1481.496          51.000    23970656.859 8  96519895.608 8      1135.112          51.000
E27  24450615.914 6 128488855.327 6     -1437.078          37.000    24450617.398 7  98452490.162 7     -1100.782          45.000
> 2020 05 04 04 15 30.0000000  0 15        .000000000000
G05  21029252.750 8 110509467.485 8     -1754.422          51.000    21029252.570 8  86111268.687 8     -1367.085          51.000
G28  21251312.234 8 111676470.622 8      1534.020          51.000    21251309.711 7  87020600.290 7      1195.340          46.000
G30  20920838.547 8 109939815.585 8     -1574.836          51.000    20920839.273 8  85667370.485 8     -1227.145          51.000
R04  22183541.023 7 118791855.116 7     -3657.137          46.000    22183546.867 7  92393696.706 7     -2844.440          45.000
R05  19231578.594 8 102803801.950 8      -658.633          51.000    19231580.516 8  79958512.790 8      -512.267          50.000
R14  22263559.844 4 118677334.869 4     -3834.812          29.000    22263565.297 4  92304590.610 4     -2982.632          26.000
R15  19221579.883 8 102714380.343 8      -844.398          51.000    19221581.594 7  79888938.497 7      -656.754          47.000
R16  20802713.945 7 111124391.118 7      3199.078          45.000    20802715.898 6  86430083.983 6      2488.175          37.000
C05  39782354.734 5 207157159.865 5         5.758          35.000    39782353.555 6 160187034.398 6         5.044          41.000
C21  22767996.125 8 118559039.846 8     -2205.016          51.000
C24  25354981.633 6 132030144.000 6      3036.383          39.000
C26  21633059.133 8 112648961.738 8      1145.086          51.000
E19  23844429.492 7 125303321.585 7       652.438          45.000    23844429.141 7  96011630.466 7       499.704          44.000
E21  23962234.648 8 125922396.792 8      1469.094          51.000    23962235.289 8  96485984.148 8      1125.651          51.000
E27                                                                  24458850.781 7  98485643.642 7     -1109.381          44.000
> 2020 05 04 04 16  0.0000000  0 15        .000000000000
G05  21039328.086 8 110562410.918 8     -1771.902          51.000    21039327.391 8  86152523.282 8     -1380.703          51.000
G07  23182664.398 5 121825714.699 5     -2681.938          30.000
G28  21242612.039 8 111630751.474 8      1516.910          51.000    21242609.633 7  86984974.984 7      1182.008          46.000
G30  20929868.289 8 109987267.347 8     -1585.414          51.000    20929869.188 8  85704345.863 8     -1235.388          51.000
R04  22204069.805 7 118901780.055 7     -3667.828          47.000    22204074.609 7  92479193.807 7     -2852.758          43.000
R05  19235344.953 8 102823933.579 8      -680.348          51.000    19235346.672 8  79974170.708 8      -529.159          50.000
R15  19226392.117 8 102740095.652 8      -866.664          50.000    19226393.664 7  79908939.277 7      -674.072          47.000
R16  20784801.375 7 111028704.796 7      3183.238          46.000    20784801.195 6  86355661.387 6      2475.852          39.000
C05                                                                  39782325.430 6 160186920.914 6         4.933          41.000
C21  22780741.812 8 118625411.274 8     -2216.629          51.000
C24  25337510.531 6 131939175.485 6      3031.145          36.000
C26  21626508.242 8 112614847.607 8      1132.324          51.000
E19  23840739.398 7 125283929.519 7       643.797          45.000    23840738.750 7  95996771.600 7       493.194          44.000
E21  23953892.062 8 125878556.486 8      1456.691          51.000    23953892.562 8  96452392.226 8      1116.142          51.000
E27  24467156.906 6 128575771.746 6     -1458.934          37.000    24467157.125 7  98519091.571 7     -1118.157          44.000
> 2020 05 04 04 16 30.0000000  0 15        .000000000000
G05  21049491.148 8 110615815.401 8     -1789.039          51.000    21049489.930 8  86194137.152 8     -1394.056          51.000
G07  23197999.422 5 121906309.061 5     -2685.488          35.000
G28  21233997.625 8 111585482.364 8      1500.266          50.000    21233995.453 7  86949700.333 7      1169.035          46.000
G30  20938946.586 8 110034974.067 8     -1595.699          51.000    20938947.391 8  85741519.898 8     -1243.402          51.000
R04  22224646.852 8 119011960.847 8     -3678.160          49.000    22224649.352 6  92564889.902 6     -2860.791          41.000
R05  19239221.734 8 102844656.503 8      -701.852          51.000    19239223.273 8  79990288.545 8      -545.885          49.000
R15  19231317.289 8 102766415.053 8      -888.594          49.000    19231319.281 7  79929409.928 7      -691.128          47.000
R16  20766966.984 7 110933435.991 7      3167.469          47.000    20766967.602 6  86281563.438 6      2463.587          41.000
C05  39782286.258 5 207156803.221 5         6.469          35.000    39782285.125 6 160186758.189 6         5.268          41.000
C21  22793542.523 8 118692069.852 8     -2227.934          51.000
C24  25320057.375 6 131848302.717 6      3026.578          36.000
C26  21620019.383 8 112581056.021 8      1119.828          51.000
E19  23837086.008 7 125264731.089 7       635.699          44.000    23837085.422 7  95982061.106 7       486.798          45.000
E21  23945608.445 8 125835026.138 8      1444.656          51.000    23945608.188 8  96419037.799 8      1106.953          51.000
E27  24475516.352 6 128619699.506 6     -1470.289          39.000    24475516.609 7  98552750.380 7     -1126.382          45.000
> 2020 05 04 04 17  0.0000000  0 15        .000000000000
G05  21059756.062 8 110669756.706 8     -1806.137          51.000    21059754.844 8  86236169.336 8     -1407.379          51.000
G07  23213356.875 5 121986991.394 5     -2689.562          35.000    23213365.000 5  95054824.879 5     -2095.763          33.000
G28  21225483.883 8 111540742.506 8      1483.414          50.000    21225482.344 7  86914838.090 7      1155.907          47.000
G30  20948087.867 8 110083012.030 8     -1605.859          51.000    20948088.664 8  85778952.042 8     -1251.322          51.000
R04  22245285.844 8 119122474.510 8     -3688.340          50.000    22245286.555 6  92650844.918 6     -2868.712          41.000
R05  19243223.766 8 102866050.872 8      -723.465          51.000    19243225.594 8  80006928.592 8      -562.698          49.000
R15  19236369.781 8 102793415.508 8      -910.441          49.000    19236371.797 7  79950410.244 7      -708.124          47.000
R16  20749226.047 7 110838665.767 7      3151.582          47.000    20749227.406 7  86207853.256 7      2451.230          42.000
C05  39782248.477 6 207156606.168 6         7.605          36.000    39782247.430 6 160186605.804 6         5.688          41.000
C21  22806413.125 8 118759091.573 8     -2239.199          51.000
C24  25302638.992 6 131757603.823 6      3021.172          38.000
C26  21613607.281 8 112547664.092 8      1107.273          51.000
E19  23833484.273 7 125245804.827 7       627.051          45.000    23833484.023 7  95967559.134 7       480.542          45.000
E21  23937398.781 8 125791884.088 8      1432.461          51.000    23937397.922 8  96385980.902 8      1097.630          51.000
E27  24483943.492 5 128663978.845 5     -1481.188          35.000    24483942.984 7  98586678.581 7     -1134.699          44.000
> 2020 05 04 04 17 30.0000000  0 14        .000000000000
G05  21070118.695 8 110724213.360 8     -1823.691          51.000    21070117.844 8  86278603.083 8     -1421.058          51.000
G28  21217067.289 8 111496513.508 8      1465.797          50.000    21217066.195 7  86880373.907 7      1142.179          47.000
G30  20957288.062 8 110131359.803 8     -1616.719          51.000    20957289.141 8  85816625.620 8     -1259.781          51.000
R04  22265981.719 8 119233298.365 8     -3699.125          49.000    22265982.539 7  92737041.203 7     -2877.100          42.000
R05  19247347.789 8 102888096.668 8      -745.699          51.000    19247349.328 8  80024075.312 8      -579.988          48.000
R15  19241545.570 8 102821074.334 8      -932.773          50.000    19241547.609 7  79971922.650 7      -725.490          47.000
R16  20731574.875 7 110744376.214 7      3135.000          46.000    20731576.930 7  86134516.900 7      2438.330          44.000
C05  39782209.461 6 207156403.777 6         6.688          36.000    39782208.359 6 160186448.471 6         5.528          41.000
C21  22819349.852 8 118826455.568 8     -2251.145          51.000
C24  25285251.461 6 131667059.992 6      3015.305          40.000
C26  21607268.180 8 112514652.039 8      1094.078          51.000
E19  23829930.836 7 125227131.425 7       618.141          46.000    23829930.719 7  95953250.930 7       473.640          45.000
E21  23929259.367 8 125749110.847 8      1419.770          51.000    23929258.406 8  96353206.616 8      1087.896          51.000
E27  24492431.359 5 128708587.032 5     -1492.391          35.000    24492431.242 7  98620859.783 7     -1143.571          44.000
> 2020 05 04 04 18  0.0000000  0 15        .000000000000
G05  21080577.805 8 110779177.477 8     -1840.527          51.000    21080577.156 8  86321432.243 8     -1434.177          51.000
G07  23244093.430 5 122148535.077 5     -2697.344          34.000
G28  21208747.312 8 111452791.033 8      1448.883          50.000    21208746.492 8  86846304.416 8      1129.000          48.000
G30  20966545.883 8 110180010.108 8     -1626.785          51.000    20966547.195 8  85854534.948 8     -1267.625          51.000
R04  22286733.602 7 119344424.626 7     -3709.238          47.000    22286734.828 6  92823472.727 6     -2884.963          41.000
R05  19251592.922 8 102910788.589 8      -767.219          51.000    19251594.367 7  80041724.574 7      -596.726          47.000
R15  19246843.352 8 102849383.713 8      -954.477          51.000    19246845.578 7  79993941.074 7      -742.371          47.000
R16  20714012.906 7 110650563.525 7      3119.199          46.000    20714015.836 7  86061551.423 7      2426.044          44.000
C05  39782168.156 6 207156188.153 6         7.309          36.000    39782167.023 6 160186281.731 6         5.784          41.000
C21  22832350.977 8 118894154.983 8     -2262.297          51.000
C24  25267893.836 7 131576666.605 7      3010.770          42.000
C26  21601000.570 8 112482014.101 8      1081.727          51.000
E19  23826424.711 7 125208706.255 7       610.105          46.000    23826424.523 7  95939132.934 7       467.468          45.000
E21  23921189.156 8 125706701.179 8      1407.605          51.000    23921188.570 8  96320710.920 8      1078.612          51.000
E27  24500982.359 6 128753519.413 6     -1503.336          39.000    24500981.609 7  98655288.429 7     -1151.670          44.000
> 2020 05 04 04 18 30.0000000  0 15        .000000000000
G05  21091133.414 8 110834648.988 8     -1858.359          50.000    21091133.070 8  86364656.784 8     -1448.072          51.000
G07  23259522.000 5 122229582.811 5     -2701.402          35.000
G28  21200524.008 8 111409577.760 8      1430.996          49.000    21200523.703 7  86812631.738 7      1115.062          47.000
G30  20975861.258 8 110228962.704 8     -1637.598          51.000    20975862.570 8  85892679.810 8     -1276.050          51.000
R04  22307540.977 7 119455852.286 7     -3720.008          44.000    22307543.508 7  92910138.664 7     -2893.339          42.000
R05  19255959.164 8 102934128.254 8      -789.672          51.000    19255960.930 7  80059877.600 7      -614.189          47.000
R15  19252262.742 8 102878342.427 8      -976.918          51.000    19252264.602 8  80016464.500 8      -759.828          48.000
R16  20696541.773 8 110557230.639 8      3102.156          48.000    20696544.500 7  85988959.179 7      2412.788          44.000
C05  39782124.594 6 207155961.526 6         6.691          36.000    39782123.414 6 160186106.463 6         5.383          41.000
C21  22845416.430 8 118962189.865 8     -2274.234          51.000
C24  25250565.852 7 131486425.917 7      3004.422          43.000
C26  21594804.617 8 112449751.474 8      1068.281          51.000
E19  23822966.234 7 125190531.261 7       600.777          46.000    23822965.570 7  95925206.636 7       460.456          45.000
E21  23913188.633 8 125664656.793 8      1394.594          51.000    23913188.406 8  96288495.101 8      1068.540          51.000
E27  24509593.508 6 128798774.541 6     -1514.820          37.000    24509594.625 7  98689964.368 7     -1160.539          44.000
> 2020 05 04 04 19  0.0000000  0 15        .000000000000
G05  21101789.109 8 110890648.314 8     -1875.441          49.000    21101789.266 8  86408292.587 8     -1461.383          49.000
G13  20781397.016 5 109206970.139 5      1582.691          30.000
G28  21192401.852 8 111366896.708 8      1413.844          51.000    21192401.930 7  86779373.788 7      1101.696          46.000
G30  20985238.062 8 110278238.173 8     -1647.797          51.000    20985239.352 8  85931076.276 8     -1283.998          51.000
R04  22328407.188 7 119567601.753 7     -3730.395          42.000    22328412.070 7  92997054.888 7     -2901.418          43.000
R05  19260450.891 8 102958138.494 8      -811.438          51.000    19260452.484 7  80078552.186 7      -631.118          47.000
R15  19257807.445 8 102907970.643 8      -998.672          50.000    19257809.312 8  80039508.647 8      -776.745          49.000
R16  20679165.055 7 110464402.335 7      3085.910          47.000    20679167.125 7  85916759.412 7      2400.152          42.000
C05  39782083.172 6 207155745.762 6         6.660          36.000    39782081.969 6 160185939.597 6         5.377          41.000
C21  22858549.766 8 119030581.017 8     -2285.547          51.000
C24  25233271.047 7 131396360.784 7      2999.121          43.000
C26  21588684.812 8 112417886.023 8      1055.586          51.000
E19  23819559.711 7 125172629.510 7       592.387          47.000    23819558.469 7  95911489.712 7       453.802          45.000
E21  23905261.781 8 125623000.283 8      1382.184          51.000    23905261.906 8  96256576.479 8      1059.085          51.000
E27                                                                  24518271.945 7  98724903.417 7     -1169.021          44.000
> 2020 05 04 04 19 30.0000000  0 15        .000000000000
G05  21112534.461 8 110947117.724 8     -1890.945          49.000    21112534.633 8  86452294.704 8     -1473.464          49.000
G28  21184371.133 8 111324693.793 8      1398.051          51.000    21184370.664 7  86746488.399 7      1089.390          46.000
G30  20994665.414 8 110327779.381 8     -1656.480          51.000    20994666.852 8  85969679.816 8     -1290.764          51.000
R04  22349323.695 7 119679614.105 7     -3738.773          45.000    22349329.727 7  93084175.567 7     -2907.935          44.000
R05  19265057.672 8 102982763.351 8      -831.863          51.000    19265058.875 7  80097704.829 7      -647.005          47.000
R14  22437308.953 5 119603470.820 5     -3880.980          35.000
R15  19263466.172 8 102938209.457 8     -1018.957          50.000    19263468.148 8  80063027.701 8      -792.525          49.000
R16  20661871.773 7 110372024.128 7      3071.074          45.000    20661873.180 6  85844909.740 6      2388.616          41.000
C05  39782033.219 6 207155485.643 6         8.652          36.000    39782032.016 6 160185738.439 6         6.681          41.000
C21  22871740.617 8 119099272.116 8     -2295.504          51.000
C24  25215998.719 7 131306417.136 7      2995.262          43.000
C26  21582630.492 8 112386362.546 8      1044.359          51.000
E19  23816194.664 7 125154946.339 7       584.914          46.000    23816193.148 7  95897940.263 7       448.145          46.000
E21  23897397.898 8 125581676.467 8      1371.234          51.000    23897398.523 8  96224912.790 8      1050.662          51.000
E27  24527001.164 6 128890259.518 6     -1534.723          37.000    24527002.328 7  98760061.758 7     -1176.010          43.000
> 2020 05 04 04 20  0.0000000  0 15        .000000000000
G05  21123385.539 8 111004140.532 8     -1909.008          51.000    21123385.156 8  86496728.067 8     -1487.539          51.000
G28  21176447.820 8 111283055.527 8      1379.457          51.000    21176446.617 7  86714043.015 7      1074.902          45.000
G30  21004159.273 8 110377670.015 8     -1667.797          51.000    21004160.836 8  86008555.633 8     -1299.582          51.000
R04  22370307.203 8 119791974.147 8     -3750.074          48.000    22370312.070 7  93171566.638 7     -2916.727          43.000
R05  19269795.578 8 103008089.264 8      -854.934          51.000    19269796.656 8  80117402.729 8      -664.951          48.000
R14  22459174.164 6 119720026.226 6     -3887.973          37.000
R15  19269254.898 8 102969143.116 8     -1041.633          51.000    19269256.773 8  80087087.191 8      -810.162          49.000
R16  20644678.836 7 110280184.480 7      3053.176          45.000    20644679.695 6  85773478.956 6      2374.695          41.000
C05  39781990.930 6 207155265.647 6         7.266          36.000    39781989.719 6 160185568.276 6         5.760          41.000
C21  22885005.023 8 119168346.378 8     -2307.844          51.000
C24  25198765.703 7 131216680.327 7      2988.855          43.000
C26  21576657.844 8 112355265.339 8      1030.480          50.000
E19  23812887.539 7 125137567.719 7       575.059          46.000    23812886.023 7  95884624.156 7       440.614          46.000
E21  23889613.672 8 125540770.994 8      1357.414          51.000    23889614.703 8  96193569.641 8      1040.085          51.000
E27  24535801.758 6 128936514.168 6     -1546.953          39.000    24535804.438 7  98795503.591 7     -1185.480          44.000
> 2020 05 04 04 20 30.0000000  0 15        .000000000000
G05  21134333.312 8 111061669.833 8     -1925.523          51.000    21134332.281 8  86541556.108 8     -1500.408          51.000
G28  21168623.414 8 111241938.087 8      1362.465          50.000    21168621.500 7  86682003.468 7      1061.661          45.000
G30  21013710.812 8 110427863.543 8     -1677.609          51.000    21013712.312 8  86047667.439 8     -1307.228          51.000
R04  22391347.461 8 119904633.666 8     -3759.734          49.000    22391349.844 7  93259190.678 7     -2924.238          43.000
R05  19274656.008 8 103034071.148 8      -876.469          51.000    19274657.109 8  80137610.859 8      -681.698          48.000
R14  22481069.992 6 119836743.257 6     -3892.590          37.000
R15  19275164.617 8 103000723.182 8     -1062.844          51.000    19275166.688 8  80111649.454 8      -826.656          49.000
R16  20627578.156 7 110188839.500 7      3037.086          46.000    20627578.969 7  85702432.871 7      2362.178          42.000
C05  39781947.891 6 207155040.928 6         8.371          36.000    39781946.523 6 160185394.498 6         6.277          41.000
C21  22898334.578 8 119237757.986 8     -2318.828          51.000
C24  25181563.969 7 131127106.735 7      2983.602          42.000
C26  21570758.711 8 112324549.724 8      1017.996          50.000
E19  23809629.938 7 125120449.192 7       566.781          47.000    23809628.562 7  95871507.360 7       434.302          46.000
E21  23881900.617 8 125500239.232 8      1345.320          51.000    23881901.969 8  96162512.836 8      1030.818          51.000
E27  24544665.914 6 128983092.162 6     -1557.145          39.000    24544668.594 7  98831193.239 7     -1193.433          43.000
> 2020 05 04 04 21  0.0000000  0 16        .000000000000
G05  21145379.484 8 111119715.677 8     -1943.906          51.000    21145378.117 8  86586786.638 8     -1514.732          51.000
G07  23336867.000 5 122636064.737 5     -2719.723          34.000    23336871.164 5  95560576.701 5     -2119.243          32.000
G28  21160900.273 8 111201353.984 8      1343.348          50.000    21160898.266 7  86650379.484 7      1046.761          45.000
G30  21023321.820 8 110478369.899 8     -1689.324          51.000    21023323.242 8  86087023.009 8     -1316.357          51.000
R04  22412444.812 7 120017602.327 7     -3771.254          47.000    22412445.680 7  93347055.135 7     -2933.201          43.000
R05  19279641.570 8 103060720.892 8      -900.008          51.000    19279642.594 8  80158338.435 8      -700.006          49.000
R14  22502996.422 6 119953630.246 6     -3899.297          38.000
R15  19281197.148 8 103032959.205 8     -1085.855          51.000    19281199.414 8  80136721.913 8      -844.554          49.000
R16  20610572.953 7 110098003.178 7      3018.977          47.000    20610574.133 7  85631782.392 7      2348.090          42.000
C05  39781906.055 6 207154822.946 6         6.508          36.000    39781904.734 6 160185225.897 6         5.150          41.000
C21  22911731.188 8 119307517.077 8     -2331.480          50.000
C24  25164395.672 6 131037708.711 6      2976.348          39.000
C26  21564935.367 8 112294226.940 8      1003.668          50.000
E19  23806424.195 7 125103603.300 7       556.535          47.000    23806423.000 7  95858599.452 7       426.586          47.000
E21  23874260.891 8 125460093.103 8      1331.281          51.000    23874262.508 8  96131751.507 8      1020.040          51.000
E27  24553594.344 7 129030003.571 7     -1569.840          42.000    24553594.914 7  98867138.327 7     -1202.792          42.000
> 2020 05 04 04 21 30.0000000  0 16        .000000000000
G05  21156522.875 8 111178272.260 8     -1960.801          51.000    21156521.102 8  86632415.120 8     -1527.897          51.000
G07  23352401.445 5 122717705.418 5     -2724.191          33.000    23352408.539 5  95624192.766 5     -2122.753          32.000
G28  21153278.180 8 111161301.574 8      1325.824          49.000    21153276.914 8  86619169.813 8      1033.110          48.000
G30  21032991.422 8 110529184.345 8     -1699.246          51.000    21032992.656 8  86126618.659 8     -1324.088          51.000
R04  22433597.844 7 120130874.287 7     -3781.164          47.000    22433598.234 7  93435155.508 7     -2940.908          43.000
R05  19284751.461 8 103088035.317 8      -921.848          51.000    19284752.406 8  80179582.990 8      -716.993          49.000
R14  22524954.008 6 120070680.754 6     -3904.734          36.000
R15  19287351.250 8 103065845.307 8     -1107.332          51.000    19287353.492 8  80162300.004 8      -861.258          49.000
R16  20593663.438 8 110007673.820 8      3002.113          48.000    20593664.539 7  85561526.202 7      2334.977          43.000
C05  39781864.914 6 207154608.385 6         6.184          36.000    39781863.531 6 160185059.947 6         5.337          41.000
C21  22925194.164 8 119377619.304 8     -2342.809          51.000
C24  25147259.602 5 130948483.978 5      2970.934          35.000
C26  21559187.031 8 112264293.722 8       990.816          50.000
E19  23803270.000 7 125087027.759 7       547.531          47.000    23803268.773 7  95845898.720 7       419.597          47.000
E21  23866693.891 8 125420329.787 8      1318.664          51.000    23866695.719 8  96101283.490 8      1010.411          51.000
E27  24562584.094 7 129077243.648 7     -1580.582          43.000    24562584.062 7  98903335.228 7     -1211.012          42.000
> 2020 05 04 04 22  0.0000000  0 14        .000000000000
G05  21167761.406 8 111237329.495 8     -1975.910          51.000    21167759.320 8  86678433.727 8     -1539.670          51.000
G28  21145755.773 8 111121773.213 8      1309.723          50.000    21145755.203 7  86588368.497 7      1020.563          47.000
G30  21042717.742 8 110580296.883 8     -1707.707          51.000    21042718.875 8  86166446.577 8     -1330.681          51.000
R04  22454805.203 7 120244438.700 7     -3789.328          47.000    22454805.594 7  93523483.362 7     -2947.258          43.000
R05  19289983.852 8 103116006.007 8      -942.297          51.000    19289984.852 8  80201337.951 8      -732.901          48.000
R14  22546941.070 5 120187882.660 5     -3908.176          35.000
R15  19293625.070 8 103099370.416 8     -1127.184          51.000    19293627.266 8  80188375.079 8      -876.698          49.000
R16  20576847.516 7 109917844.966 7      2987.051          47.000    20576849.094 7  85491659.313 7      2323.262          44.000
C05  39781822.734 6 207154389.738 6         8.633          36.000    39781821.391 6 160184890.101 6         6.407          41.000
C21  22938721.469 8 119448055.006 8     -2352.430          51.000
C26  21553512.102 8 112234741.483 8       979.699          50.000
E19  23800165.805 7 125070714.943 7       540.102          47.000    23800164.609 7  95833399.282 7       413.808          47.000
E21  23859198.211 8 125380941.161 8      1307.605          51.000    23859200.227 8  96071102.567 8      1001.902          51.000
E27  24571633.945 7 129124802.338 7     -1589.559          42.000    24571635.156 7  98939776.288 7     -1218.042          43.000
> 2020 05 04 04 22 30.0000000  0 15        .000000000000
G05  21179084.852 8 111296834.089 8     -2001.148          51.000    21179082.914 8  86724800.929 8     -1559.336          51.000
G28  21138323.906 8 111082718.890 8      1283.578          51.000    21138323.539 8  86557936.533 8      1000.191          48.000
G30  21052490.758 8 110631654.717 8     -1726.262          51.000    21052492.148 8  86206465.648 8     -1345.139          50.000
R04  22476056.797 7 120358241.217 7     -3807.797          46.000    22476057.727 7  93611996.407 7     -2961.620          42.000
R05  19295329.250 8 103144580.917 8      -972.980          51.000    19295330.109 7  80223562.854 7      -756.763          47.000
R14  22568946.273 5 120305180.959 5     -3921.578          30.000
R15  19300008.117 8 103133479.963 8     -1157.133          51.000    19300010.219 8  80214904.716 8      -899.992          49.000
R16  20560115.008 7 109828465.943 7      2961.309          45.000    20560117.891 7  85422142.304 7      2303.240          43.000
C05  39781769.820 6 207154114.183 6         -.168          36.000    39781768.539 6 160184676.983 6          .039          41.000
C21  22952302.820 8 119518772.116 8     -2372.043          51.000
C24  25113078.617 5 130770382.615 5      2952.688          32.000
C26  21547900.922 8 112205519.326 8       958.379          51.000
E19  23797101.875 7 125054614.220 7       522.980          47.000    23797100.984 8  95821062.351 8       400.653          48.000
E21  23851764.180 8 125341876.333 8      1286.484          51.000    23851766.656 8  96041169.751 8       985.763          51.000
E27  24580734.367 7 129172626.886 7     -1608.828          43.000    24580736.430 7  98976421.052 7     -1232.685          43.000
> 2020 05 04 04 23  0.0000000  0 14        .000000000000
G05  21190528.742 8 111356972.938 8     -2008.684          51.000    21190527.281 8  86771662.362 8     -1565.208          51.000
G28  21131018.820 8 111044328.357 8      1275.129          51.000    21131018.328 8  86528021.808 8       993.607          48.000
G30  21062346.086 8 110683444.695 8     -1726.973          50.000    21062347.477 8  86246821.463 8     -1345.693          50.000
R04  22497387.609 7 120472471.388 7     -3808.195          45.000    22497389.344 6  93700842.079 6     -2961.930          40.000
R05  19300823.531 8 103173952.041 8      -985.738          51.000    19300824.211 7  80246407.021 7      -766.688          46.000
R15  19306535.961 8 103168363.057 8     -1168.945          51.000    19306538.156 8  80242035.988 8      -909.180          49.000
R16  20543502.766 7 109739730.417 7      2953.750          44.000    20543506.750 7  85353125.796 7      2297.361          42.000
C05  39781741.938 6 207153969.280 6         8.742          36.000    39781740.758 6 160184564.900 6         6.950          41.000
C21  22965973.023 8 119589956.062 8     -2374.129          51.000
C24  25096059.984 5 130681743.420 5      2955.652          34.000
C26  21542389.203 8 112176813.661 8       954.750          51.000
E19  23794114.266 8 125038914.771 8       523.180          48.000    23794113.945 8  95809032.895 8       400.776          49.000
E21  23844427.789 8 125303324.018 8      1283.020          51.000    23844430.688 8  96011629.646 8       983.051          51.000
E27  24589920.859 7 129220904.061 7     -1610.277          42.000    24589922.719 7  99013412.663 7     -1233.840          43.000
> 2020 05 04 04 23 30.0000000  0 15        .000000000000
G05  21202047.820 8 111417508.891 8     -2027.047          51.000    21202047.266 8  86818833.224 8     -1579.517          51.000
G07  23414745.656 5 123045279.817 5     -2736.352          34.000
G28  21123795.508 8 111006367.410 8      1255.680          51.000    21123794.773 8  86498441.835 8       978.452          48.000
G30  21072238.633 8 110735430.257 8     -1738.523          48.000    21072239.711 8  86287329.689 8     -1354.694          48.000
R04  22518753.344 7 120586887.536 7     -3819.535          46.000    22518753.367 6  93789832.341 6     -2970.753          37.000
R05  19306421.781 8 103203880.367 8     -1009.426          51.000    19306422.500 7  80269684.574 7      -785.112          47.000
R15  19313163.148 8 103203777.894 8     -1191.906          51.000    19313165.422 8  80269580.850 8      -927.038          49.000
R16  20526966.922 7 109651401.305 7      2935.047          45.000    20526970.727 6  85284425.420 6      2282.814          41.000
C05  39781694.523 6 207153721.988 6         7.680          36.000    39781693.250 6 160184373.692 6         5.676          41.000
C21  22979687.125 8 119661372.659 8     -2386.957          51.000
C24  25079051.312 5 130593175.750 5      2947.562          35.000
C26  21536931.828 8 112148391.474 8       940.223          51.000
E19  23791158.719 8 125023382.633 8       512.465          48.000    23791158.828 8  95797131.635 8       392.719          49.000
E21  23837144.352 8 125265049.544 8      1268.648          51.000    23837147.531 8  95982302.432 8       972.069          51.000
E27  24599148.273 7 129269397.371 7     -1622.598          45.000    24599150.516 7  99050569.846 7     -1243.211          42.000
> 2020 05 04 04 24  0.0000000  0 15        .000000000000
G05  21213664.781 8 111478560.012 8     -2043.039          49.000    21213664.906 8  86866405.515 8     -1591.978          49.000
G07  23430376.672 6 123127428.650 6     -2739.617          38.000    23430374.055 5  95943454.853 5     -2134.770          34.000
G28  21116676.641 8 110968957.631 8      1238.535          50.000    21116675.844 8  86469291.372 8       965.092          48.000
G30  21082191.000 8 110787730.445 8     -1747.949          48.000    21082191.938 8  86328083.093 8     -1362.038          48.000
R04  22540176.930 7 120701610.206 7     -3828.543          47.000    22540174.430 6  93879060.975 6     -2977.759          37.000
R05  19312147.180 8 103234488.451 8     -1030.934          51.000    19312148.617 7  80293490.820 7      -801.840          47.000
R15  19319912.594 8 103239844.685 8     -1212.441          51.000    19319914.922 8  80297632.771 8      -943.010          49.000
R16  20510530.695 7 109563602.775 7      2918.344          46.000    20510534.438 7  85216137.670 7      2269.820          42.000
C05                                                                  39781649.047 6 160184195.700 6         6.180          41.000
C21  22993468.688 8 119733140.075 8     -2397.535          51.000
C24  25062078.914 6 130504800.185 6      2943.219          37.000
C26  21531551.312 8 112120372.042 8       927.918          51.000
E19  23788258.086 8 125008138.784 8       503.875          48.000    23788258.555 8  95785451.271 8       386.143          49.000
E21  23829936.555 8 125227173.786 8      1256.473          51.000    23829940.234 8  95953280.738 8       962.722          51.000
E27  24608440.023 7 129318225.822 7     -1632.551          45.000    24608443.023 7  99087983.821 7     -1250.966          42.000
> 2020 05 04 04 24 30.0000000  0 15        .000000000000
G05  21225378.500 8 111540116.774 8     -2060.457          50.000    21225378.477 8  86914371.829 8     -1605.551          50.000
G07  23446030.844 6 123209688.112 6     -2743.629          38.000    23446024.344 5  96007553.175 5     -2137.893          33.000
G28  21109661.086 8 110932092.302 8      1219.562          50.000    21109660.203 7  86440565.126 7       950.308          45.000
G30  21092201.469 8 110840335.793 8     -1758.590          49.000    21092202.492 8  86369074.267 8     -1370.327          49.000
R04  22561656.359 8 120816629.179 8     -3839.043          48.000    22561654.656 6  93968520.101 6     -2985.925          41.000
R05  19317998.000 8 103265768.220 8     -1054.031          51.000    19318000.383 8  80317819.494 8      -819.802          48.000
R15  19326781.984 8 103276552.547 8     -1234.383          51.000    19326784.398 8  80326183.326 8      -960.076          49.000
R16  20494193.234 8 109476329.022 8      2900.301          48.000    20494196.695 7  85148258.040 7      2255.789          44.000
C05  39781607.906 5 207153270.823 5         7.219          35.000    39781606.609 6 160184024.741 6         5.473          41.000
C21  23007316.539 8 119805249.060 8     -2409.430          51.000
C24  25045139.648 5 130416609.826 5      2936.438          34.000
C26  21526246.164 8 112092747.329 8       914.129          51.000
E19  23785410.938 8 124993176.423 8       493.809          49.000    23785411.883 8  95773986.599 8       378.361          50.000
E21  23822802.984 8 125189689.141 8      1242.777          51.000    23822807.344 8  95924558.733 8       952.273          51.000
E27  24617794.133 7 129367379.845 7     -1644.055          43.000    24617797.508 7  99125647.302 7     -1259.748          42.000
> 2020 05 04 04 25  0.0000000  0 15        .000000000000
G05  21237186.375 8 111602166.096 8     -2076.051          51.000    21237185.836 8  86962721.953 8     -1617.702          51.000
G07  23461704.234 6 123292046.242 6     -2746.430          37.000    23461695.375 6  96071728.297 6     -2140.075          36.000
G28  21102747.023 8 110895761.817 8      1202.574          48.000    21102746.375 7  86412255.599 7       937.068          44.000
G30  21102267.695 8 110893233.901 8     -1767.645          48.000    21102268.586 8  86410293.568 8     -1377.385          48.000
R04  22583188.922 8 120931930.731 8     -3847.664          49.000    22583188.711 7  94058199.030 7     -2992.628          43.000
R05  19323972.859 8 103297709.006 8     -1075.312          50.000    19323975.883 8  80342662.315 8      -836.354          49.000
R15  19333768.930 8 103313888.028 8     -1254.492          51.000    19333771.344 8  80355222.017 8      -975.716          49.000
R16  20477952.531 8 109389570.324 8      2883.660          48.000    20477955.555 7  85080779.045 7      2242.847          44.000
C05  39781565.211 6 207153048.118 6         7.508          36.000    39781563.836 6 160183852.487 6         6.074          41.000
C21  23021227.625 8 119877687.662 8     -2419.719          50.000
C24  25028234.547 5 130328594.782 5      2931.547          35.000
C26  21521014.422 8 112065506.327 8       902.129          51.000
E19  23782615.344 8 124978485.509 8       485.531          49.000    23782616.680 8  95762729.899 8       372.084          50.000
E21  23815742.172 8 125152585.060 8      1230.859          51.000    23815746.805 8  95896128.323 8       943.141          51.000
E27  24627207.430 7 129416847.016 7     -1653.691          45.000    24627210.383 6  99163550.726 6     -1267.099          41.000
> 2020 05 04 04 25 30.0000000  0 15        .000000000000
G05  21249084.914 8 111664691.090 8     -2090.441          51.000    21249083.484 8  87011442.718 8     -1628.915          51.000
G28  21095932.227 8 110859952.114 8      1186.625          49.000    21095931.789 7  86384351.926 7       924.643          43.000
G30  21112386.586 7 110946408.515 7     -1775.340          46.000    21112387.172 7  86451728.344 7     -1383.379          46.000
R04  22604771.312 8 121047497.637 8     -3854.871          48.000    22604771.727 7  94148084.363 7     -2998.233          44.000
R05  19330068.367 8 103330295.539 8     -1095.301          49.000    19330072.320 8  80368007.384 8      -851.901          50.000
R15  19340869.953 8 103351833.431 8     -1273.199          51.000    19340872.438 8  80384735.100 8      -990.266          49.000
R16  20461805.328 7 109303313.627 7      2868.641          46.000    20461807.891 7  85013690.509 7      2231.165          44.000
C05  39781519.227 6 207152808.961 6        10.340          36.000    39781517.961 6 160183667.553 6         7.802          41.000
C21  23035198.492 8 119950439.955 8     -2428.633          49.000
C24  25011361.719 6 130240741.093 6      2927.621          37.000
C26  21515853.344 8 112038634.239 8       891.227          51.000
E01  26978621.367 6 141773604.883 6      3032.367          41.000    26978621.000 6 108631723.574 6      2323.352          36.000
E19  23779868.656 8 124964051.859 8       478.613          49.000    23779870.109 8  95751670.351 8       366.727          50.000
E21  23808751.227 8 125115847.128 8      1220.184          51.000    23808755.711 8  95867978.463 8       934.985          51.000
E27  24636677.266 7 129466611.157 7     -1662.160          47.000    24636678.648 6  99201681.635 6     -1273.504          40.000
> 2020 05 04 04 26  0.0000000  0 16        .000000000000
G05  21261072.281 8 111727683.103 8     -2108.422          51.000    21261070.141 8  87060527.383 8     -1642.926          51.000
G07  23493098.492 6 123457086.340 6     -2753.098          36.000    23493094.141 6  96200290.516 6     -2145.271          36.000
G28  21089216.273 8 110824656.971 8      1167.016          51.000    21089214.789 7  86356849.218 7       909.363          42.000
G30  21122556.484 7 110999850.932 7     -1786.707          45.000    21122556.977 7  86493371.806 7     -1392.239          45.000
R04  22626401.148 7 121163320.588 7     -3865.918          45.000    22626401.562 7  94238168.866 7     -3006.825          43.000
R05  19336283.773 8 103363520.515 8     -1119.105          50.000    19336288.250 8  80393849.022 8      -870.415          49.000
R15  19348083.195 8 103390378.985 8     -1295.762          51.000    19348085.805 8  80414714.953 8     -1007.818          48.000
R16  20445750.180 7 109217553.367 7      2849.492          44.000    20445753.008 7  84946988.064 7      2216.272          42.000
C05  39781468.867 6 207152546.368 6         7.953          36.000    39781467.500 6 160183464.437 6         6.277          41.000
C21  23049227.828 8 120023497.473 8     -2441.246          48.000
C24  24994520.211 6 130153042.863 6      2919.559          41.000
C26  21510761.961 8 112012123.750 8       876.766          51.000
E01  26961330.836 6 141682737.019 6      3025.848          40.000    26961329.992 6 108562097.503 6      2318.701          38.000
E19  23777169.617 8 124949869.342 8       467.590          48.000    23777170.977 8  95740803.210 8       358.268          50.000
E21  23801828.336 8 125079468.436 8      1205.613          50.000    23801832.734 8  95840103.868 8       923.731          51.000
E27  24646201.984 7 129516663.459 7     -1674.066          45.000    24646202.445 6  99240033.359 6     -1282.873          41.000
> 2020 05 04 04 26 30.0000000  0 16        .000000000000
G05  21273154.320 8 111791173.202 8     -2124.168          51.000    21273151.953 8  87110000.174 8     -1655.196          51.000
G07  23508788.055 5 123539514.319 5     -2754.895          32.000
G28  21082605.016 8 110789910.731 8      1149.492          51.000    21082602.203 7  86329774.253 7       895.711          42.000
G30  21132783.336 7 111053593.061 7     -1796.168          46.000    21132783.914 7  86535248.778 7     -1399.611          46.000
R04  22648082.797 6 121279430.845 6     -3874.766          40.000    22648084.273 7  94328476.846 7     -3013.704          42.000
R05  19342625.102 8 103397417.823 8     -1140.617          51.000    19342629.750 8  80420213.594 8      -887.150          50.000
R15  19355414.508 8 103429555.727 8     -1315.902          51.000    19355417.359 8  80445185.744 8     -1023.480          48.000
R16  20429794.648 7 109132325.215 7      2832.473          45.000    20429797.742 6  84880699.492 6      2203.034          41.000
C05  39781420.266 6 207152293.093 6         8.887          36.000    39781418.930 6 160183268.610 6         6.669          41.000
C21  23063322.125 8 120096892.044 8     -2451.586          49.000
C24  24977716.406 6 130065533.949 6      2914.324          41.000
C26  21505746.344 8 111986007.695 8       864.402          51.000
E01  26944067.430 6 141592010.797 6      3022.285          40.000    26944064.906 6 108492580.028 6      2315.747          38.000
E19  23774524.820 8 124935971.833 8       458.805          48.000    23774525.984 8  95730154.460 8       351.582          50.000
E21  23794980.031 8 125043482.603 8      1193.348          49.000    23794984.305 8  95812530.305 8       914.353          51.000
E27  24655787.523 7 129567035.688 7     -1684.047          43.000    24655788.680 6  99278630.236 6     -1290.212          41.000
> 2020 05 04 04 27  0.0000000  0 16        .000000000000
G05  21285328.727 8 111855149.851 8     -2140.465          51.000    21285326.578 8  87159852.100 8     -1667.895          51.000
G28  21076096.586 8 110755705.117 8      1131.301          51.000    21076092.984 7  86303120.568 7       881.533          44.000
G30  21143065.141 7 111107624.038 7     -1805.727          46.000    21143065.867 7  86577350.813 7     -1407.060          46.000
R04  22669814.898 7 121395816.592 7     -3883.910          42.000    22669818.148 6  94418999.108 6     -3020.819          41.000
R05  19349090.703 8 103431977.989 8     -1162.887          51.000    19349095.508 8  80447093.693 8      -904.467          49.000
R14  22768239.328 5 121367526.718 5     -3954.574          30.000
R15  19362861.805 8 103469351.633 8     -1336.715          51.000    19362864.492 8  80476138.100 8     -1039.667          48.000
R16  20413938.086 7 109047621.582 7      2814.832          47.000    20413940.977 6  84814818.916 6      2189.314          41.000
C05  39781371.547 6 207152040.073 6         8.578          36.000    39781370.375 6 160183072.902 6         6.549          41.000
C21  23077479.055 8 120170613.063 8     -2462.695          50.000
C24  24960946.773 6 129978206.070 6      2907.855          38.000
C26  21500804.430 8 111960276.539 8       851.418          51.000
E01  26926829.320 6 141501418.263 6      3017.953          37.000    26926825.031 6 108423164.971 6      2312.122          39.000
E19  23771932.648 8 124922351.146 8       449.477          48.000    23771933.828 8  95719717.815 8       344.428          50.000
E21  23788205.383 8 125007880.630 8      1180.547          51.000    23788209.055 8  95785250.858 8       904.557          51.000
E27  24665431.875 7 129617716.988 7     -1694.305          45.000    24665434.383 6  99317463.973 6     -1298.317          41.000
> 2020 05 04 04 27 30.0000000  0 15        .000000000000
G05  21297595.750 8 111919614.783 8     -2157.594          51.000    21297594.430 8  87210084.478 8     -1681.242          51.000
G28  21069691.680 8 110722045.176 8      1112.234          51.000    21069688.016 7  86276892.088 7       866.676          45.000
G30  21153402.305 7 111161946.260 7     -1816.148          45.000    21153403.000 7  86619679.786 7     -1415.184          45.000
R04  22691600.711 7 121512479.643 7     -3894.133          46.000    22691604.164 6  94509736.975 6     -3028.773          41.000
R05  19355680.938 8 103467204.789 8     -1185.984          51.000    19355685.594 8  80474492.283 8      -922.435          48.000
R15  19370425.148 8 103509767.852 8     -1358.227          51.000    19370427.938 8  80507572.934 8     -1056.398          48.000
R16  20398181.109 8 108963447.984 8      2796.328          48.000    20398183.789 7  84749350.582 7      2174.922          43.000
C05  39781323.742 5 207151790.882 5         7.543          35.000    39781322.609 6 160182880.184 6         5.938          41.000
C21  23091699.703 8 120244663.073 8     -2474.465          51.000
C24  24944212.250 6 129891063.909 6      2900.445          38.000
C26  21495937.695 8 111934933.998 8       837.594          51.000
E01  26909617.086 6 141410964.541 6      3012.383          37.000    26909611.602 6 108353856.263 6      2308.121          40.000
E19  23769394.117 8 124909012.044 8       439.375          48.000    23769395.367 8  95709496.935 8       336.604          50.000
E21  23781504.883 8 124972666.694 8      1166.758          51.000    23781508.047 8  95758268.745 8       893.994          51.000
E27  24675135.531 7 129668709.755 7     -1705.594          45.000    24675138.586 6  99356536.312 6     -1306.827          41.000
> 2020 05 04 04 28  0.0000000  0 16        .000000000000
G05  21309955.633 8 111984567.342 8     -2170.855          51.000    21309954.883 8  87260696.830 8     -1691.576          51.000
G28  21063390.664 8 110688933.536 8      1096.984          51.000    21063387.398 7  86251090.826 7       854.793          46.000
G30  21163794.914 7 111216559.699 7     -1823.047          44.000    21163795.375 7  86662235.708 7     -1420.556          44.000
R04  22713438.531 7 121629419.204 7     -3900.195          46.000    22713441.695 6  94600689.896 6     -3033.488          40.000
R05  19362395.836 8 103503099.607 8     -1205.262          51.000    19362400.211 7  80502410.430 7      -937.429          47.000
R14  22812824.781 5 121605130.049 5     -3959.566          34.000    22812824.375 5  94581778.096 5     -3079.663          32.000
R15  19378104.445 8 103550803.318 8     -1375.773          51.000    19378107.125 8  80539489.404 8     -1070.046          48.000
R16  20382524.234 8 108879807.855 8      2781.473          48.000    20382526.953 7  84684297.157 7      2163.368          43.000
C05  39781276.930 6 207151547.567 6        10.605          36.000    39781275.805 6 160182691.619 6         8.140          41.000
C21  23105984.359 8 120319042.163 8     -2482.480          51.000
C24  24927514.164 6 129804109.998 6      2897.555          41.000
C26  21491145.750 8 111909981.284 8       827.645          51.000
E01  26892430.836 6 141320652.399 6      3010.156          38.000    26892424.875 6 108284656.016 6      2306.651          40.000
E19  23766909.602 8 124895956.547 8       432.969          48.000    23766910.891 8  95699493.369 8       331.719          51.000
E21  23774878.367 8 124937842.505 8      1156.664          51.000    23774881.180 8  95731585.286 8       886.251          51.000
E27  24684898.492 7 129720013.835 7     -1712.797          45.000    24684900.625 6  99395847.211 6     -1312.433          41.000
> 2020 05 04 04 28 30.0000000  0 17        .000000000000
G05  21322396.781 8 112049945.785 8     -2189.730          51.000    21322396.219 8  87311641.057 8     -1706.287          51.000
G07  23571863.609 4 123870978.429 4     -2769.758          29.000
G28  21057182.508 8 110656310.584 8      1075.984          51.000    21057179.695 7  86225670.332 7       838.429          47.000
G30  21174231.195 7 111271402.948 7     -1835.332          44.000    21174231.672 7  86704970.685 7     -1430.129          44.000
R04  22735316.352 7 121746571.781 7     -3912.121          46.000    22735318.719 6  94691808.539 6     -3042.761          39.000
R05  19369224.258 8 103539601.407 8     -1230.234          51.000    19369227.898 7  80530800.680 7      -956.852          47.000
R14  22835120.797 5 121724003.571 5     -3966.750          32.000    22835126.305 5  94674235.606 5     -3085.250          34.000
R15  19385887.695 8 103592394.395 8     -1398.996          51.000    19385890.094 8  80571838.006 8     -1088.108          49.000
R16  20366955.305 7 108796641.785 7      2760.762          44.000    20366958.367 7  84619612.399 7      2147.256          44.000
C05  39781219.734 5 207151249.220 5         7.844          35.000    39781218.617 6 160182461.311 6         5.576          41.000
C21  23120320.711 8 120393689.660 8     -2496.027          51.000
C24  24910840.453 6 129717285.767 6      2888.730          41.000
C26  21486417.000 8 111885358.787 8       811.984          51.000
E01  26875259.070 6 141230423.099 6      3002.879          39.000    26875253.953 6 108215519.253 6      2300.731          39.000
E19  23764467.719 8 124883125.650 8       420.660          48.000    23764469.125 8  95689661.898 8       322.330          51.000
E21  23768314.711 8 124903348.440 8      1140.949          51.000    23768316.953 8  95705154.756 8       874.186          51.000
E27  24694708.906 7 129771567.783 7     -1726.016          45.000    24694709.797 6  99435349.579 6     -1322.576          41.000
> 2020 05 04 04 29  0.0000000  0 16        .000000000000
G05  21334940.266 8 112115862.117 8     -2204.168          51.000    21334939.625 8  87363004.419 8     -1717.537          51.000
G28  21051089.469 8 110624292.084 8      1059.152          51.000    21051087.188 8  86200720.822 8       825.310          48.000
G30  21184732.602 7 111326588.949 7     -1843.270          42.000    21184733.570 7  86747972.748 7     -1436.314          43.000
R04  22757255.258 7 121864051.737 7     -3919.309          43.000    22757256.242 6  94783181.761 6     -3048.354          38.000
R05  19376188.062 8 103576826.234 8     -1250.934          50.000    19376190.891 7  80559753.289 7      -972.948          47.000
R14  22857451.961 5 121843051.512 5     -3968.926          31.000    22857459.445 5  94766828.394 5     -3086.942          34.000
R15  19393796.008 8 103634654.727 8     -1417.688          51.000    19393798.680 8  80604707.136 8     -1102.649          49.000
R16  20351495.914 7 108714067.496 7      2744.848          43.000    20351500.383 7  84555387.932 7      2134.882          42.000
C05  39781173.914 5 207151010.645 5         8.801          35.000    39781172.859 6 160182276.771 6         6.823          41.000
C21  23134729.844 8 120468717.540 8     -2505.207          51.000
C24  24894213.594 7 129630705.467 7      2884.051          42.000
C26  21481773.930 8 111861179.617 8       800.551          51.000
E01  26858125.109 6 141140392.351 6      2999.832          40.000    26858121.039 6 108146534.589 6      2298.447          40.000
E19  23762090.570 8 124870634.592 8       412.590          48.000    23762092.039 8  95680090.806 8       316.185          51.000
E21  23761835.758 8 124869299.133 8      1129.535          51.000    23761837.719 8  95679065.010 8       865.491          51.000
E27  24704588.289 7 129823484.485 7     -1734.605          45.000    24704588.891 6  99475129.887 6     -1329.164          41.000
> 2020 05 04 04 29 30.0000000  0 17        .000000000000
G05  21347570.945 8 112182237.449 8     -2220.527          50.000    21347570.367 8  87414725.447 8     -1730.281          50.000
G15  22274958.992 5 117055692.385 5      2825.090          34.000
G28  21045097.172 8 110592802.248 8      1040.559          51.000    21045095.227 8  86176183.258 8       810.825          49.000
G30  21195284.195 7 111382039.747 7     -1852.969          42.000    21195286.133 6  86791181.152 6     -1443.869          41.000
R04  22779238.992 6 121981778.615 6     -3928.684          39.000    22779240.016 6  94874747.118 6     -3055.643          39.000
R05  19383272.484 8 103614696.282 8     -1273.379          50.000    19383274.609 8  80589207.772 8      -990.406          48.000
R14  22879802.117 5 121962192.621 5     -3973.184          32.000    22879810.008 5  94859493.657 5     -3090.254          34.000
R15  19401814.562 8 103677503.564 8     -1438.461          51.000    19401817.383 8  80638033.989 8     -1118.806          49.000
R16  20336133.688 7 108632009.136 7      2726.305          45.000    20336138.266 6  84491564.816 6      2120.462          41.000
C05  39781124.906 5 207150755.512 5         8.402          35.000    39781123.906 6 160182079.458 6         6.612          41.000
C21  23149196.695 8 120544048.770 8     -2516.496          51.000
C24  24877619.836 7 129544294.326 7      2877.211          43.000
C26  21477201.797 8 111837367.752 8       787.215          51.000
E01  26841014.883 6 141050484.883 6      2994.457          40.000    26841011.750 6 108077644.401 6      2294.502          39.000
E19  23759763.820 8 124858407.525 8       402.629          48.000    23759765.211 8  95670722.005 8       308.502          51.000
E21  23755426.992 8 124835618.382 8      1116.164          51.000    23755428.922 8  95653257.675 8       855.234          51.000
E27  24714521.859 7 129875685.893 7     -1745.082          45.000    24714522.945 7  99515128.326 7     -1337.183          42.000
> 2020 05 04 04 30  0.0000000  0 18        .000000000000
G05  21360291.156 8 112249083.219 8     -2236.242          50.000    21360290.484 8  87466813.060 8     -1742.526          50.000
G07  23619356.016 5 124120552.788 5     -2777.402          35.000
G15  22258852.664 6 116971045.393 6      2817.848          37.000
G28  21039207.914 8 110561854.693 8      1022.391          51.000    21039206.297 8  86152068.259 8       796.668          48.000
G30  21205888.461 7 111437766.683 7     -1862.375          42.000    21205891.258 7  86834604.725 7     -1451.198          42.000
R04  22801269.164 6 122099762.983 6     -3937.227          40.000    22801272.711 6  94966512.856 6     -3062.287          39.000
R05  19390480.203 8 103653224.364 8     -1295.480          51.000    19390481.969 8  80619174.067 8     -1007.596          49.000
R14  22902173.039 5 122081437.187 5     -3977.137          30.000    22902180.164 5  94952239.430 5     -3093.329          34.000
R15  19409945.234 8 103720951.389 8     -1458.414          51.000    19409947.953 8  80671826.715 8     -1134.322          48.000
R16  20320871.961 8 108550481.259 8      2708.508          48.000    20320874.844 6  84428154.302 6      2106.620          40.000
C05  39781075.234 5 207150496.491 5         8.328          35.000    39781074.180 6 160181879.128 6         6.615          41.000
C21  23163723.625 8 120619694.638 8     -2527.020          51.000
C24  24861060.797 7 129458065.890 7      2870.988          42.000
C26  21472702.258 8 111813935.554 8       774.496          51.000
E01  26823931.078 6 140960714.687 6      2989.828          40.000    26823928.570 6 108008859.402 6      2291.024          40.000
E19  23757490.070 8 124846458.350 8       393.496          48.000    23757491.164 8  95661566.131 8       301.444          50.000
E21  23749090.906 8 124802319.172 8      1103.496          51.000    23749092.500 8  95627742.692 8       845.482          51.000
E27  24724511.742 7 129928183.210 7     -1754.992          42.000    24724513.594 6  99555353.499 6     -1344.674          41.000
> 2020 05 04 04 30 30.0000000  0 18        .000000000000
G05  21373085.914 8 112316319.607 8     -2252.320          50.000    21373084.898 8  87519205.051 8     -1755.055          51.000
G07  23635216.586 5 124203892.475 5     -2780.586          34.000
G15  22242771.109 5 116886533.584 5      2810.219          34.000
G28  21033407.148 8 110531373.047 8      1003.625          51.000    21033405.867 8  86128316.305 8       782.045          49.000
G30  21216530.508 6 111493690.953 6     -1872.082          40.000    21216533.500 6  86878182.078 6     -1458.765          39.000
R04  22823335.227 7 122217924.093 7     -3946.238          42.000    22823338.602 6  95058415.897 6     -3069.299          38.000
R05  19397796.055 8 103692331.316 8     -1317.887          51.000    19397797.961 8  80649590.569 8     -1025.026          50.000
R14  22924548.602 5 122200703.838 5     -3980.387          31.000    22924554.664 5  95045002.310 5     -3095.859          34.000
R15  19418172.867 8 103764916.847 8     -1478.809          51.000    19418175.648 8  80706022.068 8     -1150.184          48.000
R16  20305695.391 7 108469407.080 7      2690.234          47.000    20305697.586 7  84365096.590 7      2092.405          42.000
C05                                                                  39781008.984 6 160181616.511 6         6.265          41.000
C21  23178296.195 8 120695577.170 8     -2537.895          51.000
C24  24844521.453 6 129371944.428 6      2864.234          40.000
C26  21468260.516 8 111790806.211 8       761.297          51.000
E01  26806859.531 6 140871005.772 6      2984.734          41.000    26806857.047 6 107940121.390 6      2286.852          40.000
E19  23755254.664 8 124834710.528 8       383.797          48.000    23755255.469 8  95652564.547 8       294.042          51.000
E21  23742812.484 8 124769324.464 8      1090.160          51.000    23742813.555 8  95602461.019 8       835.303          51.000
E27  24734542.969 6 129980897.490 6     -1765.316          39.000    24734545.219 6  99595745.003 6     -1352.789          41.000
> 2020 05 04 04 31  0.0000000  0 17        .000000000000
G05  21385989.180 8 112384125.594 8     -2269.652          51.000    21385987.422 8  87572040.831 8     -1768.560          51.000
G15  22226748.500 4 116802339.446 4      2800.715          29.000
G28  21027729.555 8 110501539.253 8       983.637          49.000    21027728.609 8  86105069.180 8       766.470          48.000
G30  21227244.344 6 111549992.205 6     -1883.156          40.000    21227247.023 6  86922053.161 6     -1467.394          40.000
R04  22845469.734 7 122336444.127 7     -3956.613          45.000    22845471.539 6  95150598.076 6     -3077.366          36.000
R05  19405254.883 8 103732201.234 8     -1341.703          51.000    19405256.734 8  80680600.497 8     -1043.547          50.000
R14  22946961.062 5 122320172.774 5     -3985.137          31.000    22946967.195 5  95137922.573 5     -3099.551          33.000
R15  19426531.297 8 103809581.297 8     -1500.512          51.000    19426533.859 7  80740761.086 7     -1167.065          47.000
R16  20290637.930 7 108388972.239 7      2670.438          46.000    20290640.555 7  84302536.125 7      2077.007          44.000
C05  39780963.852 6 207149917.209 6         5.867          36.000    39780962.750 6 160181430.364 6         4.890          41.000
C21  23192948.477 8 120771874.414 8     -2550.129          51.000
C24  24828037.531 7 129286110.284 7      2856.281          42.000
C26  21463911.414 8 111768158.879 8       746.855          51.000
E01  26789834.812 6 140781540.479 6      2978.129          41.000    26789831.438 6 107871570.007 6      2281.979          40.000
E19  23753092.078 8 124823345.880 8       372.426          48.000    23753092.680 8  95643856.557 8       285.452          50.000
E21  23736626.438 8 124736815.545 8      1075.492          51.000    23736627.164 8  95577551.579 8       824.102          51.000
E27  24744649.516 7 130034008.432 7     -1776.895          42.000    24744651.203 6  99636440.389 6     -1361.639          40.000
> 2020 05 04 04 31 30.0000000  0 15        .000000000000
G05  21398990.102 8 112452444.280 8     -2283.105          51.000    21398987.148 8  87625276.125 8     -1779.043          51.000
G28  21022164.945 8 110472299.610 8       967.434          49.000    21022164.477 8  86082285.030 8       753.841          48.000
G30  21238019.602 6 111606614.704 6     -1890.043          37.000    21238021.609 6  86966174.609 6     -1472.761          38.000
R04  22867660.312 7 122455265.157 7     -3963.090          45.000    22867659.898 5  95243014.321 5     -3082.409          35.000
R05  19412845.930 8 103772778.809 8     -1361.605          51.000    19412847.617 8  80712160.833 8     -1059.026          49.000
R15  19435009.734 8 103854886.776 8     -1518.102          50.000    19435012.109 7  80775998.681 7     -1180.746          47.000
R16  20275689.594 7 108309123.006 7      2654.402          44.000    20275693.438 7  84240431.143 7      2064.532          44.000
C05  39780926.227 6 207149720.556 6         8.496          36.000    39780925.289 6 160181279.058 6         6.630          41.000
C21  23207669.844 8 120848531.282 8     -2558.555          51.000
C24  24811599.672 7 129200510.665 7      2852.031          44.000
C26  21459644.570 8 111745939.528 8       736.152          51.000
E01  26772846.867 7 140692265.822 7      2975.395          42.000    26772842.328 6 107803164.738 6      2279.695          40.000
E19  23750992.273 8 124812311.032 8       365.062          48.000    23750992.773 8  95635401.268 8       279.690          50.000
E21  23730522.508 8 124704738.403 8      1064.711          51.000    23730523.195 8  95552972.990 8       815.850          51.000
E27  24754820.836 7 130087460.207 7     -1784.699          42.000    24754821.477 6  99677396.905 6     -1367.401          40.000
> 2020 05 04 04 32  0.0000000  0 17        .000000000000
G05  21412070.688 8 112521182.140 8     -2296.801          51.000    21412066.789 8  87678838.054 8     -1789.715          51.000
G07  23682895.141 5 124454453.806 5     -2786.824          33.000
G28  21016696.250 8 110443563.421 8       950.855          48.000    21016696.273 7  86059893.162 7       740.923          47.000
G30  21248838.203 6 111663465.107 6     -1897.418          38.000    21248839.516 6  87010473.594 6     -1478.508          38.000
R04  22889888.766 7 122574290.990 7     -3969.535          45.000    22889887.055 6  95335589.877 6     -3087.422          36.000
R05  19420551.281 8 103813970.205 8     -1381.758          51.000    19420553.617 8  80744198.543 8     -1074.701          50.000
R14  22991815.883 4 122559327.877 4     -3987.727          29.000    22991839.219 4  95323969.660 4     -3101.565          29.000
R15  19443590.141 8 103900736.863 8     -1535.895          50.000    19443592.398 7  80811659.872 7     -1194.585          47.000
R16  20260833.609 7 108229767.467 7      2638.289          45.000    20260837.984 7  84178710.158 7      2052.003          44.000
C05  39780879.812 6 207149478.814 6        10.453          36.000    39780878.867 6 160181092.115 6         7.896          41.000
C21  23222442.367 8 120925455.212 8     -2567.156          51.000
C24  24795190.281 7 129115055.263 7      2847.438          46.000
C26  21455442.031 8 111724056.661 8       725.309          51.000
E01  26755878.133 6 140603091.052 6      2972.309          41.000    26755872.469 6 107734835.955 6      2277.489          40.000
E19  23748937.969 8 124801514.823 8       357.207          49.000    23748938.234 8  95627128.838 8       273.713          50.000
E21  23724482.812 8 124673001.217 8      1053.688          51.000    23724483.656 8  95528654.894 8       807.374          51.000
E27  24765038.914 6 130141159.198 6     -1792.676          41.000    24765039.539 6  99718542.877 6     -1373.513          40.000
> 2020 05 04 04 32 30.0000000  0 15        .000000000000
G05  21425231.883 8 112590345.815 8     -2313.301          51.000    21425228.016 8  87732731.818 8     -1802.572          51.000
G28  21011325.492 8 110415339.916 8       931.410          49.000    21011325.664 8  86037900.805 8       725.774          48.000
G30  21259701.234 6 111720550.893 6     -1907.305          38.000    21259702.445 6  87054955.967 6     -1486.214          38.000
R04  22912156.305 7 122693528.697 7     -3979.004          46.000    22912154.922 6  95428330.241 6     -3094.784          37.000
R05  19428373.141 8 103855783.865 8     -1404.906          50.000    19428376.227 8  80776720.252 8     -1092.705          49.000
R15  19452273.500 8 103947137.949 8     -1556.641          50.000    19452275.773 7  80847749.585 7     -1210.720          47.000
R16  20246073.047 8 108150916.150 8      2619.246          48.000    20246076.344 7  84117381.384 7      2037.194          43.000
C05  39780826.320 6 207149200.841 6         9.387          36.000    39780825.297 6 160180876.380 6         6.971          40.000
C21  23237267.664 8 121002653.717 8     -2578.535          51.000
C24  24778809.992 7 129029753.857 7      2840.031          46.000
C26  21451305.719 8 111702518.908 8       711.387          51.000
E01  26738930.539 6 140514026.355 6      2966.293          40.000    26738923.609 6 107666591.534 6      2272.802          40.000
E19  23746930.898 8 124790966.943 8       346.594          48.000    23746931.039 8  95619046.692 8       265.536          50.000
E21  23718509.391 8 124641613.172 8      1039.613          51.000    23718510.547 8  95504604.317 8       796.569          51.000
E27  24775305.578 7 130195112.858 7     -1803.387          42.000    24775307.438 6  99759883.973 6     -1381.918          41.000
> 2020 05 04 04 33  0.0000000  0 15        .000000000000
G05  21438480.703 8 112659971.974 8     -2327.211          50.000    21438477.773 8  87786985.940 8     -1813.414          50.000
G28  21006060.375 8 110387668.980 8       914.504          51.000    21006059.789 7  86016339.029 7       712.597          47.000
G30  21270615.953 5 111777909.521 5     -1915.215          35.000    21270617.391 5  87099650.994 5     -1492.369          35.000
R04  22934470.531 7 122813015.397 7     -3985.652          47.000    22934468.938 6  95521264.288 6     -3099.952          37.000
R05  19436318.375 8 103898259.022 8     -1425.461          48.000    19436322.312 8  80809756.475 8     -1108.692          48.000
R15  19461066.742 8 103994126.685 8     -1574.699          49.000    19461069.094 7  80884296.366 7     -1224.766          47.000
R16  20231414.930 8 108072610.390 8      2602.445          48.000    20231416.555 7  84056476.947 7      2024.127          42.000
C05  39780772.984 6 207148923.237 6        10.672          36.000    39780772.039 6 160180661.689 6         8.080          41.000
C21  23252152.961 8 121080164.072 8     -2587.543          51.000
C24  24762465.891 7 128944645.961 7      2835.148          45.000
C26  21447243.109 8 111681364.620 8       700.125          51.000
E01  26722011.711 6 140425111.971 6      2962.531          39.000    26722003.555 6 107598462.276 6      2269.962          40.000
E19  23744978.555 8 124780707.189 8       338.582          48.000    23744978.641 8  95611185.305 8       259.478          50.000
E21  23712610.047 8 124610613.441 8      1028.172          51.000    23712611.773 8  95480851.274 8       787.835          51.000
E27  24785628.109 6 130249358.605 6     -1811.723          41.000    24785631.594 6  99801448.873 6     -1388.335          41.000
> 2020 05 04 04 33 30.0000000  0 17        .000000000000
G05  21451819.656 8 112730071.019 8     -2344.324          50.000    21451817.438 8  87841608.549 8     -1826.749          50.000
G07  23730734.922 6 124705836.025 6     -2796.488          39.000
G13  20543114.656 5 107954791.468 5      1289.953          30.000
G28  21000903.094 8 110360564.375 8       894.242          51.000    21000901.414 7  85995218.549 7       696.812          47.000
G30  21281584.820 6 111835552.454 6     -1926.172          36.000    21281586.594 6  87144567.603 6     -1500.913          37.000
R04  22956833.344 7 122932762.020 7     -3995.766          45.000    22956831.539 6  95614400.502 6     -3107.821          37.000
R05  19444389.734 8 103941408.506 8     -1449.410          48.000    19444394.266 8  80843317.177 8     -1127.319          48.000
R15  19469971.828 8 104041713.667 8     -1595.961          49.000    19469974.367 7  80921308.455 7     -1241.303          46.000
R16  20216860.961 7 107994864.864 7      2582.285          45.000    20216862.477 7  83996008.204 7      2008.444          42.000
C05  39780722.516 6 207148659.716 6         9.148          36.000    39780721.453 6 160180457.922 6         6.506          41.000
C21  23267100.406 8 121157997.598 8     -2599.629          51.000
C24  24746160.648 7 128859745.229 7      2826.965          43.000
C26  21443255.797 8 111660606.181 8       685.543          51.000
E01  26705123.852 6 140336361.955 6      2955.570          37.000    26705115.102 6 107530458.952 6      2264.673          40.000
E19  23743083.703 8 124770749.428 8       326.980          48.000    23743083.680 8  95603555.320 8       250.585          50.000
E21  23706787.180 8 124580015.075 8      1013.398          51.000    23706789.094 8  95457405.781 8       776.467          51.000
E27  24796008.734 6 130303907.690 6     -1823.324          41.000    24796012.820 6  99843246.196 6     -1396.970          41.000
> 2020 05 04 04 34  0.0000000  0 15        .000000000000
G05  21465239.875 8 112800595.789 8     -2359.504          50.000    21465238.281 8  87896562.913 8     -1838.574          50.000
G28  20995844.828 8 110333981.603 8       875.840          51.000    20995843.125 7  85974504.733 7       682.473          46.000
G30  21292599.094 6 111893433.121 6     -1934.996          40.000    21292601.391 6  87189669.411 6     -1507.789          39.000
R04  22979234.773 7 123052720.011 7     -4003.953          42.000    22979232.992 5  95707701.106 5     -3114.186          35.000
R05  19452579.461 8 103985186.077 8     -1471.340          51.000    19452583.742 7  80877366.344 7     -1144.378          47.000
R15  19478979.852 8 104089849.785 8     -1615.363          48.000    19478982.680 7  80958747.635 7     -1256.394          46.000
R16  20202402.320 7 107917634.988 7      2564.086          44.000    20202405.320 7  83935940.472 7      1994.289          43.000
C05  39780665.961 5 207148365.594 5         8.426          35.000    39780665.016 6 160180230.439 6         6.636          41.000
C21  23282100.656 8 121236108.169 8     -2609.898          51.000
C24  24729885.609 6 128775007.854 6      2820.008          41.000
C26  21439336.023 8 111640198.546 8       672.730          51.000
E01  26688258.477 6 140247732.436 6      2950.578          37.000    26688249.594 6 107462547.947 6      2261.006          41.000
E19  23741237.859 8 124761049.125 8       317.250          48.000    23741237.883 8  95596122.613 8       243.171          51.000
E21  23701032.109 8 124549773.021 8      1000.480          51.000    23701033.438 8  95434233.302 8       766.590          51.000
E27  24806438.203 6 130358713.417 6     -1832.500          41.000    24806441.961 6  99885240.202 6     -1404.429          41.000
> 2020 05 04 04 34 30.0000000  0 16        .000000000000
G05  21478756.023 8 112871623.441 8     -2373.734          50.000    21478755.172 8  87951909.121 8     -1849.666          50.000
G07  23762667.078 5 124873658.195 5     -2801.625          30.000
G28  20990900.922 8 110308000.415 8       858.234          51.000    20990899.297 7  85954259.653 7       668.754          46.000
G30  21303673.633 6 111951629.698 6     -1943.199          39.000    21303676.211 6  87235017.376 6     -1514.181          39.000
R04  23001688.500 5 123172968.034 5     -4011.176          35.000    23001687.828 5  95801227.298 5     -3119.803          34.000
R05  19460902.203 8 104029671.934 8     -1492.488          51.000    19460905.445 8  80911966.408 8     -1160.827          48.000
R15  19488104.961 8 104138613.223 8     -1633.672          49.000    19488107.562 7  80996674.755 7     -1270.634          44.000
R16  20188056.742 7 107841003.177 7      2546.609          47.000    20188060.117 7  83876337.932 7      1980.696          44.000
C05  39780618.719 6 207148119.594 6         8.980          36.000    39780617.805 6 160180040.187 6         7.261          41.000
C21  23297168.969 8 121314573.183 8     -2619.285          51.000
C24  24713657.891 6 128690513.372 6      2814.418          41.000
C26  21435499.219 8 111620220.256 8       660.938          50.000
E01  26671430.828 6 140159304.204 6      2946.387          37.000    26671422.383 6 107394791.181 6      2257.639          41.000
E19  23739456.234 8 124751686.633 8       308.574          48.000    23739456.570 8  95588948.747 8       236.431          51.000
E21  23695360.219 8 124519967.060 8       988.504          51.000    23695360.820 8  95411394.964 8       757.386          51.000
E27  24816931.234 6 130413853.827 6     -1841.168          41.000    24816934.539 6  99927490.635 6     -1410.957          40.000
> 2020 05 04 04 35  0.0000000  0 16        .000000000000
G05  21492349.094 8 112943054.484 8     -2387.688          51.000    21492349.039 8  88007569.648 8     -1860.539          51.000
G28  20986053.039 8 110282524.522 8       840.809          51.000    20986051.406 7  85934408.312 7       655.176          47.000
G30  21314789.367 6 112010043.182 6     -1950.641          38.000    21314791.984 6  87280534.380 6     -1519.980          38.000
R04  23024174.047 5 123293404.328 5     -4017.762          31.000    23024178.008 5  95894899.981 5     -3124.926          32.000
R05  19469339.000 8 104074766.591 8     -1513.246          51.000    19469341.141 8  80947040.006 8     -1176.969          49.000
R14  23126814.141 5 123278932.628 5     -4003.977          30.000
R15  19497328.844 8 104187901.909 8     -1651.742          48.000    19497330.945 7  81035010.366 7     -1284.685          44.000
R16  20173805.109 7 107764871.812 7      2529.293          46.000    20173808.273 7  83817124.659 7      1967.231          44.000
C05  39780562.109 5 207147825.155 5        10.852          35.000    39780561.328 6 160179812.528 6         8.219          41.000
C21  23312286.523 8 121393294.664 8     -2628.285          51.000
C24  24697460.758 7 128606166.245 7      2808.992          45.000
C26  21431726.359 8 111600574.386 8       649.332          50.000
E01  26654623.383 6 140070980.991 6      2942.258          38.000    26654615.367 6 107327114.906 6      2254.586          41.000
E19  23737720.375 8 124742565.488 8       300.215          48.000    23737721.055 8  95581959.802 8       229.963          50.000
E21  23689752.977 8 124490499.865 8       976.641          51.000    23689753.219 8  95388816.206 8       748.356          51.000
E27  24827469.164 6 130469229.882 6     -1849.605          41.000    24827472.133 6  99969921.608 6     -1417.272          40.000
> 2020 05 04 04 35 30.0000000  0 15        .000000000000
G05  21506028.516 8 113014938.181 8     -2402.344          51.000    21506028.898 8  88063582.902 8     -1871.956          51.000
G28  20981311.250 8 110257606.083 8       822.645          51.000    20981309.516 7  85914991.352 7       641.022          47.000
G30  21325956.039 6 112068723.761 6     -1958.883          39.000    21325958.531 6  87326259.561 6     -1526.402          39.000
R04  23046707.844 5 123414080.086 5     -4025.031          35.000    23046715.156 5  95988743.578 5     -3130.580          32.000
R05  19477898.797 8 104120522.006 8     -1534.852          51.000    19477900.734 8  80982627.534 8     -1193.773          50.000
R15  19506659.977 8 104237765.418 8     -1670.316          49.000    19506662.172 7  81073793.113 7     -1299.135          43.000
R16  20159656.945 7 107689294.567 7      2511.406          46.000    20159660.039 7  83758342.387 7      1953.316          43.000
C05  39780506.109 6 207147533.416 6        11.410          36.000    39780505.312 6 160179586.911 6         8.445          41.000
C21  23327462.859 8 121472322.311 8     -2637.992          51.000
C24  24681302.039 7 128522018.451 7      2802.992          44.000
C26  21428027.492 8 111581311.690 8       637.031          51.000
E01  26637846.312 6 139982815.657 6      2937.430          40.000    26637838.688 6 107259559.607 6      2251.057          41.000
E19  23736040.414 8 124733737.947 8       290.812          48.000    23736041.164 8  95575195.824 8       222.824          50.000
E21  23684220.172 8 124461423.168 8       964.043          51.000    23684219.984 8  95366536.663 8       738.676          51.000
E27  24838061.641 6 130524891.567 6     -1858.598          40.000    24838064.188 6 100012571.482 6     -1424.231          40.000
> 2020 05 04 04 36  0.0000000  0 15        .000000000000
G05  21519798.031 8 113087295.334 8     -2417.195          51.000    21519798.461 8  88119965.093 8     -1883.529          51.000
G28  20976680.133 8 110233268.792 8       804.176          51.000    20976677.938 7  85896027.220 7       626.630          47.000
G30  21337177.805 6 112127693.444 6     -1968.082          39.000    21337179.906 6  87372209.941 6     -1533.570          38.000
R04  23069296.789 6 123535014.883 6     -4032.762          36.000    23069300.336 5  96082803.357 5     -3136.595          32.000
R05  19486586.086 8 104166961.395 8     -1556.680          51.000    19486588.398 8  81018747.053 8     -1210.751          50.000
R15  19516103.094 8 104288224.606 8     -1689.312          49.000    19516104.641 7  81113039.128 7     -1313.910          43.000
R16  20145617.102 7 107614296.698 7      2492.902          46.000    20145619.953 7  83700010.736 7      1938.924          42.000
C05  39780455.000 6 207147267.381 6        11.469          36.000    39780454.188 6 160179381.182 6         8.491          41.000
C21  23342702.086 8 121551677.743 8     -2647.922          51.000
C24  24665184.203 7 128438093.935 7      2796.398          44.000
C26  21424407.102 8 111562454.891 8       624.406          51.000
E01  26621104.062 6 139894832.615 6      2932.172          40.000    26621097.039 6 107192144.039 6      2246.924          41.000
E19  23734420.945 8 124725228.066 8       281.051          48.000    23734421.703 8  95568675.256 8       215.378          50.000
E21  23678765.992 8 124432760.316 8       951.188          51.000    23678765.352 8  95344574.220 8       728.808          51.000
E27  24848712.562 7 130580860.632 7     -1868.094          42.000    24848714.664 6 100055456.845 6     -1431.426          41.000
> 2020 05 04 04 36 30.0000000  0 17        .000000000000
G05  21533645.961 8 113160066.059 8     -2431.867          51.000    21533646.086 8  88176669.553 8     -1894.958          51.000
G07  23826770.719 5 125210524.697 5     -2808.898          35.000
G15  22053283.617 5 115890769.145 5      2721.684          34.000
G28  20972148.672 8 110209455.514 8       785.887          51.000    20972146.789 8  85877471.425 8       612.379          48.000
G30  21348443.070 6 112186892.496 6     -1976.355          40.000    21348444.672 6  87418339.059 6     -1540.017          39.000
R04  23091921.156 6 123656147.765 6     -4040.105          37.000    23091922.508 5  96177017.716 5     -3142.304          33.000
R05  19495390.219 8 104214024.784 8     -1578.395          51.000    19495392.836 8  81055351.924 8     -1227.640          50.000
R15  19525645.969 8 104339217.380 8     -1707.922          49.000    19525646.680 7  81152700.179 7     -1328.384          42.000
R16  20131674.867 7 107539820.437 7      2474.543          46.000    20131677.508 7  83642084.745 7      1924.645          42.000
C05                                                                  39780396.977 6 160179150.815 6         8.699          41.000
C21  23357993.125 8 121631301.924 8     -2657.836          51.000
C24  24649098.156 7 128354335.892 7      2789.789          45.000
C26  21420853.484 8 111543946.051 8       611.863          51.000
E01  26604385.406 6 139806974.994 6      2927.270          41.000    26604379.617 6 107124824.606 6      2242.952          41.000
E19  23732851.141 7 124716978.702 7       271.168          47.000    23732852.055 8  95562354.303 8       207.841          50.000
E21  23673379.430 8 124404453.313 8       938.426          51.000    23673378.648 8  95322884.445 8       719.018          51.000
E27  24859410.359 7 130637077.395 7     -1877.250          42.000    24859412.523 6 100098531.972 6     -1438.367          41.000
> 2020 05 04 04 37  0.0000000  0 16        .000000000000
G05  21547583.547 8 113233308.401 8     -2446.520          51.000    21547583.250 8  88233741.499 8     -1906.379          51.000
G28  20967728.430 8 110186227.254 8       767.328          51.000    20967726.930 8  85859371.490 8       597.915          48.000
G30  21359763.422 6 112246380.512 6     -1984.914          41.000    21359764.086 6  87464693.322 6     -1546.689          40.000
R04  23114589.391 6 123777538.457 6     -4048.195          36.000    23114591.445 5  96271432.568 5     -3148.599          32.000
R05  19504322.750 8 104261773.881 8     -1600.254          51.000    19504325.484 8  81092490.106 8     -1244.645          49.000
R14  23217096.586 5 123760188.027 5     -4013.203          30.000
R15  19535299.852 8 104390802.906 8     -1726.543          50.000    19535300.312 7  81192822.240 7     -1342.867          42.000
R16  20117842.578 7 107465929.084 7      2456.188          47.000    20117845.000 7  83584613.664 7      1910.365          42.000
C05  39780346.133 6 207146700.071 6        11.008          36.000    39780345.188 6 160178942.453 6         8.533          41.000
C21  23373347.070 8 121711253.723 8     -2667.707          51.000
C24  24633057.398 8 128270805.502 8      2783.203          48.000
C26  21417377.742 8 111525845.126 8       599.262          51.000
E01  26587702.086 6 139719304.955 6      2921.875          41.000    26587698.133 6 107057648.876 6      2238.809          39.000
E19  23731342.695 8 124709051.245 8       261.488          48.000    23731343.906 8  95556280.002 8       200.295          50.000
E21  23668072.391 8 124376563.193 8       925.402          51.000    23668071.828 8  95301514.089 8       709.039          51.000
E27  24870166.727 6 130693601.106 6     -1886.641          41.000    24870169.039 6 100141842.318 6     -1445.452          40.000
> 2020 05 04 04 37 30.0000000  0 15        .000000000000
G05  21561597.227 8 113306950.595 8     -2464.547          51.000    21561596.336 8  88291125.005 8     -1920.426          51.000
G28  20963406.453 8 110163515.622 8       745.180          50.000    20963404.930 8  85841674.080 8       580.656          48.000
G30  21371125.336 7 112306086.841 7     -1997.086          42.000    21371125.141 7  87511217.671 7     -1556.174          42.000
R04  23137290.891 4 123899113.777 4     -4059.516          29.000    23137293.664 4  96365991.097 4     -3157.395          25.000
R05  19513370.320 8 104310137.578 8     -1625.590          51.000    19513373.203 8  81130106.274 8     -1264.351          48.000
R15  19545050.758 8 104442907.587 8     -1748.773          48.000    19545051.742 7  81233348.124 7     -1360.157          42.000
R16  20104106.961 7 107392553.694 7      2434.000          47.000    20104108.953 7  83527543.902 7      1893.111          43.000
C05  39780286.594 6 207146390.394 6         7.680          36.000    39780285.781 6 160178702.956 6         6.198          41.000
C21  23388750.227 8 121791463.138 8     -2681.113          51.000
C24  24617047.836 8 128187435.021 8      2773.176          49.000
C26  21413967.047 8 111508083.126 8       583.254          51.000
E01  26571041.266 6 139631754.411 6      2913.371          41.000    26571039.383 6 106990564.746 6      2232.042          37.000
E19  23729882.523 7 124701377.364 7       248.539          47.000    23729884.039 8  95550400.004 8       190.388          50.000
E21  23662831.250 8 124349020.769 8       909.141          51.000    23662831.359 8  95280410.156 8       696.602          51.000
E27  24880967.812 6 130750360.942 6     -1899.062          41.000    24880969.758 6 100185333.601 6     -1454.865          39.000
> 2020 05 04 04 38  0.0000000  0 15        .000000000000
G05  21575698.336 8 113381052.776 8     -2472.750          51.000    21575696.516 8  88348866.943 8     -1926.818          51.000
G15  22006902.938 5 115647054.027 5      2700.492          34.000
G28  20959194.391 8 110141383.106 8       733.145          50.000    20959193.516 8  85824427.950 8       571.281          49.000
G30  21382540.164 6 112366072.014 6     -1999.285          40.000    21382540.375 6  87557959.290 6     -1557.885          41.000
R05  19522544.234 8 104359177.902 8     -1640.859          51.000    19522546.852 7  81168248.691 7     -1276.224          47.000
R15  19554909.711 8 104495591.728 8     -1760.789          48.000    19554910.188 7  81274324.647 7     -1369.503          42.000
R16  20090479.719 7 107319758.374 7      2421.910          47.000    20090481.844 7  83470925.342 7      1883.708          44.000
C05  39780231.211 6 207146101.991 6        14.273          36.000    39780230.406 6 160178479.929 6        11.140          41.000
C21  23404213.945 8 121871990.037 8     -2684.617          50.000
C24  24601080.742 8 128104286.779 8      2772.883          49.000
C26  21410633.109 8 111490721.134 8       577.059          51.000
E01  26554415.344 6 139544386.676 6      2914.297          41.000    26554415.883 5 106923620.629 5      2233.006          35.000
E19  23728482.438 7 124694019.955 7       245.246          46.000    23728484.125 8  95544762.495 8       187.931          50.000
E21  23657667.883 8 124321888.136 8       902.719          51.000    23657668.648 8  95259620.214 8       691.700          51.000
E27  24891825.102 7 130807417.415 7     -1901.730          42.000    24891825.758 6 100229052.199 6     -1457.134          38.000
> 2020 05 04 04 38 30.0000000  0 16        .000000000000
G05  21589867.742 8 113455516.282 8     -2497.973          49.000    21589865.734 8  88406890.430 8     -1946.472          49.000
G15  21991523.297 5 115566219.571 5      2681.785          34.000
G28  20955074.586 8 110119734.341 8       703.855          51.000    20955073.930 7  85807558.782 7       548.459          47.000
G30  21393989.531 6 112426238.593 6     -2018.605          38.000    21393990.977 6  87604842.283 6     -1572.939          38.000
R04  23182826.453 5 124142933.933 5     -4077.945          35.000    23182820.172 5  96555616.363 5     -3171.735          30.000
R05  19531826.484 8 104408796.735 8     -1673.543          51.000    19531829.117 7  81206841.045 7     -1301.648          47.000
R15  19564858.312 8 104548754.565 8     -1789.938          48.000    19564859.773 7  81315673.501 7     -1392.174          43.000
R16  20076943.062 7 107247446.969 7      2392.359          47.000    20076945.328 7  83414683.152 7      1860.724          43.000
C05  39780161.625 5 207145739.682 5         4.004          35.000    39780160.812 6 160178199.794 6         2.749          40.000
C21  23419720.070 8 121952737.934 8     -2704.895          51.000
C24  24585137.938 8 128021266.464 8      2755.523          50.000
C26  21407357.594 8 111473663.571 8       553.734          51.000
E01  26537806.117 6 139457106.905 6      2898.066          39.000    26537809.414 5 106856743.985 5      2220.620          33.000
E19  23727124.234 7 124686883.689 7       224.277          47.000    23727126.398 8  95539294.433 8       171.834          50.000
E21  23652564.492 8 124295069.378 8       878.844          51.000    23652565.516 8  95239070.770 8       673.382          51.000
E27  24902720.227 7 130864672.943 7     -1921.699          43.000    24902719.969 6 100272923.269 6     -1472.357          38.000
> 2020 05 04 04 39  0.0000000  0 16        .000000000000
G05  21604146.977 8 113530556.103 8     -2505.285          50.000    21604145.516 8  88465363.009 8     -1952.170          50.000
G15  21976218.609 6 115485786.868 6      2680.738          38.000
G28  20951088.602 8 110098786.628 8       692.270          51.000    20951087.430 7  85791235.869 7       539.431          46.000
G30  21405514.469 6 112486802.392 6     -2019.969          37.000    21405516.133 6  87652034.860 6     -1574.005          37.000
R04  23205668.617 6 124265264.361 6     -4077.883          39.000    23205664.062 5  96650762.110 5     -3171.690          30.000
R05  19541258.188 8 104459214.343 8     -1688.137          51.000    19541260.969 8  81246054.679 8     -1312.995          48.000
R15  19574937.141 7 104602614.048 7     -1801.148          47.000    19574939.055 6  81357564.191 6     -1400.893          41.000
R16  20063538.547 8 107175841.691 8      2380.902          48.000    20063540.375 7  83358990.179 7      1851.813          42.000
C05  39780119.266 5 207145518.765 5        10.711          35.000    39780118.398 6 160178028.910 6         8.319          41.000
C21  23435310.172 8 122033920.574 8     -2707.672          51.000
C24  24569260.812 8 127938590.153 8      2755.785          50.000
C26  21404181.750 8 111457125.321 8       548.320          51.000
E01  26521254.922 6 139370133.474 6      2899.699          38.000    26521259.719 5 106790102.052 5      2221.719          34.000
E19  23725849.664 7 124680186.446 7       221.457          46.000    23725852.203 8  95534162.764 8       169.670          50.000
E21  23647562.148 8 124268781.735 8       873.047          51.000    23647563.688 8  95218928.283 8       668.946          51.000
E27  24913694.305 6 130922343.078 6     -1923.551          41.000    24913694.625 6 100317112.076 6     -1473.919          38.000
> 2020 05 04 04 39 30.0000000  0 16        .000000000000
G05  21618491.516 8 113605936.197 8     -2519.727          51.000    21618490.453 8  88524100.733 8     -1963.423          51.000
G15  21960941.969 5 115405527.337 5      2672.660          32.000
G28  20947191.719 8 110078306.867 8       673.359          51.000    20947190.312 7  85775277.651 7       524.699          47.000
G30  21417070.297 5 112547528.417 5     -2027.965          34.000    21417071.477 5  87699353.804 5     -1580.232          34.000
R04  23228532.625 6 124387718.365 6     -4085.176          39.000    23228530.570 5  96746004.018 5     -3177.362          30.000
R05  19550794.266 8 104510192.169 8     -1710.008          49.000    19550797.016 8  81285704.099 8     -1330.003          48.000
R15  19585101.320 7 104656929.642 7     -1819.602          46.000    19585103.945 7  81399809.647 7     -1415.246          42.000
R16  20050221.883 8 107104705.950 8      2362.016          49.000    20050223.125 7  83303662.397 7      1837.123          42.000
C05  39780059.469 6 207145208.028 6        10.367          36.000    39780058.672 6 160177788.221 6         8.134          41.000
C21  23450939.375 8 122115304.871 8     -2717.559          51.000
C24  24553405.289 8 127856027.139 8      2748.809          50.000
C26  21401060.797 8 111440874.360 8       535.512          51.000
E01  26504717.672 6 139283233.898 6      2894.453          38.000    26504723.281 6 106723516.706 6      2217.325          37.000
E19  23724614.586 7 124673695.564 7       211.484          47.000    23724617.086 8  95529189.211 8       162.032          50.000
E21  23642616.219 8 124242791.562 8       860.000          51.000    23642618.367 8  95199013.740 8       658.973          51.000
E27  24924702.430 6 130980192.553 6     -1932.852          40.000    24924704.688 6 100361438.311 6     -1480.890          39.000
> 2020 05 04 04 40  0.0000000  0 15        .000000000000
G05  21632920.555 8 113681758.435 8     -2534.172          51.000    21632919.414 8  88583182.970 8     -1974.679          51.000
G28  20943403.859 8 110058399.979 8       654.574          51.000    20943402.297 7  85759765.817 7       510.058          47.000
G30  21428676.312 5 112608519.413 5     -2036.734          35.000    21428677.070 5  87746879.292 5     -1587.066          35.000
R04  23251440.414 6 124510399.721 6     -4092.391          36.000    23251440.695 5  96841422.806 5     -3182.970          32.000
R05  19560455.078 8 104561835.610 8     -1731.906          50.000    19560457.945 8  81325871.258 8     -1347.038          50.000
R15  19595370.203 7 104711804.440 7     -1837.777          46.000    19595372.438 6  81442490.031 6     -1429.382          40.000
R16  20037012.961 8 107034147.103 8      2342.961          48.000    20037014.195 7  83248783.267 7      1822.300          42.000
C05  39780002.305 5 207144910.403 5         9.652          35.000    39780001.383 6 160177557.671 6         7.844          41.000
C21  23466627.000 8 122196992.717 8     -2727.391          51.000
C24  24537591.883 8 127773681.571 8      2741.871          50.000
C26  21398014.766 8 111425013.667 8       522.793          51.000
E01  26488214.781 6 139196513.727 6      2888.398          39.000    26488220.930 6 106657068.795 6      2213.045          40.000
E19  23723438.883 7 124667515.981 7       201.535          46.000    23723441.031 8  95524454.204 8       154.294          49.000
E21  23637746.844 8 124217203.234 8       846.844          51.000    23637749.078 8  95179407.087 8       648.877          51.000
E27  24935764.328 7 131038324.156 7     -1941.832          42.000    24935768.102 6 100405980.676 6     -1487.592          38.000
> 2020 05 04 04 40 30.0000000  0 15        .000000000000
G05  21647429.867 8 113758002.066 8     -2548.918          51.000    21647428.320 8  88642593.564 8     -1986.173          51.000
G28  20939721.328 8 110039047.536 8       635.336          51.000    20939719.586 8  85744686.015 8       495.070          48.000
G30  21440328.922 6 112669755.639 6     -2046.168          38.000    21440329.781 6  87794595.835 6     -1594.420          38.000
R04  23274383.430 5 124633286.777 5     -4100.051          33.000    23274389.281 6  96937001.768 6     -3188.925          36.000
R05  19570236.781 8 104614124.931 8     -1754.246          51.000    19570239.750 8  81366540.742 8     -1364.414          49.000
R15  19605739.805 7 104767216.426 7     -1856.559          45.000    19605741.867 6  81485588.226 6     -1443.990          40.000
R16  20023908.742 8 106964147.360 8      2323.480          48.000    20023910.461 7  83194338.982 7      1807.151          43.000
C05  39779944.039 5 207144606.981 5         9.734          35.000    39779943.164 6 160177323.040 6         7.470          41.000
C21  23482368.758 8 122278964.170 8     -2737.570          51.000
C24  24521817.141 8 127691535.852 8      2734.406          49.000
C26  21395039.680 8 111409524.390 8       509.676          51.000
E01  26471743.141 6 139109955.495 6      2882.062          41.000    26471748.375 6 106590744.988 6      2208.337          41.000
E19  23722318.977 7 124661629.838 7       190.961          47.000    23722320.812 8  95519944.033 8       146.285          49.000
E21  23632950.273 8 124191998.208 8       833.258          51.000    23632952.492 8  95160094.134 8       638.446          51.000
E27  24946876.328 7 131096717.779 7     -1951.414          42.000    24946879.156 6 100450723.801 6     -1495.248          36.000
> 2020 05 04 04 41  0.0000000  0 16        .000000000000
G05  21662019.914 8 113834670.925 8     -2562.180          51.000    21662018.102 8  88702335.508 8     -1996.504          51.000
G07  23971745.789 5 125972374.047 5     -2831.855          31.000
G28  20936145.594 8 110020256.602 8       617.496          51.000    20936143.930 8  85730043.745 8       481.166          48.000
G30  21452029.305 6 112731242.243 6     -2053.156          38.000    21452030.891 6  87842507.402 6     -1599.868          38.000
R04  23297369.000 6 124756384.496 6     -4106.258          38.000    23297377.547 6  97032744.374 6     -3193.759          38.000
R05  19580140.633 8 104667066.247 8     -1775.156          51.000    19580143.609 8  81407717.309 8     -1380.677          50.000
R15  19616210.852 7 104823169.365 7     -1873.570          43.000    19616213.000 6  81529107.158 6     -1457.221          40.000
R16  20010910.812 7 106894715.084 7      2305.348          47.000    20010912.656 7  83140336.115 7      1793.048          43.000
C05  39779886.102 5 207144304.840 5        10.652          35.000    39779885.164 6 160177089.363 6         8.307          40.000
C21  23498165.406 8 122361224.253 8     -2746.469          49.000
C24  24506082.047 8 127609597.353 8      2728.320          49.000
C26  21392137.078 8 111394412.683 8       497.883          51.000
E01  26455304.078 7 139023567.082 7      2877.199          42.000    26455307.172 6 106524551.253 6      2204.670          41.000
E19  23721256.133 7 124656044.549 7       181.648          46.000    23721257.891 8  95515664.396 8       139.233          49.000
E21  23628227.781 8 124167183.110 8       821.172          51.000    23628230.102 8  95141079.950 8       629.234          51.000
E27  24958039.492 6 131155378.357 6     -1959.109          40.000    24958039.898 5 100495671.493 5     -1501.459          35.000
> 2020 05 04 04 41 30.0000000  0 15        .000000000000
G05  21676689.516 8 113911759.316 8     -2576.254          51.000    21676687.742 8  88762404.364 8     -2007.471          51.000
G28  20932675.992 8 110002024.112 8       598.695          51.000    20932674.242 8  85715836.604 8       466.516          48.000
G30  21463776.672 6 112792974.055 6     -2061.344          38.000    21463778.812 6  87890610.095 6     -1606.242          38.000
R04  23320394.625 6 124879686.243 6     -4113.195          41.000    23320404.031 6  97128645.685 6     -3199.155          38.000
R05  19590165.500 8 104720654.816 8     -1796.785          51.000    19590168.484 8  81449397.264 8     -1397.503          49.000
R15  19626781.562 7 104879656.496 7     -1891.551          43.000    19626784.078 6  81573041.626 6     -1471.206          39.000
R16  19998018.641 8 106825847.118 8      2286.602          48.000    19998019.430 6  83086772.178 6      1778.468          41.000
C05  39779827.453 5 207144000.228 5        10.363          35.000    39779826.766 6 160176853.833 6         7.995          41.000
C21  23514016.289 8 122443767.858 8     -2755.965          50.000
C24  24490386.102 8 127527863.300 8      2721.203          50.000
C26  21389306.109 8 111379674.427 8       485.262          51.000
E01  26438896.695 6 138937345.950 6      2871.645          41.000    26438897.688 7 106458485.732 7      2200.219          43.000
E19  23720249.938 7 124650757.337 7       171.500          46.000    23720251.773 8  95511613.141 8       131.364          50.000
E21  23623578.938 8 124142754.271 8       808.117          51.000    23623581.172 8  95122361.731 8       619.207          51.000
E27  24969252.367 6 131214300.581 6     -1968.164          37.000    24969252.234 5 100540819.696 5     -1508.035          35.000
> 2020 05 04 04 42  0.0000000  0 16        .000000000000
G05  21691435.820 8 113989253.282 8     -2590.094          50.000    21691434.500 8  88822789.262 8     -2018.252          50.000
G13  20426974.750 5 107344472.565 5      1102.477          31.000
G28  20929310.484 8 109984339.461 8       580.012          51.000    20929308.820 8  85702056.336 8       451.957          49.000
G30  21475568.930 6 112854938.765 6     -2069.082          37.000    21475570.852 6  87938894.317 6     -1612.272          36.000
R04  23343457.023 6 125003178.485 6     -4119.547          41.000    23343466.258 6  97224695.132 6     -3204.095          37.000
R05  19600309.023 8 104774878.621 8     -1818.277          51.000    19600312.148 8  81491571.284 8     -1414.219          49.000
R15  19637449.883 7 104936663.737 7     -1909.066          43.000    19637451.484 6  81617380.557 6     -1484.832          37.000
R16  19985230.383 7 106757534.238 7      2267.648          47.000    19985230.617 7  83033639.956 7      1763.727          42.000
C05  39779766.430 5 207143681.349 5        10.625          35.000    39779765.742 6 160176608.028 6         8.137          41.000
C21  23529920.547 8 122526582.687 8     -2765.227          51.000
C24  24474727.523 8 127446323.653 8      2714.516          51.000
C26  21386545.086 8 111365298.355 8       472.965          51.000
E01  26422518.844 6 138851282.420 6      2865.816          39.000    26422517.695 7 106392540.912 7      2196.020          43.000
E19  23719298.586 7 124645758.050 7       161.453          47.000    23719300.492 8  95507782.496 8       123.717          50.000
E21  23619001.625 8 124118700.773 8       795.273          51.000    23619003.625 8  95103931.111 8       609.344          51.000
E27  24980512.195 6 131273472.070 6     -1976.695          40.000    24980514.094 5 100586158.885 5     -1514.548          35.000
> 2020 05 04 04 42 30.0000000  0 16        .000000000000
G05  21706261.391 7 114067166.985 7     -2604.023          47.000    21706260.938 7  88883501.229 7     -2029.109          47.000
G13  20420714.516 5 107311576.851 5      1090.852          33.000    20420711.984 5  83619396.387 5       850.014          32.000
G28  20926052.070 8 109967218.481 8       561.387          50.000    20926050.883 8  85688715.291 8       437.444          49.000
G30  21487408.164 6 112917151.010 6     -2077.953          37.000    21487409.789 6  87987371.367 6     -1619.184          37.000
R04  23366558.469 6 125126874.689 6     -4126.832          40.000    23366566.156 5  97320903.201 5     -3209.761          33.000
R05  19610574.289 8 104829752.808 8     -1839.840          51.000    19610577.781 8  81534251.151 8     -1430.987          50.000
R15  19648217.734 7 104994204.155 7     -1926.688          46.000    19648219.883 6  81662134.181 6     -1498.538          39.000
R16  19972548.875 7 106689793.019 7      2248.539          47.000    19972550.305 7  82980952.319 7      1748.861          44.000
C05  39779705.812 5 207143365.969 5        10.594          35.000    39779705.211 6 160176364.123 6         8.156          41.000
C21  23545880.047 8 122609682.871 8     -2774.652          51.000
C24  24459109.508 8 127364994.894 8      2707.480          51.000
C26  21383856.688 8 111351299.719 8       460.391          51.000
E01  26406173.398 5 138765393.384 5      2860.227          34.000    26406171.367 7 106326729.838 7      2191.411          44.000
E19  23718405.141 7 124641063.035 7       151.582          47.000    23718407.086 8  95504185.007 8       116.162          50.000
E21  23614499.070 8 124095038.383 8       782.355          51.000    23614500.617 8  95085800.171 8       599.503          51.000
E27  24991822.117 6 131332907.044 6     -1985.328          41.000    24991826.430 5 100631699.918 5     -1521.267          35.000
> 2020 05 04 04 43  0.0000000  0 16        .000000000000
G05  21721165.836 7 114145496.879 7     -2618.227          46.000    21721166.383 7  88944537.530 7     -2040.173          46.000
G13  20414520.320 5 107279027.048 5      1078.621          33.000    20414517.641 5  83594039.855 5       840.493          32.000
G28  20922900.891 8 109950660.918 8       542.242          50.000    20922899.898 8  85675813.244 8       422.526          49.000
G30  21499293.539 6 112979608.449 6     -2086.059          36.000    21499295.102 6  88036039.525 6     -1625.497          37.000
R04  23389697.828 6 125250771.755 6     -4133.207          37.000
R05  19620961.273 8 104885275.699 8     -1861.805          51.000    19620964.820 8  81577435.609 8     -1448.070          50.000
R15  19659085.406 7 105052273.861 7     -1944.621          44.000    19659088.664 6  81707299.540 6     -1512.480          38.000
R16  19959974.484 7 106622623.906 7      2229.051          47.000    19959977.023 7  82928709.637 7      1733.706          45.000
C05  39779645.508 5 207143052.712 5         9.984          35.000    39779644.930 6 160176121.480 6         7.630          41.000
C21  23561893.906 8 122693066.115 8     -2784.340          51.000
C24  24443531.992 8 127283877.053 8      2700.172          50.000
C26  21381240.203 8 111337677.268 8       447.609          51.000
E01  26389860.781 5 138679679.319 5      2853.578          35.000    26389859.125 7 106261052.833 7      2186.774          44.000
E19  23717569.695 7 124636672.279 7       141.191          47.000    23717571.578 8  95500820.655 8       108.081          50.000
E21  23610070.938 8 124071766.389 8       768.957          51.000    23610072.180 8  95067968.367 8       589.183          51.000
E27  25003181.695 6 131392603.167 6     -1994.547          40.000    25003186.469 5 100677441.026 5     -1528.119          35.000
> 2020 05 04 04 43 30.0000000  0 16        .000000000000
G05  21736149.508 7 114224240.568 7     -2632.148          45.000    21736150.539 7  89005896.265 7     -2051.025          45.000
G13  20408391.969 5 107246825.346 5      1066.914          34.000    20408391.148 4  83568948.525 4       831.356          27.000
G28  20919857.000 8 109934667.639 8       523.125          48.000    20919856.578 8  85663350.930 8       407.627          48.000
G30  21511225.039 5 113042310.544 5     -2094.422          35.000    21511226.586 6  88084898.267 6     -1632.014          36.000
R04  23412873.305 4 125374867.653 4     -4140.285          29.000
R05  19631469.781 8 104941447.104 8     -1883.758          51.000    19631473.055 8  81621124.476 8     -1465.145          51.000
R15  19670051.031 7 105110870.533 7     -1962.516          45.000    19670053.570 6  81752874.717 6     -1526.404          37.000
R16  19947507.469 7 106556028.859 7      2209.660          47.000    19947510.828 7  82876913.489 7      1718.625          44.000
C05                                                                  39779585.102 6 160175880.638 6         7.618          40.000
C21  23577961.391 8 122776731.539 8     -2794.109          51.000
C24  24427995.164 8 127202971.552 8      2692.707          49.000
C26  21378696.352 8 111324431.185 8       434.707          51.000
E01  26373582.625 5 138594141.967 5      2847.594          35.000    26373580.867 7 106195511.263 7      2182.039          43.000
E19  23716792.375 7 124632587.377 7       130.449          47.000    23716794.227 8  95497690.643 8       100.011          50.000
E21  23605717.039 8 124048885.333 8       755.656          51.000    23605718.086 8  95050436.120 8       579.021          51.000
E27  25014590.852 5 131452559.324 5     -2003.516          35.000    25014594.344 5 100723381.490 5     -1535.254          34.000
> 2020 05 04 04 44  0.0000000  0 15        .000000000000
G05  21751213.023 8 114303398.353 8     -2645.016          49.000    21751213.766 8  89067577.677 8     -2061.051          49.000
G13  20402330.211 5 107214974.573 5      1056.488          35.000    20402330.672 5  83544132.680 5       823.244          33.000
G28  20916921.000 8 109919240.972 8       505.172          48.000    20916921.273 8  85651330.153 8       393.640          48.000
G30  21523203.500 5 113105257.828 5     -2102.215          34.000    21523204.156 5  88133948.092 5     -1638.083          34.000
R05  19642099.781 8 104998267.837 8     -1904.441          51.000    19642102.781 8  81665318.383 8     -1481.232          51.000
R15  19681115.180 7 105169993.223 7     -1979.125          47.000    19681117.031 6  81798859.022 6     -1539.319          37.000
R16  19935148.219 7 106490010.864 7      2191.379          46.000    19935151.594 7  82825566.207 7      1704.406          42.000
C05  39779526.734 5 207142433.635 5        10.602          35.000    39779526.133 6 160175643.128 6         8.113          40.000
C21  23594082.812 8 122860679.489 8     -2802.590          51.000
C24  24412499.469 7 127122281.204 7      2686.426          47.000
C26  21376225.508 8 111311562.995 8       422.992          51.000
E01  26357339.039 6 138508784.587 6      2842.656          36.000    26357337.281 7 106130107.577 7      2178.070          43.000
E19  23716073.648 7 124628810.990 7       120.945          47.000    23716075.336 8  95494797.031 8        92.708          50.000
E21  23601437.867 8 124026397.197 8       743.434          51.000    23601438.438 8  95033204.943 8       569.629          51.000
E27  25026049.852 6 131512776.080 6     -2011.207          38.000    25026051.852 5 100769521.602 5     -1541.076          34.000
> 2020 05 04 04 44 30.0000000  0 16        .000000000000
G05  21766355.094 8 114382966.489 8     -2660.398          51.000    21766355.148 8  89129578.801 8     -2073.038          51.000
G07  24085242.141 5 126568776.785 5     -2848.391          33.000    24085238.383 5  98625022.911 5     -2219.525          33.000
G13  20396335.844 5 107183474.982 5      1042.879          34.000    20396336.789 5  83519587.546 5       812.636          31.000
G28  20914092.922 8 109904380.596 8       484.543          48.000    20914093.203 7  85639750.621 7       377.566          47.000
R04  23459323.281 5 125623636.650 5     -4153.898          30.000
R05  19652850.672 8 105055736.232 8     -1927.855          51.000    19652853.656 8  81710015.989 8     -1499.443          50.000
R15  19692276.672 7 105229637.728 7     -1998.238          45.000    19692278.641 6  81845249.190 6     -1554.185          37.000
R16  19922897.242 7 106424570.253 7      2170.195          46.000    19922900.055 7  82774667.996 7      1687.930          42.000
C05  39779468.477 5 207142129.882 5         8.391          35.000    39779467.773 6 160175408.212 6         6.866          40.000
C21  23610257.688 8 122944907.617 8     -2813.684          51.000
C24  24397042.930 7 127041806.015 7      2677.422          44.000
C26  21373826.938 8 111299071.304 8       408.715          51.000
E01  26341129.516 5 138423572.491 5      2834.941          34.000    26341128.680 7 106064841.983 7      2172.213          43.000
E19  23715413.648 8 124625342.861 8       109.102          48.000    23715415.297 8  95492139.624 8        83.522          51.000
E21  23597233.359 8 124004301.066 8       728.613          51.000    23597233.680 8  95016274.137 8       558.306          51.000
E27  25037557.547 6 131573251.005 6     -2021.410          39.000    25037558.844 5 100815859.527 5     -1549.217          34.000
> 2020 05 04 04 45  0.0000000  0 17        .000000000000
G05  21781572.305 8 114462928.669 8     -2670.895          51.000    21781571.211 8  89191886.933 8     -2081.220          51.000
G07  24101499.719 5 126654207.596 5     -2847.848          31.000    24101495.469 5  98691592.342 5     -2219.102          31.000
G13  20390406.375 6 107152314.120 6      1033.918          36.000    20390407.492 5  83495306.351 5       805.659          34.000
G28  20911370.219 8 109890072.566 8       468.707          50.000    20911370.367 7  85628601.493 7       365.226          46.000
G30  21547296.539 5 113231785.793 5     -2116.266          31.000    21547297.125 5  88232570.777 5     -1649.044          31.000
R04  23482614.172 6 125748304.825 6     -4157.137          37.000
R05  19663719.695 8 105113836.911 8     -1946.148          51.000    19663722.344 8  81755205.386 8     -1513.671          48.000
R15  19703532.664 7 105289786.903 7     -2012.180          46.000    19703534.375 6  81892031.864 6     -1565.029          36.000
R16  19910752.062 7 106359693.280 7      2154.273          46.000    19910755.227 7  82724208.118 7      1675.546          43.000
C05  39779408.156 5 207141816.236 5        11.965          35.000    39779407.398 6 160175165.331 6         8.941          40.000
C21  23626483.797 8 123029400.629 8     -2819.777          51.000
C24  24381624.766 7 126961532.876 7      2673.395          46.000
C26  21371498.070 8 111286941.835 8       399.289          51.000
E01                                                                  26324952.180 7 105999704.735 7      2169.887          43.000
E19  23714809.992 8 124622170.064 8       101.961          48.000    23714811.562 8  95489708.504 8        78.042          51.000
E21  23593100.547 8 123982582.969 8       718.695          51.000    23593101.297 8  94999633.012 8       550.662          51.000
E27  25049111.500 6 131633968.655 6     -2026.910          40.000    25049112.523 5 100862383.362 5     -1553.192          33.000
> 2020 05 04 04 45 30.0000000  0 17        .000000000000
G05  21796862.711 8 114543276.109 8     -2684.246          51.000    21796860.367 8  89254495.256 8     -2091.620          51.000
G07  24117764.227 5 126739680.800 5     -2849.910          33.000    24117759.555 4  98758194.832 4     -2220.709          29.000
G13  20384540.156 5 107121486.084 5      1022.004          35.000    20384541.148 5  83471284.566 5       796.382          31.000
G28  20908751.797 8 109876310.136 8       450.109          50.000    20908751.578 7  85617877.538 7       350.738          46.000
G30  21559406.195 5 113295439.480 5     -2124.430          34.000    21559405.977 5  88282157.529 5     -1655.403          35.000
R04  23505930.766 6 125873141.940 6     -4163.547          36.000
R05  19674705.328 8 105172562.171 8     -1967.535          51.000    19674707.320 7  81800880.560 7     -1530.305          46.000
R15  19714881.227 7 105350431.159 7     -2029.273          43.000    19714882.328 5  81939199.565 5     -1578.324          35.000
R16  19898711.758 7 106295374.902 7      2135.129          47.000    19898715.172 7  82674182.683 7      1660.653          44.000
C05  39779344.531 5 207141484.688 5        11.629          35.000    39779343.789 6 160174909.307 6         8.799          40.000
C21  23642759.242 8 123114150.295 8     -2828.852          51.000
C24  24366246.625 8 126881455.872 8      2666.359          49.000
C26  21369237.539 8 111275167.493 8       386.953          51.000
E01                                                                  26308806.688 7 105934691.573 7      2165.278          43.000
E19  23714261.227 8 124619286.310 8        91.875          48.000    23714262.742 8  95487498.864 8        70.299          51.000
E21  23589038.180 8 123961236.132 8       705.746          51.000    23589039.227 8  94983276.353 8       540.763          51.000
E27  25060710.250 6 131694920.641 6     -2035.230          38.000    25060711.859 5 100909086.763 5     -1559.277          34.000
> 2020 05 04 04 46  0.0000000  0 16        .000000000000
G05  21812228.961 8 114624023.580 8     -2698.152          51.000    21812225.797 8  89317415.297 8     -2102.459          51.000
G07  24134021.000 4 126825136.005 4     -2852.809          27.000
G28  20906240.586 8 109863111.363 8       430.605          51.000    20906239.438 7  85607592.803 7       335.537          45.000
G30  21571561.000 6 113359313.115 6     -2133.379          36.000    21571560.430 5  88331929.198 5     -1662.373          34.000
R04  23529279.023 5 125998163.871 5     -4170.652          32.000    23529280.383 4  97998623.915 4     -3243.841          26.000
R05  19685810.656 8 105231928.647 8     -1989.512          51.000    19685812.344 7  81847054.394 7     -1547.401          45.000
R15  19726324.695 7 105411585.077 7     -2047.113          45.000    19726326.859 6  81986763.734 6     -1592.202          36.000
R16  19886779.641 7 106231633.731 7      2115.176          47.000    19886782.695 7  82624606.204 7      1645.137          44.000
C05  39779281.078 5 207141154.075 5        11.387          35.000    39779280.367 6 160174653.650 6         8.470          40.000
C21  23659086.703 8 123199172.594 8     -2838.625          51.000
C24  24350910.711 8 126801593.347 8      2658.465          49.000
C26  21367048.148 8 111263765.317 8       373.871          51.000
E01  26292690.945 6 138169021.565 6      2818.945          37.000    26292695.953 7 105869816.926 7      2160.228          42.000
E19  23713770.930 8 124616710.223 8        80.758          48.000    23713772.422 8  95485524.946 8        61.957          51.000
E21  23585049.836 8 123940278.153 8       692.199          51.000    23585050.555 8  94967217.639 8       530.398          51.000
E27  25072357.008 5 131756122.978 5     -2044.051          35.000    25072359.695 5 100955982.121 5     -1566.514          35.000
> 2020 05 04 04 46 30.0000000  0 15        .000000000000
G05  21827668.258 8 114705156.837 8     -2710.777          51.000    21827664.953 8  89380635.951 8     -2112.297          51.000
G28  20903834.406 8 109850464.548 8       412.555          51.000    20903832.305 7  85597738.136 7       321.471          46.000
G30  21583758.242 6 113423409.696 6     -2139.992          36.000    21583757.000 5  88381874.504 5     -1667.529          35.000
R04  23552657.328 5 126123355.694 5     -4175.879          33.000    23552661.062 4  98095995.240 4     -3247.906          29.000
R05  19697033.867 8 105291923.554 8     -2010.254          51.000    19697035.547 7  81893717.049 7     -1563.531          46.000
R15  19737861.438 7 105473233.797 7     -2063.059          42.000    19737863.680 6  82034712.696 6     -1604.601          36.000
R16  19874953.242 8 106168458.683 8      2096.441          48.000    19874956.203 7  82575470.059 7      1630.566          44.000
C05  39779215.508 5 207140813.927 5        11.793          35.000    39779214.789 6 160174389.437 6         8.932          40.000
C21  23675463.391 8 123284454.227 8     -2846.871          50.000
C24  24335613.945 8 126721934.444 8      2651.930          48.000
C26  21364927.711 8 111252723.101 8       362.195          51.000
E01  26276614.750 6 138084524.782 6      2813.617          41.000    26276617.773 7 105805072.689 7      2155.942          42.000
E19  23713337.055 7 124614430.757 7        70.961          47.000    23713338.672 8  95483778.328 8        54.355          51.000
E21  23581133.188 8 123919697.188 8       679.785          51.000    23581133.859 8  94951447.807 8       520.898          51.000
E27  25084049.109 5 131817562.433 5     -2051.809          35.000    25084051.805 6 101003059.106 6     -1572.102          36.000
> 2020 05 04 04 47  0.0000000  0 15        .000000000000
G05  21843185.008 8 114786698.612 8     -2725.023          51.000    21843182.039 8  89444174.944 8     -2123.398          51.000
G28  20901537.914 8 109838395.125 8       392.555          51.000    20901535.930 7  85588333.427 7       305.887          47.000
G30  21596002.414 5 113487753.084 5     -2148.734          34.000    21596001.812 5  88432012.189 5     -1674.338          33.000
R04  23576072.164 5 126248740.853 5     -4182.879          33.000    23576073.508 4  98193516.956 4     -3253.347          26.000
R05  19708378.906 8 105352571.135 8     -2032.668          51.000    19708381.266 8  81940887.378 8     -1580.964          48.000
R15  19749494.508 7 105535399.735 7     -2080.949          42.000    19749497.648 6  82083064.018 6     -1618.519          36.000
R16  19863237.641 7 106105876.355 7      2075.953          47.000    19863240.344 7  82526794.907 7      1614.630          43.000
C05  39779152.617 5 207140485.674 5        10.840          35.000    39779151.930 6 160174135.960 6         8.252          40.000
C21  23691894.031 8 123370018.656 8     -2857.062          49.000
C24  24320360.016 7 126642505.037 7      2643.609          46.000
C26  21362881.375 8 111242065.358 8       348.664          51.000
E01  26260575.070 7 138000224.622 7      2806.496          44.000    26260577.172 6 105740479.058 6      2150.600          41.000
E19  23712964.617 7 124612473.949 7        59.625          47.000    23712966.312 8  95482278.928 8        45.651          51.000
E21  23577292.969 8 123899518.412 8       665.770          51.000    23577294.156 8  94935986.167 8       510.102          51.000
E27  25095790.180 6 131879262.805 6     -2061.344          36.000    25095791.727 5 101050335.944 5     -1579.417          35.000
> 2020 05 04 04 47 30.0000000  0 16        .000000000000
G05  21858778.281 8 114868644.339 8     -2737.820          50.000    21858776.609 8  89508028.744 8     -2133.363          50.000
G13  20361747.383 6 107001707.278 6       974.199          37.000
G28  20899350.703 8 109826900.964 8       373.992          51.000    20899349.023 7  85579376.966 7       291.422          47.000
G30  21608292.883 6 113552340.028 6     -2156.535          38.000    21608293.312 6  88482339.656 6     -1680.417          38.000
R04  23599520.633 4 126374314.716 4     -4188.297          28.000
R05  19719845.820 8 105413868.180 8     -2053.578          51.000    19719848.523 8  81988562.839 8     -1597.227          50.000
R15  19761223.852 7 105598078.035 7     -2097.434          43.000    19761227.273 6  82131813.786 6     -1631.337          37.000
R16  19851632.961 7 106043885.889 7      2056.980          47.000    19851635.586 7  82478580.107 7      1599.874          44.000
C05  39779091.984 5 207140169.877 5        10.855          35.000    39779091.320 6 160173891.740 6         8.149          41.000
C21  23708378.266 8 123455862.375 8     -2865.551          49.000
C24  24305149.281 7 126563303.834 7      2636.758          47.000
C26  21360908.516 8 111231789.616 8       336.680          51.000
E01  26244571.727 7 137916120.173 7      2800.672          45.000    26244574.070 6 105676035.407 6      2145.915          40.000
E19  23712653.250 7 124610838.229 7        49.738          47.000    23712655.164 8  95481025.573 8        38.015          51.000
E21  23573528.898 8 123879739.715 8       653.012          51.000    23573530.586 8  94920831.080 8       500.378          51.000
E27  25107579.898 5 131941220.374 5     -2068.961          35.000    25107580.367 5 101097809.870 5     -1585.493          35.000
> 2020 05 04 04 48  0.0000000  0 15        .000000000000
G05  21874442.648 8 114950966.027 8     -2750.020          49.000    21874443.102 8  89572175.538 8     -2142.872          49.000
G13  20356217.547 6 106972650.018 6       963.094          37.000    20356214.539 5  83355296.977 5       750.472          35.000
G28  20897268.305 8 109815957.196 8       355.902          51.000    20897266.641 8  85570849.361 8       277.327          48.000
G30  21620624.594 6 113617143.650 6     -2163.223          39.000    21620626.203 6  88532835.993 6     -1685.625          39.000
R05  19731429.320 8 105475787.971 8     -2074.141          50.000    19731432.031 8  82036722.717 8     -1613.217          50.000
R15  19773043.367 7 105661239.323 7     -2113.398          44.000    19773048.539 6  82180939.267 6     -1643.751          37.000
R16  19840134.312 7 105982462.265 7      2038.426          46.000    19840137.445 7  82430806.195 7      1585.442          45.000
C05  39779028.867 5 207139840.874 5        11.051          35.000    39779028.188 6 160173637.281 6         8.808          40.000
C21  23724912.203 8 123541958.632 8     -2873.867          51.000
C24  24289979.250 8 126484306.350 8      2630.070          49.000
C26  21359003.586 8 111221870.117 8       324.879          51.000
E01  26228600.445 7 137832187.178 7      2795.129          46.000    26228604.234 6 105611723.092 6      2141.908          38.000
E19  23712398.367 7 124609499.155 7        39.988          47.000    23712400.391 8  95479999.507 8        30.664          51.000
E21  23569836.336 8 123860335.538 8       640.770          51.000    23569837.836 8  94905962.936 8       490.964          51.000
E27  25119414.109 5 132003411.081 5     -2076.324          33.000    25119414.172 6 101145460.198 6     -1590.980          36.000
> 2020 05 04 04 48 30.0000000  0 15        .000000000000
G05  21890177.641 8 115033656.397 8     -2763.027          50.000    21890179.672 8  89636609.606 8     -2153.005          50.000
G13  20350752.547 6 106943931.732 6       950.781          36.000    20350751.320 5  83332919.095 5       740.869          30.000
G28  20895289.656 8 109805559.020 8       337.016          51.000    20895288.234 8  85562746.890 8       262.610          48.000
G30  21632996.391 5 113682157.923 5     -2170.793          34.000    21632998.688 5  88583496.521 5     -1691.524          34.000
R05  19743127.766 8 105538324.254 8     -2095.332          50.000    19743130.469 8  82085362.117 8     -1629.700          49.000
R15  19784952.438 7 105724876.028 7     -2129.664          46.000    19784956.789 6  82230434.437 6     -1656.405          36.000
R16  19828740.719 7 105921601.334 7      2018.754          47.000    19828744.422 7  82383469.923 7      1570.145          45.000
C05  39778962.102 5 207139493.843 5        11.500          35.000    39778961.586 6 160173368.953 6         8.757          40.000
C21  23741493.922 8 123628301.130 8     -2882.645          51.000
C24  24274848.266 8 126405508.669 8      2622.770          49.000
C26  21357166.031 8 111212301.660 8       312.543          51.000
E01  26212660.688 7 137748422.026 7      2788.828          45.000    26212666.711 6 105547539.427 6      2136.745          38.000
E19  23712199.289 7 124608452.651 7        29.375          47.000    23712201.305 8  95479197.615 8        22.574          51.000
E21  23566214.281 8 123841301.058 8       627.828          51.000    23566215.555 8  94891378.051 8       481.072          51.000
E27  25131290.758 5 132065823.634 5     -2084.523          33.000    25131291.992 6 101193282.101 6     -1597.334          36.000
> 2020 05 04 04 49  0.0000000  0 15        .000000000000
G05  21905988.242 8 115116740.191 8     -2775.602          51.000    21905990.625 8  89701350.225 8     -2162.806          51.000
G13  20345357.406 6 106915581.141 6       939.348          38.000    20345355.570 4  83310827.698 4       731.962          29.000
G28  20893419.906 8 109795733.477 8       318.391          51.000    20893418.797 8  85555090.634 8       248.097          49.000
G30  21645413.344 5 113747413.881 5     -2177.926          31.000    21645415.195 5  88634341.459 5     -1697.091          32.000
R05  19754947.031 8 105601503.562 8     -2116.289          51.000    19754949.500 8  82134501.560 8     -1646.003          48.000
R15  19796954.906 7 105789012.525 7     -2145.863          46.000    19796958.797 6  82280318.369 6     -1669.005          37.000
R16  19817458.109 7 105861332.150 7      1999.625          47.000    19817461.812 7  82336593.902 7      1555.264          45.000
C05  39778897.234 5 207139156.533 5        11.172          35.000    39778896.688 6 160173107.659 6         8.986          41.000
C21  23758127.602 8 123714915.234 8     -2891.324          50.000
C24  24259760.719 8 126326938.575 8      2615.652          48.000
C26  21355400.953 8 111203110.690 8       300.430          51.000
E01  26196757.789 7 137664853.113 7      2782.832          45.000    26196766.086 5 105483506.113 5      2132.336          34.000
E19  23712061.352 7 124607726.686 7        19.016          47.000    23712063.375 8  95478641.337 8        14.714          51.000
E21  23562667.562 8 123822663.323 8       615.094          51.000    23562669.461 8  94877097.201 8       471.297          51.000
E27  25143213.836 5 132128479.814 5     -2092.234          32.000    25143217.781 6 101241295.241 6     -1603.245          37.000
> 2020 05 04 04 49 30.0000000  0 15        .000000000000
G05  21921870.789 8 115200200.184 8     -2788.207          51.000    21921872.555 8  89766383.978 8     -2172.629          51.000
G13  20340029.961 6 106887584.070 6       927.117          40.000    20340027.281 5  83289011.790 5       722.432          33.000
G28  20891656.164 8 109786465.826 8       299.609          51.000    20891655.398 8  85547869.083 8       233.462          49.000
G30  21657872.297 6 113812885.331 6     -2185.867          38.000    21657873.305 6  88685358.159 6     -1703.276          38.000
R05  19766883.688 8 105665309.486 8     -2137.328          51.000    19766885.086 7  82184128.334 7     -1662.366          46.000
R15  19809047.805 7 105853630.764 7     -2161.973          44.000    19809050.016 5  82330576.963 5     -1681.537          35.000
R16  19806283.805 7 105801639.617 7      1980.180          47.000    19806286.867 7  82290166.384 7      1540.140          44.000
C05  39778831.203 5 207138812.477 5        11.551          35.000    39778830.672 6 160172841.999 6         8.896          41.000
C21  23774810.078 8 123801784.528 8     -2899.934          49.000
C24  24244712.797 7 126248582.004 7      2608.371          45.000
C26  21353704.938 8 111194281.840 8       288.277          51.000
E01  26180889.242 7 137581466.613 7      2776.645          44.000    26180893.141 6 105419612.710 6      2127.577          36.000
E19  23711981.570 7 124607306.982 7         8.898          46.000    23711983.688 8  95478319.729 8         6.803          51.000
E21  23559193.789 8 123804407.304 8       602.270          51.000    23559195.852 8  94863108.823 8       461.512          51.000
E27  25155180.000 5 132191362.082 5     -2100.383          32.000    25155187.133 6 101289486.944 6     -1609.369          37.000
> 2020 05 04 04 50  0.0000000  0 15        .000000000000
G05  21937826.688 8 115284045.430 8     -2801.266          51.000    21937827.531 8  89831717.915 8     -2182.804          51.000
G13  20334772.664 6 106859953.832 6       914.906          41.000    20334769.453 5  83267481.727 5       712.914          32.000
G28  20890000.719 8 109777768.227 8       280.387          49.000    20890000.297 8  85541091.714 8       218.483          49.000
G30  21670374.828 6 113878587.828 6     -2194.070          39.000    21670375.789 6  88736554.892 6     -1709.668          39.000
R05  19778939.461 8 105729752.646 8     -2158.750          51.000    19778940.125 7  82234250.696 7     -1679.031          46.000
R15  19821231.953 7 105918739.532 7     -2178.473          45.000    19821234.719 6  82381217.124 6     -1694.365          38.000
R16  19795220.008 8 105742537.253 8      1960.164          48.000    19795222.039 7  82244197.860 7      1524.572          43.000
C05  39778766.398 5 207138474.041 5        11.328          35.000    39778765.938 6 160172581.067 6         8.578          41.000
C21  23791543.281 8 123888919.239 8     -2908.930          49.000
C24  24229707.891 7 126170451.590 7      2600.570          45.000
C26  21352080.734 8 111185826.402 8       275.602          51.000
E01  26165058.039 7 137498275.602 7      2769.680          45.000    26165055.828 6 105355868.978 6      2122.273          41.000
E19  23711962.625 7 124607206.248 7        -1.867          47.000    23711964.531 8  95478242.534 8        -1.467          51.000
E21  23555795.094 8 123786544.764 8       588.793          51.000    23555796.375 8  94849421.914 8       451.183          51.000
E27                                                                  25167201.664 6 101337865.143 6     -1615.502          37.000
> 2020 05 04 04 50 30.0000000  0 15        .000000000000
G05  21953853.828 8 115368266.026 8     -2813.027          51.000    21953853.852 8  89897344.320 8     -2191.972          51.000
G13  20329583.945 6 106832684.430 6       903.746          41.000    20329580.547 6  83246232.842 6       704.221          36.000
G28  20888452.406 8 109769632.975 8       262.312          48.000    20888452.406 8  85534752.545 8       204.399          48.000
G30  21682919.781 6 113944512.628 6     -2200.898          39.000    21682920.898 6  88787924.834 6     -1714.986          39.000
R05  19791112.641 8 105794824.394 8     -2178.934          51.000    19791113.484 8  82284862.016 8     -1694.726          48.000
R15  19833506.477 7 105984328.406 7     -2193.695          44.000    19833509.258 6  82432230.670 6     -1706.207          36.000
R16  19784265.289 8 105684018.068 8      1941.398          48.000    19784266.906 7  82198682.935 7      1509.977          44.000
C05  39778701.406 5 207138135.556 5        11.488          35.000    39778700.977 6 160172319.278 6         9.113          40.000
C21  23808326.438 8 123976310.504 8     -2916.789          51.000
C24  24214745.523 7 126092540.683 7      2593.875          46.000
C26  21350526.836 8 111177736.503 8       264.203          51.000
E01  26149262.664 7 137415273.810 7      2764.117          44.000    26149258.680 7 105292270.178 7      2117.987          43.000
E19  23712003.258 7 124607417.766 7       -11.676          47.000    23712004.766 8  95478404.594 8        -8.842          51.000
E21  23552469.633 8 123769068.140 8       576.691          51.000    23552470.695 8  94836030.725 8       441.898          51.000
E27                                                                  25179260.406 6 101386423.019 6     -1621.066          36.000
> 2020 05 04 04 51  0.0000000  0 15        .000000000000
G05  21969951.211 8 115452857.065 8     -2825.891          51.000    21969950.594 8  89963259.366 8     -2201.996          51.000
G13  20324463.414 7 106805774.594 7       890.914          43.000    20324459.938 5  83225264.113 5       694.219          34.000
G28  20887010.781 8 109762057.978 8       243.023          48.000    20887010.836 8  85528849.936 8       189.369          48.000
G30  21695506.367 6 114010656.266 6     -2208.477          36.000    21695506.266 6  88839465.315 6     -1720.894          37.000
R05  19803402.328 8 105860520.795 8     -2200.328          51.000    19803404.047 8  82335959.216 8     -1711.366          50.000
R15  19845868.930 7 106050391.653 7     -2210.051          43.000    19845870.641 6  82483613.201 6     -1718.928          38.000
R16  19773419.477 8 105626080.464 8      1921.477          48.000    19773421.289 7  82153620.368 7      1494.482          45.000
C05  39778635.680 5 207137793.657 5        11.316          35.000    39778635.305 6 160172054.888 6         8.880          40.000
C21  23825158.422 8 124063954.436 8     -2925.723          51.000
C24  24199825.641 8 126014847.768 8      2586.129          48.000
C26  21349042.633 8 111170009.338 8       251.496          51.000
E01  26133502.500 7 137332460.093 7      2757.145          44.000    26133499.469 7 105228815.479 7      2112.716          44.000
E19  23712102.875 7 124607939.834 7       -22.719          47.000    23712104.039 8  95478804.630 8       -17.312          51.000
E21  23549217.047 8 123751975.008 8       563.344          51.000    23549218.375 8  94822933.409 8       431.713          51.000
E27                                                                  25191363.375 5 101435157.628 5     -1627.205          35.000
> 2020 05 04 04 51 30.0000000  0 15        .000000000000
G05  21986116.586 8 115537806.882 8     -2837.520          51.000    21986115.477 8  90029453.978 8     -2211.054          51.000
G13  20319409.680 7 106779215.991 7       879.543          43.000    20319406.359 6  83204569.049 6       685.355          37.000
G28  20885674.109 8 109755033.717 8       225.035          50.000    20885673.836 8  85523376.474 8       175.352          48.000
G30  21708132.555 6 114077008.094 6     -2215.398          37.000    21708131.930 6  88891168.034 6     -1726.281          37.000
R05  19815807.086 8 105926831.382 8     -2220.484          51.000    19815809.531 8  82387534.125 8     -1727.043          51.000
R15  19858318.453 7 106116917.017 7     -2225.145          44.000    19858320.195 6  82535355.097 6     -1730.671          39.000
R16  19762680.398 7 105568715.574 7      1902.602          46.000    19762682.961 7  82109003.224 7      1479.801          45.000
C05  39778567.703 5 207137439.186 5        12.086          35.000    39778567.258 6 160171780.775 6         9.460          41.000
C21  23842036.594 8 124151840.158 8     -2933.434          51.000
C24  24184946.312 8 125937364.331 8      2579.383          49.000
C26  21347626.172 8 111162635.081 8       239.957          51.000
E01  26117776.359 7 137249826.239 7      2751.559          44.000    26117775.305 7 105165498.566 7      2108.382          45.000
E19  23712259.766 7 124608763.843 7       -32.492          47.000    23712260.797 8  95479435.998 8       -24.918          51.000
E21  23546035.797 8 123735255.877 8       551.207          51.000    23546036.719 8  94810122.648 8       422.374          51.000
E27  25203507.289 5 132445325.262 5     -2131.406          33.000    25203508.375 6 101484060.617 6     -1632.868          36.000
> 2020 05 04 04 52  0.0000000  0 15        .000000000000
G05  22002352.430 8 115623129.170 8     -2850.109          48.000    22002351.156 8  90095938.837 8     -2220.864          48.000
G13  20314426.141 7 106753026.883 7       866.910          43.000    20314423.305 6  83184161.922 6       675.511          36.000
G28  20884445.609 8 109748576.941 8       205.973          50.000    20884445.242 8  85518345.222 8       160.498          49.000
G30  21720801.359 6 114143583.589 6     -2222.648          39.000    21720801.211 6  88943045.009 6     -1731.934          38.000
R05  19828329.664 8 105993771.567 8     -2241.602          51.000    19828332.344 8  82439598.713 8     -1743.468          50.000
R15  19870856.789 6 106183918.318 6     -2241.137          40.000    19870857.891 6  82587467.199 6     -1743.106          39.000
R16  19752051.625 7 105511941.634 7      1882.805          47.000    19752055.391 7  82064845.706 7      1464.404          45.000
C05  39778500.453 5 207137089.730 5        11.867          35.000    39778499.938 6 160171509.771 6         9.092          41.000
C21  23858963.602 8 124239982.645 8     -2942.160          51.000
C24  24170110.695 8 125860107.720 8      2571.586          49.000
C26  21346280.602 8 111155629.752 8       227.555          51.000
E01  26102088.227 7 137167390.076 7      2744.809          45.000    26102088.539 7 105102333.160 7      2103.159          44.000
E19  23712477.508 8 124609907.234 8       -43.250          48.000    23712478.383 8  95480312.085 8       -33.125          51.000
E21  23542928.719 8 123718927.299 8       538.066          51.000    23542929.312 8  94797611.109 8       412.270          51.000
E27  25215697.062 6 132509382.633 6     -2138.887          36.000    25215697.625 5 101533143.563 5     -1639.016          35.000
> 2020 05 04 04 52 30.0000000  0 15        .000000000000
G05  22018658.828 7 115708825.355 7     -2862.418          47.000    22018658.047 7  90162715.088 7     -2230.456          46.000
G13  20309513.578 7 106727212.047 7       854.684          43.000    20309511.219 6  83164046.462 6       665.987          38.000
G28  20883325.711 8 109742691.278 8       186.973          50.000    20883325.227 8  85513758.989 8       145.693          48.000
G30  21733512.984 6 114210385.300 6     -2230.289          38.000    21733513.562 6  88995098.305 6     -1737.888          38.000
R05  19840970.203 8 106061343.805 8     -2262.562          51.000    19840973.078 8  82492154.892 8     -1759.771          50.000
R15  19883484.086 7 106251396.285 7     -2256.793          42.000    19883486.367 6  82639950.083 6     -1755.283          40.000
R16  19741534.844 7 105455762.993 7      1863.008          47.000    19741538.656 7  82021151.220 7      1449.006          44.000
C05  39778434.727 5 207136747.208 5        11.641          35.000    39778434.180 6 160171244.866 6         9.152          41.000
C21  23875939.875 8 124328384.129 8     -2950.633          51.000
C24  24155319.188 8 125783082.492 8      2564.000          48.000
C26  21345006.578 8 111148996.613 8       215.242          51.000
E01  26086439.266 7 137085156.626 7      2738.184          46.000    26086439.867 7 105039323.098 7      2098.080          43.000
E19  23712756.969 8 124611374.684 8       -53.801          48.000    23712757.711 8  95481436.491 8       -41.224          51.000
E21  23539896.125 8 123702992.923 8       525.000          51.000    23539897.711 8  94785401.654 8       402.300          51.000
E27  25227930.641 5 132573677.302 5     -2146.500          35.000    25227931.367 5 101582408.264 5     -1644.703          34.000
> 2020 05 04 04 53  0.0000000  0 16        .000000000000
G05  22035033.719 7 115794880.951 7     -2875.023          47.000    22035033.609 7  90229771.400 7     -2240.278          47.000
G13  20304670.297 7 106701760.627 7       842.090          44.000    20304667.977 6  83144214.197 6       656.174          38.000
G15  21567496.359 5 113337958.037 5      2424.844          30.000
G28  20882312.055 8 109737364.558 8       167.871          49.000    20882311.344 8  85509608.286 8       130.806          49.000
G30  21746265.344 6 114277399.886 6     -2237.301          38.000    21746266.336 6  89047317.452 6     -1743.351          38.000
R05  19853726.367 8 106129534.601 8     -2283.742          51.000    19853729.281 8  82545192.145 8     -1776.247          49.000
R15  19896198.219 6 106319335.373 6     -2272.719          41.000    19896200.094 6  82692791.551 6     -1767.670          39.000
R16  19731127.641 8 105400168.020 8      1842.957          48.000    19731130.789 7  81977910.740 7      1433.414          44.000
C05  39778368.180 5 207136400.602 5        11.355          35.000    39778367.594 6 160170976.848 6         8.757          41.000
C21  23892963.023 8 124417030.948 8     -2959.312          51.000
C24  24140569.320 8 125706277.383 8      2556.043          48.000
C26  21343801.867 8 111142723.059 8       202.777          51.000
E01  26070826.984 7 137003114.858 7      2731.176          47.000    26070826.953 7 104976459.929 7      2092.770          42.000
E19  23713095.789 8 124613154.738 8       -64.789          48.000    23713096.367 8  95482800.409 8       -49.650          51.000
E21  23536936.219 8 123687440.453 8       511.715          51.000    23536938.789 8  94773484.825 8       392.153          51.000
E27  25240207.227 5 132638195.582 5     -2154.398          35.000    25240207.828 5 101631844.278 5     -1650.758          33.000
> 2020 05 04 04 53 30.0000000  0 15        .000000000000
G05  22051476.359 8 115881289.392 8     -2885.566          48.000    22051476.594 8  90297102.645 8     -2248.496          48.000
G13  20299895.539 7 106676670.086 7       830.941          44.000    20299893.891 6  83124663.131 6       647.484          38.000
G28  20881403.891 8 109732592.817 8       150.422          49.000    20881403.266 8  85505890.042 8       117.212          49.000
G30  21759057.820 6 114344622.456 6     -2243.629          39.000    21759057.641 6  89099698.564 6     -1748.285          39.000
R05  19866597.461 8 106198338.250 8     -2302.992          51.000    19866600.227 8  82598706.035 8     -1791.219          48.000
R15  19908996.734 7 106387728.748 7     -2286.684          42.000    19908998.766 6  82745986.403 6     -1778.532          40.000
R16  19720829.156 8 105345153.630 8      1824.750          49.000    19720832.078 7  81935121.779 7      1419.250          45.000
C05  39778300.094 5 207136046.147 5        13.152          35.000    39778299.602 6 160170702.793 6         9.684          41.000
C21  23910032.359 8 124505917.697 8     -2966.246          51.000
C24  24125861.023 8 125629689.295 8      2549.934          50.000
C26  21342665.383 8 111136804.766 8       191.941          51.000
E01  26055250.719 8 136921262.053 8      2725.844          48.000    26055249.438 6 104913741.582 6      2088.648          41.000
E19  23713493.414 8 124615244.025 8       -74.207          49.000    23713493.812 8  95484401.275 8       -56.833          50.000
E21  23534048.500 8 123672265.853 8       500.109          51.000    23534051.211 8  94761857.516 8       383.186          51.000
E27  25252526.547 5 132702932.071 5     -2161.238          34.000    25252526.891 5 101681460.469 5     -1655.798          32.000
> 2020 05 04 04 54  0.0000000  0 15        .000000000000
G05  22067985.844 8 115968046.512 8     -2897.590          50.000    22067986.188 8  90364705.590 8     -2257.862          50.000
G13  20295189.188 7 106651939.663 7       818.707          43.000    20295188.086 6  83105392.658 6       637.954          40.000
G28  20880600.797 8 109728374.173 8       131.637          49.000    20880600.367 8  85502602.787 8       102.574          48.000
G30  21771889.242 6 114412049.783 6     -2250.938          39.000    21771887.445 6  89152239.366 6     -1753.974          39.000
R05  19879582.492 8 106267751.767 8     -2323.770          50.000    19879585.031 8  82652694.259 8     -1807.379          48.000
R15  19921880.336 6 106456571.826 6     -2302.098          41.000    19921882.516 6  82799530.962 6     -1790.520          40.000
R16  19710639.359 8 105290718.612 8      1804.934          49.000    19710641.711 7  81892783.413 7      1403.837          44.000
C05  39778230.164 5 207135682.384 5        11.738          35.000    39778229.781 6 160170421.404 6         9.663          41.000
C21  23927147.312 8 124595041.107 8     -2974.512          51.000
C24  24111194.945 8 125553317.327 8      2542.215          51.000
C26  21341596.547 8 111131239.471 8       179.781          51.000
E01  26039710.234 8 136839597.668 8      2719.023          48.000    26039708.648 7 104851167.635 7      2083.452          42.000
E19  23713949.781 8 124617641.881 8       -85.172          49.000    23713950.039 8  95486238.590 8       -65.220          50.000
E21  23531232.148 8 123657467.244 8       487.078          51.000    23531235.109 8  94750518.301 8       373.234          51.000
E27                                                                  25264888.086 5 101731229.366 5     -1661.680          32.000
> 2020 05 04 04 54 30.0000000  0 15        .000000000000
G05  22084561.836 8 116055151.907 8     -2909.594          50.000    22084561.906 8  90432579.911 8     -2267.216          50.000
G13  20290552.234 7 106627573.159 7       805.805          45.000    20290551.125 6  83086405.762 6       627.900          39.000
G28  20879903.867 8 109724711.182 8       112.543          49.000    20879903.320 8  85499748.467 8        87.693          48.000
G30  21784759.883 6 114479683.423 6     -2257.961          38.000    21784758.375 6  89204940.812 6     -1759.453          38.000
R05  19892681.547 7 106337776.175 7     -2344.543          47.000    19892684.266 7  82707157.686 7     -1823.530          47.000
R15  19934846.516 6 106525863.292 6     -2317.238          38.000    19934850.188 6  82853424.383 6     -1802.290          40.000
R16  19700558.102 8 105236865.860 8      1785.035          48.000    19700559.898 7  81850897.945 7      1388.358          44.000
C05  39778159.055 5 207135311.613 5        12.352          35.000    39778158.562 6 160170134.749 6         9.379          40.000
C21  23944308.180 8 124684402.019 8     -2982.828          51.000
C24  24096571.484 8 125477164.673 8      2534.477          51.000
C26  21340596.203 8 111126029.074 8       167.621          51.000
E01  26024206.352 8 136758125.351 8      2712.383          49.000    26024205.922 7 104788740.853 7      2078.364          43.000
E19  23714465.367 8 124620351.298 8       -95.652          49.000    23714465.414 8  95488314.617 8       -73.403          49.000
E21  23528487.836 8 123643046.906 8       474.203          51.000    23528491.094 8  94739468.955 8       363.344          51.000
E27                                                                  25277290.781 5 101781172.716 5     -1667.220          32.000
> 2020 05 04 04 55  0.0000000  0 15        .000000000000
G05  22101205.883 8 116142614.998 8     -2921.176          50.000    22101205.586 8  90500732.959 8     -2276.241          50.000
G13  20285987.211 7 106603583.573 7       793.516          46.000    20285986.000 6  83067712.560 6       618.324          41.000
G28  20879314.844 8 109721615.281 8        93.859          50.000    20879314.328 8  85497336.082 8        73.140          48.000
G30  21797671.469 5 114547533.732 5     -2264.992          35.000    21797671.305 5  89257811.136 5     -1764.932          35.000
R05  19905895.984 7 106408421.841 7     -2365.074          47.000    19905899.750 7  82762104.374 7     -1839.499          47.000
R15  19947898.602 7 106595612.808 7     -2332.305          43.000    19947902.906 6  82907674.005 6     -1814.015          38.000
R16  19690588.023 8 105183608.363 8      1765.477          48.000    19690589.289 7  81809475.456 7      1373.148          43.000
C05  39778088.758 5 207134945.607 5        12.547          35.000    39778088.234 6 160169851.701 6         9.569          41.000
C21  23961516.664 8 124774010.437 8     -2990.926          50.000
C24  24081992.570 8 125401243.670 8      2526.973          51.000
C26  21339666.266 8 111121184.614 8       155.543          51.000
E01  26008741.695 8 136676857.962 8      2705.676          49.000    26008743.016 7 104726471.073 7      2073.150          46.000
E19  23715042.516 8 124623384.675 8      -106.188          49.000    23715042.125 8  95490638.883 8       -81.424          49.000
E21  23525817.930 8 123629016.362 8       461.359          51.000    23525821.141 8  94728718.280 8       353.509          51.000
E27                                                                  25289735.359 5 101831279.369 5     -1673.155          32.000
> 2020 05 04 04 55 30.0000000  0 15        .000000000000
G05  22117916.359 8 116230427.454 8     -2933.117          50.000    22117915.539 8  90569158.232 8     -2285.546          50.000
G13  20281493.203 7 106579966.533 7       780.879          47.000    20281492.016 6  83049309.676 6       608.480          40.000
G28  20878832.805 8 109719080.735 8        74.844          51.000    20878831.844 8  85495361.091 8        58.320          48.000
G30  21810623.180 5 114615593.767 5     -2271.812          35.000    21810624.516 5  89310844.954 5     -1770.240          35.000
R05  19919226.477 8 106479681.518 8     -2385.836          51.000    19919230.008 7  82817528.561 7     -1855.650          45.000
R15  19961035.141 7 106665811.100 7     -2347.602          42.000    19961039.586 6  82962272.642 6     -1825.915          37.000
R16  19680728.352 7 105130940.968 7      1745.441          47.000    19680729.516 7  81768511.940 7      1357.566          43.000
C05  39778018.398 5 207134578.907 5        11.891          35.000    39778017.820 6 160169568.135 6         9.237          40.000
C21  23978771.195 8 124863859.182 8     -2999.270          48.000
C24  24067456.305 8 125325549.505 8      2519.039          50.000
C26  21338805.375 8 111116699.933 8       143.199          51.000
E01  25993315.305 8 136595790.952 8      2698.516          49.000    25993318.117 8 104664354.795 8      2067.742          48.000
E19  23715680.414 8 124626737.224 8      -117.328          49.000    23715679.852 8  95493207.703 8       -89.829          49.000
E21  23523221.125 8 123615369.763 8       448.270          51.000    23523224.195 8  94718261.791 8       343.458          51.000
E27  25302212.289 5 132964045.472 5     -2190.996          34.000    25302219.070 5 101881554.758 5     -1678.785          31.000
> 2020 05 04 04 56  0.0000000  0 15        .000000000000
G05  22134695.258 8 116318599.180 8     -2943.125          51.000    22134693.586 8  90637863.434 8     -2293.344          51.000
G13  20277072.648 7 106556735.735 7       769.988          46.000    20277071.367 6  83031207.747 6       599.991          41.000
G28  20878459.930 8 109717119.809 8        57.852          51.000    20878458.547 8  85493833.097 8        45.079          48.000
G30  21823616.836 6 114683875.270 6     -2277.855          37.000    21823619.328 6  89364051.290 6     -1774.949          36.000
R05  19932674.812 8 106551566.480 8     -2404.500          51.000    19932677.148 7  82873439.034 7     -1870.170          45.000
R15  19974258.109 7 106736467.915 7     -2360.664          42.000    19974261.766 5  83017227.926 5     -1836.072          35.000
R16  19670981.516 7 105078876.862 7      1727.375          47.000    19670983.242 7  81728017.658 7      1343.514          45.000
C05  39777950.305 5 207134224.124 5        13.516          35.000    39777949.734 6 160169293.771 6        10.536          41.000
C21  23996073.641 7 124953959.096 7     -3005.582          47.000
C24  24052963.594 7 125250095.502 7      2513.074          46.000
C26  21338015.805 8 111112586.948 8       132.867          51.000
E01  25977929.617 8 136514938.100 8      2693.555          48.000    25977933.555 8 104602402.612 8      2063.860          50.000
E19  23716381.609 8 124630422.222 8      -126.438          49.000    23716381.180 8  95496031.250 8       -96.887          49.000
E21  23520699.695 8 123602119.540 8       437.051          51.000    23520702.633 8  94708109.027 8       334.904          51.000
E27  25314742.750 5 133029869.015 5     -2196.684          33.000    25314746.133 5 101931993.435 5     -1683.332          31.000
> 2020 05 04 04 56 30.0000000  0 15        .000000000000
G05  22151540.141 8 116407117.796 8     -2955.695          51.000    22151538.070 8  90706838.942 8     -2303.139          51.000
G13  20272723.844 7 106533882.402 7       756.324          45.000    20272722.422 7  83013399.945 7       589.341          42.000
G28  20878194.156 8 109715722.293 8        37.902          51.000    20878192.742 8  85492744.131 8        29.534          48.000
G30  21836650.062 5 114752367.068 5     -2286.121          32.000    21836653.336 5  89417421.510 5     -1781.393          33.000
R05  19946237.922 8 106624065.296 8     -2426.203          51.000    19946239.328 7  82929826.917 7     -1887.050          45.000
R15  19987564.211 7 106807570.406 7     -2376.527          42.000    19987567.492 5  83072529.866 5     -1848.410          34.000
R16  19661346.000 7 105027406.794 7      1706.598          46.000    19661348.492 7  81687985.383 7      1327.354          45.000
C05  39777882.547 5 207133872.560 5        12.258          35.000    39777882.070 6 160169021.125 6         9.654          41.000
C21  24013422.320 8 125044298.864 8     -3014.664          48.000
C24  24038514.836 8 125174872.660 8      2504.277          48.000
C26  21337295.742 8 111108835.400 8       119.734          51.000
E01  25962583.094 8 136434290.710 8      2685.555          49.000    25962587.711 8 104540607.841 8      2057.751          51.000
E19  23717144.344 8 124634430.336 8      -138.457          49.000    23717144.141 8  95499102.379 8      -106.049          50.000
E21  23518251.797 8 123589255.619 8       423.039          51.000    23518254.523 8  94698252.256 8       324.189          51.000
E27                                                                  25327317.023 5 101982609.805 5     -1689.890          31.000
> 2020 05 04 04 57  0.0000000  0 15        .000000000000
G05  22168447.461 8 116495965.749 8     -2967.941          51.000    22168445.633 8  90776071.088 8     -2312.682          51.000
G13  20268444.164 7 106511392.800 7       742.707          45.000    20268442.734 7  82995875.562 7       578.733          43.000
G28  20878032.680 8 109714872.950 8        18.293          51.000    20878030.984 7  85492082.296 7        14.257          47.000
G30  21849717.156 5 114821041.200 5     -2293.660          31.000    21849725.211 5  89470959.212 5     -1787.268          31.000
R05  19959912.359 8 106697160.675 8     -2447.270          51.000    19959913.953 8  82986678.832 8     -1903.435          48.000
R15  20000950.000 6 106879099.783 6     -2392.383          41.000    20000952.789 5  83128163.768 5     -1860.745          34.000
R16  19651818.766 7 104976515.873 7      1685.785          47.000    19651822.188 7  81648403.547 7      1311.163          46.000
C05  39777812.391 5 207133507.111 5        11.301          35.000    39777811.930 6 160168738.527 6         8.956          40.000
C21  24030814.477 8 125134861.731 8     -3023.273          50.000
C24  24024110.859 8 125099866.345 8      2495.719          51.000
C26  21336641.992 8 111105429.497 8       106.930          51.000
E01  25947272.984 8 136353834.601 8      2677.785          49.000    25947277.984 8 104478959.624 8      2051.833          51.000
E19  23717965.750 8 124638747.094 8      -149.918          49.000    23717965.648 8  95502409.989 8      -114.884          49.000
E21  23515874.555 8 123576762.488 8       409.348          51.000    23515877.180 8  94688679.595 8       313.656          51.000
E27                                                                  25339928.750 5 102033390.946 5     -1696.020          31.000
> 2020 05 04 04 57 30.0000000  0 15        .000000000000
G05  22185413.438 8 116585124.476 8     -2978.223          50.000    22185412.625 8  90845545.414 8     -2320.693          50.000
G13  20264230.859 7 106489252.258 7       731.254          46.000    20264229.781 7  82978623.188 7       569.805          43.000
G28  20877972.250 8 109714555.924 8          .664          51.000    20877970.594 7  85491835.284 7          .517          46.000
G30  21862818.656 5 114889906.357 5     -2299.598          31.000
R05  19973694.586 8 106770835.259 8     -2466.633          50.000    19973697.156 8  83043981.286 8     -1918.492          49.000
R15  20014412.203 6 106951037.036 6     -2405.625          41.000    20014415.891 6  83184114.945 6     -1871.042          36.000
R16  19642397.633 8 104926188.837 8      1666.938          48.000    19642401.266 7  81609260.295 7      1296.507          46.000
C05  39777736.906 5 207133113.487 5        12.672          35.000    39777736.344 6 160168434.136 6         9.784          41.000
C21  24048246.344 8 125225630.738 8     -3030.059          51.000
C24  24009746.727 8 125025061.958 8      2489.051          51.000
C26  21336051.375 8 111102353.246 8        95.973          51.000
E01  25931996.516 8 136273555.318 8      2671.945          50.000    25932001.609 8 104417446.908 8      2047.347          51.000
E19  23718843.023 8 124643357.703 8      -159.523          48.000    23718842.727 8  95505942.785 8      -122.274          49.000
E21  23513564.836 8 123564624.331 8       397.648          51.000    23513567.516 8  94679378.928 8       304.692          51.000
E27                                                                  25352577.594 5 102084319.792 5     -1700.066          31.000
> 2020 05 04 04 58  0.0000000  0 14        .000000000000
G05  22202442.195 8 116674613.930 8     -2988.320          49.000    22202442.188 8  90915277.474 8     -2328.558          50.000
G13  20260088.484 7 106467484.446 7       719.570          46.000    20260087.555 7  82961661.240 7       560.704          43.000
G28  20878017.430 8 109714793.737 8       -17.125          51.000    20878015.562 7  85492020.591 7       -13.344          45.000
R05  19987589.188 8 106845110.173 8     -2485.648          51.000    19987592.211 8  83101750.684 8     -1933.282          50.000
R15  20027954.633 7 107023402.190 7     -2419.117          43.000    20027959.422 6  83240398.994 6     -1881.536          36.000
R16  19633086.633 8 104876448.851 8      1648.488          48.000    19633090.125 7  81570573.645 7      1282.158          46.000
C05  39777660.094 5 207132713.016 5        14.102          35.000    39777659.656 6 160168125.253 6        10.515          41.000
C21  24065721.641 8 125316626.421 8     -3036.906          51.000
C24  23995426.016 8 124950482.582 8      2482.324          51.000
C26  21335528.109 8 111099628.332 8        85.059          51.000
E01  25916758.180 8 136193476.449 8      2666.094          50.000    25916762.719 8 104356087.756 8      2042.785          51.000
E19  23719780.555 8 124648285.171 8      -169.430          48.000    23719780.156 8  95509718.363 8      -129.676          49.000
E21  23511326.656 8 123552863.405 8       385.824          51.000    23511329.352 8  94670367.305 8       295.638          51.000
E27                                                                  25365267.102 5 102135392.483 5     -1705.241          33.000
> 2020 05 04 04 58 30.0000000  0 14        .000000000000
G05  22219535.836 8 116764441.233 8     -3000.074          51.000    22219535.273 8  90985272.759 8     -2337.720          51.000
G13  20256019.242 7 106446100.737 7       706.137          47.000    20256018.078 7  82944998.594 7       550.236          43.000
G28  20878170.000 8 109715595.466 8       -36.297          51.000    20878167.906 7  85492645.327 7       -28.283          45.000
R05  20001598.031 8 106919993.748 8     -2506.449          51.000    20001601.008 8  83159993.461 8     -1949.461          50.000
R15  20041578.219 6 107096202.072 6     -2434.180          41.000    20041581.906 5  83297021.076 5     -1893.251          35.000
R16  19623887.297 8 104827306.345 8      1627.844          48.000    19623890.672 7  81532351.680 7      1266.101          46.000
C05  39777584.156 6 207132317.684 6        12.523          36.000    39777583.727 6 160167819.523 6         9.847          40.000
C21  24083241.531 8 125407856.972 8     -3045.184          51.000
C24  23981149.281 8 124876138.740 8      2473.887          50.000
C26  21335074.156 8 111097263.981 8        72.461          51.000
E01  25901560.078 8 136113609.027 8      2658.445          51.000    25901563.344 8 104294890.616 8      2036.943          51.000
E19  23720780.359 7 124653540.234 7      -181.062          47.000    23720780.445 8  95513744.953 8      -138.685          50.000
E21  23509162.320 8 123541489.330 8       372.387          51.000    23509164.781 8  94661652.089 8       285.326          51.000
E27                                                                  25377997.125 5 102186672.362 5     -1710.949          32.000
> 2020 05 04 04 59  0.0000000  0 14        .000000000000
G05  22236706.445 8 116854670.654 8     -3015.750          51.000    22236704.547 8  91055581.348 8     -2349.938          51.000
G13  20252036.133 7 106425168.966 7       688.598          47.000    20252034.695 7  82928688.111 7       536.570          44.000
G28  20878442.578 8 109717027.574 8       -59.672          51.000    20878440.391 7  85493761.281 7       -46.498          45.000
G30  21902380.078 5 115097783.849 5     -2324.863          32.000
R05  20015733.453 8 106995552.453 8     -2531.328          51.000    20015736.258 8  83218761.320 8     -1968.814          50.000
R15  20055295.195 7 107169501.451 7     -2453.359          43.000    20055298.047 6  83354031.672 6     -1908.171          37.000
R16  19614812.297 7 104778829.848 7      1603.332          46.000    19614815.375 7  81494647.738 7      1247.036          45.000
C05                                                                  39777521.281 6 160167568.192 6         6.256          40.000
C21  24100818.508 8 125499386.887 8     -3057.406          50.000
C24  23966929.977 8 124802097.246 8      2461.559          50.000
C26  21334702.016 8 111095325.689 8        56.074          51.000
E01  25886415.102 8 136034020.886 8      2646.879          51.000    25886416.867 8 104233907.480 8      2028.137          51.000
E19  23721855.305 7 124659190.193 7      -196.430          47.000    23721856.008 8  95518074.114 8      -150.529          50.000
E21  23507084.398 8 123530568.589 8       355.074          51.000    23507086.742 8  94653284.237 8       272.079          51.000
> 2020 05 04 04 59 30.0000000  0 14        .000000000000
G05  22253929.547 8 116945175.433 8     -3021.027          51.000    22253926.375 8  91126104.507 8     -2354.050          51.000
G13  20248115.570 7 106404565.958 7       681.578          47.000    20248114.055 7  82912633.815 7       531.100          45.000
G28  20878811.438 8 109718965.820 8       -72.758          51.000    20878808.773 7  85495271.619 7       -56.694          45.000
G30  21915642.820 5 115167477.094 5     -2325.258          30.000    21915645.961 4  89740900.613 4     -1811.895          29.000
R05  20029970.945 8 107071658.019 8     -2545.684          51.000    20029973.516 8  83277954.508 8     -1979.976          49.000
R15  20069082.102 6 107243170.923 6     -2461.285          41.000    20069084.586 6  83411330.128 6     -1914.333          36.000
R16  19605838.000 7 104730893.634 7      1589.168          46.000    19605840.977 7  81457364.045 7      1236.020          45.000
C05  39777449.195 5 207131615.883 5        14.219          35.000    39777448.680 6 160167276.092 6        10.527          40.000
C21  24118428.656 8 125591091.454 8     -3059.453          49.000
C24  23952745.859 8 124728235.699 8      2459.223          51.000
C26  21334387.898 8 111093689.793 8        49.773          51.000
E01  25871299.406 8 135954588.936 8      2645.406          49.000    25871300.344 8 104173044.036 8      2026.979          51.000
E19  23722981.977 7 124665111.327 7      -201.605          46.000    23722982.922 8  95522611.066 8      -154.480          50.000
E21  23505068.734 8 123519976.675 8       347.895          51.000    23505071.289 8  94645168.360 8       266.572          51.000
