     3.02           OBSERVATION DATA    M (MIXED)           RINEX VERSION / TYPE
SAVERINEX           SC600               20200505 045931 LCL PGM / RUN BY / DATE
       G = GPS       R = GLONASS       C = COMPASS          COMMENT
       S = SBAS      J = QZSS          E = GALILEO          COMMENT
BEAN                                                        MARKER NAME
1                                                           MARKER NUMBER
GEODETIC                                                    MARKER TYPE
Unige DICCA         GTER                                    OBSERVER / AGENCY
SC60291900056       SC600               2.12(191226)        REC # / TYPE / VERS
                    HEMA45          NONE                    ANT # / TYPE
  4509407.8091   693652.4678  4442337.6214                  APPROX POSITION XYZ
        0.0000        0.0000        0.0000                  ANTENNA: DELTA H/E/N
G    8 C1C L1C D1C S1C C2Y L2Y D2Y S2Y                      SYS / # / OBS TYPES
R    8 C1C L1C D1C S1C C2P L2P D2P S2P                      SYS / # / OBS TYPES
C    8 C1I L1I D1I S1I C7I L7I D7I S7I                      SYS / # / OBS TYPES
E    8 C1C L1C D1C S1C C7Q L7Q D7Q S7Q                      SYS / # / OBS TYPES
DBHZ                                                        COMMENT
     30.000                                                 INTERVAL
  2020    05    05    02    00    0.0000000     GPS         TIME OF FIRST OBS
  2020    05    05    02    59   30.0000000     GPS         TIME OF LAST OBS
     0                                                      RCV CLOCK OFFS APPL
G L1C  0.00000                                              SYS / PHASE SHIFT
G L2Y  0.00000                                              SYS / PHASE SHIFT
R L1C  0.00000                                              SYS / PHASE SHIFT
R L2P  0.25000                                              SYS / PHASE SHIFT
C L1I  0.00000                                              SYS / PHASE SHIFT
C L7I  0.00000                                              SYS / PHASE SHIFT
E L1C  0.50000                                              SYS / PHASE SHIFT
E L7Q -0.25000                                              SYS / PHASE SHIFT
 13 R02 -4 R03  5 R04  6 R05  1 R10 -5 R13 -2 R14 -7 R15  0 GLONASS SLOT / FRQ #
    R16 -1 R17  4 R18 -3 R19  3 R20  2                      GLONASS SLOT / FRQ #
 C1C   71.950 C2C   71.950 C2P   71.950                     GLONASS COD/PHS/BIS
    18                                                      LEAP SECONDS
*** Above antenna height is from mark to ANTENNA BOTTOM.    COMMENT
    17     4        0.0000        ANT MEASURE TYPE/HEIGT    COMMENT
    0.0000    0.0000    0.0458    0.0405    0.0000          COMMENT
                    BASE STATION                            COMMENT
                                                            END OF HEADER
> 2020 05 05 02 00  0.0000000  0 15        .000000000000
G06  22951381.805 6 120610319.873 6     -3111.492          40.000    22951380.203 6  93982072.186 6     -2424.536          40.000
G07  20779536.086 8 109197179.620 8        66.637          51.000    20779533.539 8  85088702.415 8        51.925          51.000
G09  21598689.305 6 113501879.510 6     -2073.910          41.000    21598689.906 6  88443065.715 6     -1616.040          37.000
G30  21285733.586 8 111857336.629 8      2232.008          51.000    21285734.289 8  87161551.270 8      1739.227          51.000
R05  19521816.742 8 104355278.468 8        76.402          48.000    19521820.602 7  81165226.103 7        59.424          44.000
R14  21321390.609 5 113655008.480 5     -2674.320          32.000
R15  19758137.461 8 105581478.741 8      1406.281          51.000    19758140.797 8  82118961.129 8      1093.771          51.000
R16  22469915.086 5 120030267.668 5      4462.125          33.000
C05  39780103.727 5 207145438.498 5       -11.145          35.000    39780102.391 6 160177978.774 6        -8.512          40.000
C19  22184829.992 8 115522219.989 8     -1422.055          51.000
C22  22349294.523 4 116378624.966 4      1384.668          28.000
E02  25758253.891 8 135360533.005 8      2826.000          50.000    25758252.586 8 103717839.184 8      2165.398          50.000
E03  24071227.195 8 126495136.759 8     -1090.801          48.000    24071229.727 8  96924892.824 8      -835.877          50.000
E15                                                                  27174166.570 5 109419088.535 5     -2335.050          33.000
E25                                                                  25063166.680 5 100918982.538 5       391.935          35.000
> 2020 05 05 02 00 30.0000000  0 16        .000000000000
G02  22620793.016 5 118873070.153 5     -1184.277          33.000    22620797.898 5  92628402.031 5      -922.829          32.000
G06  22969171.789 6 120703810.521 6     -3122.801          36.000    22969172.398 5  94054922.106 5     -2433.351          35.000
G07  20779203.734 8 109195432.744 8        48.375          51.000    20779201.273 8  85087341.205 8        37.695          51.000
G09  21610552.844 6 113564221.907 6     -2083.367          38.000    21610551.453 5  88491644.050 5     -1623.409          32.000
G30  21273032.852 8 111790594.330 8      2216.098          51.000    21273033.484 8  87109544.304 8      1726.832          51.000
R04  21869578.273 4 117110623.395 4     -2705.270          29.000
R05  19521426.789 8 104353193.488 8        61.020          48.000    19521430.195 7  81163604.457 7        47.460          43.000
R14  21336513.398 5 113735565.404 5     -2698.406          30.000    21336527.125 3  88461072.971 3     -2098.757          23.000
R15  19750318.367 8 105539696.341 8      1377.746          51.000    19750321.695 8  82086463.687 8      1071.580          51.000
R16  22444878.273 5 119896529.443 5      4452.680          34.000
C05  39780168.445 5 207145776.087 5       -13.047          35.000    39780167.234 6 160178239.818 6       -10.164          41.000
C19  22193053.453 8 115565039.593 8     -1433.863          51.000
E02  25742140.906 8 135275861.213 8      2817.477          50.000    25742140.680 8 103652960.816 8      2158.789          51.000
E03  24077471.828 8 126527953.168 8     -1098.305          48.000    24077474.164 8  96950037.854 8      -841.543          51.000
E15                                                                  27191567.008 5 109489172.432 5     -2337.426          31.000
E25  25060288.844 6 131692707.702 6       494.320          36.000    25060297.094 6 100907405.229 6       379.058          39.000
> 2020 05 05 02 01  0.0000000  0 14        .000000000000
G02  22627601.430 6 118908841.002 6     -1198.371          37.000    22627601.375 6  92656275.468 6      -933.796          36.000
G06  22987024.586 6 120797632.803 6     -3130.465          39.000    22987029.914 6  94128030.495 6     -2439.320          38.000
G07  20778975.594 8 109194233.110 8        33.699          51.000    20778972.977 8  85086406.419 8        26.259          51.000
G09  21622469.008 6 113626841.775 6     -2089.227          38.000    21622468.055 5  88540438.616 5     -1627.972          35.000
G30  21260423.984 8 111724335.263 8      2203.375          51.000    21260424.703 8  87057913.874 8      1716.916          51.000
R05  19521123.609 8 104351571.733 8        49.145          49.000    19521126.086 7  81162343.092 7        38.224          43.000
R15  19742659.773 8 105498772.245 8      1352.688          51.000    19742663.156 8  82054633.848 8      1052.090          50.000
R16  22419895.297 5 119763074.556 5      4446.582          35.000
C05                                                                  39780244.086 6 160178549.155 6        -8.865          41.000
C19  22201345.344 8 115608214.778 8     -1442.344          51.000
C22  22333458.656 4 116296182.723 4      1367.207          26.000
E02  25726077.406 8 135191447.903 8      2812.203          51.000    25726078.031 8 103588280.497 8      2154.856          51.000
E03  24083758.375 7 126560990.246 7     -1102.090          47.000    24083760.773 8  96975351.983 8      -844.473          51.000
E25  25057510.664 6 131678110.001 6       480.762          38.000    25057520.883 6 100896220.043 6       368.331          39.000
> 2020 05 05 02 01 30.0000000  0 14        .000000000000
G02  22634482.805 6 118944998.643 6     -1213.590          39.000    22634481.922 6  92684450.257 6      -945.651          37.000
G06  23004911.750 7 120891630.721 7     -3138.172          42.000    23004922.484 7  94201275.664 7     -2445.329          42.000
G07  20778822.188 8 109193426.640 8        18.383          51.000    20778819.750 8  85085778.002 8        14.324          51.000
G09  21634408.625 6 113689585.413 6     -2095.223          39.000    21634408.969 5  88589329.698 5     -1632.644          34.000
G30  21247877.898 8 111658407.713 8      2190.012          51.000    21247879.078 8  87006541.737 8      1706.503          51.000
R05  19520878.391 8 104350258.646 8        36.613          50.000    19520879.977 7  81161321.799 7        28.477          43.000
R14  21367082.859 6 113898565.030 6     -2735.441          36.000
R15  19735133.453 8 105458552.548 8      1326.977          51.000    19735136.250 8  82023351.854 8      1032.093          50.000
R16  22394937.023 5 119629751.074 5      4439.875          33.000
C05  39780304.836 5 207146485.961 5       -10.609          35.000    39780303.797 6 160178789.510 6        -8.288          41.000
C19  22209676.156 8 115651593.908 8     -1451.285          51.000
E02  25710034.930 8 135107141.969 8      2806.512          51.000    25710035.828 8 103523682.420 8      2150.477          51.000
E03  24090058.078 7 126594095.022 7     -1106.383          47.000    24090060.266 8  97000717.988 8      -847.838          51.000
E25  25054801.547 6 131663871.341 6       466.867          40.000    25054807.930 6 100885309.889 6       357.619          41.000
> 2020 05 05 02 02  0.0000000  0 15        .000000000000
G02  22641463.008 6 118981674.496 6     -1230.828          41.000    22641461.344 6  92713028.831 6      -959.084          39.000
G06  23022857.516 7 120985934.493 7     -3148.031          44.000    23022873.773 7  94274759.161 7     -2453.011          43.000
G07  20778768.844 8 109193146.429 8          .984          51.000    20778766.672 8  85085559.665 8          .767          51.000
G09  21646396.984 6 113752585.236 6     -2103.914          39.000    21646398.711 6  88638420.472 6     -1639.414          39.000
G30  21235420.453 8 111592946.272 8      2174.648          50.000    21235421.984 8  86955532.784 8      1694.528          50.000
R05  19520716.336 8 104349390.995 8        22.012          50.000    19520717.633 7  81160646.968 7        17.120          44.000
R14  21382540.742 5 113980964.551 5     -2756.836          31.000
R15  19727764.578 8 105419174.497 8      1299.031          51.000    19727767.258 8  81992724.480 8      1010.358          51.000
R16  22370030.578 5 119496698.284 5      4431.480          33.000
C05  39780372.797 5 207146839.716 5       -11.777          35.000    39780371.711 6 160179063.054 6        -9.340          40.000
C19  22218071.414 8 115695308.983 8     -1462.309          51.000
E02  25694038.602 8 135023078.637 8      2798.539          51.000    25694039.812 8 103459270.245 8      2144.326          51.000
E03  24096396.156 8 126627400.847 8     -1113.109          48.000    24096398.234 8  97026238.036 8      -852.899          51.000
E13  25909226.211 5 136153895.325 5     -1685.477          34.000    25909224.875 5 104325713.610 5     -1291.855          33.000
E25  25052185.820 6 131650125.551 6       450.516          40.000    25052191.047 7 100874777.419 7       345.012          44.000
> 2020 05 05 02 02 30.0000000  0 16        .000000000000
G02  22648534.688 6 119018836.739 6     -1246.586          39.000    22648532.977 6  92741986.357 6      -971.375          36.000
G06  23040855.328 7 121080510.690 7     -3157.055          42.000    23040877.352 6  94348454.913 6     -2460.043          41.000
G07  20778809.742 8 109193361.970 8       -15.410          51.000    20778807.664 8  85085727.613 8       -12.008          51.000
G09  21658428.234 6 113815810.284 6     -2111.367          38.000    21658429.625 6  88687686.747 6     -1645.218          38.000
G30  21223046.570 8 111527921.928 8      2160.328          50.000    21223048.109 8  86904864.437 8      1683.370          50.000
R04  21930563.875 5 117437169.912 5     -2738.781          31.000
R05  19520631.750 8 104348938.858 8         8.215          50.000    19520632.945 7  81160295.284 7         6.389          43.000
R15  19720547.586 8 105380608.609 8      1272.121          51.000    19720550.234 8  81962728.812 8       989.428          50.000
R16  22345169.359 4 119363882.389 4      4423.223          28.000
C05                                                                  39780442.164 6 160179346.537 6        -9.599          40.000
C19  22226525.414 8 115739329.972 8     -1472.418          51.000
E02  25678082.820 8 134939229.512 8      2791.453          51.000    25678084.000 8 103395022.186 8      2138.840          51.000
E03  24102766.844 8 126660877.483 8     -1118.715          48.000    24102768.906 8  97051888.963 8      -857.179          51.000
E08  22066889.547 5 115962280.476 5      1124.121          33.000    22066878.703 5  88854178.075 5       861.226          35.000
E13  25918889.797 6 136204644.459 6     -1697.641          37.000    25918888.078 5 104364599.256 5     -1301.032          33.000
E25  25049658.602 6 131636842.515 6       435.109          39.000    25049663.266 7 100864599.539 7       333.407          45.000
> 2020 05 05 02 03  0.0000000  0 17        .000000000000
G02  22655685.422 6 119056419.718 6     -1261.668          37.000    22655683.477 5  92771271.774 5      -983.121          35.000
G06  23058891.922 6 121175292.090 6     -3164.328          41.000    23058919.695 6  94422310.555 6     -2465.710          37.000
G07  20778932.555 8 109194008.116 8       -30.473          51.000    20778930.758 8  85086231.117 8       -23.742          51.000
G09  21670490.016 6 113879195.634 6     -2117.336          38.000    21670490.852 6  88737077.929 6     -1649.872          37.000
G30  21210744.227 8 111463271.836 8      2146.891          50.000    21210745.430 8  86854487.736 8      1672.902          50.000
R04  21945931.227 5 117519412.997 5     -2746.891          31.000
R05  19520612.977 8 104348838.125 8        -4.371          50.000    19520613.758 7  81160216.948 7        -3.400          43.000
R14  21413789.383 5 114147535.489 5     -2796.117          35.000    21413801.438 4  88781474.748 4     -2174.761          27.000
R15  19713470.430 8 105342791.361 8      1246.145          51.000    19713472.648 8  81933315.380 8       969.224          49.000
C05  39780503.836 5 207147522.221 5       -11.250          35.000    39780502.836 6 160179590.818 6        -8.914          40.000
C19  22235025.422 8 115783593.273 8     -1481.320          51.000
C22  22302324.914 5 116134088.836 5      1333.473          32.000
E02  25662155.953 8 134855532.364 8      2785.516          51.000    25662156.531 8 103330890.576 8      2134.359          50.000
E03  24109157.750 8 126694460.791 8     -1123.105          49.000    24109159.664 8  97077621.625 8      -860.543          51.000
E08  22060476.484 5 115928585.891 5      1120.395          32.000    22060466.281 5  88828351.795 5       858.248          35.000
E13                                                                  25928611.164 5 104403717.429 5     -1308.922          35.000
E25  25047207.203 6 131623958.443 6       421.348          36.000    25047210.109 7 100854727.392 7       322.623          44.000
> 2020 05 05 02 03 30.0000000  0 16        .000000000000
G02  22662927.039 6 119094484.701 6     -1273.930          37.000    22662925.562 5  92800932.810 5      -992.669          35.000
G06  23076978.922 6 121270338.949 6     -3169.727          39.000    23077012.445 5  94496373.025 5     -2469.914          35.000
G07  20779149.125 8 109195147.610 8       -43.055          51.000    20779147.742 8  85087119.050 8       -33.549          51.000
G09  21682593.773 5 113942803.997 5     -2121.125          35.000    21682594.102 5  88786642.849 5     -1652.825          34.000
G30  21198525.336 8 111399060.556 8      2136.074          51.000    21198526.102 8  86804453.007 8      1664.473          51.000
R05  19520672.477 8 104349154.331 8       -14.293          51.000    19520673.156 7  81160462.890 7       -11.117          45.000
R14  21429577.859 5 114231701.410 5     -2812.668          35.000    21429585.156 4  88846936.716 4     -2187.625          29.000
R15  19706545.641 8 105305788.434 8      1223.004          51.000    19706548.438 8  81904535.332 8       951.225          50.000
C05  39780566.883 5 207147850.169 5        -8.824          35.000    39780565.773 6 160179844.337 6        -6.325          40.000
C19  22243583.906 8 115828161.610 8     -1487.660          51.000
C22  22294671.805 5 116094209.975 5      1328.082          31.000
E02  25646270.180 8 134772052.408 8      2782.035          51.000    25646270.117 8 103266925.405 8      2131.653          49.000
E03  24115580.984 8 126728214.161 8     -1125.039          50.000    24115582.492 8  97103484.595 8      -862.034          51.000
E08                                                                  22054083.805 5  88802642.464 5       857.245          35.000
E13                                                                  25938402.047 5 104443115.403 5     -1315.342          35.000
E25  25044844.289 5 131611544.051 5       408.871          35.000    25044844.875 7 100845209.697 7       313.683          45.000
> 2020 05 05 02 04  0.0000000  0 15        .000000000000
G02  22670259.383 6 119133025.662 6     -1295.555          36.000
G06  23095115.586 6 121365645.543 6     -3184.188          38.000    23095151.539 5  94570637.997 5     -2481.185          35.000
G07  20779458.922 8 109196777.453 8       -65.746          51.000    20779457.906 8  85088389.058 8       -51.231          51.000
G09  21694739.555 6 114006631.787 6     -2134.445          37.000    21694740.016 6  88836378.835 6     -1663.198          37.000
G30  21186389.742 8 111335286.838 8      2115.121          50.000    21186389.953 8  86754759.244 8      1648.149          50.000
R05  19520809.773 8 104349885.972 8       -34.645          51.000    19520810.492 7  81161031.934 7       -26.946          45.000
R14  21445478.164 6 114316467.326 6     -2838.770          37.000    21445486.523 4  88912865.802 4     -2207.932          27.000
R15  19699773.117 8 105269598.625 8      1189.473          51.000    19699775.992 8  81876387.696 8       925.145          48.000
C05  39780631.727 5 207148188.461 5       -14.355          35.000    39780630.562 6 160180105.202 6       -11.300          41.000
C19  22252200.555 8 115873032.346 8     -1503.914          51.000
C22  22287070.781 4 116054602.665 4      1312.734          27.000
E02  25630425.273 8 134688789.003 8      2768.543          50.000    25630424.453 7 103203126.177 7      2121.393          47.000
E03  24122035.852 8 126762135.084 8     -1136.758          51.000    24122037.062 8  97129475.955 8      -871.031          51.000
E13  25948234.438 5 136358891.880 5     -1735.543          33.000    25948256.406 5 104482789.888 5     -1329.661          32.000
E25                                                                  25042569.203 7 100836044.770 7       297.173          45.000
> 2020 05 05 02 04 30.0000000  0 14        .000000000000
G02  22677684.641 6 119172036.852 6     -1312.375          38.000    22677682.453 6  92861307.673 6     -1022.630          36.000
G06  23113299.867 6 121461200.475 6     -3193.805          37.000    23113335.008 3  94645096.370 3     -2488.673          23.000
G07  20779860.102 8 109198888.187 8       -82.629          50.000    20779859.820 8  85090033.787 8       -64.386          50.000
G09  21706925.555 5 114070670.139 5     -2142.188          34.000    21706926.445 5  88886278.858 5     -1669.237          33.000
G30  21174335.695 8 111271943.603 8      2100.035          48.000    21174336.188 8  86705400.907 8      1636.391          48.000
R05  19521023.000 8 104351025.566 8       -49.109          51.000    19521024.406 7  81161918.273 7       -38.199          46.000
R14  21461489.945 5 114401821.327 5     -2859.449          33.000    21461498.977 4  88979252.116 4     -2224.022          26.000
R15  19693151.164 8 105234214.946 8      1161.664          51.000    19693154.211 8  81848867.060 8       903.516          48.000
C05  39780696.750 5 207148526.941 5       -15.738          35.000    39780695.586 6 160180366.929 6       -12.061          40.000
C19  22260873.656 8 115918197.224 8     -1514.648          51.000
E02  25614620.281 8 134605735.700 8      2760.688          51.000    25614618.430 7 103139487.967 7      2115.296          47.000
E03  24128521.016 8 126796215.259 8     -1142.871          51.000    24128522.211 8  97155589.342 8      -875.727          51.000
E13  25958156.227 5 136411021.364 5     -1748.133          35.000    25958176.359 4 104522819.237 4     -1338.943          29.000
E25                                                                  25040379.523 7 100827226.419 7       284.970          44.000
> 2020 05 05 02 05  0.0000000  0 14        .000000000000
G02  22685205.625 6 119211554.726 6     -1322.449          40.000    22685204.805 6  92892100.796 6     -1030.483          39.000
G06  23131538.828 6 121557040.937 6     -3196.316          37.000    23131573.656 4  94719777.067 4     -2490.648          29.000
G07  20780360.297 8 109201519.456 8       -93.406          49.000    20780360.930 8  85092084.129 8       -72.784          49.000
G09  21719159.305 6 114134958.511 6     -2143.902          37.000    21719160.320 6  88936373.687 6     -1670.570          37.000
G30  21162370.391 7 111209072.400 7      2090.723          45.000    21162372.750 7  86656410.355 7      1629.135          45.000
R05  19521320.258 8 104352615.271 8       -57.406          51.000    19521321.828 7  81163154.704 7       -44.649          46.000
R14  21477619.258 5 114487800.164 5     -2873.395          32.000    21477628.617 4  89046124.395 4     -2234.872          29.000
R15  19686688.141 8 105199679.541 8      1140.098          51.000    19686691.805 8  81822006.214 8       886.746          49.000
C05  39780769.742 5 207148906.560 5       -10.496          35.000    39780768.484 6 160180660.454 6        -8.041          40.000
C19  22269611.156 8 115963696.017 8     -1519.176          51.000
E02  25598863.648 8 134522934.685 8      2758.801          51.000    25598861.312 7 103076043.065 7      2113.832          47.000
E03  24135044.141 8 126830495.007 8     -1143.066          51.000    24135045.578 8  97181855.645 8      -875.850          51.000
E13  25968151.859 5 136463558.343 5     -1753.707          34.000
E25  25038280.531 5 131577051.958 5       361.852          33.000    25038281.719 6 100818785.677 6       277.472          41.000
> 2020 05 05 02 05 30.0000000  0 14        .000000000000
G02  22692805.367 7 119251486.596 7     -1339.016          42.000    22692803.633 6  92923216.507 6     -1043.389          39.000
G06  23149814.312 6 121653072.905 6     -3205.609          37.000    23149810.445 6  94794605.621 6     -2497.877          37.000
G07  20780942.305 8 109204579.973 8      -110.355          48.000    20780943.453 8  85094468.921 8       -85.991          48.000
G09  21731422.617 5 114199405.155 5     -2151.879          35.000    21731423.648 5  88986591.933 5     -1676.792          35.000
G30  21150478.594 8 111146583.572 8      2075.363          48.000    21150482.055 8  86607717.722 8      1617.163          48.000
R05  19521684.344 8 104354563.419 8       -72.047          50.000    19521685.953 7  81164669.930 7       -56.036          46.000
R14  21493847.055 5 114574307.761 5     -2893.293          33.000    21493857.422 4  89113408.150 4     -2250.330          26.000
R15  19680366.742 8 105165901.462 8      1112.156          51.000    19680370.836 8  81795734.426 8       865.010          48.000
C05  39780833.281 5 207149238.141 5       -11.363          35.000    39780832.016 6 160180916.084 6        -8.793          41.000
C19  22278395.352 8 116009438.693 8     -1529.938          51.000
E02  25583138.227 8 134440296.974 8      2750.758          51.000    25583136.945 8 103012723.290 8      2107.658          49.000
E03  24141587.969 8 126864883.505 8     -1149.230          51.000    24141589.750 8  97208205.269 8      -880.570          51.000
E13  25978202.875 5 136516377.415 5     -1766.812          33.000    25978205.062 4 104603466.721 4     -1353.561          29.000
E25  25036259.852 6 131566438.208 6       346.117          36.000    25036260.367 6 100810653.134 6       265.009          39.000
> 2020 05 05 02 06  0.0000000  0 14        .000000000000
G02  22700492.148 7 119291876.843 7     -1354.250          44.000    22700488.609 6  92954689.428 6     -1055.260          40.000
G06  23168134.734 6 121749339.353 6     -3213.426          38.000    23168129.500 6  94869618.423 6     -2503.968          38.000
G07  20781614.953 8 109208115.300 8      -126.125          48.000    20781616.250 8  85097223.718 8       -98.279          48.000
G09  21743724.695 5 114264055.716 5     -2159.168          35.000    21743726.469 6  89036968.986 6     -1682.466          36.000
G30  21138669.922 8 111084524.282 8      2061.098          51.000    21138672.656 8  86559359.833 8      1606.050          51.000
R05  19522124.633 8 104356918.246 8       -85.664          50.000    19522126.070 7  81166501.458 7       -66.628          46.000
R14  21510183.867 5 114661387.383 5     -2913.176          31.000
R15  19674196.430 8 105132928.737 8      1085.293          51.000    19674199.633 8  81770088.979 8       844.114          48.000
C05                                                                  39780894.773 6 160181169.120 6        -8.575          40.000
C19  22287235.297 8 116055470.798 8     -1539.574          51.000
E02  25567452.992 8 134357870.555 8      2743.602          51.000    25567453.562 8 102949565.394 8      2102.177          51.000
E03  24148161.430 8 126899426.932 8     -1154.488          51.000    24148163.406 8  97234673.599 8      -884.569          51.000
E13  25988320.352 5 136569539.863 5     -1778.016          34.000    25988318.391 5 104644189.644 5     -1362.157          32.000
E25  25034324.336 6 131556273.053 6       330.996          39.000    25034325.820 6 100802864.347 6       253.480          36.000
> 2020 05 05 02 06 30.0000000  0 14        .000000000000
G02  22708272.562 7 119332759.910 7     -1369.078          44.000    22708267.969 6  92986546.379 6     -1066.814          39.000
G06  23186506.805 6 121845873.321 6     -3220.281          36.000    23186499.242 5  94944839.701 5     -2509.307          35.000
G07  20782384.891 8 109212160.633 8      -141.355          49.000    20782386.109 8  85100375.918 8      -110.147          49.000
G09  21756072.641 6 114328945.248 6     -2165.230          36.000    21756075.078 5  89087532.312 5     -1687.186          35.000
G30  21126950.328 8 111022931.926 8      2047.195          51.000    21126951.844 8  86511365.787 8      1595.217          51.000
R05  19522648.094 8 104359717.379 8       -98.719          50.000    19522649.695 7  81168678.559 7       -76.781          47.000
R15  19668183.688 8 105100799.243 8      1058.836          51.000    19668186.617 8  81745099.391 8       823.542          49.000
C05  39780965.125 5 207149924.046 5       -10.492          35.000    39780963.867 6 160181447.257 6        -8.222          40.000
C19  22296138.055 8 116101828.071 8     -1548.785          51.000
C22  22249791.289 4 115860491.773 4      1272.496          29.000
E02  25551814.789 8 134275693.419 8      2736.988          49.000    25551817.531 8 102886598.488 8      2097.170          51.000
E03  24154771.422 8 126934161.387 8     -1159.152          51.000    24154773.141 8  97261288.318 8      -888.176          51.000
E13  25998509.281 5 136623088.090 5     -1788.492          35.000
E25  25032483.312 6 131546592.867 6       316.527          41.000    25032483.250 5 100795447.084 5       242.492          32.000
> 2020 05 05 02 07  0.0000000  0 13        .000000000000
G02  22716133.047 7 119374064.404 7     -1384.176          44.000    22716128.016 6  93018731.707 6     -1078.579          39.000
G06  23204916.758 5 121942602.166 5     -3228.227          35.000    23204905.875 5  95020212.797 5     -2515.504          35.000
G07  20783238.633 8 109216645.275 8      -157.352          49.000    20783239.539 8  85103870.439 8      -122.612          49.000
G09  21768453.148 6 114394003.644 6     -2171.480          37.000    21768455.375 6  89138227.196 6     -1692.063          39.000
G30  21115306.312 8 110961738.087 8      2032.613          51.000    21115306.891 8  86463682.295 8      1583.855          51.000
R05  19523241.734 8 104362891.055 8      -112.543          51.000    19523243.500 7  81171146.962 7       -87.533          47.000
R15  19662315.867 8 105069443.412 8      1031.750          51.000    19662319.055 8  81720711.556 8       802.472          49.000
C05  39781027.148 5 207150247.191 5       -10.887          35.000    39781025.992 6 160181697.139 6        -8.264          40.000
C19  22305090.203 8 116148441.511 8     -1558.598          51.000
E02  25536210.664 7 134193697.879 7      2729.559          47.000    25536215.453 8 102823770.734 8      2091.477          51.000
E03  24161404.516 8 126969017.360 8     -1164.355          51.000    24161406.117 8  97287996.149 8      -892.157          50.000
E13  26008756.000 5 136676934.868 5     -1800.297          31.000    26008751.547 5 104726467.870 5     -1379.361          31.000
E25  25030720.203 6 131537328.116 6       301.363          36.000    25030719.781 5 100788348.227 5       230.768          31.000
> 2020 05 05 02 07 30.0000000  0 15        .000000000000
G02  22724077.781 7 119415812.964 7     -1397.035          44.000    22724072.180 6  93051263.063 6     -1088.599          39.000
G06  23223367.789 5 122039547.224 5     -3232.848          31.000    23223352.703 5  95095754.357 5     -2519.099          31.000
G07  20784180.609 8 109221593.312 8      -170.684          51.000    20784180.836 8  85107726.058 8      -133.000          51.000
G09  21780870.477 6 114459254.632 6     -2175.945          39.000    21780872.836 6  89189072.153 6     -1695.542          39.000
G30  21103742.375 8 110900968.500 8      2020.551          51.000    21103742.672 8  86416329.398 8      1574.455          51.000
R04  22086349.891 4 118271416.531 4     -2819.941          27.000
R05  19523910.406 8 104366465.434 8      -123.777          50.000    19523912.133 7  81173927.037 7       -96.271          47.000
R14  21559837.242 5 114925999.926 5     -2966.121          33.000    21559848.359 4  89386973.383 4     -2306.983          28.000
R15  19656597.953 8 105038887.342 8      1007.238          51.000    19656600.703 8  81696945.724 8       783.408          49.000
C05  39781086.828 5 207150558.101 5        -8.230          35.000    39781085.672 6 160181937.527 6        -6.262          41.000
C19  22314096.086 8 116195335.296 8     -1565.801          51.000
E02  25520646.250 7 134111910.305 7      2724.773          47.000    25520652.242 8 102761102.332 8      2087.834          51.000
E03  24168065.312 8 127004019.465 8     -1167.188          51.000    24168067.367 8  97314815.936 8      -894.285          50.000
E13                                                                  26019062.375 5 104767976.074 5     -1385.979          33.000
E25  25029041.547 6 131528503.593 6       288.820          39.000    25029041.812 5 100781576.678 5       221.136          33.000
> 2020 05 05 02 08  0.0000000  0 16        .000000000000
G02  22732107.094 7 119458009.454 7     -1414.996          42.000    22732101.125 6  93084143.457 6     -1102.591          39.000
G06  23241859.484 5 122136792.087 5     -3243.656          33.000    23241863.688 5  95171577.845 5     -2527.512          31.000
G07  20785211.766 8 109227009.554 8      -189.195          51.000    20785211.016 8  85111946.510 8      -147.425          51.000
G09  21793325.469 6 114524703.125 6     -2186.008          37.000    21793327.016 6  89240070.939 6     -1703.383          37.000
G30  21092259.844 8 110840629.839 8      2003.258          51.000    21092260.438 8  86369312.263 8      1560.980          51.000
R04  22102176.523 5 118356137.046 5     -2831.367          33.000
R05  19524654.945 8 104370447.082 8      -140.488          51.000    19524657.148 8  81177023.862 8      -109.269          48.000
R14  21576593.055 5 115015319.923 5     -2987.129          34.000    21576596.953 4  89456431.584 4     -2323.313          25.000
R15  19651031.047 8 105009137.724 8       977.359          51.000    19651033.562 8  81673807.122 8       760.165          50.000
C05  39781145.273 5 207150862.156 5       -10.523          35.000    39781144.070 6 160182172.665 6        -8.400          41.000
C19  22323156.867 8 116242514.777 8     -1578.250          51.000
C22  22228061.789 5 115747344.167 5      1244.809          31.000
E02  25505123.203 7 134030338.076 7      2714.766          46.000    25505129.344 8 102698598.943 8      2080.097          51.000
E03  24174754.938 8 127039173.212 8     -1175.211          51.000    24174757.141 8  97341751.928 8      -900.516          49.000
E13                                                                  26029435.453 5 104809732.944 5     -1396.991          35.000
E25  25027448.375 6 131520125.044 6       270.863          36.000    25027449.055 6 100775156.783 6       207.410          36.000
> 2020 05 05 02 08 30.0000000  0 15        .000000000000
G02  22740238.422 6 119500747.049 6     -1432.891          40.000    22740233.398 6  93117445.449 6     -1116.538          40.000
G06  23260409.008 6 122234266.136 6     -3253.602          37.000    23260401.891 6  95247531.585 6     -2535.268          38.000
G07  20786349.820 8 109232987.958 8      -208.098          51.000    20786348.453 8  85116605.022 8      -162.154          51.000
G09  21805836.258 6 114590443.041 6     -2195.227          38.000    21805835.789 6  89291296.786 6     -1710.572          38.000
G30  21080877.516 8 110780818.052 8      1985.512          51.000    21080878.539 8  86322705.678 8      1547.152          51.000
R05  19525494.062 8 104374933.112 8      -157.348          51.000    19525496.547 8  81180512.978 8      -122.382          48.000
R15  19645633.000 8 104980292.031 8       947.027          50.000    19645635.773 8  81651371.602 8       736.580          50.000
R16  22050390.352 5 117789233.406 5      4318.109          31.000    22050395.070 4  91613859.452 4      3358.533          28.000
C05  39781220.383 5 207151253.387 5       -13.945          35.000    39781219.172 6 160182475.174 6       -10.859          40.000
C19  22332289.906 8 116290073.844 8     -1591.090          51.000
C22  22220923.266 5 115710204.332 5      1232.844          32.000
E02  25489659.969 7 133949077.977 7      2704.027          47.000    25489665.555 8 102636334.697 8      2071.878          51.000
E03  24181491.398 8 127074573.502 8     -1183.598          50.000    24181493.266 7  97368876.853 7      -906.805          47.000
E13                                                                  26039888.648 5 104851814.973 5     -1407.592          31.000
E25  25025957.742 5 131512287.364 5       252.746          35.000    25025958.961 6 100769151.240 6       193.902          37.000
> 2020 05 05 02 09  0.0000000  0 14        .000000000000
G02  22748436.680 6 119543835.371 6     -1442.945          41.000    22748433.828 6  93151020.727 6     -1124.373          40.000
G06  23278980.352 6 122331859.144 6     -3256.012          36.000    23278971.859 6  95323578.033 6     -2537.152          37.000
G07  20787558.836 8 109239339.656 8      -219.039          51.000    20787556.844 8  85121554.409 8      -170.680          51.000
G09  21818366.031 6 114656285.369 6     -2197.820          38.000    21818363.617 6  89342602.548 6     -1712.587          38.000
G30  21069560.273 8 110721345.912 8      1975.602          51.000    21069561.516 8  86276363.767 8      1539.430          51.000
R05  19526392.094 8 104379733.538 8      -166.277          51.000    19526394.195 8  81184246.635 8      -129.327          48.000
R15  19640368.078 8 104952159.667 8       924.656          48.000    19640371.211 8  81629490.850 8       719.177          50.000
R16  22026143.789 6 117659707.546 6      4313.227          37.000    22026150.047 5  91513117.165 5      3354.732          31.000
C05  39781276.289 5 207151544.153 5        -8.887          35.000    39781275.180 6 160182700.781 6        -7.110          40.000
C19  22341459.609 8 116337825.778 8     -1595.945          51.000
E02  25474220.656 8 133867943.524 8      2701.250          48.000    25474225.078 8 102574166.693 8      2069.789          51.000
E03  24188238.688 7 127110032.088 7     -1184.016          47.000    24188241.023 7  97396046.440 7      -907.278          47.000
E13  26050368.844 5 136895611.592 5     -1843.266          32.000
E25  25024535.070 5 131504818.412 5       242.445          34.000    25024535.477 6 100763416.028 6       185.872          40.000
> 2020 05 05 02 09 30.0000000  0 14        .000000000000
G02  22756730.539 7 119587423.507 7     -1459.043          43.000    22756729.320 6  93184985.503 6     -1136.917          39.000
G06  23297588.594 5 122429666.039 5     -3264.539          34.000    23297593.359 5  95399744.503 5     -2543.797          34.000
G07  20788867.344 8 109246214.564 8      -235.613          51.000    20788864.789 8  85126911.488 8      -183.595          51.000
G09  21830943.727 6 114722380.563 6     -2205.340          39.000    21830941.477 6  89394105.210 6     -1718.447          38.000
G30  21058337.055 8 110662365.567 8      1960.039          51.000    21058338.461 8  86230405.073 8      1527.303          51.000
R04  22149987.766 5 118612171.625 5     -2855.496          31.000    22149988.898 4  92253919.008 4     -2220.941          24.000
R05  19527378.094 8 104385002.569 8      -181.262          51.000    19527379.898 8  81188344.765 8      -140.981          48.000
R15  19635265.305 8 104924895.388 8       896.672          48.000    19635269.227 8  81608285.277 8       697.411          51.000
R16  22001960.422 6 117530519.096 6      4303.086          39.000    22001967.141 5  91412637.280 5      3346.845          32.000
C05  39781342.047 5 207151887.003 5        -9.613          35.000    39781340.867 6 160182965.150 6        -7.826          40.000
C19  22350695.438 8 116385920.094 8     -1606.629          51.000
E02  25458834.500 8 133787087.575 8      2692.734          49.000    25458837.148 8 102512212.091 8      2063.279          50.000
E03  24195025.859 7 127145700.048 7     -1190.215          44.000    24195028.391 7  97423376.434 7      -911.980          44.000
E25  25023207.867 6 131497837.300 6       226.578          36.000    25023207.367 6 100758066.880 6       173.579          41.000
> 2020 05 05 02 10  0.0000000  0 12        .000000000000
G02  22765106.008 7 119631438.144 7     -1474.621          43.000    22765104.602 6  93219282.602 6     -1149.055          38.000
G07  20790261.508 8 109253540.558 8      -252.062          51.000    20790258.938 8  85132620.083 8      -196.412          51.000
G09  21843556.070 6 114788656.036 6     -2212.320          38.000    21843554.695 6  89445748.414 6     -1723.892          37.000
G30  21047194.219 8 110603806.513 8      1944.508          51.000    21047195.445 8  86184774.667 8      1515.204          51.000
R05  19528438.312 8 104390668.689 8      -195.848          51.000    19528439.672 8  81192751.749 8      -152.326          48.000
R15  19630311.867 8 104898427.019 8       868.668          49.000    19630316.344 8  81587698.741 8       675.631          51.000
R16  21977826.781 6 117401599.360 6      4292.414          40.000    21977832.867 5  91312366.354 5      3338.544          33.000
C05  39781403.781 5 207152208.127 5       -10.801          35.000    39781402.484 6 160183213.426 6        -8.291          41.000
C19  22359983.398 8 116434285.714 8     -1617.145          51.000
E02  25443488.500 8 133706440.372 8      2684.301          51.000    25443489.102 8 102450417.466 8      2056.685          48.000
E03  24201838.734 7 127181505.715 7     -1196.164          42.000    24201841.844 7  97450812.055 7      -916.736          42.000
E25  25021962.258 5 131491298.563 5       210.719          34.000    25021961.172 6 100753049.044 6       161.382          41.000
> 2020 05 05 02 10 30.0000000  0 13        .000000000000
G02  22773567.898 6 119675908.887 6     -1489.055          40.000    22773564.094 6  93253935.090 6     -1160.305          37.000
G07  20791747.297 8 109261348.132 8      -267.363          51.000    20791744.508 8  85138703.911 8      -208.335          51.000
G09  21856208.297 6 114855142.739 6     -2218.797          37.000    21856207.969 6  89497556.221 6     -1728.933          37.000
G30  21036137.547 8 110545701.327 8      1930.125          51.000    21036138.531 8  86139497.924 8      1503.994          51.000
R05  19529578.859 8 104396764.853 8      -209.523          51.000    19529579.891 8  81197493.214 8      -162.963          49.000
R15  19625513.586 8 104872787.515 8       841.758          49.000    19625518.133 8  81567756.891 8       654.701          50.000
R16  21953749.719 6 117272984.275 6      4282.965          41.000    21953755.523 5  91212332.396 5      3331.195          32.000
C05  39781467.367 5 207152540.520 5       -10.207          35.000    39781466.102 6 160183469.710 6        -8.134          41.000
C19  22369329.469 8 116482953.737 8     -1626.449          51.000
C22  22192869.266 4 115564044.617 4      1199.871          28.000
E02  25428188.766 8 133626035.261 8      2676.906          51.000    25428186.867 7 102388808.366 7      2051.142          46.000
E03  24208683.102 6 127217480.759 6     -1201.285          38.000    24208688.258 6  97478377.440 6      -920.426          39.000
E25  25020804.156 6 131485213.812 6       195.797          36.000    25020802.922 7 100748386.708 7       150.095          42.000
> 2020 05 05 02 11  0.0000000  0 15        .000000000000
G02  22782106.898 6 119720784.434 6     -1502.508          40.000    22782101.836 6  93288903.055 6     -1170.785          39.000
G06  23353690.688 4 122724472.592 4     -3283.195          29.000
G07  20793315.000 8 109269586.873 8      -281.730          51.000    20793311.984 8  85145123.717 8      -219.530          51.000
G09  21868891.102 6 114921790.530 6     -2224.117          38.000    21868890.195 6  89549489.612 6     -1733.075          38.000
G30  21025157.781 8 110488001.784 8      1916.727          51.000    21025158.492 8  86094537.240 8      1493.553          51.000
R05  19530790.438 8 104403241.868 8      -222.129          51.000    19530791.625 8  81202530.891 8      -172.770          49.000
R15  19620861.609 8 104847927.698 8       815.762          49.000    19620866.102 8  81548421.480 8       634.481          50.000
R16  21929720.648 6 117144627.496 6      4274.242          40.000    21929725.102 5  91112499.362 5      3324.414          31.000
C05  39781523.641 5 207152832.419 5        -9.016          35.000    39781522.359 6 160183696.181 6        -7.080          41.000
C19  22378724.281 8 116531875.179 8     -1634.797          51.000
C22  22185969.305 5 115528174.931 5      1190.973          30.000
E02  25412926.094 8 133545824.745 8      2670.500          51.000    25412921.539 7 102327348.412 7      2046.260          45.000
E03  24215551.344 7 127253575.927 7     -1205.066          42.000    24215558.906 6  97506034.877 6      -923.225          36.000
E13  26093018.891 5 137119735.149 5     -1887.238          34.000    26093021.680 5 105065779.371 5     -1446.012          35.000
E25  25019724.578 5 131479543.890 5       182.352          34.000    25019723.719 7 100744042.174 7       139.589          43.000
> 2020 05 05 02 11 30.0000000  0 15        .000000000000
G02  22790725.523 6 119766077.582 6     -1521.363          41.000    22790721.445 6  93324196.426 6     -1185.481          38.000
G06  23372461.289 5 122823113.603 5     -3295.156          32.000    23372462.328 5  95706318.131 5     -2567.651          33.000
G07  20794967.398 8 109278270.965 8      -301.516          51.000    20794964.664 8  85151890.542 8      -234.947          51.000
G09  21881606.547 6 114988613.361 6     -2235.145          37.000    21881605.758 6  89601559.348 6     -1741.671          36.000
G30  21014257.961 8 110430723.478 8      1897.621          51.000    21014258.555 8  86049904.745 8      1478.663          51.000
R05  19532076.148 8 104410115.570 8      -240.414          51.000    19532077.617 8  81207877.086 8      -186.989          49.000
R15  19616358.391 8 104823862.997 8       784.195          51.000    19616362.688 8  81529704.489 8       609.930          49.000
R16  21905742.508 5 117016548.017 5      4260.055          35.000    21905745.000 4  91012881.994 4      3313.373          28.000
C05  39781575.359 5 207153102.189 5       -13.430          35.000    39781574.039 6 160183903.985 6        -9.995          41.000
C19  22388170.680 8 116581064.254 8     -1648.656          51.000
C22  22179129.602 5 115492576.255 5      1177.891          32.000
E02  25397703.438 8 133465825.205 8      2658.590          51.000    25397697.352 7 102266050.112 7      2037.062          45.000
E03  24222446.125 7 127289805.786 7     -1214.402          45.000    24222455.453 5  97533795.541 5      -930.384          34.000
E13  26103821.086 6 137176514.027 6     -1902.227          36.000    26103822.188 5 105109285.329 5     -1457.882          32.000
E25  25018730.617 5 131474314.137 5       162.750          35.000    25018726.742 7 100740026.616 7       124.770          43.000
> 2020 05 05 02 12  0.0000000  0 16        .000000000000
G02  22799442.094 7 119811882.622 7     -1533.242          45.000    22799439.094 7  93359888.654 7     -1194.734          42.000
G06  23391279.320 5 122922002.430 5     -3298.422          31.000    23391282.461 5  95783390.453 5     -2570.199          33.000
G07  20796722.570 8 109287495.688 8      -314.336          51.000    20796720.266 8  85159078.649 8      -244.934          51.000
G09  21894372.844 5 115055706.872 5     -2239.324          33.000    21894373.023 5  89653840.033 5     -1744.928          34.000
G30  21003456.742 8 110373963.832 8      1885.504          51.000    21003457.383 8  86005676.428 8      1469.224          51.000
R05  19533454.914 8 104417485.009 8      -251.730          51.000    19533456.516 8  81213608.861 8      -195.790          50.000
R15  19612022.562 8 104800692.226 8       759.668          51.000    19612026.055 8  81511682.795 8       590.853          49.000
R16  21881833.828 5 116888847.778 5      4252.484          35.000    21881837.344 5  90913559.541 5      3307.488          31.000
C05  39781640.656 5 207153442.327 5       -10.633          35.000    39781639.336 6 160184167.003 6        -7.959          41.000
C19  22397687.047 8 116630616.385 8     -1655.715          51.000
C22  22172359.977 4 115457330.640 4      1170.551          29.000
E02  25382539.406 8 133386134.927 8      2653.414          51.000    25382533.648 7 102204988.797 7      2033.019          46.000
E03  24229385.328 7 127326266.846 7     -1217.039          47.000    24229392.414 6  97561733.404 6      -932.459          36.000
E08  21949710.328 5 115346503.779 5      1034.738          34.000    21949698.812 5  88382344.939 5       792.905          34.000
E13  26114699.102 6 137233689.118 6     -1910.195          36.000    26114704.859 5 105153092.874 5     -1463.905          32.000
E25  25017836.625 6 131469599.431 6       150.551          36.000    25017828.945 7 100736413.953 7       115.342          43.000
> 2020 05 05 02 12 30.0000000  0 15        .000000000000
G02  22808232.875 7 119858075.163 7     -1549.512          46.000    22808230.281 7  93395882.874 7     -1207.412          42.000
G07  20798556.984 8 109297137.569 8      -331.621          50.000    20798554.984 8  85166591.780 8      -258.409          50.000
G09  21907167.641 6 115122947.622 6     -2246.453          36.000    21907169.289 6  89706235.422 6     -1750.483          36.000
G30  20992731.055 8 110317601.168 8      1868.785          51.000    20992731.742 8  85961757.466 8      1456.196          51.000
R05  19534903.086 8 104425226.200 8      -267.582          51.000    19534904.805 8  81219629.796 8      -208.119          50.000
R15  19607830.734 8 104778291.113 8       730.539          51.000    19607833.445 7  81494259.736 7       568.197          47.000
R16  21857974.914 6 116761405.420 6      4240.422          39.000    21857979.820 5  90814437.632 5      3298.106          33.000
C05  39781696.352 5 207153732.225 5       -11.762          35.000    39781695.070 6 160184391.188 6        -9.258          41.000
C19  22407249.672 8 116680409.828 8     -1667.051          51.000
C22  22165635.773 5 115422317.569 5      1160.246          33.000
E02  25367411.133 8 133306633.022 8      2643.621          51.000    25367406.852 8 102144071.804 8      2025.623          48.000
E03  24236345.039 8 127362836.433 8     -1224.043          48.000    24236349.477 6  97589754.320 6      -937.828          41.000
E08                                                                  21943801.656 6  88358593.919 6       787.994          36.000
E13  26125629.172 6 137291135.962 6     -1922.789          37.000    26125638.602 5 105197110.612 5     -1473.252          34.000
E25                                                                  25017007.664 7 100733110.206 7       102.379          42.000
> 2020 05 05 02 13  0.0000000  0 16        .000000000000
G02  22817114.031 7 119904742.195 7     -1561.926          46.000    22817111.812 7  93432246.827 7     -1217.082          42.000
G07  20800487.484 8 109307284.727 8      -345.219          50.000    20800486.086 8  85174498.654 8      -269.002          50.000
G09  21920007.500 5 115190424.066 5     -2251.441          35.000    21920010.102 5  89758814.485 5     -1754.373          34.000
G30  20982098.250 8 110261725.602 8      1855.746          51.000    20982098.797 8  85918218.073 8      1446.036          51.000
R04  22263148.188 5 119218180.167 5     -2914.711          30.000
R05  19536437.688 8 104433430.911 8      -279.805          51.000    19536439.625 8  81226011.229 8      -217.626          50.000
R15  19603799.984 8 104756751.237 8       705.035          51.000    19603802.039 7  81477506.546 7       548.361          47.000
R16  21834184.133 7 116634315.993 7      4231.852          42.000    21834188.844 5  90715590.280 5      3291.440          33.000
C05  39781759.352 5 207154060.191 5       -10.543          35.000    39781758.031 6 160184644.779 6        -7.908          41.000
C19  22416875.391 8 116730532.744 8     -1674.848          51.000
C22  22158973.383 5 115387626.581 5      1152.555          32.000
E02  25352336.242 8 133227410.471 8      2637.488          51.000    25352333.117 8 102083368.840 8      2020.939          50.000
E03  24243341.961 8 127399603.720 8     -1227.441          48.000    24243345.383 7  97617926.685 7      -940.567          44.000
E08                                                                  21937940.820 6  88334985.627 6       785.572          37.000
E13  26136628.797 6 137348941.781 6     -1931.301          38.000    26136639.906 5 105241403.370 5     -1479.789          32.000
E25  25016288.258 6 131461507.320 6       120.293          38.000    25016280.836 6 100730183.667 6        92.457          41.000
> 2020 05 05 02 13 30.0000000  0 16        .000000000000
G02  22826071.398 7 119951811.091 7     -1576.293          45.000    22826069.477 7  93468923.913 7     -1228.277          43.000
G07  20802500.766 8 109317865.851 8      -360.500          50.000    20802499.906 8  85182743.676 8      -280.909          51.000
G09  21932879.281 6 115258065.127 6     -2257.789          41.000    21932881.609 6  89811521.810 6     -1759.313          41.000
G30  20971544.922 8 110206267.730 8      1841.008          51.000    20971545.508 8  85875004.156 8      1434.552          51.000
R04  22279501.836 4 119305717.620 4     -2922.934          29.000
R05  19538046.000 8 104442028.576 8      -293.852          51.000    19538047.992 8  81232698.298 8      -228.554          50.000
R15  19599917.172 8 104736001.297 8       677.883          51.000    19599918.648 7  81461367.762 7       527.242          47.000
R16  21810446.922 7 116507511.681 7      4221.324          44.000    21810450.688 5  90616964.734 5      3283.252          30.000
C05  39781816.383 5 207154356.410 5       -10.156          35.000    39781814.906 6 160184873.832 6        -7.681          41.000
C19  22426550.727 8 116780915.164 8     -1684.328          51.000
C22  22152358.773 5 115353189.012 5      1143.012          33.000
E02  25337301.133 8 133148398.688 8      2629.633          50.000    25337299.242 8 102022827.355 8      2014.898          51.000
E03  24250362.961 8 127436498.354 8     -1232.543          49.000    24250365.219 7  97646196.607 7      -944.446          45.000
E08                                                                  21932100.727 6  88311466.338 6       782.208          36.000
E13  26147684.609 6 137407034.494 6     -1941.906          36.000    26147694.859 5 105285931.837 5     -1487.598          31.000
E25                                                                  25015634.430 6 100727580.399 6        80.907          40.000
> 2020 05 05 02 14  0.0000000  0 16        .000000000000
G02  22835107.500 7 119999295.515 7     -1590.688          44.000    22835105.578 7  93505924.747 7     -1239.497          43.000
G06  23466889.250 5 123319334.889 5     -3323.871          34.000
G07  20804599.422 8 109328895.329 8      -376.031          50.000    20804598.758 8  85191338.050 8      -293.011          50.000
G09  21945785.289 6 115325885.525 6     -2264.711          36.000    21945787.719 6  89864368.927 6     -1764.710          36.000
G30  20961074.109 8 110151244.067 8      1825.980          51.000    20961074.914 8  85832128.579 8      1422.845          51.000
R05  19539731.133 8 104451035.833 8      -308.012          51.000    19539733.172 8  81239703.936 8      -239.565          50.000
R14  21785626.094 5 116129606.795 5     -3199.480          34.000    21785625.703 4  90323055.960 4     -2488.485          25.000
R15  19596185.352 8 104716057.908 8       650.398          51.000    19596186.086 8  81445856.248 8       505.865          48.000
R16  21786766.945 7 116381011.925 7      4210.602          43.000    21786767.570 4  90518557.645 4      3274.915          25.000
C05  39781870.164 5 207154637.165 5        -9.598          35.000    39781868.641 6 160185090.196 6        -7.829          40.000
C19  22436278.156 8 116831572.280 8     -1694.016          49.000
C22  22145796.180 4 115318972.040 4      1133.875          28.000
E02  25322308.320 8 133069615.001 8      2621.395          48.000    25322308.875 8 101962460.617 8      2008.577          51.000
E03  24257411.016 8 127473535.877 8     -1237.855          49.000    24257411.836 7  97674576.035 7      -948.508          46.000
E08                                                                  21926284.102 6  88288048.302 6       778.104          36.000
E25  25015074.586 6 131455107.780 6        90.273          37.000    25015071.844 6 100725312.289 6        69.177          39.000
> 2020 05 05 02 14 30.0000000  0 17        .000000000000
G02  22844226.305 7 120047216.907 7     -1604.668          42.000    22844224.375 7  93543266.081 7     -1250.394          42.000
G06  23485878.820 6 123419130.445 6     -3329.914          37.000    23485883.836 6  96170777.657 6     -2594.738          36.000
G07  20806787.898 8 109340395.594 8      -391.242          51.000    20806787.078 8  85200299.292 8      -304.864          51.000
G09  21958730.094 6 115393908.225 6     -2271.141          39.000    21958731.984 6  89917373.533 6     -1769.717          39.000
G30  20950690.555 8 110096678.974 8      1811.070          51.000    20950691.734 8  85789610.322 8      1411.224          51.000
R05  19541497.461 8 104460477.332 8      -322.004          51.000    19541499.641 8  81247047.316 8      -250.447          50.000
R14  21803675.969 5 116225843.512 5     -3216.816          34.000    21803683.609 4  90397906.698 4     -2501.971          28.000
R15  19592608.641 8 104696945.329 8       623.160          51.000    19592610.000 8  81430990.947 8       484.683          49.000
R16  21763148.898 6 116254844.544 6      4200.121          41.000    21763146.047 4  90420416.073 4      3266.764          27.000
C05  39781925.188 5 207154923.775 5        -9.445          35.000    39781923.688 6 160185311.812 6        -7.545          40.000
C19  22446062.609 8 116882527.110 8     -1703.516          50.000
C22  22139292.086 5 115285098.488 5      1124.168          32.000
E02  25307362.367 8 132991084.695 8      2613.398          49.000    25307365.969 8 101902287.954 8      2002.507          51.000
E03  24264490.586 8 127510739.786 8     -1242.926          48.000    24264491.109 8  97703082.940 8      -952.315          48.000
E08                                                                  21920498.320 6  88264749.762 6       774.561          37.000
E13  26169974.234 5 137524147.242 5     -1962.668          34.000    26169973.867 5 105375637.393 5     -1503.566          30.000
E25  25014598.375 6 131452608.646 6        75.711          37.000    25014596.289 6 100723397.278 6        57.955          37.000
> 2020 05 05 02 15  0.0000000  0 17        .000000000000
G02  22853431.742 7 120095595.510 7     -1618.641          42.000    22853430.273 7  93580963.678 7     -1261.275          42.000
G06  23504908.219 5 123519137.598 5     -3335.172          31.000    23504915.344 5  96248705.283 5     -2598.835          30.000
G07  20809070.203 8 109352388.245 8      -406.324          50.000    20809069.180 8  85209644.212 8      -316.616          50.000
G09  21971717.477 6 115462154.301 6     -2277.094          37.000    21971718.148 6  89970552.317 6     -1774.356          37.000
G30  20940398.945 8 110042595.575 8      1796.344          51.000    20940400.141 8  85747467.408 8      1399.745          51.000
R04  22328840.227 5 119569897.483 5     -2946.887          34.000
R05  19543349.391 8 104470376.667 8      -335.961          51.000    19543351.633 8  81254746.797 8      -261.303          50.000
R15  19589191.320 8 104678686.478 8       596.137          50.000    19589193.383 8  81416789.634 8       463.662          50.000
R16  21739597.359 6 116129036.071 6      4189.648          38.000    21739594.852 5  90322565.107 5      3258.615          30.000
C05                                                                  39781984.211 6 160185555.662 6        -7.252          40.000
C19  22455909.164 8 116933801.449 8     -1712.840          50.000
C22  22132849.172 6 115251542.985 6      1114.691          37.000
E02  25292470.281 8 132912831.592 8      2605.523          51.000    25292475.227 8 101842327.736 8      1996.461          51.000
E03  24271606.203 8 127548132.335 8     -1247.863          48.000    24271606.977 8  97731734.378 8      -956.188          48.000
E08                                                                  21914747.258 6  88241588.008 6       771.223          37.000
E13  26181209.312 6 137583204.957 6     -1972.301          37.000    26181211.930 5 105420889.425 5     -1511.297          35.000
E25  25014209.070 5 131450571.266 5        60.930          35.000    25014212.117 5 100721852.302 5        46.468          34.000
> 2020 05 05 02 15 30.0000000  0 18        .000000000000
G02  22862715.719 7 120144385.864 7     -1633.559          42.000    22862714.453 7  93618982.136 7     -1272.903          42.000
G06  23523969.117 5 123619309.523 5     -3341.801          30.000    23523976.461 5  96326761.298 5     -2604.007          30.000
G07  20811437.672 8 109364828.918 8      -422.488          51.000    20811436.406 8  85219338.237 8      -329.212          51.000
G09  21984738.156 5 115530579.959 5     -2283.812          33.000    21984739.625 5  90023871.009 5     -1779.594          33.000
G30  20930191.211 8 109988951.555 8      1780.414          51.000    20930192.078 8  85705666.861 8      1387.336          51.000
R04  22345370.078 5 119658450.208 5     -2956.051          32.000
R05  19545278.875 8 104480690.726 8      -351.156          51.000    19545281.156 8  81262768.845 8      -273.122          50.000
R14  21840068.734 4 116419855.357 4     -3250.246          29.000
R15  19585925.867 8 104661237.901 8       567.691          49.000    19585928.258 8  81403218.481 8       441.535          50.000
R16  21716102.766 6 116003546.457 6      4177.305          36.000    21716101.977 5  90224961.977 5      3249.009          30.000
C05  39782043.422 5 207155539.300 5       -10.375          35.000    39782042.000 6 160185788.527 6        -7.760          41.000
C19  22465809.289 8 116985352.272 8     -1723.402          51.000
C22  22126458.781 6 115218263.374 6      1104.137          36.000
E02  25277624.195 8 132834814.238 8      2596.188          51.000    25277628.836 8 101782548.180 8      1989.242          51.000
E03  24278749.609 8 127585670.249 8     -1254.102          48.000    24278750.391 8  97760497.209 8      -960.920          49.000
E08                                                                  21909021.938 6  88218530.196 6       766.784          36.000
E13  26192501.016 6 137642560.016 6     -1983.840          40.000    26192506.641 6 105466369.218 6     -1520.310          36.000
E25  25013907.250 6 131448994.570 6        44.816          36.000    25013911.430 5 100720644.133 5        34.732          31.000
> 2020 05 05 02 16  0.0000000  0 15        .000000000000
G02  22872088.633 7 120193642.274 7     -1648.984          44.000    22872086.758 7  93657363.745 7     -1284.923          42.000
G07  20813901.016 8 109377772.922 8      -439.273          51.000    20813899.320 8  85229424.458 8      -342.294          51.000
G30  20920077.797 8 109935804.040 8      1763.852          51.000    20920078.367 8  85664253.215 8      1374.430          51.000
R04  22361954.250 5 119747278.634 5     -2965.746          30.000
R05  19547296.625 8 104491477.968 8      -366.914          51.000    19547299.180 8  81271158.920 8      -285.378          50.000
R15  19582822.375 8 104644657.096 8       538.816          49.000    19582825.641 8  81390322.277 8       419.076          51.000
R16  21692680.781 6 115878436.813 6      4164.434          40.000    21692679.227 5  90127654.484 5      3239.010          31.000
C05  39782109.359 5 207155882.115 5       -11.957          35.000    39782107.898 6 160186053.602 6        -9.089          41.000
C19  22475773.250 8 117037235.151 8     -1734.473          51.000
C22  22120132.164 6 115185316.600 6      1093.000          37.000
E02  25262834.234 8 132757090.731 8      2586.438          51.000    25262837.977 8 101722993.780 8      1981.819          51.000
E03  24285931.234 7 127623409.858 7     -1260.727          47.000    24285932.273 8  97789414.588 8      -966.035          49.000
E08                                                                  21903332.492 5  88195619.750 5       761.496          34.000
E13  26203861.617 6 137702266.759 6     -1995.574          40.000    26203869.570 6 105512118.539 6     -1529.013          36.000
E25  25013701.234 6 131447913.647 6        28.496          36.000
> 2020 05 05 02 16 30.0000000  0 15        .000000000000
G02  22881532.492 7 120243269.610 7     -1658.883          44.000    22881529.578 7  93696034.379 7     -1292.639          43.000
G07  20816442.141 8 109391126.206 8      -450.578          51.000    20816440.508 8  85239829.650 8      -351.094          51.000
G30  20910041.227 8 109883061.015 8      1752.727          51.000    20910041.656 8  85623154.746 8      1365.761          51.000
R04  22378588.086 5 119836316.980 5     -2969.895          31.000    22378583.008 4  93206016.429 4     -2309.921          25.000
R05  19549385.641 8 104502644.374 8      -377.164          51.000    19549387.977 8  81279843.898 8      -293.350          49.000
R15  19579864.000 8 104628849.820 8       515.445          50.000    19579867.727 8  81378027.710 8       400.902          50.000
R16  21669314.016 6 115753616.252 6      4157.234          41.000    21669313.328 5  90030571.904 5      3233.408          34.000
C05  39782165.305 5 207156174.233 5        -7.129          35.000    39782164.008 6 160186279.506 6        -5.694          40.000
C19  22485783.117 8 117089357.682 8     -1740.035          51.000
C22  22113852.000 6 115152611.724 6      1087.484          37.000
E02  25248082.727 8 132679569.895 8      2581.988          51.000    25248085.773 8 101663594.686 8      1978.437          51.000
E03  24293133.383 7 127661258.297 7     -1262.078          46.000    24293135.008 8  97818415.339 8      -967.032          50.000
E08                                                                  21897661.898 5  88172785.706 5       761.098          33.000
E13  26215272.406 6 137762230.445 6     -2001.840          39.000    26215280.539 5 105558064.684 5     -1533.755          33.000
E25  25013573.188 5 131447213.552 5        17.219          35.000
> 2020 05 05 02 17  0.0000000  0 14        .000000000000
G02  22891052.602 7 120293296.808 7     -1671.934          46.000    22891049.781 7  93735016.588 7     -1302.805          43.000
G07  20819066.820 8 109404918.544 8      -464.773          51.000    20819065.266 8  85250576.929 8      -362.161          51.000
G30  20900087.633 8 109830754.406 8      1738.539          51.000    20900088.078 8  85582396.325 8      1354.706          51.000
R04  22395263.008 5 119925561.754 5     -2977.090          32.000
R05  19551551.523 8 104514222.577 8      -390.445          50.000    19551553.703 8  81288849.172 8      -303.680          49.000
R15  19577056.695 8 104613847.984 8       488.941          51.000    19577060.469 8  81366359.597 8       380.288          50.000
R16  21646008.227 6 115629120.547 6      4146.773          41.000    21646009.828 6  89933741.950 6      3225.268          36.000
C05  39782217.664 5 207156446.551 5        -6.762          35.000    39782216.297 6 160186490.075 6        -4.957          40.000
C19  22495844.664 8 117141750.410 8     -1748.648          51.000
C22  22107624.242 6 115120180.647 6      1078.723          37.000
E02  25233375.820 8 132602284.532 8      2574.535          51.000    25233378.484 8 101604376.045 8      1972.738          51.000
E03  24300362.414 7 127699246.653 7     -1266.340          46.000    24300364.125 8  97847523.289 8      -970.226          50.000
E08                                                                  21892015.648 5  88150075.205 5       757.605          32.000
E13  26226738.281 6 137822480.160 6     -2010.922          36.000
> 2020 05 05 02 17 30.0000000  0 15        .000000000000
G02  22900649.758 7 120343728.909 7     -1688.723          47.000    22900647.633 7  93774314.325 7     -1315.888          43.000
G06  23600541.078 5 124021663.739 5     -3364.098          35.000    23600540.594 5  96640263.199 5     -2621.375          34.000
G07  20821776.352 8 109419156.686 8      -482.859          51.000    20821774.484 8  85261671.585 8      -376.254          51.000
G30  20890218.383 8 109778892.186 8      1720.531          51.000    20890219.023 8  85541984.196 8      1340.674          51.000
R04  22411968.977 5 120015053.245 5     -2987.926          30.000
R05  19553796.156 8 104526220.920 8      -407.754          51.000    19553798.320 8  81298181.214 8      -317.142          49.000
R14  21913949.914 4 116813682.979 4     -3315.004          28.000
R15  19574401.617 8 104599659.047 8       458.578          51.000    19574405.273 8  81355323.765 8       356.672          49.000
R16  21622765.352 7 115504960.509 7      4132.129          42.000    21622768.312 6  89837173.029 6      3213.878          39.000
C05  39782267.445 5 207156706.090 5       -10.078          35.000    39782266.125 6 160186690.738 6        -7.086          41.000
C19  22505959.375 8 117194420.191 8     -1761.109          51.000
C22  22101448.805 5 115088031.848 5      1066.105          33.000
E02  25218715.641 8 132525243.580 8      2563.145          51.000    25218717.336 8 101545344.696 8      1963.941          51.000
E03  24307619.484 7 127737382.058 7     -1274.285          45.000    24307621.344 8  97876743.965 8      -976.487          49.000
E08                                                                  21886396.469 5  88127447.980 5       751.858          33.000
> 2020 05 05 02 18  0.0000000  0 15        .000000000000
G02  22910325.156 7 120394572.635 7     -1702.848          46.000    22910323.867 7  93813932.818 7     -1326.894          43.000
G06  23619758.492 5 124122638.142 5     -3369.406          34.000    23619754.625 5  96718944.538 5     -2625.511          34.000
G07  20824572.086 8 109433848.079 8      -498.582          51.000    20824570.266 8  85273119.426 8      -388.505          51.000
G09  22050377.430 5 115875501.081 5     -2316.160          35.000    22050380.016 5  90292611.965 5     -1804.800          33.000
G30  20880435.453 8 109727484.086 8      1704.691          51.000    20880436.148 8  85501925.936 8      1328.331          51.000
R04  22428726.539 5 120104785.242 5     -2996.445          33.000
R05  19556121.078 8 104538649.142 8      -422.812          50.000    19556123.320 8  81307847.601 8      -328.854          49.000
R15  19571900.594 8 104586292.136 8       430.438          51.000    19571903.875 8  81344927.316 8       334.785          49.000
R16  21599587.586 7 115381149.222 7      4119.793          42.000    21599591.359 6  89740875.330 6      3204.280          40.000
C05  39782316.500 5 207156961.462 5        -9.266          35.000    39782315.203 6 160186888.245 6        -7.506          41.000
C19  22516128.906 8 117247375.594 8     -1771.234          51.000
C22  22095328.703 4 115056175.032 4      1054.852          27.000
E02  25204104.414 8 132448457.656 8      2553.926          51.000    25204104.641 8 101486508.759 8      1956.907          51.000
E03  24314905.836 7 127775673.490 7     -1280.684          42.000    24314908.375 8  97906084.169 8      -981.105          48.000
E08                                                                  21880806.688 5  88104937.137 5       747.700          34.000
> 2020 05 05 02 18 30.0000000  0 15        .000000000000
G02  22920087.953 7 120445875.388 7     -1713.711          46.000    22920086.547 7  93853908.993 7     -1335.359          44.000
G05  21470937.797 5 112830556.581 5      2240.477          33.000
G06  23639013.570 5 124223818.182 5     -3372.473          30.000    23639007.805 5  96797786.060 5     -2627.904          31.000
G07  20827463.312 8 109449041.077 8      -510.668          51.000    20827461.609 8  85284958.135 8      -397.923          51.000
G09  22063619.031 5 115945075.095 5     -2318.738          35.000    22063618.688 5  90346825.548 5     -1806.812          35.000
G30  20870748.562 8 109676580.212 8      1692.492          51.000    20870749.258 8  85462260.588 8      1318.825          51.000
R05  19558536.109 8 104551558.093 8      -434.203          51.000    19558538.078 8  81317887.894 8      -337.714          49.000
R15  19569562.703 8 104573797.764 8       406.059          51.000    19569565.297 7  81335209.505 7       315.826          47.000
R16  21576485.062 7 115257740.265 7      4111.047          43.000    21576489.539 7  89644890.559 7      3197.478          42.000
C05  39782374.141 5 207157261.666 5        -6.961          35.000    39782372.844 6 160187120.348 6        -5.129          41.000
C19  22526362.562 8 117300665.197 8     -1777.867          51.000
C22  22089275.422 5 115024657.220 5      1048.609          35.000
E02  25189551.367 8 132371977.784 8      2548.293          51.000    25189550.102 8 101427907.326 8      1952.606          51.000
E03  24322229.828 6 127814170.250 6     -1282.566          39.000    24322233.633 7  97935581.678 7      -982.815          46.000
E08                                                                  21875253.141 5  88082574.768 5       746.051          35.000
> 2020 05 05 02 19  0.0000000  0 17        .000000000000
G02  22929922.055 7 120497552.642 7     -1726.531          47.000    22929920.078 7  93894176.956 7     -1345.352          45.000
G07  20830434.242 8 109464652.530 8      -524.984          51.000    20830432.273 8  85297122.898 8      -409.079          51.000
G09  22076886.711 5 116014821.688 5     -2323.840          35.000    22076884.648 6  90401157.817 6     -1810.790          36.000
G30  20861142.258 8 109626099.426 8      1677.965          51.000    20861143.031 8  85422924.940 8      1307.505          51.000
R04  22462403.977 5 120285085.091 5     -3008.609          34.000
R05  19561025.484 8 104564865.527 8      -447.844          51.000    19561027.656 8  81328238.116 8      -348.326          49.000
R14  21970355.891 5 117114312.206 5     -3358.793          32.000
R15  19567372.477 8 104562092.469 8       379.484          51.000    19567374.664 8  81326105.420 8       295.155          49.000
R16  21553443.922 7 115134654.674 7      4099.863          45.000    21553448.062 7  89549157.295 7      3188.780          43.000
C05  39782424.711 5 207157524.233 5        -5.570          35.000    39782423.445 6 160187324.182 6        -4.495          41.000
C19  22536644.875 8 117354207.507 8     -1786.555          51.000
C22  22083274.562 6 114993404.377 6      1039.590          36.000
E02  25175040.875 8 132295723.771 8      2540.359          51.000    25175039.297 8 101369478.935 8      1946.566          51.000
E03  24329578.125 6 127852790.335 6     -1287.109          39.000    24329582.164 7  97965173.772 7      -986.047          45.000
E08                                                                  21869719.969 5  88060301.370 5       742.971          34.000
E13  26273187.508 5 138066530.748 5     -2050.176          34.000    26273184.508 5 105791224.872 5     -1570.432          32.000
E25  25014203.125 5 131450523.816 5       -56.320          33.000    25014203.625 6 100721838.529 6       -43.205          40.000
> 2020 05 05 02 19 30.0000000  0 16        .000000000000
G02  22939829.672 7 120549616.678 7     -1751.129          47.000    22939827.094 7  93934746.306 7     -1364.516          45.000
G06  23677584.820 5 124426556.791 5     -3392.395          35.000    23677583.164 5  96955749.317 5     -2643.430          34.000
G07  20833487.172 8 109480695.342 8      -551.066          51.000    20833485.203 8  85309623.803 8      -429.402          51.000
G09  22090187.391 6 116084714.037 6     -2341.801          37.000    22090183.805 6  90455619.394 6     -1824.783          36.000
G30  20851619.492 8 109576056.652 8      1651.594          51.000    20851620.148 8  85383930.593 8      1286.959          51.000
R05  19563592.250 8 104578586.522 8      -473.566          51.000    19563594.539 8  81338909.975 8      -368.329          49.000
R14  21989312.086 4 117215407.351 4     -3385.688          28.000
R15  19565332.492 8 104551190.798 8       340.676          51.000    19565334.906 8  81317626.375 8       264.970          49.000
R16  21530466.844 7 115011910.518 7      4076.395          46.000    21530470.383 7  89453689.600 7      3170.529          44.000
C05  39782471.070 5 207157766.254 5       -16.641          35.000    39782469.758 6 160187510.593 6       -13.100          40.000
C19  22546978.352 8 117408016.276 8     -1807.180          51.000
C22  22077327.047 5 114962428.677 5      1018.484          34.000
E02  25160575.234 8 132219711.487 8      2520.531          48.000    25160575.164 8 101311235.736 8      1931.277          51.000
E03  24336953.625 6 127891547.997 6     -1303.441          39.000    24336957.445 7  97994871.270 7      -998.744          43.000
E08                                                                  21864211.969 5  88038128.105 5       730.445          35.000
E25                                                                  25014583.320 6 100723364.235 6       -63.469          41.000
> 2020 05 05 02 20  0.0000000  0 16        .000000000000
G02  22949832.719 7 120602184.211 7     -1755.996          46.000    22949830.062 7  93975708.038 7     -1368.306          45.000
G06  23696932.859 5 124528236.421 5     -3388.180          35.000    23696930.367 5  97034980.129 5     -2640.149          34.000
G07  20836644.820 8 109497288.035 8      -557.633          51.000    20836642.938 8  85322553.173 8      -434.519          51.000
G09  22103541.742 5 116154875.868 5     -2339.719          33.000    22103540.805 5  90510306.640 5     -1823.157          33.000
G30  20842202.961 8 109526571.938 8      1644.750          51.000    20842203.594 8  85345371.084 8      1281.626          51.000
R05  19566259.391 8 104592843.387 8      -479.395          51.000    19566261.391 8  81349998.650 8      -372.862          49.000
R15  19563465.492 8 104541214.174 8       321.902          51.000    19563468.016 8  81309866.784 8       250.368          50.000
R16  21507576.797 7 114889632.790 7      4072.852          45.000    21507579.852 7  89358584.688 7      3167.773          42.000
C05  39782535.758 5 207158102.883 5        -8.520          35.000    39782534.344 6 160187770.850 6        -6.416          41.000
C19  22557385.477 8 117462209.412 8     -1808.230          51.000
C22  22071454.289 5 114931849.399 5      1017.355          30.000
E02  25146177.891 8 132144061.936 8      2520.266          48.000    25146180.258 8 101253270.443 8      1931.083          51.000
E03  24344378.273 6 127930562.560 6     -1300.070          41.000    24344382.297 7  98024765.601 7      -996.301          42.000
E08                                                                  21858753.141 6  88016146.650 6       733.136          36.000
E13  26296731.414 5 138190253.001 5     -2072.430          35.000    26296745.070 5 105886068.913 5     -1587.921          34.000
E25  25015067.336 6 131455054.581 6       -88.969          38.000    25015067.781 7 100725310.952 7       -68.315          43.000
> 2020 05 05 02 20 30.0000000  0 16        .000000000000
G02  22959899.844 7 120655091.641 7     -1769.551          45.000    22959898.086 7  94016934.593 7     -1378.871          45.000
G06  23716297.273 6 124629983.004 6     -3393.613          36.000    23716286.602 5  97114267.846 5     -2644.374          31.000
G07  20839875.828 8 109514267.634 8      -572.598          51.000    20839874.141 8  85335784.052 8      -446.180          51.000
G09  22116917.984 5 116225187.789 5     -2345.691          34.000    22116915.992 5  90565084.963 5     -1827.808          34.000
G30  20832861.953 8 109477484.477 8      1629.457          51.000    20832862.789 8  85307121.134 8      1269.707          51.000
R05  19568996.180 8 104607472.503 8      -494.090          51.000    19568997.953 8  81361376.841 8      -384.292          48.000
R15  19561740.930 8 104531997.927 8       294.352          51.000    19561743.609 8  81302698.601 8       228.940          50.000
R16  21484743.133 7 114767661.085 7      4060.461          44.000    21484745.672 6  89263717.801 6      3158.136          40.000
C05                                                                  39782586.617 6 160187981.167 6        -6.488          41.000
C19  22567835.984 8 117516626.500 8     -1817.844          51.000
C22  22065627.117 5 114901509.821 5      1007.871          34.000
E02  25131820.523 8 132068615.197 8      2511.270          50.000    25131823.945 8 101195460.580 8      1924.190          51.000
E03  24351821.406 7 127969672.505 7     -1305.430          42.000    24351825.602 6  98054732.961 6     -1000.318          39.000
E08                                                                  21853311.422 6  87994233.544 6       729.024          36.000
E13  26308597.758 6 138252595.994 6     -2082.098          38.000    26308591.375 5 105933801.200 5     -1595.436          31.000
E25  25015626.383 6 131457982.970 6      -104.223          40.000    25015624.977 7 100727554.704 7       -79.919          43.000
> 2020 05 05 02 21  0.0000000  0 16        .000000000000
G02  22970041.617 7 120708389.058 7     -1783.629          46.000    22970040.391 7  94058465.056 7     -1389.841          45.000
G06  23735686.641 5 124731875.332 5     -3398.703          34.000    23735681.656 5  97193645.122 5     -2648.343          33.000
G07  20843190.148 8 109531685.144 8      -588.168          51.000    20843188.555 8  85349356.130 8      -458.313          51.000
G09  22130329.211 5 116295661.219 5     -2351.965          34.000    22130326.977 6  90619998.550 6     -1832.700          36.000
G30  20823606.641 8 109428847.130 8      1613.395          51.000    20823607.664 8  85269221.915 8      1257.191          51.000
R05  19571812.578 8 104622528.020 8      -509.438          51.000    19571814.336 8  81373086.673 8      -396.229          48.000
R15  19560168.359 8 104523595.230 8       266.109          50.000    19560171.047 8  81296163.157 8       206.974          50.000
R16  21461977.195 7 114646052.171 7      4047.102          46.000    21461979.031 6  89169133.108 6      3147.746          39.000
C05  39782637.914 6 207158634.918 6        -8.668          36.000    39782636.383 6 160188181.481 6        -6.863          41.000
C19  22578339.266 8 117571318.949 8     -1828.113          51.000
C22  22059856.453 5 114871458.560 5       996.219          34.000
E02  25117512.602 8 131993425.087 8      2501.582          51.000    25117515.898 8 101137847.399 8      1916.788          51.000
E03  24359292.422 7 128008930.022 7     -1311.500          44.000    24359294.891 5  98084813.337 5     -1004.993          34.000
E08                                                                  21847895.430 5  87972429.001 5       724.567          34.000
E13  26320517.781 6 138315214.058 6     -2092.047          38.000    26320517.023 5 105981795.041 5     -1603.009          31.000
E25  25016265.594 5 131461350.785 5      -119.934          34.000    25016266.422 7 100730135.246 7       -91.948          44.000
> 2020 05 05 02 21 30.0000000  0 15        .000000000000
G02  22980267.477 8 120762125.393 8     -1797.645          49.000    22980265.922 7  94100337.509 7     -1400.762          44.000
G06  23755106.133 5 124833919.553 5     -3403.758          33.000    23755103.047 5  97273180.414 5     -2652.270          32.000
G07  20846597.297 8 109549590.635 8      -604.094          51.000    20846595.992 8  85363308.459 8      -470.722          51.000
G30  20814446.844 8 109380711.708 8      1596.996          51.000    20814447.891 8  85231713.812 8      1244.413          51.000
R05  19574718.664 8 104638062.339 8      -525.020          51.000    19574720.344 8  81385168.901 8      -408.349          48.000
R15  19558757.875 8 104516057.896 8       237.703          50.000    19558760.555 8  81290300.782 8       184.880          49.000
R16  21439290.180 7 114524861.879 7      4033.473          47.000    21439291.508 6  89074874.053 6      3137.148          39.000
C05  39782694.930 6 207158931.534 6        -9.984          36.000    39782693.352 6 160188410.859 6        -7.727          41.000
C19  22588904.938 8 117626337.058 8     -1838.527          51.000
C22  22054151.969 6 114841749.358 6       985.625          38.000
E02  25103263.789 8 131918544.431 8      2491.602          51.000    25103266.578 8 101080471.340 8      1909.152          51.000
E03  24366801.180 7 128048386.149 7     -1317.715          45.000    24366798.914 4  98115001.934 4     -1009.211          29.000
E08                                                                  21842513.992 5  87950772.462 5       719.802          33.000
E13  26332499.750 5 138378217.268 5     -2102.605          35.000
E25  25016999.750 6 131465208.931 6      -135.926          41.000    25017000.844 7 100733091.581 7      -104.199          45.000
> 2020 05 05 02 22  0.0000000  0 16        .000000000000
G02  22990552.094 8 120816168.963 8     -1810.188          48.000    22990549.797 7  94142449.337 7     -1410.539          43.000
G06  23774536.180 5 124936030.509 5     -3408.660          32.000
G07  20850072.609 8 109567854.370 8      -618.262          51.000    20850071.656 8  85377539.946 8      -481.759          51.000
G30  20805358.016 8 109332950.456 8      1582.164          51.000    20805358.812 8  85194497.268 8      1232.855          51.000
R05  19577690.078 8 104653945.872 8      -538.930          51.000    19577691.766 8  81397522.741 8      -419.168          48.000
R14  22085451.531 5 117727793.733 5     -3453.762          32.000    22085447.438 4  91566066.663 4     -2686.259          29.000
R15  19557484.539 8 104509254.882 8       211.000          49.000    19557487.211 8  81285009.539 8       164.111          49.000
R16  21416657.680 7 114403963.427 7      4021.352          47.000    21416659.312 6  88980841.943 6      3127.718          41.000
C05  39782734.648 6 207159138.365 6        -8.898          36.000    39782733.109 6 160188570.794 6        -6.984          41.000
C19  22599508.617 8 117681553.221 8     -1847.387          51.000
C22  22048488.812 6 114812256.095 6       976.172          38.000
E02  25089049.797 8 131843846.476 8      2483.285          51.000    25089051.789 8 101023235.265 8      1902.762          51.000
E03  24374323.211 7 128087912.471 7     -1322.238          47.000
E08                                                                  21837145.633 5  87929165.786 5       716.740          34.000
E13                                                                  26344507.062 6 106078402.395 6     -1617.956          37.000
E25  25017803.250 7 131469428.883 7      -150.406          43.000    25017803.133 7 100736324.983 7      -115.183          44.000
> 2020 05 05 02 22 30.0000000  0 16        .000000000000
G02  23000923.867 7 120870671.045 7     -1823.078          47.000    23000920.805 7  94184918.492 7     -1420.580          45.000
G06  23794008.156 5 125038358.261 5     -3412.520          32.000    23794005.078 5  97432477.433 5     -2659.097          33.000
G07  20853645.117 8 109586628.272 8      -633.016          51.000    20853644.164 8  85392168.955 8      -493.259          51.000
G30  20796369.336 8 109285716.812 8      1566.945          51.000    20796370.117 8  85157691.843 8      1220.999          51.000
R05  19580755.906 8 104670334.702 8      -553.438          51.000    19580757.570 8  81410269.579 8      -430.451          49.000
R14  22104933.258 5 117831634.755 5     -3468.301          33.000    22104924.875 4  91646831.923 4     -2697.564          24.000
R15  19556377.750 8 104503341.591 8       183.523          48.000    19556380.633 8  81280410.303 8       142.740          48.000
R16  21394109.562 7 114283515.891 7      4008.797          47.000    21394111.867 7  88887160.535 7      3117.953          43.000
C05  39782786.125 5 207159406.755 5        -8.766          35.000    39782784.680 6 160188778.320 6        -6.724          41.000
C19  22610179.258 8 117737118.502 8     -1856.766          50.000
C22  22042896.289 6 114783131.261 6       966.121          39.000
E02  25074900.055 8 131769485.692 8      2474.297          51.000    25074901.539 8 100966257.530 8      1895.875          51.000
E03  24381887.938 8 128127661.749 8     -1327.469          48.000    24381891.188 5  98175774.512 5     -1017.529          31.000
E08                                                                  21831821.148 5  87907726.430 5       712.798          35.000
E13                                                                  26356591.531 6 106127050.120 6     -1624.987          38.000
E25  25018703.305 6 131474162.844 6      -165.098          37.000    25018703.180 7 100739952.309 7      -126.602          42.000
> 2020 05 05 02 23  0.0000000  0 17        .000000000000
G02  23011370.898 8 120925571.327 8     -1836.270          48.000    23011367.922 7  94227697.919 7     -1430.862          45.000
G06  23813504.539 5 125140815.402 5     -3416.598          33.000    23813503.648 5  97512314.053 5     -2662.284          34.000
G07  20857303.523 8 109605853.175 8      -647.914          51.000    20857302.477 8  85407149.391 8      -504.868          51.000
G30  20787470.133 8 109238953.678 8      1551.324          51.000    20787471.125 8  85121253.059 8      1208.824          51.000
R04  22598804.805 5 121015597.333 5     -3075.473          34.000
R05  19583905.312 8 104687170.689 8      -568.238          51.000    19583907.328 8  81423364.219 8      -441.963          49.000
R14  22124497.484 4 117935922.819 4     -3482.875          29.000
R15  19555425.977 8 104498258.846 8       156.051          48.000    19555429.141 7  81276457.070 7       121.376          47.000
R16  21371635.469 7 114163464.033 7      3995.453          46.000    21371638.258 7  88793786.874 7      3107.575          44.000
C05  39782838.492 5 207159679.295 5        -8.371          35.000    39782837.008 6 160188989.077 6        -6.854          41.000
C19  22620905.188 8 117792975.268 8     -1866.320          49.000
C22  22037364.039 6 114754318.715 6       955.637          40.000
E02  25060803.430 8 131695405.947 8      2465.012          51.000    25060804.461 8 100909495.135 8      1888.730          51.000
E03  24389483.531 8 128167576.253 8     -1332.816          48.000    24389485.523 5  98206354.251 5     -1021.342          34.000
E08  21826543.555 5 114699259.831 5       925.172          33.000    21826528.406 6  87886410.340 6       708.811          37.000
E13                                                                  26368729.969 6 106175918.287 6     -1632.249          39.000
E25  25019691.320 6 131479352.784 6      -180.379          40.000    25019690.219 7 100743929.042 7      -138.135          42.000
> 2020 05 05 02 23 30.0000000  0 16        .000000000000
G02  23021899.914 8 120980901.228 8     -1848.551          49.000    23021897.031 7  94270812.114 7     -1440.429          45.000
G06  23833033.102 5 125243439.946 5     -3420.195          33.000    23833034.164 5  97592281.213 5     -2665.087          30.000
G07  20861053.906 8 109625561.259 8      -662.129          51.000    20861052.867 8  85422506.347 8      -515.945          51.000
G30  20778667.523 8 109192695.410 8      1536.363          51.000    20778668.586 8  85085207.651 8      1197.166          51.000
R04  22616069.648 5 121108030.355 5     -3082.750          32.000
R05  19587145.000 8 104704488.855 8      -582.426          51.000    19587147.242 8  81436833.890 8      -453.001          49.000
R15  19554636.047 8 104494040.660 8       129.051          49.000    19554639.188 7  81273176.247 7       100.373          46.000
R16  21349241.945 7 114043846.081 7      3982.676          45.000    21349245.773 7  88700750.669 7      3097.637          44.000
C05  39782898.000 5 207159989.399 5        -8.367          35.000    39782896.477 6 160189228.846 6        -6.102          41.000
C19  22631693.875 8 117849156.542 8     -1875.211          50.000
C22  22031897.820 6 114725852.992 6       946.047          39.000
E02  25046766.500 8 131621642.579 8      2456.352          51.000    25046767.516 8 100852975.135 8      1882.160          51.000
E03  24397116.617 8 128207689.668 8     -1337.500          48.000    24397116.156 5  98237090.451 5     -1025.008          34.000
E08                                                                  21821273.328 6  87865243.624 6       705.498          38.000
E13                                                                  26380926.805 5 106225031.206 5     -1638.986          35.000
E25  25020771.578 6 131485032.131 6      -194.551          40.000    25020772.141 6 100748280.757 6      -149.035          41.000
> 2020 05 05 02 24  0.0000000  0 17        .000000000000
G02  23032494.078 8 121036572.946 8     -1861.449          51.000    23032490.922 7  94314192.623 7     -1450.480          44.000
G06  23852576.570 5 125346136.340 5     -3425.836          32.000    23852580.016 4  97672309.711 4     -2669.498          24.000
G07  20864879.891 8 109645666.032 8      -676.793          51.000    20864878.469 8  85438172.398 8      -527.371          51.000
G09  22211540.148 5 116722451.770 5     -2388.820          35.000    22211543.344 6  90952547.397 6     -1861.409          36.000
G30  20769945.133 8 109146856.941 8      1520.941          51.000    20769945.984 8  85049489.360 8      1185.149          51.000
R04  22633361.555 5 121200646.303 5     -3090.172          30.000
R05  19590458.500 8 104722203.025 8      -597.141          51.000    19590461.047 8  81450611.567 8      -464.440          49.000
R15  19553991.633 8 104490599.335 8       101.617          49.000    19553995.172 7  81270499.691 7        79.036          46.000
R16  21326913.961 7 113924578.887 7      3969.723          45.000    21326918.633 7  88607987.269 7      3087.562          44.000
C05  39782948.422 5 207160252.073 5        -8.535          35.000    39782946.938 6 160189431.954 6        -6.286          41.000
C19  22642529.055 8 117905577.154 8     -1884.711          51.000
C22  22026481.688 7 114697650.339 7       935.719          42.000
E02  25032773.617 8 131548111.575 8      2447.066          51.000    25032775.039 8 100796633.189 8      1875.070          51.000
E03  24404771.492 8 128247916.349 8     -1342.855          49.000    24404766.727 5  98267913.477 5     -1028.579          33.000
E08                                                                  21816039.141 6  87844161.060 6       701.310          38.000
E13                                                                  26393165.578 6 106274321.709 6     -1645.894          37.000
E25  25021928.711 6 131491114.870 6      -209.734          40.000    25021929.648 6 100752941.567 6      -160.496          38.000
> 2020 05 05 02 24 30.0000000  0 17        .000000000000
G02  23043160.422 8 121092623.654 8     -1874.672          51.000    23043156.469 7  94357868.498 7     -1460.783          43.000
G06  23872142.367 5 125448953.711 5     -3429.211          33.000    23872147.250 5  97752446.927 5     -2672.119          34.000
G07  20868788.531 8 109666205.533 8      -691.793          51.000    20868786.945 8  85454177.200 8      -539.059          51.000
G09  22225195.070 5 116794208.515 5     -2394.965          30.000    22225202.297 5  91008461.719 5     -1866.212          30.000
G30  20761310.172 8 109101478.535 8      1504.934          51.000    20761310.883 8  85014129.575 8      1172.676          51.000
R04  22650700.781 5 121293494.490 5     -3098.344          31.000
R05  19593853.680 8 104740354.503 8      -612.297          51.000    19593856.711 8  81464729.369 8      -476.231          49.000
R15  19553500.836 8 104487975.068 8        73.895          50.000    19553504.219 7  81268458.599 7        57.474          46.000
R16  21304660.516 7 113805706.148 7      3955.840          46.000    21304664.781 7  88515530.704 7      3076.764          43.000
C05  39782997.242 5 207160506.489 5        -8.523          35.000    39782995.789 6 160189628.693 6        -6.491          41.000
C19  22653417.766 8 117962276.070 8     -1894.547          51.000
C22  22021124.336 7 114669751.134 7       924.938          43.000
E02  25018832.750 8 131474854.210 8      2437.383          51.000    25018834.656 8 100740500.941 8      1867.647          51.000
E03  24412455.352 7 128288295.964 7     -1348.449          47.000    24412448.398 5  98298853.737 5     -1033.557          33.000
E08                                                                  21810833.086 6  87823193.267 6       697.099          38.000
E13                                                                  26405454.492 6 106323818.593 6     -1653.176          36.000
E25  25023170.406 6 131497640.274 6      -224.934          39.000    25023169.328 5 100757941.543 5      -172.343          34.000
> 2020 05 05 02 25  0.0000000  0 17        .000000000000
G02  23053900.125 8 121149061.068 8     -1886.754          50.000    23053896.023 7  94401845.697 7     -1470.198          44.000
G06  23891731.945 5 125551894.018 5     -3432.586          33.000    23891736.977 5  97832660.121 5     -2674.742          34.000
G07  20872781.555 8 109687188.818 8      -705.891          51.000    20872780.055 8  85470527.828 8      -550.045          51.000
G09  22238885.227 5 116866148.475 5     -2400.289          35.000    22238891.430 5  91064518.767 5     -1870.355          34.000
G30  20752764.953 8 109056570.757 8      1489.938          51.000    20752765.500 8  84979136.489 8      1160.990          51.000
R04  22668089.516 5 121386579.080 5     -3106.156          32.000
R05  19597333.031 8 104758953.702 8      -626.566          51.000    19597336.164 8  81479195.411 8      -487.332          50.000
R15  19553164.703 8 104486177.384 8        46.977          51.000    19553168.125 7  81267060.416 7        36.537          47.000
R16  21282483.750 7 113687241.896 7      3942.891          45.000    21282486.750 7  88423391.864 7      3066.693          42.000
C05  39783046.469 5 207160762.497 5        -7.918          35.000    39783044.961 6 160189826.640 6        -5.881          41.000
C19  22664361.727 8 118019262.689 8     -1903.445          51.000
C22  22015827.055 7 114642166.276 7       915.023          43.000
E02  25004946.766 8 131401882.051 8      2428.590          51.000    25004948.734 8 100684587.237 8      1860.903          51.000
E03  24420169.922 7 128328838.473 7     -1353.270          46.000    24420162.594 5  98329875.752 5     -1036.780          32.000
E08                                                                  21805656.133 6  87802348.097 6       693.666          36.000
E13                                                                  26417797.625 6 106373527.915 6     -1659.833          38.000
E25  25024497.977 6 131504617.840 6      -239.273          37.000    25024497.320 5 100763280.058 5      -183.408          30.000
> 2020 05 05 02 25 30.0000000  0 16        .000000000000
G02  23064711.484 8 121205876.294 8     -1900.395          49.000    23064707.656 7  94446117.310 7     -1480.827          45.000
G06  23911343.344 5 125654947.099 5     -3437.309          33.000    23911349.047 5  97912961.209 5     -2678.413          34.000
G07  20876857.641 8 109708608.473 8      -721.605          51.000    20876855.984 8  85487218.468 8      -562.290          51.000
G09  22252608.414 5 116938264.869 5     -2406.832          32.000    22252614.914 5  91120713.332 5     -1875.457          32.000
G30  20744308.125 8 109012128.224 8      1473.320          51.000    20744308.703 8  84944505.914 8      1148.039          51.000
R05  19600895.008 8 104777995.505 8      -642.480          51.000    19600898.188 8  81494005.704 8      -499.707          49.000
R15  19552982.117 8 104485199.782 8        18.605          51.000    19552985.383 8  81266300.072 8        14.471          48.000
R16  21260382.906 7 113569184.061 7      3928.012          43.000    21260385.469 7  88331569.101 7      3055.120          43.000
C05  39783094.672 5 207161013.051 5        -8.691          35.000    39783093.258 6 160190021.185 6        -6.742          41.000
C19  22675359.805 8 118076530.725 8     -1913.895          51.000
C22  22010589.039 7 114614891.040 7       903.664          44.000
E02  24991114.781 8 131329190.785 8      2418.090          51.000    24991115.930 8 100628888.732 8      1852.840          51.000
E03  24427914.289 7 128369537.884 7     -1359.547          44.000    24427908.102 5  98361061.026 5     -1041.815          33.000
E08                                                                  21800507.047 6  87781621.324 6       688.865          36.000
E13                                                                  26430192.727 6 106423443.519 6     -1667.241          37.000
E25  25025911.055 6 131512041.222 6      -255.168          40.000
> 2020 05 05 02 26  0.0000000  0 15        .000000000000
G02  23075595.703 8 121263074.145 8     -1912.980          50.000    23075592.078 7  94490687.064 7     -1490.634          46.000
G06  23930976.562 5 125758116.531 5     -3441.250          33.000    23930983.336 5  97993374.922 5     -2681.515          33.000
G07  20881017.703 8 109730470.172 8      -736.105          51.000    20881015.953 8  85504253.563 8      -573.589          51.000
G30  20735940.633 8 108968158.187 8      1457.676          51.000    20735941.688 8  84910243.542 8      1135.851          51.000
R05  19604541.531 8 104797487.435 8      -657.234          51.000    19604544.273 8  81509166.096 8      -511.182          50.000
R15  19552954.211 8 104485048.319 8        -8.789          51.000    19552957.367 8  81266182.263 8        -6.836          49.000
R16  21238360.203 7 113451542.553 7      3914.281          43.000    21238363.328 7  88240070.141 7      3044.441          44.000
C05  39783143.414 5 207161266.752 5        -8.746          35.000    39783141.945 6 160190217.337 6        -6.555          41.000
C19  22686413.102 8 118134086.446 8     -1923.324          51.000
C22  22005412.344 7 114587933.114 7       893.227          45.000
E02  24977338.000 8 131256788.748 8      2408.566          51.000    24977338.586 8 100573411.853 8      1845.501          51.000
E03  24435689.945 7 128410400.917 7     -1364.938          42.000    24435686.930 5  98392371.569 5     -1045.813          35.000
E08  21795389.891 5 114535544.925 5       893.805          31.000    21795389.227 6  87761018.463 6       684.762          36.000
E13                                                                  26442640.094 6 106473569.064 6     -1674.116          37.000
E25  25027409.672 6 131519916.911 6      -270.047          41.000
> 2020 05 05 02 26 30.0000000  0 16        .000000000000
G02  23086549.242 8 121320635.151 8     -1925.227          51.000    23086545.930 7  94535539.777 7     -1500.180          46.000
G07  20885258.523 8 109752755.592 8      -750.465          51.000    20885256.656 8  85521618.811 8      -584.775          51.000
G09  22280157.070 6 117083013.692 6     -2418.918          36.000    22280150.422 5  91233487.489 5     -1884.871          35.000
G30  20727659.828 8 108924644.318 8      1442.340          51.000    20727661.133 8  84876336.622 8      1123.901          51.000
R04  22720493.570 5 121667204.773 5     -3129.742          31.000
R05  19608269.375 8 104817413.012 8      -672.016          51.000    19608271.977 8  81524663.755 8      -522.679          50.000
R15  19553077.500 8 104485705.286 8       -35.844          51.000    19553080.492 8  81266693.245 8       -27.878          49.000
R16  21216413.469 7 113334304.390 7      3900.422          43.000    21216417.062 7  88148884.897 7      3033.661          44.000
C05  39783189.297 5 207161505.755 5        -8.477          35.000    39783187.875 6 160190402.153 6        -6.500          41.000
C19  22697517.664 8 118191912.762 8     -1932.512          50.000
C22  22000293.305 7 114561276.850 7       882.859          45.000
E02  24963613.227 8 131184660.705 8      2399.270          51.000    24963613.250 8 100518144.895 8      1838.303          51.000
E03  24443493.844 6 128451410.703 6     -1369.863          37.000    24443492.977 5  98423794.611 5     -1049.815          34.000
E08                                                                  21790299.297 5  87740526.864 5       680.745          35.000
E13                                                                  26455137.578 6 106523890.004 6     -1680.821          37.000
E25  25028991.070 5 131528227.432 5      -284.613          32.000
> 2020 05 05 02 27  0.0000000  0 16        .000000000000
G02  23097570.812 8 121378552.649 8     -1940.859          51.000    23097567.336 7  94580670.304 7     -1512.358          45.000
G06  23970310.641 5 125964799.958 5     -3451.359          34.000    23970291.500 5  98154335.745 5     -2689.374          34.000
G07  20889578.898 8 109775459.193 8      -768.055          51.000    20889577.086 8  85539309.950 8      -598.481          51.000
G09  22293976.086 6 117155637.482 6     -2427.996          36.000    22293979.641 6  91290077.495 6     -1891.948          36.000
G30  20719465.477 8 108881582.966 8      1423.520          51.000    20719466.570 8  84842782.309 8      1109.236          51.000
R05  19612077.633 8 104837768.576 8      -690.102          51.000    19612079.516 8  81540495.850 8      -536.746          50.000
R15  19553351.164 8 104487165.999 8       -66.496          51.000    19553353.891 8  81267829.364 8       -51.719          49.000
R16  21194541.609 6 113217468.864 6      3883.348          41.000    21194545.695 7  88058012.829 7      3020.382          43.000
C05  39783231.539 5 207161725.802 5       -11.312          35.000    39783230.141 6 160190572.322 6        -8.805          41.000
C19  22708672.977 8 118250005.048 8     -1945.152          50.000
C22  21995231.258 7 114534919.208 7       869.367          43.000
E02  24949938.867 7 131112804.030 7      2386.336          47.000    24949939.344 8 100463085.875 8      1828.503          50.000
E03  24451324.844 5 128492579.069 5     -1378.418          31.000    24451321.984 5  98455326.935 5     -1055.831          33.000
E08                                                                  21785237.008 5  87720143.627 5       674.402          35.000
E13                                                                  26467683.383 6 106574401.586 6     -1690.252          36.000
E25  25030653.195 5 131537012.858 5      -302.555          35.000    25030660.078 5 100788076.246 5      -232.040          35.000
> 2020 05 05 02 27 30.0000000  0 16        .000000000000
G02  23108673.289 8 121436896.218 8     -1949.410          50.000    23108669.945 7  94626132.813 7     -1519.024          46.000
G06  23990009.078 5 126068312.320 5     -3449.641          35.000    23989990.641 5  98234994.674 5     -2688.038          33.000
G07  20893992.250 8 109798651.348 8      -778.695          51.000    20893990.430 8  85557381.761 8      -606.776          51.000
G09  22307839.266 5 117228492.531 5     -2429.379          34.000    22307842.836 5  91346847.568 5     -1893.026          34.000
G30  20711371.047 8 108839046.379 8      1411.777          51.000    20711372.094 8  84809636.936 8      1100.086          51.000
R05  19615980.141 8 104858627.861 8      -701.113          51.000    19615981.828 8  81556719.732 8      -545.310          51.000
R15  19553788.695 8 104489502.880 8       -89.969          51.000    19553791.109 8  81269646.958 8       -69.976          50.000
R16  21172759.055 6 113101112.573 6      3872.969          39.000    21172763.750 6  87967513.496 6      3012.306          41.000
C05  39783283.891 6 207161998.032 6        -7.723          36.000    39783282.438 6 160190782.815 6        -5.670          41.000
C19  22719893.234 8 118308434.097 8     -1950.816          50.000
C22  21990239.812 7 114508932.492 7       862.484          43.000
E02  24936328.656 7 131041292.189 7      2380.379          45.000    24936329.344 8 100408291.024 8      1824.002          48.000
E03                                                                  24459194.430 6  98487023.527 6     -1057.253          37.000
E08                                                                  21780216.789 6  87699924.112 6       673.238          36.000
E13                                                                  26480290.562 6 106625157.260 6     -1693.930          38.000
E25  25032415.703 6 131546255.228 6      -314.000          36.000    25032417.000 6 100795157.978 6      -240.780          37.000
> 2020 05 05 02 28  0.0000000  0 17        .000000000000
G02  23119834.422 8 121495549.201 8     -1962.352          49.000    23119831.742 7  94671836.438 7     -1529.105          47.000
G06  24009714.000 5 126171888.186 5     -3454.438          35.000    24009698.180 5  98315684.277 5     -2691.773          35.000
G07  20898476.719 8 109822216.849 8      -793.840          51.000    20898474.633 8  85575744.477 8      -618.577          51.000
G09  22321724.852 6 117301463.959 6     -2436.707          36.000    22321723.289 6  91403708.398 6     -1898.733          36.000
G30  20703354.852 8 108796920.973 8      1395.273          51.000    20703355.844 8  84776811.968 8      1087.226          51.000
R05  19619955.188 8 104879875.725 8      -716.867          51.000    19619957.094 8  81573245.827 8      -557.563          51.000
R14  22324493.555 5 119002063.322 5     -3622.086          31.000    22324499.180 5  92557168.139 5     -2817.178          31.000
R15  19554368.008 8 104492598.817 8      -117.891          51.000    19554370.492 8  81272054.919 8       -91.690          49.000
R16  21151044.641 6 112985123.536 6      3858.453          37.000    21151049.742 6  87877299.814 6      3001.019          39.000
C05  39783324.516 5 207162210.251 5        -8.156          35.000    39783322.984 6 160190946.135 6        -6.177          41.000
C19  22731156.656 8 118367086.410 8     -1960.820          51.000
C22  21985298.328 7 114483204.611 7       851.207          43.000
E02  24922763.055 8 130970012.497 8      2369.953          48.000    24922763.820 8 100353674.134 8      1815.947          48.000
E03  24467088.281 6 128575435.408 6     -1386.074          36.000    24467091.273 6  98518838.889 6     -1062.024          39.000
E08                                                                  21775216.148 6  87679781.131 6       668.473          37.000
E13                                                                  26492936.594 6 106676067.922 6     -1701.069          40.000
E25                                                                  25034245.562 6 100802536.149 6      -252.342          38.000
> 2020 05 05 02 28 30.0000000  0 18        .000000000000
G02  23131070.477 8 121554596.820 8     -1974.102          48.000    23131068.609 8  94717847.553 8     -1538.261          48.000
G06  24029442.500 5 126275566.120 5     -3456.973          34.000    24029427.141 5  98396472.353 5     -2693.739          34.000
G07  20903048.641 8 109846242.399 8      -807.734          51.000    20903046.594 8  85594465.703 8      -629.403          51.000
G09  22335649.680 6 117374638.809 6     -2441.762          36.000    22335648.539 6  91460727.742 6     -1902.675          36.000
G30  20695433.703 8 108755295.127 8      1379.930          51.000    20695434.375 8  84744376.250 8      1075.270          51.000
R04  22790956.125 5 122044534.850 5     -3160.125          31.000
R05  19624019.398 8 104901601.781 8      -731.500          51.000    19624021.430 8  81590143.852 8      -568.944          51.000
R14  22344916.445 5 119110918.702 5     -3635.027          34.000    22344918.891 5  92641833.449 5     -2827.243          30.000
R15  19555105.883 8 104496542.593 8      -144.766          51.000    19555108.156 8  81275122.294 8      -112.595          49.000
R16  21129417.031 6 112869594.411 6      3844.344          41.000    21129421.680 6  87787443.808 6      2990.048          38.000
C05  39783370.094 5 207162447.410 5        -7.688          35.000    39783368.508 6 160191129.532 6        -5.923          41.000
C19  22742480.375 8 118426048.611 8     -1969.773          51.000
C22  21980423.938 7 114457823.738 7       841.105          46.000
E02  24909260.211 8 130899054.444 8      2360.707          50.000    24909260.742 8 100299303.706 8      1808.815          50.000
E03  24475016.414 6 128617090.453 6     -1390.965          40.000    24475015.797 6  98550756.440 6     -1065.834          41.000
E08                                                                  21770251.102 6  87659782.319 6       664.905          37.000
E13                                                                  26505637.391 6 106727199.404 6     -1707.606          41.000
E25                                                                  25036167.227 6 100810277.830 6      -263.387          39.000
> 2020 05 05 02 29  0.0000000  0 18        .000000000000
G02  23142375.305 8 121614004.231 8     -1986.715          50.000    23142373.711 7  94764139.039 7     -1548.089          47.000
G06  24049183.773 5 126379308.465 5     -3461.062          33.000
G07  20907701.656 8 109870693.930 8      -822.520          51.000    20907699.516 8  85613518.842 8      -640.924          51.000
G09  22349606.445 5 117447983.814 5     -2448.223          33.000    22349606.930 5  91517879.680 5     -1907.712          32.000
G30  20687601.438 8 108714136.655 8      1363.770          51.000    20687602.023 8  84712304.699 8      1062.678          51.000
R04  22808680.539 5 122139449.608 5     -3167.695          32.000
R05  19628167.047 8 104923774.031 8      -746.914          51.000    19628169.109 8  81607388.925 8      -580.933          50.000
R14  22365412.477 5 119220161.703 5     -3648.414          34.000    22365412.844 4  92726800.207 4     -2837.658          28.000
R15  19555995.734 8 104501300.036 8      -172.520          51.000    19555998.500 8  81278822.548 8      -134.185          49.000
R16  21107871.258 7 112754495.806 7      3829.031          45.000    21107873.922 6  87697922.693 6      2978.135          37.000
C05  39783414.422 5 207162678.103 5        -7.855          35.000    39783412.852 6 160191307.919 6        -6.138          41.000
C19  22753857.156 8 118485287.956 8     -1979.633          51.000
C22  21975610.602 7 114432758.578 7       829.781          45.000
E02  24895813.102 8 130828386.977 8      2350.355          51.000    24895813.844 8 100245155.929 8      1800.955          51.000
E03  24482971.664 7 128658901.031 7     -1396.527          42.000    24482972.414 7  98582793.095 7     -1070.123          42.000
E08                                                                  21765315.086 5  87639903.042 5       660.251          35.000
E13  26518376.523 5 139355013.259 5     -2237.387          34.000    26518385.984 7 106778525.046 7     -1714.289          42.000
E25  25038196.695 5 131576601.865 5      -359.035          35.000    25038178.422 6 100818386.581 6      -275.096          40.000
> 2020 05 05 02 29 30.0000000  0 18        .000000000000
G02  23153744.930 8 121673751.521 8     -1999.457          51.000
G06  24068937.344 5 126483144.540 5     -3464.371          31.000    24068933.742 5  98558294.447 5     -2699.513          32.000
G07  20912431.945 8 109895552.362 8      -837.539          51.000    20912429.523 8  85632889.051 8      -652.628          51.000
G09  22363591.977 5 117521480.858 5     -2454.484          30.000    22363594.328 5  91575150.112 5     -1912.582          31.000
G30  20679854.805 8 108673428.602 8      1347.230          51.000    20679855.898 8  84680584.133 8      1049.790          51.000
R04  22826446.391 5 122234568.223 5     -3176.129          34.000    22826454.906 4  95071369.010 4     -2470.322          26.000
R05  19632394.859 8 104946374.945 8      -762.672          51.000    19632397.117 8  81624967.426 8      -593.189          50.000
R14  22385977.938 5 119329770.811 5     -3662.164          33.000
R15  19557034.742 8 104506852.849 8      -200.570          50.000    19557037.797 8  81283141.398 8      -155.999          48.000
R16  21086404.008 7 112639813.563 7      3813.461          47.000    21086403.922 6  87608725.425 6      2966.025          37.000
C05  39783454.141 6 207162884.950 6        -8.230          36.000    39783452.516 6 160191467.891 6        -6.754          41.000
C19  22765283.750 8 118544786.714 8     -1989.812          51.000
C22  21970854.586 7 114407992.965 7       818.434          45.000
E02  24882418.344 8 130757994.240 8      2339.664          51.000    24882419.383 8 100191218.649 8      1792.739          51.000
E03  24490953.344 7 128700849.670 7     -1402.758          44.000    24490956.461 7  98614935.529 7     -1074.801          43.000
E08                                                                  21760403.438 5  87620130.171 5       655.714          33.000
E13  26531169.477 6 139422231.495 6     -2246.551          38.000    26531178.445 7 106830029.913 7     -1721.500          43.000
E25  25040288.180 5 131587550.049 5      -375.000          34.000    25040263.516 6 100826778.660 6      -287.167          40.000
> 2020 05 05 02 30  0.0000000  0 16        .000000000000
G02  23165193.508 8 121733919.198 8     -2013.312          51.000    23165190.102 7  94857582.354 7     -1568.818          46.000
G06  24088722.969 5 126587124.680 5     -3469.781          32.000    24088721.461 5  98639317.986 5     -2703.723          31.000
G07  20917254.297 8 109920894.848 8      -853.742          51.000    20917252.156 8  85652636.446 8      -665.251          51.000
G09  22377622.406 5 117595201.441 5     -2461.906          33.000    22377620.609 5  91632612.469 5     -1918.369          34.000
G30  20672208.953 8 108633249.599 8      1329.566          51.000    20672210.164 8  84649275.806 8      1036.026          51.000
R04  22844262.891 5 122329970.083 5     -3185.406          33.000    22844269.125 4  95145570.376 4     -2477.535          27.000
R05  19636717.734 8 104969484.750 8      -779.641          51.000    19636720.227 8  81642941.729 8      -606.387          50.000
R15  19558237.039 8 104513279.550 8      -229.703          51.000    19558240.148 8  81288139.956 8      -178.658          49.000
R16  21065030.062 7 112525630.942 7      3796.859          47.000    21065028.805 6  87519916.730 6      2953.116          39.000
C05  39783504.328 6 207163146.482 6       -10.680          36.000    39783502.578 6 160191669.315 6        -8.180          41.000
C19  22776774.414 8 118604621.991 8     -2001.082          50.000
C22  21966170.867 7 114383605.506 7       805.668          46.000
E02  24869090.953 8 130687956.010 8      2327.812          51.000    24869092.391 8 100137553.017 8      1783.655          51.000
E03  24498976.586 7 128743014.586 7     -1410.020          45.000    24498980.273 7  98647243.708 7     -1080.375          43.000
E13  26544020.320 6 139489759.781 6     -2257.188          41.000    26544028.953 7 106881772.346 7     -1729.345          43.000
E25                                                                  25042444.539 6 100835546.607 6      -300.127          40.000
> 2020 05 05 02 30 30.0000000  0 15        .000000000000
G02  23176711.008 8 121794445.342 8     -2022.336          50.000    23176707.570 7  94904745.575 7     -1575.846          46.000
G06  24108523.844 4 126691157.336 4     -3469.883          29.000
G07  20922158.953 8 109946670.322 8      -865.141          51.000    20922157.305 8  85672721.248 8      -674.136          51.000
G09  22391686.422 5 117669107.300 5     -2465.418          33.000    22391689.375 5  91690201.500 5     -1921.108          34.000
G30  20664654.688 8 108593550.433 8      1316.602          51.000    20664655.617 8  84618341.376 8      1025.923          51.000
R05  19641126.609 8 104993053.846 8      -792.082          51.000    19641129.180 8  81661273.244 8      -616.064          50.000
R15  19559593.484 8 104520528.689 8      -254.188          50.000    19559596.633 8  81293778.186 8      -197.701          49.000
R16  21043740.195 7 112411900.904 7      3784.668          47.000    21043739.570 6  87431460.036 6      2943.631          41.000
C05  39783555.227 5 207163411.260 5        -7.742          35.000    39783553.500 6 160191874.073 6        -5.860          41.000
C19  22788320.172 8 118664744.071 8     -2007.594          50.000
C22  21961551.062 7 114359548.025 7       797.598          47.000
E02  24855821.742 8 130618224.196 8      2320.547          51.000    24855823.539 8 100084122.167 8      1778.069          51.000
E03  24507032.188 7 128785346.137 7     -1412.586          46.000    24507035.945 7  98679679.595 7     -1082.356          44.000
E13  26556919.984 7 139557546.349 7     -2262.742          42.000    26556927.922 7 106933712.700 7     -1733.619          43.000
E25  25044709.672 6 131610835.840 6      -403.246          36.000    25044713.633 6 100844679.950 6      -309.196          41.000
> 2020 05 05 02 31  0.0000000  0 14        .000000000000
G02  23188288.594 8 121855286.767 8     -2034.168          49.000    23188285.492 8  94952154.494 8     -1585.066          48.000
G07  20927137.086 8 109972831.844 8      -879.410          51.000    20927135.453 8  85693106.839 8      -685.255          51.000
G09  22405776.164 5 117743146.265 5     -2470.652          35.000    22405776.211 5  91747894.146 5     -1925.181          35.000
G30  20657183.133 8 108554285.919 8      1300.707          51.000    20657183.883 8  84587745.669 8      1013.541          51.000
R05  19645613.008 8 105017036.580 8      -807.238          51.000    19645615.367 8  81679926.473 8      -627.852          50.000
R15  19561095.297 8 104528553.033 8      -281.312          51.000    19561098.219 8  81300019.334 8      -218.799          49.000
R16  21022526.586 7 112298580.810 7      3769.617          46.000    21022526.812 7  87343322.175 7      2931.921          42.000
C05  39783598.266 5 207163635.177 5        -8.027          35.000    39783596.508 6 160192047.212 6        -5.941          41.000
C19  22799911.828 8 118725107.387 8     -2017.062          48.000
C22  21956986.766 8 114335776.427 8       786.684          48.000
E02  24842602.508 8 130548754.808 8      2310.379          51.000    24842604.227 8 100030892.370 8      1770.317          51.000
E03  24515111.062 7 128827798.731 7     -1417.969          45.000    24515115.406 7  98712208.222 7     -1086.564          45.000
E13  26569859.555 6 139625543.529 6     -2270.957          41.000    26569866.266 7 106985814.452 7     -1740.054          42.000
E25  25047055.609 5 131623166.208 5      -417.895          32.000    25047058.680 7 100854123.380 7      -320.642          42.000
> 2020 05 05 02 31 30.0000000  0 14        .000000000000
G02  23199935.016 8 121916490.395 8     -2045.789          48.000    23199932.383 7  94999845.622 7     -1594.121          47.000
G07  20932197.898 8 109999427.481 8      -893.363          51.000    20932196.461 8  85713830.708 8      -696.127          51.000
G09  22419899.953 5 117817366.833 5     -2476.797          31.000    22419896.883 5  91805728.475 5     -1929.972          32.000
G30  20649803.734 8 108515505.903 8      1284.984          51.000    20649804.539 8  84557527.494 8      1001.287          51.000
R05  19650186.547 8 105041483.480 8      -822.305          51.000    19650188.859 8  81698940.723 8      -639.570          50.000
R15  19562751.297 8 104537401.790 8      -308.207          51.000    19562754.203 8  81306901.705 8      -239.717          49.000
R16  21001399.555 7 112185724.737 7      3754.543          46.000    21001400.812 7  87255545.217 7      2920.200          43.000
C05  39783642.844 5 207163868.052 5        -7.402          35.000    39783641.039 6 160192226.533 6        -5.812          41.000
C19  22811559.125 8 118785760.476 8     -2026.227          49.000
C22  21952486.914 8 114312340.805 8       775.957          48.000
E02  24829442.914 8 130479598.829 8      2300.312          51.000    24829444.320 8  99977902.704 8      1762.553          51.000
E03  24523221.922 7 128870421.890 7     -1423.285          44.000    24523226.336 7  98744867.523 7     -1090.650          43.000
E13  26582847.648 6 139693798.711 6     -2279.102          40.000    26582853.508 6 107038113.872 6     -1746.214          41.000
E25  25049488.578 6 131635943.260 6      -433.305          38.000    25049489.219 7 100863914.334 7      -331.983          42.000
> 2020 05 05 02 32  0.0000000  0 14        .000000000000
G02  23211650.625 8 121978056.150 8     -2057.281          49.000    23211647.961 7  95047818.954 7     -1603.073          47.000
G06  24168015.586 4 127003778.557 4     -3477.406          29.000
G07  20937341.688 8 110026458.560 8      -907.355          51.000    20937340.344 8  85734893.890 8      -707.030          51.000
G30  20642516.727 8 108477213.519 8      1269.340          51.000    20642517.688 8  84527689.297 8       989.099          51.000
R05  19654847.617 8 105066398.207 8      -837.297          51.000    19654849.812 8  81718318.828 8      -651.231          50.000
R15  19564561.883 8 104547076.689 8      -335.266          51.000    19564564.867 8  81314426.648 8      -260.762          49.000
R16  20980360.570 7 112073339.224 7      3739.336          46.000    20980362.758 7  87168134.277 7      2908.372          43.000
C05  39783689.406 6 207164110.657 6        -7.195          36.000    39783687.656 6 160192414.111 6        -5.790          41.000
C19  22823263.094 8 118846705.620 8     -2035.504          50.000
C22  21948051.867 8 114289244.935 8       765.188          48.000
E02  24816343.648 8 130410760.538 8      2290.293          51.000    24816344.445 8  99925156.438 8      1754.915          51.000
E03  24531365.945 7 128913218.288 7     -1428.254          45.000    24531370.086 7  98777659.586 7     -1094.703          42.000
E13  26595884.336 6 139762312.473 6     -2286.957          37.000    26595889.383 6 107090611.447 6     -1752.428          39.000
E25  25052006.773 6 131649177.133 6      -448.094          37.000    25052007.844 6 100874054.499 6      -343.075          41.000
> 2020 05 05 02 32 30.0000000  0 14        .000000000000
G02  23223424.047 8 122039924.761 8     -2068.902          50.000    23223421.320 7  95096028.255 7     -1612.132          47.000
G07  20942557.352 8 110053866.602 8      -921.371          51.000    20942555.648 8  85756250.811 8      -717.952          51.000
G09  22448242.016 5 117966318.853 5     -2488.297          33.000    22448246.219 5  91921809.578 5     -1938.936          33.000
G30  20635311.641 8 108439351.959 8      1253.266          51.000    20635312.578 8  84498186.774 8       976.571          51.000
R05  19659585.258 8 105091722.996 8      -852.566          51.000    19659587.398 8  81738015.865 8      -663.107          50.000
R15  19566516.250 8 104557518.617 8      -362.535          51.000    19566518.641 8  81322548.144 8      -281.972          50.000
R16  20959399.531 7 111961369.554 7      3723.902          46.000    20959402.352 7  87081046.770 7      2896.368          43.000
C05  39783727.133 5 207164307.115 5        -7.395          35.000    39783725.367 6 160192566.016 6        -5.494          41.000
C19  22835012.242 8 118907885.664 8     -2044.785          50.000
C22  21943671.125 8 114266433.208 8       754.105          49.000
E02  24803294.266 8 130342184.250 8      2279.973          51.000    24803294.320 8  99872610.933 8      1747.016          51.000
E03  24539532.156 7 128956130.790 7     -1433.895          43.000    24539536.234 6  98810540.596 6     -1098.680          41.000
E13  26608958.297 6 139831025.605 6     -2295.109          38.000    26608960.812 6 107143261.765 6     -1758.569          37.000
E25  25054599.859 5 131662810.735 5      -462.434          33.000    25054602.727 6 100884499.586 6      -354.383          41.000
> 2020 05 05 02 33  0.0000000  0 16        .000000000000
G02  23235268.094 8 122102164.236 8     -2079.734          50.000    23235265.055 7  95144526.529 7     -1620.572          46.000
G06  24207739.477 5 127212528.568 5     -3480.457          33.000    24207739.023 5  99126644.152 5     -2712.044          32.000
G07  20947857.906 8 110081720.405 8      -934.840          51.000    20947856.148 8  85777955.050 8      -728.447          51.000
G09  22462462.406 5 118041045.006 5     -2492.539          32.000    22462466.734 5  91980037.847 5     -1942.232          31.000
G30  20628202.234 8 108401992.172 8      1237.922          51.000    20628203.203 8  84469075.242 8       964.614          51.000
R04  22952012.859 5 122906974.991 5     -3227.074          33.000
R05  19664413.133 8 105117530.272 8      -867.242          51.000    19664415.125 8  81758088.175 8      -674.522          50.000
R15  19568627.180 8 104568798.094 8      -388.891          51.000    19568629.539 8  81331321.080 8      -302.470          50.000
R16  20938530.219 7 111849890.668 7      3708.801          45.000    20938533.258 7  86994340.950 7      2884.623          44.000
C05  39783769.367 5 207164526.376 5        -6.559          35.000    39783767.695 6 160192736.356 6        -5.316          41.000
C19  22846819.852 8 118969370.088 8     -2053.543          50.000
C22  21939358.523 8 114243976.662 8       743.582          49.000
E02  24790308.531 8 130273942.079 8      2270.148          51.000    24790307.789 8  99820321.474 8      1739.473          51.000
E03  24547733.977 6 128999230.009 6     -1438.785          41.000    24547737.922 6  98843564.668 6     -1102.494          38.000
E13  26622084.359 6 139900006.575 6     -2302.879          37.000    26622082.930 6 107196117.284 6     -1764.496          37.000
E25  25057284.273 6 131676914.375 6      -476.477          36.000    25057286.000 6 100895303.232 6      -365.188          40.000
> 2020 05 05 02 33 30.0000000  0 14        .000000000000
G02  23247174.922 8 122164734.511 8     -2091.688          49.000    23247171.680 7  95193282.570 7     -1629.886          47.000
G06  24227619.000 5 127316997.936 5     -3483.816          35.000    24227617.617 5  99208048.760 5     -2714.662          34.000
G07  20953236.008 8 110109981.826 8      -949.344          51.000    20953234.406 8  85799976.973 8      -739.748          51.000
G30  20621181.336 8 108365097.104 8      1221.625          51.000    20621182.297 8  84440325.862 8       951.919          51.000
R05  19669324.031 8 105143782.848 8      -882.965          51.000    19669326.086 8  81778506.831 8      -686.750          50.000
R15  19570887.547 8 104580876.025 8      -416.406          51.000    19570889.688 8  81340715.023 8      -323.872          50.000
R16  20917746.109 7 111738868.731 7      3692.496          46.000    20917749.773 7  86907990.540 7      2871.941          44.000
C05  39783809.016 5 207164733.358 5        -7.340          35.000    39783807.461 6 160192896.399 6        -5.642          41.000
C19  22858678.523 8 119031121.388 8     -2063.262          50.000
C22  21935107.133 8 114221839.324 8       732.168          49.000
E02  24777379.234 8 130205998.173 8      2259.332          51.000    24777378.109 8  99768260.600 8      1731.141          51.000
E03  24555964.000 6 129042478.571 6     -1444.711          40.000    24555968.719 5  98876703.109 5     -1106.867          32.000
E13  26635254.195 6 139969215.898 6     -2311.203          40.000    26635248.445 5 107249147.749 5     -1770.754          35.000
E25  25060050.281 5 131691444.048 5      -491.832          35.000    25060050.219 6 100906436.334 6      -376.876          40.000
> 2020 05 05 02 34  0.0000000  0 15        .000000000000
G02  23259148.453 8 122227656.315 8     -2102.254          48.000    23259145.672 7  95242312.527 7     -1638.120          47.000
G06  24247513.648 5 127421542.987 5     -3483.773          32.000    24247510.078 5  99289512.469 5     -2714.626          33.000
G07  20958695.781 8 110138672.460 8      -962.555          51.000    20958694.039 8  85822333.313 8      -750.043          51.000
G09  22490998.820 5 118191004.576 5     -2504.598          34.000
G30  20614253.500 8 108328690.323 8      1206.371          51.000    20614254.297 8  84411956.942 8       940.029          51.000
R05  19674322.953 8 105170504.807 8      -897.602          51.000    19674325.211 8  81799290.557 8      -698.135          50.000
R15  19573301.391 8 104593774.924 8      -442.641          51.000    19573303.594 8  81350747.518 8      -344.276          50.000
R16  20897052.719 7 111628330.572 7      3677.508          46.000    20897056.438 7  86822016.406 7      2860.284          43.000
C05  39783850.625 5 207164949.980 5        -6.312          35.000    39783849.008 6 160193063.927 6        -5.075          41.000
C19  22870592.711 8 119093162.075 8     -2071.887          50.000
C22  21930921.664 8 114200045.232 8       721.695          50.000
E02  24764511.398 8 130138377.255 8      2249.574          51.000    24764509.898 8  99716447.214 8      1723.682          51.000
E03  24564226.727 5 129085899.759 5     -1449.238          34.000
E13  26648471.938 6 140038674.650 6     -2318.520          40.000    26648463.258 5 107302369.378 5     -1776.202          35.000
E25  25062899.883 5 131706428.268 5      -505.691          32.000    25062900.328 6 100917916.222 6      -387.577          39.000
> 2020 05 05 02 34 30.0000000  0 17        .000000000000
G02  23271188.289 7 122290926.313 7     -2113.020          47.000    23271186.047 7  95291613.834 7     -1646.509          47.000
G06  24267421.852 5 127526162.797 5     -3485.250          30.000    24267417.906 4  99371018.920 4     -2715.797          27.000
G07  20964236.695 8 110167789.990 8      -975.941          51.000    20964234.836 8  85845022.304 8      -760.474          51.000
G09  22505314.820 4 118266226.794 4     -2509.434          29.000    22505330.211 5  92155537.671 5     -1955.406          31.000
G30  20607418.594 8 108292771.532 8      1190.930          51.000    20607419.195 8  84383968.254 8       927.997          51.000
R04  23006435.773 5 123198412.577 5     -3248.090          31.000
R05  19679409.414 8 105197696.002 8      -912.445          51.000    19679411.938 8  81820439.239 8      -709.683          50.000
R15  19575868.523 8 104607492.661 8      -469.031          51.000    19575870.367 8  81361416.854 8      -364.802          50.000
R16  20876450.672 7 111518279.288 7      3662.176          45.000    20876453.742 7  86736420.963 7      2848.359          42.000
C05  39783893.945 6 207165175.510 6        -5.582          36.000    39783892.359 6 160193238.314 6        -4.646          41.000
C19  22882562.242 8 119155491.036 8     -2080.676          50.000
C22  21926802.227 8 114178594.842 8       711.098          50.000
E02  24751705.305 8 130071080.254 8      2239.551          51.000    24751703.570 8  99664881.999 8      1716.031          51.000
E03                                                                  24572525.906 5  98943378.936 5     -1113.888          34.000
E08                                                                  21713065.133 6  87429513.790 6       615.319          38.000
E13  26661736.547 6 140108380.124 6     -2325.676          40.000    26661727.625 6 107355780.063 6     -1782.191          36.000
E25                                                                  25065837.602 6 100929741.972 6      -398.648          39.000
> 2020 05 05 02 35  0.0000000  0 16        .000000000000
G02  23283286.383 8 122354501.563 8     -2124.590          48.000    23283284.039 7  95341152.978 7     -1655.525          46.000
G07  20969850.859 8 110197292.699 8      -990.355          51.000    20969849.195 8  85868011.413 8      -771.706          51.000
G09  22519658.812 6 118341608.438 6     -2515.293          39.000    22519678.695 5  92214276.313 5     -1959.972          34.000
G30  20600668.789 8 108257300.359 8      1174.457          51.000    20600669.586 8  84356328.379 8       915.161          51.000
R05  19684576.188 8 105225315.630 8      -928.309          51.000    19684578.625 8  81841921.175 8      -722.018          49.000
R14  22616822.594 5 120560316.394 5     -3792.938          33.000    22616822.672 4  93769176.028 4     -2950.062          29.000
R15  19578580.570 8 104621986.770 8      -496.500          51.000    19578582.992 8  81372690.077 8      -386.167          50.000
R16  20855933.086 7 111408676.939 7      3645.488          46.000    20855934.562 6  86651174.722 6      2835.380          40.000
C05  39783931.148 6 207165369.650 6        -6.648          36.000    39783929.625 6 160193388.413 6        -5.050          41.000
C19  22894579.320 8 119218067.502 8     -2090.469          50.000
C22  21922740.984 8 114157448.925 8       699.387          49.000
E02  24738953.180 8 130004068.029 8      2228.547          51.000    24738951.766 8  99613534.984 8      1707.528          51.000
E03  24580843.727 5 129173199.875 5     -1460.309          34.000    24580846.430 6  98976882.084 6     -1118.746          38.000
E08  21708498.648 5 114078931.542 5       796.902          33.000    21708501.828 6  87411130.915 6       610.293          38.000
E13  26675040.250 6 140178289.588 6     -2334.195          38.000    26675032.227 6 107409347.007 6     -1788.530          37.000
E25                                                                  25068852.430 6 100941881.895 6      -410.127          37.000
> 2020 05 05 02 35 30.0000000  0 16        .000000000000
G02  23295450.031 8 122418419.976 8     -2136.137          50.000    23295446.742 7  95390959.517 7     -1664.525          45.000
G07  20975545.773 8 110227220.051 8     -1004.359          51.000    20975544.328 8  85891331.468 8      -782.615          51.000
G09  22534038.266 5 118417168.019 5     -2521.441          35.000    22534063.672 5  92273153.527 5     -1964.769          35.000
G30  20594011.945 8 108222317.931 8      1158.207          51.000    20594012.938 8  84329069.372 8       902.499          51.000
R05  19689831.055 8 105253405.871 8      -943.898          50.000    19689833.578 8  81863769.145 8      -734.143          50.000
R14  22638204.836 5 120674294.049 5     -3805.148          30.000    22638207.156 5  93857825.299 5     -2959.563          30.000
R15  19581445.656 8 104637297.419 8      -523.762          51.000    19581448.086 8  81384598.350 8      -407.370          49.000
R16  20835508.266 7 111299568.873 7      3628.867          46.000    20835508.195 6  86566312.917 6      2822.455          40.000
C05  39783970.156 6 207165572.807 6        -6.617          36.000    39783968.656 6 160193545.505 6        -5.093          41.000
C19  22906651.695 8 119280931.463 8     -2099.957          50.000
C22  21918746.023 8 114136649.006 8       687.832          50.000
E02  24726263.062 8 129937382.909 8      2217.645          51.000    24726262.414 8  99562438.595 8      1699.273          51.000
E03  24589195.258 6 129217096.503 6     -1465.691          37.000    24589197.000 6  99010517.194 6     -1123.101          41.000
E08  21703967.102 6 114055118.616 6       791.223          36.000    21703972.766 6  87392884.623 6       606.259          37.000
E13  26688390.078 6 140248441.707 6     -2342.227          39.000    26688383.922 6 107463099.918 6     -1794.675          38.000
E25                                                                  25071951.844 6 100954366.792 6      -421.728          36.000
> 2020 05 05 02 36  0.0000000  0 14        .000000000000
G02  23307687.102 8 122482724.113 8     -2148.648          50.000    23307682.500 7  95441066.627 7     -1674.272          45.000
G07  20981329.773 8 110257615.382 8     -1019.672          51.000    20981328.172 8  85915016.127 8      -794.550          51.000
G30  20587456.789 8 108187869.732 8      1140.574          51.000    20587457.562 8  84302226.603 8       888.759          51.000
R05  19695182.484 8 105282013.023 8      -960.926          50.000    19695185.141 8  81886019.155 8      -747.387          49.000
R15  19584471.844 8 104653469.241 8      -552.156          51.000    19584474.281 8  81397176.431 8      -429.455          50.000
R16  20815184.531 7 111191004.217 7      3611.031          44.000    20815184.961 7  86481873.761 7      2808.580          42.000
C05  39784019.523 6 207165829.639 6        -7.898          36.000    39784017.984 6 160193744.107 6        -6.195          41.000
C19  22918787.984 8 119344127.158 8     -2110.840          51.000
C22  21914826.500 8 114116240.883 8       674.965          50.000
E02  24713643.555 8 129871071.495 8      2205.488          51.000    24713644.117 8  99511628.548 8      1689.982          51.000
E03  24597587.805 7 129261210.486 7     -1472.691          43.000    24597590.484 7  99044318.855 7     -1128.552          44.000
E08  21699477.664 5 114031529.755 5       784.105          35.000    21699484.734 5  87374810.000 5       600.757          35.000
E13  26701794.195 6 140318879.492 6     -2351.152          40.000    26701790.492 6 107517071.739 6     -1801.586          40.000
E25                                                                  25075146.992 6 100967230.768 6      -434.143          37.000
> 2020 05 05 02 36 30.0000000  0 17        .000000000000
G02  23319966.617 8 122547252.215 8     -2157.695          49.000    23319961.203 7  95491348.253 7     -1681.321          45.000
G07  20987172.188 8 110288317.844 8     -1031.488          51.000    20987170.609 8  85938940.126 8      -803.757          51.000
G09  22562896.039 6 118568821.009 6     -2531.938          38.000    22562901.172 6  92391294.029 6     -1972.941          37.000
G30  20580972.586 8 108153796.359 8      1126.406          51.000    20580973.711 8  84275675.929 8       877.719          51.000
R04  23079572.594 4 123590051.213 4     -3277.199          29.000
R05  19700600.516 8 105310975.472 8      -974.352          51.000    19700603.109 8  81908545.538 8      -757.829          49.000
R14  22681148.219 5 120903282.230 5     -3827.027          31.000
R15  19587628.602 8 104670338.561 8      -577.004          51.000    19587630.945 8  81410297.013 8      -448.781          49.000
R16  20794932.070 6 111082824.592 6      3596.328          41.000    20794934.156 7  86397734.026 7      2797.141          42.000
C05  39784048.898 5 207165982.000 5        -6.523          35.000    39784047.234 6 160193861.918 6        -4.984          41.000
C19  22930957.648 8 119407495.941 8     -2118.160          51.000
C22  21910952.266 8 114096067.432 8       665.535          50.000
E02  24701064.711 8 129804975.717 8      2196.586          49.000    24701067.211 8  99460983.747 8      1683.131          51.000
E03  24605993.977 7 129305382.269 7     -1476.352          43.000    24605997.281 7  99078164.751 7     -1131.212          46.000
E08  21694999.656 5 114008005.747 5       780.277          35.000    21695007.078 5  87356806.137 5       597.459          32.000
E13  26715221.625 7 140389441.360 7     -2357.219          42.000    26715220.484 6 107571138.575 6     -1806.052          41.000
E25                                                                  25078406.859 6 100980351.031 6      -443.934          37.000
> 2020 05 05 02 37  0.0000000  0 15        .000000000000
G02  23332317.703 8 122612158.118 8     -2168.188          48.000    23332312.523 7  95541924.249 7     -1689.500          45.000
G07  20993102.625 8 110319482.763 8     -1044.887          51.000    20993101.352 8  85963224.484 8      -814.197          51.000
G09  22577370.258 6 118644884.132 6     -2537.250          37.000    22577373.242 6  92450563.893 6     -1977.084          36.000
G30  20574589.672 8 108120254.930 8      1110.832          51.000    20574591.234 8  84249539.753 8       865.583          51.000
R05  19706115.102 8 105340453.217 8      -989.516          51.000    19706117.492 8  81931472.674 8      -769.623          50.000
R15  19590945.414 8 104688063.345 8      -603.484          51.000    19590947.758 8  81424082.971 8      -469.377          50.000
R16  20774781.883 7 110975192.869 7      3580.113          42.000    20774785.773 7  86314020.409 7      2784.533          42.000
C05  39784087.898 6 207166185.190 6        -6.141          36.000    39784086.234 6 160194019.034 6        -4.652          41.000
C19  22943189.875 8 119471192.769 8     -2127.098          51.000
C22  21907153.344 8 114076285.177 8       654.480          51.000
E02  24688557.070 8 129739253.919 8      2186.102          48.000    24688560.664 8  99410625.474 8      1675.023          51.000
E03  24614440.258 7 129349768.772 7     -1481.473          44.000    24614444.578 7  99112175.168 7     -1135.205          46.000
E08  21690564.625 6 113984703.914 6       774.758          36.000    21690566.086 5  87338924.532 5       593.756          33.000
E13  26728702.047 7 140460281.947 7     -2364.375          44.000    26728702.320 6 107625419.047 6     -1811.631          41.000
E25  25081759.891 6 131805565.898 6      -593.840          36.000    25081759.242 6 100993847.258 6      -454.939          36.000
> 2020 05 05 02 37 30.0000000  0 15        .000000000000
G02  23344730.375 7 122677389.014 7     -2179.879          45.000    23344725.930 7  95592753.535 7     -1698.607          45.000
G07  20999111.289 8 110351058.388 8     -1059.492          51.000    20999109.844 8  85987828.869 8      -825.578          51.000
G09  22591875.211 5 118721104.947 5     -2543.973          30.000    22591872.773 4  92509964.503 4     -1982.313          28.000
G30  20568298.750 8 108087195.356 8      1093.859          51.000    20568300.273 8  84223779.032 8       852.358          51.000
R05  19711716.500 8 105370395.555 8     -1005.945          51.000    19711718.852 8  81954761.150 8      -782.402          50.000
R15  19594412.836 8 104706591.030 8      -631.082          51.000    19594415.148 8  81438493.400 8      -490.842          50.000
R16  20754726.734 7 110868061.148 7      3562.695          45.000    20754730.438 7  86230695.692 7      2770.985          42.000
C05  39784127.062 6 207166389.320 6        -6.836          36.000    39784125.445 6 160194176.910 6        -5.476          41.000
C19  22955475.750 8 119535167.182 8     -2137.184          51.000
C22  21903420.172 8 114056845.261 8       642.254          51.000
E02  24676111.312 7 129673857.240 7      2174.320          47.000    24676115.414 8  99360516.303 8      1666.068          51.000
E03  24622918.070 7 129394319.613 7     -1487.832          45.000    24622922.398 7  99146311.539 7     -1140.099          45.000
E08  21686163.156 6 113961574.407 6       768.211          37.000    21686160.078 5  87321201.962 5       588.485          34.000
E13  26742225.438 7 140531348.812 7     -2372.883          43.000    26742226.961 7 107679872.889 7     -1818.210          42.000
E25  25085192.266 5 131823575.058 5      -609.461          33.000    25085193.617 6 101007680.280 6      -466.855          36.000
> 2020 05 05 02 38  0.0000000  0 15        .000000000000
G02  23357202.102 7 122742930.350 7     -2190.262          46.000    23357198.656 7  95643824.730 7     -1706.697          46.000
G07  21005195.547 8 110383031.429 8     -1072.770          51.000    21005193.883 8  86012742.932 8      -835.924          51.000
G09  22606411.641 5 118797490.721 5     -2549.152          34.000    22606405.977 5  92569485.956 5     -1986.349          30.000
G30  20562097.164 8 108054605.838 8      1078.051          51.000    20562098.820 8  84198384.598 8       840.040          51.000
R05  19717402.844 8 105400790.982 8     -1021.125          51.000    19717404.906 8  81978402.026 8      -794.208          50.000
R15  19598027.859 8 104725907.899 8      -657.508          51.000    19598030.109 8  81453517.632 8      -511.395          50.000
R16  20734764.414 7 110761420.753 7      3546.105          47.000    20734767.094 7  86147753.140 7      2758.082          42.000
C05  39784164.102 6 207166582.431 6        -6.656          36.000    39784162.547 6 160194326.230 6        -5.241          41.000
C19  22967812.328 8 119599406.788 8     -2146.121          50.000
C22  21899750.555 8 114037736.843 8       630.926          51.000
E02  24663725.703 7 129608775.126 7      2163.852          45.000    24663729.805 8  99310648.145 8      1657.971          51.000
E03  24631425.383 7 129439022.837 7     -1493.090          43.000    24631429.539 7  99180564.690 7     -1143.951          44.000
E08  21681793.031 6 113938605.727 6       762.754          36.000    21681788.289 5  87303602.599 5       584.262          35.000
E13  26755788.914 7 140602627.818 7     -2380.016          43.000    26755792.312 7 107734489.233 7     -1823.502          43.000
E25  25088707.070 6 131842055.178 6      -623.559          39.000    25088709.961 6 101021840.382 6      -477.663          37.000
> 2020 05 05 02 38 30.0000000  0 16        .000000000000
G02  23369731.758 8 122808773.935 8     -2198.215          48.000    23369729.070 7  95695131.430 7     -1712.895          45.000
G07  21011354.141 8 110415394.773 8     -1083.676          51.000    21011352.672 8  86037961.132 8      -844.423          51.000
G09  22620977.102 4 118874036.189 4     -2551.035          28.000    22620973.938 4  92629122.927 4     -1987.835          29.000
G30  20555983.969 8 108022481.033 8      1064.648          51.000    20555985.797 8  84173352.277 8       829.596          51.000
R05  19723172.828 8 105431633.889 8     -1033.918          51.000    19723174.602 8  82002390.950 8      -804.158          50.000
R14  22767796.898 5 121365170.336 5     -3867.098          31.000
R15  19601789.383 8 104746006.774 8      -681.398          51.000    19601791.484 8  81469150.088 8      -529.977          51.000
R16  20714893.602 7 110655269.507 7      3531.805          47.000    20714895.625 7  86065191.072 7      2746.962          42.000
C05  39784198.133 6 207166758.924 6        -4.160          36.000    39784196.469 6 160194462.691 6        -2.951          41.000
C19  22980198.430 8 119663905.529 8     -2152.695          50.000
C22  21896143.539 8 114018955.402 8       622.227          51.000
E02  24651399.984 7 129544003.458 7      2155.512          45.000    24651404.039 8  99261017.876 8      1651.584          51.000
E03  24639960.219 7 129483872.971 7     -1495.898          43.000    24639965.492 7  99214930.344 7     -1146.133          45.000
E08  21677452.516 6 113915792.741 6       759.387          37.000    21677448.297 6  87286122.552 6       582.155          37.000
E13  26769391.094 7 140674111.273 7     -2384.617          42.000    26769396.719 7 107789262.297 7     -1827.234          44.000
E25  25092303.789 6 131860955.904 6      -635.176          38.000    25092309.383 6 101036322.766 6      -486.579          38.000
> 2020 05 05 02 39  0.0000000  0 16        .000000000000
G02  23382318.055 8 122874914.464 8     -2208.879          48.000    23382316.234 7  95746669.484 7     -1721.204          44.000
G07  21017586.359 8 110448144.780 8     -1097.469          51.000    21017584.812 8  86063480.614 8      -855.170          51.000
G09  22635575.195 5 118950744.771 5     -2557.992          34.000    22635571.320 5  92688872.826 5     -1993.241          34.000
G30  20549958.766 8 107990818.991 8      1048.230          51.000    20549960.617 8  84148680.559 8       816.803          51.000
R05  19729026.328 8 105462923.035 8     -1049.770          51.000    19729028.422 8  82026726.911 8      -816.490          50.000
R14  22789601.266 5 121481386.452 5     -3878.109          32.000
R15  19605696.203 8 104766883.716 8      -708.191          51.000    19605698.477 8  81485387.724 8      -550.812          51.000
R16  20695114.273 7 110549608.756 7      3514.539          47.000    20695115.922 7  85983010.521 7      2733.533          42.000
C05  39784228.492 5 207166916.683 5        -4.020          35.000    39784226.812 6 160194584.684 6        -3.320          41.000
C19  22992634.094 8 119728660.749 8     -2162.109          49.000
C22  21892599.039 8 114000499.875 8       610.387          51.000
E02  24639133.812 8 129479541.465 8      2144.145          49.000    24639137.672 8  99211624.950 8      1642.925          51.000
E03  24648523.328 7 129528867.752 7     -1501.504          43.000    24648528.406 7  99249406.873 7     -1150.665          42.000
E08  21673141.047 6 113893133.910 6       753.414          37.000    21673138.602 6  87268760.607 6       577.294          38.000
E13  26783031.750 7 140745794.906 7     -2392.180          42.000    26783038.820 7 107844188.711 7     -1832.747          44.000
E25  25095980.445 6 131880274.305 6      -650.355          40.000    25095988.320 6 101051125.243 6      -498.103          37.000
> 2020 05 05 02 39 30.0000000  0 17        .000000000000
G02  23394969.633 7 122941398.522 7     -2224.000          46.000    23394968.531 7  95798475.239 7     -1732.987          43.000
G06  24466973.984 5 128574815.511 5     -3504.691          30.000
G07  21023901.062 8 110481328.644 8     -1115.488          51.000    21023899.461 8  86089338.169 8      -869.212          51.000
G30  20544030.859 8 107959668.390 8      1027.707          51.000    20544032.586 8  84124407.358 8       800.811          51.000
R04  23190468.031 4 124183901.968 4     -3323.633          29.000
R05  19734972.469 8 105494707.966 8     -1069.926          51.000    19734974.133 8  82051448.509 8      -832.164          49.000
R14  22811468.047 5 121597943.243 5     -3893.145          35.000
R15  19609757.734 8 104788586.705 8      -739.352          51.000    19609759.914 8  81502267.806 8      -575.051          51.000
R16  20675436.281 7 110444491.432 7      3492.555          46.000    20675437.516 6  85901252.642 6      2716.431          41.000
C05  39784264.383 6 207167104.749 6        -8.762          36.000    39784262.688 6 160194729.333 6        -6.872          41.000
C19  23005127.852 8 119793720.090 8     -2175.809          49.000
C22  21889126.930 8 113982419.360 8       594.262          51.000
E02  24626936.844 8 129415439.200 8      2128.605          51.000    24626940.180 8  99162507.646 8      1631.036          51.000
E03  24657123.086 6 129574055.872 6     -1511.465          40.000    24657125.672 6  99284031.539 6     -1158.656          36.000
E08  21668868.016 6 113870678.292 6       742.898          38.000    21668867.398 6  87251554.322 6       569.348          39.000
E13  26796719.523 7 140817725.103 7     -2403.824          43.000    26796727.375 7 107899304.071 7     -1841.921          44.000
E25  25099745.445 7 131900058.223 7      -669.297          43.000    25099750.406 6 101066284.332 6      -512.913          36.000
> 2020 05 05 02 40  0.0000000  0 17        .000000000000
G02  23407684.391 7 123008216.180 7     -2229.477          42.000    23407683.867 7  95850540.993 7     -1737.251          43.000
G07  21030296.688 8 110514937.672 8     -1124.094          51.000    21030295.312 8  86115527.025 8      -875.917          51.000
G09  22664868.758 5 119104674.926 5     -2568.398          31.000
G30  20538198.898 8 107929022.388 8      1016.344          51.000    20538200.578 8  84100527.355 8       791.959          51.000
R04  23209081.414 5 124283610.865 5     -3324.727          32.000
R05  19741010.117 8 105526982.002 8     -1080.695          51.000    19741011.539 8  82076550.541 8      -840.541          49.000
R14  22833395.109 5 121714829.563 5     -3898.840          35.000
R15  19613971.922 8 104811106.656 8      -760.996          51.000    19613974.297 8  81519783.333 8      -591.886          51.000
R16  20655858.797 7 110339913.626 7      3480.188          45.000    20655860.234 6  85819914.377 6      2706.816          41.000
C05  39784304.625 6 207167314.016 6        -4.492          36.000    39784302.844 6 160194891.139 6        -3.039          41.000
C19  23017678.523 8 119859075.927 8     -2180.301          49.000
C22  21885726.000 8 113964707.899 8       587.391          51.000
E02  24614807.383 8 129351691.063 8      2122.258          51.000    24614809.664 8  99113661.686 8      1626.229          51.000
E03  24665757.805 6 129619430.232 6     -1512.246          38.000    24665756.445 4  99318780.879 4     -1158.692          29.000
E08  21664631.711 6 113848419.257 6       742.277          37.000    21664632.633 6  87234498.665 6       568.542          39.000
E13  26810452.867 7 140889892.703 7     -2406.238          45.000    26810460.320 7 107954601.316 7     -1843.726          43.000
E25  25103598.125 6 131920299.878 6      -678.973          41.000    25103600.055 6 101081794.161 6      -520.587          36.000
> 2020 05 05 02 40 30.0000000  0 16        .000000000000
G02  23420448.586 6 123075294.324 6     -2242.266          41.000    23420447.688 6  95902809.751 6     -1747.217          41.000
G07  21036759.477 8 110548899.978 8     -1139.914          51.000    21036758.195 8  86141991.158 8      -888.245          51.000
G09  22679554.922 5 119181850.790 5     -2576.551          33.000    22679549.109 5  92868951.138 5     -2007.708          32.000
G30  20532449.898 8 107898810.817 8       997.855          51.000    20532451.438 8  84076985.883 8       777.550          51.000
R05  19747125.664 8 105559674.068 8     -1098.590          51.000    19747127.523 8  82101977.677 8      -854.459          48.000
R14  22855369.367 5 121831970.170 5     -3910.719          35.000
R15  19618325.523 8 104834370.706 8      -789.859          51.000    19618327.969 8  81537877.597 8      -614.335          50.000
R16  20636369.102 7 110235807.329 7      3460.379          45.000    20636371.367 7  85738942.829 7      2691.406          42.000
C05  39784335.836 6 207167476.799 6        -6.211          36.000    39784333.922 6 160195016.257 6        -4.942          41.000
C19  23030272.828 8 119924658.092 8     -2191.691          48.000
C22  21882382.680 8 113947296.934 8       573.422          51.000
E02  24602731.883 8 129288228.191 8      2108.707          51.000    24602733.352 8  99065034.338 8      1615.733          51.000
E03  24674414.953 5 129664920.605 5     -1520.156          33.000
E08  21660420.008 6 113826287.057 6       733.750          40.000    21660420.836 6  87217540.202 6       562.368          38.000
E13  26824218.016 7 140962225.295 7     -2415.836          44.000    26824223.078 7 108010024.987 7     -1851.032          42.000
E25  25107523.930 6 131940928.119 6      -695.895          41.000    25107526.016 6 101097600.256 6      -533.134          36.000
> 2020 05 05 02 41  0.0000000  0 15        .000000000000
G02  23433283.117 7 123142742.222 7     -2251.867          44.000    23433281.469 6  95955366.538 6     -1754.702          41.000
G07  21043310.398 8 110583325.523 8     -1152.613          51.000    21043309.109 8  86168816.252 8      -898.140          51.000
G30  20526804.891 8 107869145.423 8       982.410          51.000    20526806.031 8  84053869.992 8       765.514          51.000
R04  23246440.930 5 124483631.165 5     -3340.973          30.000
R05  19753340.727 8 105592898.324 8     -1113.633          51.000    19753343.086 8  82127818.763 8      -866.159          49.000
R14  22877411.547 5 121949474.125 5     -3920.266          32.000
R15  19622839.055 8 104858490.460 8      -815.508          51.000    19622841.516 8  81556637.401 8      -634.284          50.000
R16  20616990.023 7 110132289.209 7      3443.344          46.000    20616992.484 7  85658428.728 7      2678.156          43.000
C05  39784378.984 6 207167700.734 6        -5.980          36.000    39784377.148 6 160195190.182 6        -4.416          41.000
C19  23042931.359 8 119990576.605 8     -2200.324          49.000
C22  21879118.297 8 113930298.034 8       562.352          51.000
E02  24590731.914 8 129225163.601 8      2098.141          51.000    24590732.359 8  99016712.145 8      1607.651          51.000
E08  21656254.375 6 113804393.822 6       728.512          40.000    21656253.844 6  87200764.869 6       558.019          37.000
E13  26838035.445 7 141034832.285 7     -2422.133          43.000    26838037.102 7 108065658.907 7     -1855.932          42.000
E25  25111544.328 7 131962053.939 7      -709.801          44.000    25111546.359 6 101113787.582 6      -543.870          36.000
> 2020 05 05 02 41 30.0000000  0 16        .000000000000
G02  23446168.477 7 123210456.366 7     -2262.227          45.000    23446166.555 7  96008130.761 7     -1762.774          42.000
G06  24546980.352 5 128995252.065 5     -3505.031          30.000
G07  21049930.148 8 110618112.793 8     -1166.230          51.000    21049929.109 8  86195923.207 8      -908.751          51.000
G30  20521244.719 8 107839925.866 8       965.965          51.000    20521245.609 8  84031101.501 8       752.700          51.000
R05  19759636.242 8 105626552.821 8     -1129.574          51.000    19759638.516 8  82153994.484 8      -878.555          48.000
R14  22899501.547 4 122067235.595 4     -3930.496          29.000
R15  19627493.367 8 104883361.843 8      -842.098          51.000    19627495.992 8  81575981.819 8      -654.965          50.000
R16  20597703.312 8 110029260.876 8      3425.484          48.000    20597705.719 7  85578295.561 7      2664.263          42.000
C05  39784415.188 5 207167889.124 5        -6.488          35.000    39784413.273 6 160195335.886 6        -5.072          41.000
C19  23055635.359 8 120056731.317 8     -2209.699          49.000
C22  21875914.219 8 113913612.625 8       550.363          51.000
E02  24578788.531 8 129162398.224 8      2086.594          51.000    24578788.398 8  98968619.216 8      1598.792          51.000
E03  24691836.258 5 129756477.544 5     -1530.301          35.000    24691840.742 6  99423797.726 6     -1173.029          38.000
E08  21652115.727 6 113782639.538 6       722.422          40.000    21652113.562 6  87184096.006 6       553.373          37.000
E13  26851885.703 7 141107611.065 7     -2429.402          44.000    26851884.180 7 108121424.444 7     -1861.448          42.000
E25  25115640.211 7 131983576.003 7      -724.539          43.000    25115642.039 6 101130278.538 6      -555.238          37.000
> 2020 05 05 02 42  0.0000000  0 16        .000000000000
G02  23459120.711 7 123278520.270 7     -2272.258          46.000    23459119.609 7  96061167.549 7     -1770.591          43.000
G06  24566996.211 5 129100458.276 5     -3505.375          30.000
G07  21056634.812 8 110653346.333 8     -1179.336          51.000    21056633.969 8  86223377.910 8      -918.963          51.000
G09  22723816.633 5 119414462.143 5     -2592.215          33.000    22723818.359 5  93050236.909 5     -2019.908          34.000
G30  20515785.852 8 107811238.253 8       949.953          51.000    20515786.602 8  84008747.509 8       740.223          51.000
R05  19766028.820 8 105660725.493 8     -1145.027          51.000    19766031.188 8  82180573.223 8      -890.580          49.000
R15  19632304.414 8 104909070.603 8      -868.238          51.000    19632306.859 8  81595977.523 8      -675.296          49.000
R16  20578525.508 8 109926812.883 8      3407.797          48.000    20578527.234 7  85498613.763 7      2650.506          42.000
C05  39784460.727 5 207168127.275 5        -6.230          35.000    39784458.805 6 160195519.238 6        -4.706          41.000
C19  23068401.109 8 120123206.967 8     -2218.578          48.000
C22  21872786.945 8 113897326.983 8       538.746          51.000
E02  24566918.242 8 129100019.480 8      2075.391          51.000    24566917.953 8  98920822.520 8      1590.225          51.000
E03  24700600.914 6 129802536.061 6     -1536.258          40.000    24700608.828 6  99459089.250 6     -1177.151          40.000
E08  21648019.469 6 113761110.872 6       716.277          40.000    21648017.031 6  87167599.951 6       549.051          37.000
E13  26865784.398 7 141180645.586 7     -2436.285          44.000    26865780.875 7 108177385.927 7     -1866.716          42.000
E25  25119827.484 7 132005579.489 7      -738.793          42.000    25119829.836 6 101147138.371 6      -566.082          37.000
> 2020 05 05 02 42 30.0000000  0 16        .000000000000
G02  23472110.953 7 123346782.565 7     -2280.730          47.000    23472111.016 7  96114358.964 7     -1777.193          43.000
G07  21063395.820 8 110688875.808 8     -1191.113          51.000    21063394.969 8  86251063.214 8      -928.140          51.000
G09  22738627.594 6 119492261.770 6     -2596.605          37.000    22738623.188 5  93110860.018 5     -2023.314          31.000
G30  20510399.852 8 107782934.114 8       935.027          51.000    20510400.625 8  83986692.321 8       728.593          51.000
R04  23302782.398 5 124785329.992 5     -3360.785          32.000
R05  19772490.219 8 105695265.451 8     -1159.414          51.000    19772492.695 8  82207437.615 8      -901.766          50.000
R15  19637243.508 8 104935463.960 8      -893.180          51.000    19637245.828 8  81616505.699 8      -694.695          48.000
R16  20559428.234 7 109824797.549 7      3391.230          47.000    20559429.836 6  85419268.506 6      2637.624          41.000
C05  39784487.336 5 207168264.802 5        -4.992          35.000    39784485.406 6 160195626.379 6        -3.860          41.000
C19  23081200.727 8 120189855.784 8     -2226.410          51.000
C22  21869708.492 8 113881294.885 8       528.148          51.000
E02  24555093.250 8 129037880.171 8      2065.383          51.000    24555092.867 8  98873209.291 8      1582.536          51.000
E03  24709378.922 7 129848659.274 7     -1540.457          43.000    24709381.336 6  99494430.441 6     -1180.302          39.000
E08  21643937.633 6 113739659.632 6       711.781          39.000    21643935.383 6  87151163.279 6       545.540          37.000
E13  26879703.094 7 141253785.047 7     -2441.621          46.000    26879698.742 7 108233427.839 7     -1870.820          42.000
E25  25124078.117 6 132027914.993 6      -751.766          39.000    25124080.258 6 101164252.615 6      -576.151          38.000
> 2020 05 05 02 43  0.0000000  0 14        .000000000000
G02  23485170.648 8 123415409.203 8     -2292.738          49.000    23485171.430 7  96167834.268 7     -1786.549          44.000
G07  21070244.945 8 110724867.925 8     -1206.426          51.000    21070244.055 8  86279109.016 8      -940.072          51.000
G30  20505118.711 8 107755181.817 8       916.848          51.000    20505119.430 8  83965067.143 8       714.427          51.000
R05  19779052.633 8 105730344.569 8     -1177.363          51.000    19779054.805 8  82234721.373 8      -915.727          50.000
R15  19642342.383 8 104962711.154 8      -921.406          51.000    19642344.867 8  81637697.970 8      -716.649          48.000
R16  20540444.195 7 109723389.551 7      3371.039          46.000    20540445.938 6  85340395.616 6      2621.919          41.000
C05  39784526.898 5 207168471.468 5        -7.199          35.000    39784525.102 6 160195786.178 6        -5.392          41.000
C19  23094066.242 8 120256843.905 8     -2237.656          51.000
C22  21866710.898 8 113865684.118 8       514.246          51.000
E02  24543346.219 8 128976150.027 8      2051.871          51.000    24543345.961 8  98825909.578 8      1572.255          51.000
E03  24718201.023 7 129895015.533 7     -1548.027          46.000    24718200.500 6  99529950.201 6     -1186.300          41.000
E08  21639901.969 6 113718454.694 6       703.879          37.000    21639900.195 6  87134915.334 6       539.384          37.000
E13  26893673.164 7 141327195.683 7     -2450.629          45.000    26893668.859 7 108289677.539 7     -1877.653          42.000
E25  25128423.500 6 132050750.021 6      -768.430          40.000    25128425.445 6 101181749.633 6      -588.650          37.000
> 2020 05 05 02 43 30.0000000  0 15        .000000000000
G02  23498278.312 8 123484288.574 8     -2300.215          49.000    23498279.039 7  96221506.465 7     -1792.375          43.000
G07  21077161.234 8 110761212.892 8     -1217.633          51.000    21077160.273 8  86307429.780 8      -948.805          51.000
G30  20499921.875 8 107727873.001 8       902.832          51.000    20499922.500 8  83943787.551 8       703.505          51.000
R04  23340524.820 5 124987449.558 5     -3374.289          31.000
R05  19785695.250 8 105765852.719 8     -1190.969          51.000    19785697.273 8  82262338.839 8      -926.309          51.000
R15  19647580.164 8 104990700.055 8      -945.523          51.000    19647582.500 7  81659467.129 7      -735.407          47.000
R16  20521554.148 7 109622481.862 7      3354.980          46.000    20521555.586 6  85261911.844 6      2609.429          41.000
C05  39784559.047 5 207168638.802 5        -4.980          35.000    39784557.250 6 160195915.575 6        -4.005          41.000
C19  23106976.180 8 120324063.339 8     -2244.730          51.000
C22  21863773.680 8 113850388.250 8       504.391          51.000
E02  24531656.875 8 128914722.000 8      2042.363          51.000    24531656.367 8  98778841.346 8      1564.928          51.000
E03  24727046.789 7 129941496.442 7     -1551.531          44.000    24727046.680 6  99565565.412 6     -1188.904          41.000
E08  21635892.727 6 113697388.214 6       699.688          37.000    21635891.305 6  87118773.490 6       536.196          38.000
E13  26907673.125 7 141400766.911 7     -2455.367          43.000    26907669.734 7 108346050.249 7     -1881.161          42.000
E25  25132843.086 7 132073975.423 7      -780.922          42.000    25132844.836 6 101199545.714 6      -598.599          36.000
> 2020 05 05 02 44  0.0000000  0 14        .000000000000
G02  23511441.828 8 123553463.010 8     -2310.980          48.000    23511441.219 7  96275408.577 7     -1800.767          42.000
G07  21084152.867 8 110797953.650 8     -1231.492          51.000    21084151.742 8  86336058.950 8      -959.604          51.000
G30  20494817.906 8 107701052.296 8       885.602          51.000    20494818.766 8  83922888.336 8       690.079          51.000
R05  19792426.523 8 105801835.979 8     -1207.695          51.000    19792428.680 8  82290325.817 8      -939.319          50.000
R15  19652964.758 8 105019473.892 8      -972.418          51.000    19652967.172 7  81681846.805 7      -756.322          46.000
R16  20502766.266 7 109522123.080 7      3335.836          44.000    20502768.102 6  85183855.003 6      2594.536          40.000
C05                                                                  39784590.328 6 160196048.698 6        -4.510          41.000
C19  23119938.320 8 120391557.665 8     -2254.695          51.000
C22  21860905.398 8 113835452.430 8       491.578          51.000
E02  24520033.750 8 128853642.051 8      2029.934          51.000    24520033.258 8  98732039.818 8      1555.374          51.000
E03  24735923.844 7 129988146.637 7     -1557.961          43.000    24735923.578 6  99601310.344 6     -1193.840          39.000
E08  21631918.789 6 113676505.188 6       692.848          38.000    21631918.219 6  87102772.245 6       530.695          39.000
E13  26921711.383 7 141474541.040 7     -2462.656          43.000    26921708.609 6 108402578.472 6     -1886.946          40.000
E25  25137345.117 6 132097634.829 6      -795.836          41.000    25137346.438 5 101217674.319 5      -610.012          35.000
> 2020 05 05 02 44 30.0000000  0 14        .000000000000
G02  23524659.492 7 123622924.282 7     -2320.234          46.000    23524656.742 6  96329534.192 6     -1807.978          41.000
G07  21091218.406 8 110835083.136 8     -1244.176          51.000    21091217.188 8  86364991.017 8      -969.488          51.000
G30  20489805.836 8 107674714.184 8       869.848          51.000    20489806.680 8  83902365.164 8       677.803          51.000
R05  19799245.734 8 105838288.763 8     -1222.957          51.000    19799247.781 8  82318678.013 8      -951.186          50.000
R15  19658494.883 8 105049025.086 8      -998.008          51.000    19658496.898 7  81704831.062 7      -776.228          46.000
R16  20484080.586 7 109422310.895 7      3317.898          45.000    20484082.055 6  85106223.318 6      2580.588          39.000
C05  39784625.195 6 207168983.447 6        -5.832          36.000    39784623.273 6 160196181.296 6        -4.437          41.000
C19  23132951.859 8 120459320.740 8     -2263.320          51.000
C22  21858105.359 8 113820872.187 8       479.961          51.000
E02  24508475.852 8 128792906.006 8      2018.766          51.000    24508475.203 8  98685501.769 8      1546.843          51.000
E03  24744832.156 7 130034960.584 7     -1563.195          43.000    24744831.398 6  99637180.732 6     -1197.794          38.000
E08  21627978.977 6 113655800.725 6       687.090          40.000    21627979.570 6  87086907.783 6       526.561          40.000
E13  26935786.984 7 141548510.463 7     -2468.980          43.000    26935783.047 6 108459256.363 6     -1891.858          38.000
E25  25141928.055 6 132121721.862 6      -809.922          40.000    25141929.797 5 101236130.611 5      -620.631          34.000
> 2020 05 05 02 45  0.0000000  0 14        .000000000000
G02  23537932.375 7 123692676.444 7     -2329.266          45.000    23537928.547 7  96383886.503 7     -1815.012          43.000
G07  21098359.008 8 110872607.300 8     -1256.742          51.000    21098357.805 8  86394230.641 8      -979.280          51.000
G30  20484887.133 8 107648866.155 8       854.039          51.000    20484887.914 8  83882223.853 8       665.485          51.000
R05  19806154.117 8 105875219.044 8     -1238.344          51.000    19806156.258 8  82347401.569 8      -963.156          49.000
R15  19664171.289 8 105079359.220 8     -1023.590          51.000    19664173.750 7  81728424.316 7      -796.122          46.000
R16  20465500.008 7 109323056.030 7      3299.746          47.000    20465500.883 6  85029025.155 6      2566.472          39.000
C05  39784659.391 5 207169161.501 5        -5.277          35.000    39784657.477 6 160196319.008 6        -4.229          41.000
C19  23146016.766 7 120527359.410 7     -2271.828          47.000
C22  21855375.477 8 113806655.819 8       468.398          51.000
E02  24496984.789 8 128732522.680 8      2007.402          51.000    24496985.125 8  98639233.982 8      1538.169          51.000
E03  24753773.609 7 130081945.728 7     -1568.395          42.000    24753773.398 6  99673182.275 6     -1201.972          37.000
E08  21624074.672 6 113635282.835 6       681.195          41.000    21624076.039 6  87071186.241 6       522.134          41.000
E13  26949901.070 7 141622680.457 7     -2474.988          44.000    26949896.602 6 108516087.925 6     -1896.450          39.000
E25  25146594.172 6 132146243.140 6      -824.332          36.000    25146593.828 5 101254919.634 5      -631.508          32.000
> 2020 05 05 02 45 30.0000000  0 15        .000000000000
G02  23551256.508 7 123762696.440 7     -2333.020          47.000    23551252.680 7  96438447.554 7     -1817.937          44.000
G07  21105570.500 8 110910503.816 8     -1264.113          51.000    21105569.383 8  86423760.396 8      -985.023          51.000
G09  22828148.000 5 119962690.131 5     -2622.457          32.000
G30  20480057.859 8 107623487.200 8       843.516          51.000    20480058.703 8  83862448.045 8       657.285          51.000
R05  19813148.320 8 105912605.823 8     -1248.465          51.000    19813150.453 8  82376480.175 8      -971.028          48.000
R15  19669990.180 8 105110452.963 8     -1043.645          51.000    19669992.234 7  81752608.320 7      -811.724          46.000
R16  20447020.438 7 109224340.565 7      3286.941          47.000    20447021.547 6  84952246.502 6      2556.510          41.000
C05  39784690.852 5 207169325.390 5         -.043          35.000    39784688.938 6 160196445.722 6          .024          41.000
C19  23159129.672 7 120595652.202 7     -2275.258          45.000
C22  21852711.438 8 113792783.575 8       461.930          51.000
E02  24485556.539 8 128672472.358 8      2001.402          49.000    24485558.273 8  98593221.366 8      1533.593          51.000
E03  24762742.953 5 130129081.056 5     -1568.203          35.000    24762744.086 6  99709298.906 6     -1201.481          37.000
E08  21620202.062 7 113614930.937 7       681.082          42.000    21620203.516 7  87055591.934 7       521.721          42.000
E13  26964048.984 7 141697027.888 7     -2475.797          44.000    26964044.898 6 108573055.398 6     -1897.225          40.000
E25  25151338.781 5 132171176.549 5      -832.484          33.000    25151336.273 5 101274009.588 5      -638.120          31.000
> 2020 05 05 02 46  0.0000000  0 14        .000000000000
G02  23564635.805 8 123833003.914 8     -2347.082          48.000    23564632.258 7  96493232.594 7     -1828.895          44.000
G07  21112856.758 8 110948793.718 8     -1281.652          51.000    21112855.664 8  86453596.683 8      -998.690          51.000
G30  20475321.992 8 107598599.927 8       822.609          51.000    20475322.898 8  83843055.367 8       640.994          51.000
R05  19820232.273 8 105950472.375 8     -1268.977          51.000    19820234.055 7  82405931.913 7      -986.982          47.000
R15  19675955.094 8 105142327.274 8     -1074.184          51.000    19675957.445 7  81777399.476 7      -835.476          46.000
R16  20428646.766 7 109126190.398 7      3263.480          46.000    20428648.188 7  84875907.483 7      2538.263          42.000
C05  39784723.945 6 207169497.382 6        -4.758          36.000    39784721.977 6 160196578.698 6        -3.585          41.000
C19  23172295.172 7 120664220.912 7     -2289.020          45.000
C22  21850117.609 8 113779278.825 8       445.207          51.000
E02  24474196.242 8 128612778.986 8      1985.117          48.000    24474199.625 8  98547482.311 8      1521.040          51.000
E03                                                                  24771747.477 6  99745548.054 6     -1209.653          37.000
E08  21616365.383 7 113594768.330 7       670.184          44.000    21616366.742 7  87040142.632 7       513.490          42.000
E13  26978234.750 7 141771573.162 7     -2486.836          45.000    26978230.633 6 108630174.494 6     -1905.429          39.000
E25  25156166.430 5 132196544.170 5      -851.086          35.000    25156165.398 5 101293447.140 5      -652.469          32.000
> 2020 05 05 02 46 30.0000000  0 15        .000000000000
G02  23578062.352 8 123903558.941 8     -2356.070          48.000    23578059.109 7  96548210.511 7     -1835.902          45.000
G07  21120210.391 8 110987437.992 8     -1294.016          51.000    21120209.258 8  86483709.098 8     -1008.324          51.000
G28  23806407.539 6 125103520.526 6      3320.980          37.000
G30  20470672.727 8 107574167.127 8       806.801          51.000    20470673.352 8  83824016.814 8       628.676          51.000
R05  19827399.055 8 105988781.257 8     -1284.438          51.000    19827400.477 7  82435727.702 7      -999.007          47.000
R15  19682058.516 8 105174942.061 8     -1099.559          51.000    19682061.023 7  81802766.538 7      -855.212          47.000
R16  20410372.711 7 109028571.299 7      3245.035          46.000    20410373.812 7  84799981.493 7      2523.913          42.000
C05  39784751.352 6 207169640.567 6        -3.949          36.000    39784749.492 6 160196689.460 6        -3.356          41.000
C19  23185508.641 7 120733028.068 7     -2297.715          47.000
C22  21847587.516 8 113766105.641 8       433.469          51.000
E02  24462897.680 8 128553406.715 8      1973.645          50.000    24462900.727 8  98501989.276 8      1512.246          51.000
E03                                                                  24780776.531 6  99781901.195 6     -1213.562          39.000
E08  21612557.875 7 113574758.238 7       664.387          44.000    21612559.016 6  87024810.220 6       509.043          41.000
E13  26992450.562 7 141846276.974 7     -2492.781          45.000    26992446.297 6 108687415.083 6     -1910.011          40.000
E25  25161069.266 5 132222310.771 5      -865.371          34.000    25161071.875 5 101313188.131 5      -662.804          33.000
> 2020 05 05 02 47  0.0000000  0 15        .000000000000
G02  23591539.773 8 123974382.106 8     -2365.098          48.000    23591536.914 7  96603397.357 7     -1842.933          46.000
G07  21127635.750 8 111026458.670 8     -1306.855          50.000    21127634.633 8  86514114.810 8     -1018.329          50.000
G28  23787456.062 6 125003935.682 6      3318.211          38.000    23787458.328 4  97405660.339 4      2585.613          26.000
G30  20466114.438 8 107550212.176 8       790.594          51.000    20466114.875 8  83805350.612 8       616.050          51.000
R05  19834652.953 8 106027556.442 8     -1300.234          51.000    19834654.609 8  82465886.141 8     -1011.293          49.000
R15  19688304.680 8 105208319.075 8     -1125.219          51.000    19688307.117 7  81828726.448 7      -875.170          47.000
R16  20392203.031 7 108931510.381 7      3226.117          46.000    20392203.789 7  84724489.638 7      2509.199          43.000
C05  39784777.727 6 207169778.325 6        -5.398          36.000    39784775.898 6 160196795.944 6        -3.607          41.000
C19  23198773.656 8 120802096.366 8     -2306.566          51.000
C22  21845125.984 8 113753288.211 8       421.398          51.000
E02  24451665.547 8 128494380.317 8      1961.750          51.000    24451668.102 8  98456761.304 8      1503.108          51.000
E03  24789831.141 5 130271441.239 5     -1589.566          33.000    24789835.805 6  99818376.330 6     -1217.752          39.000
E08  21608783.938 7 113554924.746 7       658.098          45.000    21608785.227 6  87009613.127 6       504.191          41.000
E13  27006700.242 7 141921160.552 7     -2498.895          44.000    27006697.180 7 108744793.403 7     -1915.013          42.000
E25  25166050.773 5 132248488.795 5      -879.387          31.000
> 2020 05 05 02 47 30.0000000  0 15        .000000000000
G02  23605073.109 8 124045500.480 8     -2375.922          48.000    23605070.875 7  96658814.253 7     -1851.368          46.000
G07  21135138.031 8 111065883.899 8     -1321.453          49.000    21135136.898 8  86544835.781 8     -1029.704          49.000
G28  23768526.508 6 124904459.803 6      3313.742          39.000    23768526.039 5  97328139.711 5      2582.143          30.000
G30  20461652.578 8 107526764.806 8       772.629          51.000    20461653.117 8  83787079.938 8       602.048          51.000
R05  19841999.445 8 106066828.715 8     -1317.836          51.000    19842001.547 8  82496431.226 8     -1024.987          49.000
R15  19694698.484 8 105242486.430 8     -1152.547          51.000    19694701.359 7  81855301.076 7      -896.425          47.000
R16  20374143.484 7 108835040.854 7      3205.395          45.000    20374144.789 7  84649457.728 7      2493.085          44.000
C05  39784808.680 5 207169938.850 5        -6.191          35.000    39784806.891 6 160196920.883 6        -4.948          41.000
C19  23212094.539 8 120871454.612 8     -2317.266          51.000
C22  21842738.578 8 113740857.054 8       407.387          51.000
E02  24440505.156 8 128435730.888 8      1948.219          51.000    24440506.977 8  98411822.143 8      1492.767          51.000
E03  24798925.898 6 130319233.367 6     -1596.863          40.000    24798929.453 6  99854996.294 6     -1223.484          38.000
E08  21605049.195 7 113535298.113 7       650.332          45.000    21605050.672 7  86994574.553 7       498.097          42.000
E13  27020989.180 7 141996251.567 7     -2506.871          43.000    27020987.695 7 108802330.638 7     -1921.005          42.000
E25  25171117.125 5 132275114.153 5      -895.043          34.000
> 2020 05 05 02 48  0.0000000  0 16        .000000000000
G02  23618652.617 8 124116861.660 8     -2384.312          48.000    23618651.156 7  96714420.384 7     -1857.906          47.000
G07  21142707.609 8 111105662.372 8     -1333.301          51.000    21142706.211 8  86575831.992 8     -1038.936          51.000
G09  22903528.883 5 120358883.284 5     -2654.910          32.000    22903523.820 4  93786091.850 4     -2068.758          26.000
G28  23749608.133 6 124805046.374 6      3310.996          39.000
G30  20457277.758 8 107503775.286 8       757.055          51.000    20457278.211 8  83769166.020 8       589.913          51.000
R05  19849429.617 8 106106547.498 8     -1333.055          51.000    19849431.539 8  82527323.637 8     -1036.820          49.000
R15  19701230.492 8 105277391.387 8     -1177.340          51.000    19701233.516 7  81882449.378 7      -915.709          47.000
R16  20356185.930 7 108739115.707 7      3186.777          47.000    20356187.555 7  84574849.246 7      2478.605          44.000
C05  39784834.812 5 207170074.112 5        -5.738          35.000    39784833.117 6 160197026.240 6        -4.265          41.000
C19  23225461.188 8 120941052.949 8     -2325.566          51.000
C22  21840416.086 8 113728763.861 8       395.871          51.000
E02  24429407.227 8 128377410.073 8      1936.957          51.000    24429409.891 8  98367134.787 8      1484.213          51.000
E03  24808047.039 6 130367164.856 6     -1601.379          40.000    24808048.461 6  99891723.100 6     -1227.219          39.000
E08  21601344.250 7 113515829.266 7       644.848          45.000    21601346.047 7  86979656.860 7       494.179          42.000
E13  27035307.602 7 142071498.143 7     -2512.340          43.000    27035307.500 7 108859987.083 7     -1925.228          42.000
E25  25176255.641 5 132302140.428 5      -909.008          35.000
> 2020 05 05 02 48 30.0000000  0 14        .000000000000
G02  23632291.281 7 124188533.485 7     -2390.902          47.000    23632290.617 7  96770268.585 7     -1863.038          47.000
G07  21150357.617 8 111145863.247 8     -1343.797          49.000    21150356.094 8  86607157.349 8     -1047.114          49.000
G28  23730715.922 6 124705768.875 6      3310.258          40.000
G30  20453003.430 8 107481314.140 8       743.211          51.000    20453004.086 8  83751663.823 8       579.125          51.000
R05  19856956.898 8 106146785.287 8     -1346.547          51.000    19856958.797 8  82558619.713 8     -1047.314          50.000
R15  19707913.492 8 105313103.532 8     -1200.434          51.000    19707916.422 7  81910225.505 7      -933.671          46.000
R16  20338344.562 8 108643809.335 8      3169.871          49.000    20338346.523 7  84500722.072 7      2465.455          44.000
C05  39784869.570 5 207170255.970 5        -3.172          35.000    39784867.828 6 160197166.111 6        -2.706          41.000
C19  23238886.852 8 121010960.693 8     -2332.090          51.000
C22  21838172.289 8 113717079.550 8       385.949          51.000
E02  24418385.359 8 128319489.734 8      1927.355          51.000    24418388.438 8  98322754.279 8      1476.808          51.000
E03  24817207.930 6 130415306.393 6     -1604.871          40.000    24817209.969 6  99928610.717 6     -1229.599          40.000
E08  21597682.773 7 113496589.329 7       640.809          45.000    21597685.039 7  86964914.596 7       490.985          43.000
E13  27049668.484 7 142146968.689 7     -2516.098          42.000    27049669.719 7 108917815.170 7     -1927.976          42.000
> 2020 05 05 02 49  0.0000000  0 15        .000000000000
G02  23645968.469 7 124260407.023 7     -2399.547          47.000    23645968.188 7  96826273.952 7     -1869.777          47.000
G07  21158067.398 8 111186378.678 8     -1355.941          50.000    21158066.125 8  86638727.843 8     -1056.575          50.000
G09  22933891.719 5 120518430.464 5     -2663.262          32.000    22933893.695 5  93910458.675 5     -2075.272          32.000
G28  23711830.258 6 124606524.120 6      3307.398          41.000    23711819.016 4  97095937.790 4      2577.191          25.000
G30  20448809.336 8 107459274.932 8       727.332          51.000    20448810.508 8  83734490.420 8       566.755          51.000
R05  19864560.984 8 106187433.761 8     -1362.133          51.000    19864562.867 8  82590235.171 8     -1059.437          50.000
R15  19714726.602 8 105349512.309 8     -1225.457          50.000    19714729.656 7  81938543.453 7      -953.133          46.000
R16  20320599.312 8 108549016.925 8      3150.891          48.000    20320601.688 7  84426994.682 7      2450.696          43.000
C05  39784892.625 5 207170376.067 5        -3.402          35.000    39784890.914 6 160197258.957 6        -2.577          41.000
C19  23252351.133 8 121081071.862 8     -2340.758          51.000
C22  21835987.047 8 113705699.726 8       373.957          51.000
E02  24407419.914 8 128261864.865 8      1915.652          51.000    24407423.633 8  98278600.167 8      1467.864          51.000
E03  24826387.836 6 130463551.619 6     -1610.379          40.000    24826391.336 6  99965577.789 6     -1233.771          39.000
E08  21594044.711 7 113477472.552 7       634.941          45.000    21594047.078 7  86950266.691 7       486.409          44.000
E13  27064051.203 6 142222554.756 6     -2521.648          41.000    27064053.906 7 108975731.780 7     -1932.286          43.000
> 2020 05 05 02 49 30.0000000  0 16        .000000000000
G02  23659703.000 7 124332581.771 7     -2410.582          47.000    23659702.555 7  96882514.021 7     -1878.379          47.000
G07  21165856.328 8 111227309.318 8     -1371.035          51.000    21165855.070 8  86670621.840 8     -1068.336          51.000
G09  22949120.484 5 120598441.333 5     -2670.102          33.000
G28  23692970.766 7 124507416.873 7      3301.621          42.000    23692959.500 4  97018711.354 4      2572.692          28.000
G30  20444715.047 8 107437759.816 8       708.664          51.000    20444716.367 8  83717725.372 8       552.206          51.000
R05  19872261.562 8 106228597.566 8     -1380.504          51.000    19872263.102 8  82622251.453 8     -1073.725          50.000
R15  19721689.602 8 105386719.586 8     -1253.352          50.000    19721692.883 7  81967482.457 7      -974.829          46.000
R16  20302970.383 8 108454846.002 8      3128.996          48.000    20302972.656 7  84353750.684 7      2433.664          43.000
C05  39784923.453 6 207170536.640 6        -5.867          36.000    39784921.711 6 160197383.112 6        -4.516          41.000
C19  23265873.664 8 121151487.081 8     -2351.953          50.000
C22  21833879.930 8 113694726.613 8       359.246          51.000
E02  24396530.664 8 128204638.971 8      1901.059          51.000    24396533.719 8  98234751.733 8      1456.658          51.000
E03  24835607.758 6 130512002.766 6     -1618.410          40.000    24835611.258 6 100002702.622 6     -1239.928          37.000
E08  21590449.609 7 113458581.772 7       626.090          45.000    21590451.844 7  86935791.936 7       479.746          45.000
E13  27078475.211 6 142298356.444 6     -2529.988          41.000    27078478.961 7 109033813.571 7     -1938.709          44.000
E25  25192177.703 5 132385793.547 5      -951.117          34.000    25192184.156 5 101438483.616 5      -728.889          32.000
> 2020 05 05 02 50  0.0000000  0 15        .000000000000
G02  23673481.062 8 124404985.245 8     -2419.801          48.000    23673479.891 7  96938932.304 7     -1885.559          46.000
G07  21173710.742 8 111268583.821 8     -1384.086          50.000    21173709.039 8  86702783.783 8     -1078.509          50.000
G28  23674124.633 6 124408380.696 6      3297.434          41.000    23674114.594 4  96941540.371 4      2569.429          29.000
G30  20440707.391 8 107416699.150 8       691.953          51.000    20440708.891 8  83701314.460 8       539.184          51.000
R05  19880045.336 8 106270206.003 8     -1397.000          51.000    19880046.703 8  82654613.551 8     -1086.556          49.000
R15  19728788.109 8 105424652.337 8     -1279.051          50.000    19728791.289 7  81996985.731 7      -994.817          46.000
R16  20285445.109 7 108361228.655 7      3108.809          47.000    20285446.828 7  84280937.206 7      2417.962          42.000
C05  39784948.844 6 207170668.790 6        -6.270          36.000    39784947.062 6 160197485.303 6        -4.899          41.000
C19  23279440.648 8 121222136.771 8     -2361.371          48.000
C22  21831837.867 8 113684092.295 8       346.262          51.000
E02  24385704.125 8 128147743.772 8      1888.406          51.000    24385707.039 8  98191156.741 8      1446.955          51.000
E03  24844854.383 6 130560590.318 6     -1624.551          39.000    24844855.031 5 100039932.078 5     -1244.866          32.000
E08  21586884.273 7 113439848.042 7       619.227          45.000    21586886.805 7  86921437.498 7       474.505          46.000
E13  27092927.234 7 142374302.068 7     -2536.488          42.000    27092931.227 7 109092005.629 7     -1943.423          44.000
E25  25197642.133 6 132414495.617 6      -965.609          36.000    25197651.305 5 101460476.022 5      -739.945          35.000
> 2020 05 05 02 50 30.0000000  0 16        .000000000000
G02  23687307.539 8 124477643.862 8     -2426.102          49.000    23687305.531 7  96995549.394 7     -1890.469          46.000
G07  21181635.828 8 111310229.875 8     -1394.277          50.000    21181633.781 8  86735235.255 8     -1086.450          50.000
G09  22979646.531 5 120758852.278 5     -2679.383          35.000
G28  23655298.172 6 124309447.496 6      3296.141          39.000    23655289.594 5  96864449.542 5      2568.418          31.000
G30  20436791.688 8 107396121.802 8       677.934          51.000    20436793.336 8  83685280.180 8       528.260          51.000
R05  19887917.625 8 106312288.788 8     -1410.473          50.000    19887919.164 8  82687344.575 8     -1097.037          49.000
R15  19736027.898 8 105463337.518 8     -1301.812          49.000    19736030.352 7  82027074.185 7     -1012.521          46.000
R16  20268029.383 7 108268197.580 7      3091.355          46.000    20268030.461 7  84208579.667 7      2404.388          43.000
C05  39784974.312 6 207170801.171 6        -3.879          36.000    39784972.562 6 160197587.682 6        -3.280          41.000
C19  23293056.727 7 121293049.083 7     -2367.988          44.000
C22  21829866.578 8 113673826.470 8       336.195          51.000
E02  24374946.328 8 128091209.570 8      1878.652          51.000    24374948.469 8  98147838.334 8      1439.475          51.000
E03  24854132.570 6 130609343.425 6     -1627.879          38.000    24854129.555 5 100077280.337 5     -1247.378          30.000
E08  21583354.570 7 113421300.946 7       615.195          45.000    21583357.594 7  86907226.075 7       471.476          46.000
E13  27107412.320 7 142450418.403 7     -2540.004          43.000    27107415.578 7 109150328.510 7     -1946.225          43.000
E25                                                                  25203193.266 5 101482788.696 5      -749.044          35.000
> 2020 05 05 02 51  0.0000000  0 15        .000000000000
G02  23701188.500 8 124550589.481 8     -2436.859          48.000    23701185.898 7  97052390.133 7     -1898.855          45.000
G07  21189637.922 8 111352280.835 8     -1408.930          50.000    21189636.172 8  86768002.263 8     -1097.867          50.000
G28  23636498.445 6 124210655.208 6      3290.508          37.000    23636491.938 4  96787468.579 4      2564.026          27.000
G30  20432974.602 8 107376062.579 8       659.609          51.000    20432975.961 8  83669649.609 8       513.981          51.000
R05  19895885.367 8 106354881.688 8     -1428.680          50.000    19895886.984 8  82720472.394 8     -1111.195          49.000
R15  19743414.016 8 105502808.322 8     -1329.203          50.000    19743416.602 7  82057773.736 7     -1033.825          47.000
R16  20250730.602 7 108175791.281 7      3069.316          46.000    20250731.648 7  84136708.055 7      2387.246          44.000
C05  39785006.492 6 207170968.566 6        -7.078          36.000    39785004.695 6 160197717.087 6        -5.038          41.000
C19  23306729.766 7 121364257.972 7     -2378.855          45.000
C22  21827972.789 8 113663964.642 8       321.531          51.000
E02  24364264.125 8 128035072.594 8      1864.242          51.000    24364265.664 8  98104824.290 8      1428.418          51.000
E03  24863448.852 6 130658296.998 6     -1635.441          39.000
E08  21579867.406 7 113402975.960 7       606.738          46.000    21579870.492 7  86893184.848 7       464.796          46.000
E13  27121936.078 7 142526738.286 7     -2547.816          43.000    27121937.812 6 109208807.380 6     -1952.187          41.000
E25  25208807.617 6 132473201.104 6      -993.574          37.000    25208811.234 6 101505437.522 6      -761.235          36.000
> 2020 05 05 02 51 30.0000000  0 16        .000000000000
G02  23715113.148 7 124623765.080 7     -2442.859          47.000    23715110.406 7  97109410.068 7     -1903.527          46.000
G05  20804800.242 5 109329972.534 5      1249.656          35.000    20804793.922 5  85192144.470 5       973.758          35.000
G07  21197706.227 8 111394680.450 8     -1418.973          50.000    21197704.781 8  86801040.928 8     -1105.693          50.000
G28  23617715.695 5 124111952.086 5      3289.305          35.000    23617710.625 4  96710557.023 4      2563.082          28.000
G30  20429245.617 8 107356466.811 8       645.656          51.000    20429246.883 8  83654380.180 8       503.109          51.000
R05  19903938.305 8 106397929.262 8     -1442.242          49.000    19903940.266 8  82753953.893 8     -1121.744          49.000
R15  19750936.852 8 105543007.067 8     -1351.863          48.000    19750939.211 7  82089039.404 7     -1051.449          47.000
R16  20233538.766 7 108083957.403 7      3051.891          46.000    20233540.227 7  84065281.666 7      2373.693          44.000
C05  39785035.008 6 207171116.754 6        -4.688          36.000    39785033.219 6 160197831.705 6        -3.519          41.000
C19  23320451.727 8 121435708.734 8     -2385.457          50.000
C22  21826146.398 8 113654453.714 8       311.375          51.000
E02  24353647.141 8 127979279.495 8      1854.180          51.000    24353647.828 8  98062073.742 8      1420.732          51.000
E03  24872792.148 6 130707396.606 6     -1638.809          39.000    24872792.859 5 100152418.908 5     -1256.007          32.000
E08  21576412.461 7 113384819.182 7       602.652          47.000    21576415.117 7  86879272.488 7       461.743          46.000
E13  27136487.648 7 142603205.013 7     -2551.066          42.000    27136487.461 6 109267398.784 6     -1954.698          41.000
E25  25214510.102 6 132503169.352 6     -1005.281          39.000    25214513.727 6 101528400.106 6      -770.277          37.000
> 2020 05 05 02 52  0.0000000  0 16        .000000000000
G02  23729080.219 7 124697164.129 7     -2450.652          45.000    23729078.008 7  97166604.124 7     -1909.599          45.000
G05  20797711.047 5 109292729.421 5      1233.004          35.000    20797708.109 5  85163123.862 5       960.779          33.000
G07  21205839.828 8 111437423.384 8     -1430.949          48.000    21205838.234 8  86834347.116 8     -1115.025          49.000
G28  23598950.156 5 124013337.476 5      3285.289          32.000
G30  20425604.031 8 107337330.569 8       629.703          51.000    20425605.297 8  83639468.832 8       490.678          51.000
R05  19912075.406 8 106441428.286 8     -1457.992          51.000    19912078.086 8  82787786.466 8     -1133.994          49.000
R15  19758594.352 8 105583927.124 8     -1376.500          49.000    19758596.914 8  82120866.139 8     -1070.611          48.000
R16  20216453.945 7 107992694.966 7      3032.039          46.000    20216455.672 7  83994299.759 7      2358.253          43.000
C05  39785059.148 5 207171243.104 5        -4.254          35.000    39785057.328 6 160197928.622 6        -3.449          41.000
C19  23334220.055 8 121507397.019 8     -2394.090          51.000
C22  21824386.961 8 113645290.896 8       299.172          51.000
E02  24343095.070 8 127923827.817 8      1842.164          51.000    24343095.297 8  98019584.803 8      1411.543          51.000
E03  24882162.664 6 130756638.523 6     -1644.344          41.000    24882159.570 5 100190148.676 5     -1259.515          32.000
E08  21572988.867 8 113366827.416 8       596.469          48.000    21572991.211 7  86865486.605 7       457.085          46.000
E13  27151065.609 6 142679812.697 6     -2556.301          41.000    27151064.398 6 109326098.128 6     -1958.703          41.000
E25  25220290.945 6 132533529.157 6     -1019.102          36.000    25220291.523 6 101551662.762 6      -780.852          39.000
> 2020 05 05 02 52 30.0000000  0 18        .000000000000
G02  23743095.820 7 124770817.977 7     -2459.551          45.000    23743094.539 7  97223996.731 7     -1916.530          45.000
G05  20790722.461 5 109256013.388 5      1214.539          35.000    20790721.141 5  85134514.057 5       946.403          35.000
G07  21214044.992 8 111480542.500 8     -1443.887          49.000    21214043.547 8  86867946.430 8     -1125.107          49.000
G09  23041069.227 5 121081635.763 5     -2700.090          30.000
G13  22864864.438 6 120155690.774 6      2710.047          36.000
G28  23580209.211 4 123914834.585 4      3281.664          29.000    23580202.570 4  96556986.824 4      2557.141          25.000
G30  20422056.375 8 107318688.094 8       612.965          51.000    20422057.562 8  83624942.213 8       477.632          51.000
R05  19920304.000 8 106485413.522 8     -1474.516          51.000    19920306.633 8  82821997.211 8     -1146.845          48.000
R15  19766393.086 8 105625601.350 8     -1401.891          49.000    19766395.664 8  82153279.400 8     -1090.359          48.000
R16  20199483.602 7 107902042.243 7      3011.379          47.000    20199485.578 7  83923792.111 7      2342.184          42.000
C05                                                                  39785083.516 6 160198034.192 6        -3.936          41.000
C19  23348040.422 8 121579356.217 8     -2403.324          51.000
C22  21822701.008 8 113636511.227 8       286.027          51.000
E02  24332614.617 8 127868753.208 8      1829.348          51.000    24332614.977 8  97977384.786 8      1401.651          51.000
E03  24891566.922 7 130806057.131 7     -1650.406          42.000    24891562.141 5 100228014.986 5     -1264.651          33.000
E08  21569603.156 8 113349035.721 8       589.469          48.000    21569605.125 7  86851854.017 7       451.644          46.000
E13  27165676.562 6 142756593.630 6     -2562.469          41.000    27165674.547 6 109384930.221 6     -1963.528          39.000
E25  25226150.484 5 132564314.910 5     -1033.801          32.000    25226151.453 6 101575251.091 6      -791.801          39.000
> 2020 05 05 02 53  0.0000000  0 16        .000000000000
G02  23757159.875 7 124844725.686 7     -2466.926          47.000    23757159.578 7  97281587.176 7     -1922.280          47.000
G05  20783835.367 5 109219792.584 5      1197.961          33.000    20783833.914 5  85106317.232 5       933.476          31.000
G07  21222321.734 8 111524037.533 8     -1455.297          49.000    21222320.727 8  86901838.655 8     -1133.995          49.000
G13  22849409.086 5 120074460.568 5      2705.586          34.000
G30  20418602.898 8 107300540.417 8       597.473          51.000    20418604.188 8  83610801.153 8       465.563          51.000
R05  19928623.766 8 106529886.626 8     -1489.723          51.000    19928626.328 8  82856587.393 8     -1158.673          48.000
R15  19774332.562 8 105668028.330 8     -1425.977          49.000    19774335.195 8  82186278.170 8     -1109.093          48.000
R16  20182628.180 7 107812003.190 7      2991.855          47.000    20182630.633 6  83853761.787 6      2327.002          41.000
C05  39785114.102 5 207171528.619 5        -4.531          35.000    39785112.086 6 160198149.382 6        -3.232          41.000
C19  23361912.836 8 121651586.827 8     -2411.316          51.000
C22  21821088.875 8 113628116.815 8       274.223          51.000
E02  24322205.922 8 127814058.073 8      1817.707          51.000    24322207.039 8  97935475.548 8      1392.797          51.000
E03  24901004.242 6 130855653.750 6     -1655.184          40.000    24901004.539 6 100266017.586 6     -1268.419          39.000
E08  21566255.703 7 113331445.875 7       583.828          47.000    21566257.219 7  86838376.089 7       447.370          47.000
E13  27180320.633 7 142833546.766 7     -2567.168          42.000    27180317.094 6 109443894.296 6     -1967.096          37.000
E25                                                                  25232092.188 6 101599165.230 6      -801.876          39.000
> 2020 05 05 02 53 30.0000000  0 16        .000000000000
G02  23771265.391 8 124918850.281 8     -2475.324          49.000    23771265.711 7  97339346.614 7     -1928.824          46.000
G05  20777043.227 4 109184098.946 4      1180.445          29.000    20777042.828 4  85078515.830 4       919.818          27.000
G07  21230663.211 8 111567872.994 8     -1467.684          49.000    21230662.445 8  86935996.149 8     -1143.650          49.000
G13  22833975.352 5 119993351.839 5      2701.117          32.000
G30  20415237.359 8 107282853.633 8       581.113          51.000    20415238.211 8  83597019.230 8       452.816          51.000
R05  19937028.008 8 106574813.388 8     -1505.922          51.000    19937030.656 7  82891530.408 7     -1171.276          47.000
R15  19782406.258 8 105711171.311 8     -1450.777          50.000    19782408.820 8  82219833.814 8     -1128.382          48.000
R16  20165881.797 7 107722546.904 7      2971.320          47.000    20165884.562 7  83784184.682 7      2311.027          42.000
C05  39785138.609 5 207171656.654 5        -4.602          35.000    39785136.695 6 160198248.394 6        -3.591          41.000
C19  23375830.453 8 121724054.778 8     -2420.387          51.000
C22  21819544.438 8 113620075.210 8       261.340          51.000
E02  24311862.766 8 127759709.962 8      1805.039          50.000    24311865.664 8  97893832.222 8      1383.109          51.000
E03  24910468.398 6 130905394.713 6     -1661.145          39.000    24910473.359 6 100304130.739 6     -1272.828          39.000
E08  21562940.406 8 113314024.832 8       577.137          48.000    21562941.742 8  86825027.486 8       442.216          48.000
E13  27194990.602 6 142910636.302 6     -2572.691          41.000    27194985.938 6 109502962.913 6     -1971.292          37.000
E25  25238097.680 6 132627114.208 6     -1060.500          39.000    25238105.109 6 101623378.576 6      -812.516          38.000
> 2020 05 05 02 54  0.0000000  0 16        .000000000000
G02  23785415.734 8 124993209.580 8     -2482.379          49.000    23785416.094 7  97397288.919 7     -1934.321          44.000
G05  20770351.000 5 109148930.928 5      1164.520          32.000    20770351.062 5  85051112.107 5       907.424          32.000
G07  21239073.305 8 111612068.148 8     -1479.070          48.000    21239072.500 8  86970433.939 8     -1152.522          48.000
G28  23524116.906 5 123620067.803 5      3269.121          31.000
G30  20411963.430 8 107265648.193 8       565.688          51.000    20411963.805 8  83583612.409 8       440.798          51.000
R05  19945521.180 8 106620215.027 8     -1521.121          51.000    19945523.367 7  82926842.783 7     -1183.091          47.000
R15  19790617.484 8 105755048.695 8     -1474.645          50.000    19790619.797 8  82253960.676 8     -1146.946          49.000
R16  20149248.891 7 107633696.823 7      2951.715          47.000    20149251.664 7  83715079.056 7      2295.775          43.000
C05  39785163.125 5 207171784.204 5        -4.121          35.000    39785161.133 6 160198347.047 6        -3.247          41.000
C19  23389796.062 7 121796779.939 7     -2428.336          47.000
C22  21818072.016 8 113612407.801 8       249.445          51.000
E02  24301590.227 8 127705730.859 8      1793.227          49.000    24301594.195 8  97852471.585 8      1374.055          51.000
E03  24919962.836 6 130955300.756 6     -1666.090          37.000    24919969.367 5 100342370.430 5     -1276.776          34.000
E08  21559661.328 7 113296793.889 7       571.195          47.000    21559662.922 8  86811824.538 8       437.699          48.000
E13  27209690.008 6 142987880.763 6     -2577.246          40.000    27209685.148 6 109562150.240 6     -1974.890          37.000
E25  25244189.188 6 132659124.933 6     -1073.887          37.000    25244195.430 6 101647906.192 6      -822.773          39.000
> 2020 05 05 02 54 30.0000000  0 16        .000000000000
G02  23799609.727 8 125067798.134 8     -2489.793          48.000    23799609.453 6  97455409.836 6     -1940.098          41.000
G05  20763757.641 5 109114282.552 5      1147.043          33.000    20763758.227 5  85024113.377 5       893.803          31.000
G07  21247551.055 8 111656618.524 8     -1490.711          48.000    21247550.281 8  87005148.536 8     -1161.590          48.000
G28  23505466.297 6 123522053.781 6      3265.441          36.000    23505463.195 5  96250934.897 5      2544.500          31.000
G30  20408780.500 8 107248920.968 8       549.863          51.000    20408780.734 8  83570578.222 8       428.465          51.000
R05  19954102.672 8 106666088.712 8     -1536.680          51.000    19954104.852 7  82962522.304 7     -1195.198          47.000
R15  19798964.969 8 105799654.855 8     -1498.668          51.000    19798967.406 8  82288654.370 8     -1165.628          49.000
R16  20132729.797 7 107545453.290 7      2931.512          47.000    20132732.297 7  83646445.148 7      2280.062          43.000
C05  39785186.883 5 207171908.365 5        -3.832          35.000    39785184.938 6 160198443.052 6        -3.018          41.000
C19  23403809.086 7 121869758.578 7     -2436.523          45.000
C22  21816671.211 8 113605112.551 8       237.242          51.000
E02  24291387.938 8 127652118.930 8      1781.242          51.000    24291392.422 8  97811392.297 8      1364.845          51.000
E03  24929489.359 6 131005369.038 6     -1671.164          38.000    24929495.898 6 100380734.427 6     -1280.583          36.000
E08  21556418.055 7 113279750.675 7       565.309          47.000    21556420.008 8  86798765.444 8       433.150          49.000
E13  27224417.938 6 143065275.058 6     -2582.051          40.000    27224412.859 6 109621452.381 6     -1978.326          37.000
E25  25250360.781 5 132691539.693 5     -1087.539          31.000    25250364.273 6 101672745.013 6      -832.893          40.000
> 2020 05 05 02 55  0.0000000  0 16        .000000000000
G02  23813845.266 7 125142605.794 7     -2497.875          47.000    23813843.305 6  97513701.475 6     -1946.399          38.000
G05  20757262.203 5 109080147.273 5      1128.590          33.000    20757262.281 5  84997514.423 5       879.421          34.000
G07  21256094.594 8 111701515.218 8     -1502.820          49.000    21256093.922 8  87040132.990 8     -1171.029          49.000
G28  23486838.109 6 123424158.323 6      3260.469          38.000    23486837.148 4  96174663.647 4      2540.622          29.000
G30  20405687.008 8 107232664.511 8       533.402          51.000    20405687.234 8  83557910.857 8       415.638          51.000
R05  19962771.242 8 106712427.152 8     -1553.023          51.000    19962773.211 8  82998563.315 8     -1207.907          48.000
R15  19807446.961 8 105844980.018 8     -1523.434          51.000    19807449.359 8  82323907.289 8     -1184.896          48.000
R16  20116323.234 7 107457811.966 7      2910.617          46.000    20116325.594 7  83578279.659 7      2263.810          43.000
C05  39785208.758 5 207172022.058 5        -3.879          35.000    39785206.734 6 160198530.974 6        -3.389          41.000
C19  23417869.758 7 121942982.949 7     -2445.453          47.000
C22  21815340.602 8 113598183.261 8       224.223          51.000
E02  24281254.922 8 127598868.157 8      1768.406          51.000    24281259.016 8  97770589.759 8      1354.992          51.000
E03  24939046.742 6 131055592.249 6     -1677.320          39.000    24939052.758 6 100419217.205 6     -1285.309          36.000
E08  21553209.297 7 113262888.654 7       558.402          47.000    21553211.461 8  86785845.185 8       427.819          48.000
E13  27239172.141 6 143142809.878 6     -2587.355          40.000    27239167.773 6 109680862.220 6     -1982.720          37.000
E25  25256607.156 5 132724364.320 5     -1101.074          35.000    25256608.844 6 101697888.744 6      -843.596          39.000
> 2020 05 05 02 55 30.0000000  0 17        .000000000000
G02  23828125.320 7 125217647.269 7     -2506.793          46.000    23828120.805 6  97572175.304 6     -1953.348          37.000
G05  20750867.898 6 109046544.393 6      1109.723          36.000    20750866.055 6  84971330.406 6       864.722          36.000
G07  21264707.227 8 111746774.190 8     -1516.324          49.000    21264706.258 8  87075399.712 8     -1181.551          49.000
G13  22772502.375 6 119670261.525 6      2680.527          36.000
G28  23468235.844 6 123326401.762 6      3254.672          38.000    23468234.664 5  96098489.651 5      2536.111          33.000
G30  20402686.344 8 107216896.061 8       515.895          51.000    20402686.648 8  83545623.739 8       401.996          51.000
R05  19971530.242 8 106759248.121 8     -1570.430          51.000    19971532.070 8  83034979.628 8     -1221.445          49.000
R15  19816066.414 8 105891039.172 8     -1549.176          51.000    19816068.547 8  82359731.076 8     -1204.914          49.000
R16  20100033.164 7 107370793.642 7      2888.453          46.000    20100035.641 7  83510598.749 7      2246.575          43.000
C05  39785231.797 6 207172141.550 6        -5.559          36.000    39785229.844 6 160198624.134 6        -4.383          41.000
C19  23431982.734 8 122016469.784 8     -2455.492          49.000
C22  21814083.648 8 113591638.134 8       210.121          51.000
E02  24271194.414 8 127545997.235 8      1754.336          51.000    24271198.055 8  97730078.279 8      1344.246          51.000
E03  24948637.250 6 131105988.026 6     -1684.445          36.000    24948642.078 6 100457832.128 6     -1290.469          36.000
E08  21550038.578 8 113246225.883 8       550.508          48.000    21550040.602 8  86773077.603 8       421.788          49.000
E13  27253955.453 6 143220500.571 6     -2594.105          39.000    27253952.648 6 109740391.458 6     -1987.625          37.000
E25  25262931.844 5 132757593.385 5     -1116.238          35.000    25262932.023 6 101723349.932 6      -855.279          39.000
> 2020 05 05 02 56  0.0000000  0 16        .000000000000
G02  23842447.531 7 125292911.232 7     -2511.594          45.000    23842441.898 6  97630822.516 6     -1957.086          40.000
G05  20744573.695 5 109013467.172 5      1094.922          34.000    20744571.203 5  84945555.971 5       853.180          35.000
G07  21273386.719 7 111792385.196 7     -1525.344          47.000    21273385.500 7  87110940.764 7     -1188.580          47.000
G28  23449659.180 6 123228778.817 6      3252.438          38.000    23449657.914 5  96022419.848 5      2534.370          31.000
G30  20399776.820 8 107201606.759 8       502.387          51.000    20399777.258 8  83533709.995 8       391.470          51.000
R05  19980377.930 8 106806543.215 8     -1583.602          51.000    19980379.961 8  83071764.705 8     -1231.687          50.000
R15  19824821.180 8 105937821.109 8     -1570.648          51.000    19824823.430 8  82396117.030 8     -1221.615          49.000
R16  20083858.172 7 107284391.938 7      2870.605          47.000    20083861.328 7  83443397.467 7      2232.693          43.000
C05  39785254.633 5 207172260.366 5        -3.250          35.000    39785252.664 6 160198716.006 6        -2.592          41.000
C19  23446144.484 8 122090209.792 8     -2461.469          50.000
C22  21812899.109 8 113585469.542 8       200.098          51.000
E02  24261204.828 8 127493498.754 8      1744.469          51.000    24261207.359 8  97689852.154 8      1336.710          51.000
E03  24958258.984 5 131156547.861 5     -1687.094          35.000    24958262.305 6 100496572.769 6     -1292.666          37.000
E08  21546904.422 8 113229754.419 8       546.691          48.000    21546905.969 8  86760456.617 8       418.819          49.000
E13  27268766.461 6 143298336.304 6     -2596.113          39.000    27268764.766 6 109800031.835 6     -1989.242          37.000
E25  25269334.305 5 132791247.192 5     -1127.547          32.000    25269332.922 6 101749121.234 6      -863.575          39.000
> 2020 05 05 02 56 30.0000000  0 16        .000000000000
G02  23856810.594 7 125368391.444 7     -2519.637          44.000    23856805.891 7  97689638.301 7     -1963.353          43.000
G05  20738378.969 6 108980913.601 6      1076.188          37.000    20738377.500 6  84920189.551 6       838.588          37.000
G07  21282132.195 8 111838343.352 8     -1537.738          49.000    21282130.898 8  87146752.324 8     -1198.238          49.000
G28  23431107.867 6 123131288.838 6      3247.488          38.000    23431106.180 5  95946453.571 5      2530.504          32.000
G30  20396957.812 8 107186793.042 8       485.738          51.000    20396958.438 8  83522166.841 8       378.497          51.000
R05  19989313.688 8 106854308.993 8     -1600.023          51.000    19989315.617 8  83108915.884 8     -1244.460          49.000
R15  19833709.789 8 105985319.607 8     -1595.230          51.000    19833711.953 8  82433060.306 8     -1240.735          49.000
R16  20067798.883 8 107198606.748 8      2849.039          48.000    20067802.477 7  83376675.695 7      2215.922          42.000
C05  39785276.555 6 207172375.236 6        -3.586          36.000    39785274.617 6 160198804.045 6        -2.740          41.000
C19  23460353.820 8 122164198.972 8     -2470.535          50.000
C22  21811786.383 8 113579675.158 8       186.816          51.000
E02  24251285.750 8 127441370.608 8      1731.395          51.000    24251287.492 8  97649909.811 8      1326.653          51.000
E03  24967911.570 6 131207268.414 6     -1693.398          36.000    24967914.016 6 100535436.623 6     -1297.530          38.000
E08  21543806.188 8 113213471.604 8       539.625          48.000    21543807.117 8  86747980.174 8       413.554          49.000
E13  27283604.359 6 143376311.801 6     -2601.383          37.000    27283603.172 6 109859779.287 6     -1993.585          38.000
E25                                                                  25275810.375 6 101775199.265 6      -874.587          39.000
> 2020 05 05 02 57  0.0000000  0 17        .000000000000
G02  23871216.062 7 125444093.370 7     -2526.801          45.000    23871212.695 7  97748626.844 7     -1968.936          43.000
G05  20732285.945 6 108948893.658 6      1058.473          36.000    20732284.766 6  84895238.941 6       824.784          37.000
G07  21290945.070 8 111884655.439 8     -1549.508          50.000    21290943.727 8  87182839.648 8     -1207.412          49.000
G13  22726687.617 5 119429555.046 5      2667.660          35.000
G28  23412584.203 6 123033943.240 6      3242.590          37.000    23412581.195 4  95870599.768 4      2526.684          26.000
G30  20394230.914 8 107172462.835 8       469.656          51.000    20394231.156 8  83511000.450 8       365.966          51.000
R05  19998339.258 8 106902554.080 8     -1616.043          51.000    19998340.922 8  83146439.853 8     -1256.922          49.000
R15  19842733.688 8 106033540.318 8     -1619.258          51.000    19842735.852 8  82470565.310 8     -1259.423          48.000
R16  20051857.508 8 107113448.961 8      2828.281          48.000    20051860.766 7  83310441.858 7      2199.774          43.000
C05  39785298.969 6 207172491.413 6        -4.207          36.000    39785297.180 6 160198894.637 6        -2.930          41.000
C19  23474612.023 8 122238444.730 8     -2479.008          50.000
C22  21810747.336 8 113574263.928 8       174.062          51.000
E02  24241438.852 8 127389622.162 8      1718.746          51.000    24241439.773 8  97610258.402 8      1316.970          51.000
E03  24977594.781 5 131258147.155 5     -1699.262          35.000    24977599.227 6 100574429.974 6     -1301.879          38.000
E08  21540745.656 8 113197386.274 8       533.039          49.000    21540745.711 8  86735655.057 8       408.436          49.000
E13  27298469.859 5 143454433.017 5     -2605.855          35.000    27298469.586 6 109919638.315 6     -1997.003          39.000
E25  25282356.688 5 132859742.530 5     -1154.645          35.000    25282364.258 6 101801589.485 6      -884.802          37.000
> 2020 05 05 02 57 30.0000000  0 18        .000000000000
G02  23885661.508 7 125520003.474 7     -2533.793          46.000    23885658.883 7  97807777.560 7     -1974.384          44.000
G05  20726292.820 5 108917397.642 5      1040.305          35.000    20726290.906 5  84870696.578 5       810.624          35.000
G07  21299822.828 8 111931308.771 8     -1560.996          48.000    21299821.172 8  87219192.876 8     -1216.361          48.000
G09  23196526.773 5 121898570.183 5     -2747.496          31.000
G13  22711468.211 6 119349587.432 6      2662.984          37.000
G28  23394086.375 5 122936733.782 5      3237.805          33.000    23394083.234 5  95794859.216 5      2522.983          30.000
G30  20391593.984 8 107158605.019 8       453.871          51.000    20391593.805 8  83500202.168 8       353.666          51.000
R05  20007452.312 8 106951267.452 8     -1631.816          51.000    20007453.977 8  83184328.017 8     -1269.191          48.000
R15  19851890.031 8 106082469.476 8     -1642.895          51.000    19851892.078 8  82508621.318 8     -1277.807          48.000
R16  20036032.086 7 107028910.700 7      2807.523          47.000    20036034.641 7  83244689.833 7      2183.626          43.000
C05  39785320.070 6 207172601.045 6        -3.855          36.000    39785318.203 6 160198979.418 6        -2.830          41.000
C19  23488917.242 8 122312935.735 8     -2487.285          50.000
C22  21809779.977 8 113569226.039 8       161.508          51.000
E02  24231662.195 8 127338243.768 8      1706.238          51.000    24231663.023 8  97570890.565 8      1307.368          51.000
E03  24987309.062 6 131309195.046 6     -1704.539          41.000    24987313.906 6 100613544.565 6     -1306.081          36.000
E08  21537720.734 8 113181488.283 8       526.551          49.000    21537719.867 8  86723473.478 8       403.530          49.000
E13  27313361.164 6 143532687.028 6     -2611.164          36.000    27313361.852 6 109979599.109 6     -2000.409          40.000
E25  25288989.547 6 132894579.635 6     -1167.719          38.000    25288991.586 5 101828282.761 5      -895.096          35.000
> 2020 05 05 02 58  0.0000000  0 16        .000000000000
G02  23900146.727 7 125596122.388 7     -2536.215          44.000    23900144.555 7  97867090.981 7     -1976.271          44.000
G05  20720399.711 5 108886430.236 5      1027.973          33.000    20720397.344 5  84846566.108 5       801.021          34.000
G07  21308765.797 8 111978305.020 8     -1567.496          48.000    21308764.078 8  87255813.330 8     -1221.426          48.000
G13  22696277.531 5 119269764.105 5      2662.977          31.000
G30  20389047.445 8 107145222.581 8       442.645          51.000    20389047.562 8  83489774.318 8       344.918          51.000
R05  20016653.164 8 107000452.193 8     -1642.703          51.000    20016654.805 7  83222582.795 7     -1277.658          46.000
R15  19861179.180 8 106132107.730 8     -1661.730          51.000    19861181.180 8  82547228.845 8     -1292.457          48.000
R16  20020323.461 7 106944997.867 7      2791.316          47.000    20020325.781 7  83179424.254 7      2171.021          43.000
C05  39785340.352 6 207172707.469 6         1.203          36.000    39785338.469 6 160199060.958 6          .840          41.000
C19  23503270.031 8 122387674.408 8     -2490.902          50.000
C22  21808884.883 8 113564565.607 8       153.559          51.000
E02  24221956.742 8 127287239.853 8      1698.520          51.000    24221957.484 8  97531809.654 8      1301.466          51.000
E03  24997054.898 6 131360404.554 6     -1704.902          40.000    24997057.898 5 100652782.890 5     -1306.453          32.000
E08  21534731.938 8 113165781.487 8       525.090          49.000    21534730.430 8  86711438.400 8       402.294          49.000
E13  27328278.195 5 143611074.945 5     -2611.000          34.000    27328280.148 6 110039662.559 6     -2000.334          41.000
E25  25295698.875 5 132929794.511 5     -1176.621          31.000    25295694.898 5 101855280.784 5      -901.540          35.000
> 2020 05 05 02 58 30.0000000  0 15        .000000000000
G02  23914675.750 7 125672471.913 7     -2548.098          43.000    23914673.766 7  97926584.116 7     -1985.531          43.000
G05  20714612.273 6 108856021.717 6      1005.578          36.000    20714609.359 6  84822867.963 6       783.567          36.000
G07  21317778.438 8 112025667.174 8     -1583.836          48.000    21317777.070 8  87292718.895 8     -1234.158          48.000
G30  20386595.805 8 107132339.546 8       422.039          51.000    20386596.180 8  83479735.603 8       328.862          51.000
R05  20025946.797 8 107050133.464 8     -1663.406          51.000    20025948.406 7  83261223.790 7     -1293.760          47.000
R15  19870604.969 8 106182477.020 8     -1690.098          51.000    19870607.406 8  82586404.977 8     -1314.517          48.000
R16  20004737.109 8 106861738.075 8      2765.438          48.000    20004739.180 7  83114666.656 7      2150.896          43.000
C05                                                                  39785362.516 6 160199157.877 6        -2.712          41.000
C19  23517675.094 8 122462684.189 8     -2504.000          50.000
C22  21808067.180 8 113560307.623 8       136.141          51.000
E02  24212327.141 8 127236635.927 8      1681.109          51.000    24212327.898 8  97493035.217 8      1288.135          51.000
E03  25006835.570 7 131411800.137 7     -1715.312          42.000    25006844.312 5 100692183.650 5     -1314.306          31.000
E08  21531784.211 8 113150290.946 8       513.688          49.000    21531782.281 8  86699569.027 8       393.614          49.000
E13  27343224.875 5 143689615.863 5     -2619.469          34.000    27343228.367 6 110099845.590 6     -2007.272          41.000
E25                                                                  25302480.750 5 101882601.370 5      -915.416          35.000
> 2020 05 05 02 59  0.0000000  0 16        .000000000000
G02  23929232.195 6 125748967.027 6     -2554.730          41.000    23929230.344 6  97986190.722 6     -1990.699          41.000
G05  20708915.891 6 108826084.190 6       987.398          38.000    20708911.773 6  84799540.060 6       769.404          37.000
G07  21326844.852 7 112073311.946 7     -1595.445          47.000    21326843.367 7  87329844.691 7     -1243.204          47.000
G13  22665982.062 4 119110539.612 4      2647.629          29.000
G30  20384223.625 8 107119874.204 8       406.004          51.000    20384224.039 8  83470022.340 8       316.367          51.000
R05  20035317.703 8 107100228.372 8     -1679.281          51.000    20035320.008 8  83300186.492 8     -1306.105          48.000
R15  19880151.609 8 106233491.660 8     -1713.820          51.000    19880154.039 8  82626083.035 8     -1332.971          48.000
R16  19989257.633 7 106779051.315 7      2744.031          47.000    19989259.969 7  83050354.784 7      2134.250          43.000
C05  39785376.812 5 207172897.552 5        -3.531          35.000    39785374.938 6 160199207.928 6        -2.815          41.000
C19  23532116.344 8 122537883.723 8     -2512.309          49.000
C22  21807311.500 8 113556372.295 8       123.270          51.000
E02  24202757.734 8 127186351.712 8      1668.348          49.000    24202759.133 8  97454505.759 8      1278.311          51.000
E03  25016636.102 7 131463300.337 7     -1720.961          43.000    25016653.953 4 100731693.812 4     -1318.302          29.000
E08  21528862.312 8 113134935.848 8       507.121          50.000    21528860.062 8  86687803.444 8       388.567          49.000
E13                                                                  27358190.102 7 110160084.306 7     -2010.792          42.000
E25  25309330.859 6 133001459.208 6     -1208.090          36.000    25309332.547 5 101910181.344 5      -925.392          35.000
> 2020 05 05 02 59 30.0000000  0 16        .000000000000
G02  23943838.984 6 125825730.140 6     -2561.598          39.000    23943837.789 6  98046006.150 6     -1996.047          39.000
G05  20703333.508 6 108796747.513 6       969.582          38.000    20703328.367 6  84776680.300 6       755.518          37.000
G07  21335988.562 8 112121362.815 8     -1606.871          48.000    21335987.094 8  87367286.932 8     -1252.107          48.000
G28  23320370.555 5 122549359.833 5      3217.887          32.000
G30  20381954.578 8 107107951.001 8       390.059          51.000    20381955.492 8  83460731.526 8       303.942          51.000
R05  20044790.008 8 107150863.676 8     -1695.238          51.000    20044792.789 8  83339569.499 8     -1318.519          49.000
R15  19889842.273 8 106285275.891 8     -1737.246          51.000    19889844.688 8  82666359.659 8     -1351.191          48.000
R16  19973909.727 8 106697067.013 8      2722.645          48.000    19973912.430 7  82986589.244 7      2117.612          43.000
C05  39785401.445 5 207173025.188 5        -3.102          35.000    39785399.508 6 160199306.660 6        -2.960          41.000
C19  23546617.055 7 122613395.951 7     -2520.691          47.000
C22  21806641.508 8 113552884.126 8       110.379          51.000
E02  24193272.586 8 127136513.112 8      1655.430          48.000    24193274.781 8  97416317.745 8      1268.422          51.000
E03  25026479.992 7 131515030.100 7     -1726.523          43.000    25026483.758 6 100771253.134 6     -1323.121          39.000
E08  21525990.156 8 113119841.736 8       500.379          50.000    21525987.789 8  86676237.834 8       383.353          50.000
E13                                                                  27373187.844 6 110220472.642 6     -2014.201          41.000
E25  25316267.844 5 133037915.549 5     -1220.938          34.000    25316272.062 5 101938115.400 5      -935.919          34.000
