     3.02           OBSERVATION DATA    M (MIXED)           RINEX VERSION / TYPE
SAVERINEX           SC600               20200513 125931 LCL PGM / RUN BY / DATE
       G = GPS       R = GLONASS       C = COMPASS          COMMENT
       S = SBAS      J = QZSS          E = GALILEO          COMMENT
BEAN                                                        MARKER NAME
1                                                           MARKER NUMBER
GEODETIC                                                    MARKER TYPE
Unige DICCA         GTER                                    OBSERVER / AGENCY
SC60291900056       SC600               2.12(191226)        REC # / TYPE / VERS
                    HEMA45          NONE                    ANT # / TYPE
  4509407.8091   693652.4678  4442337.6214                  APPROX POSITION XYZ
        0.0000        0.0000        0.0000                  ANTENNA: DELTA H/E/N
G    8 C1C L1C D1C S1C C2Y L2Y D2Y S2Y                      SYS / # / OBS TYPES
R    8 C1C L1C D1C S1C C2P L2P D2P S2P                      SYS / # / OBS TYPES
C    8 C1I L1I D1I S1I C7I L7I D7I S7I                      SYS / # / OBS TYPES
E    8 C1C L1C D1C S1C C7Q L7Q D7Q S7Q                      SYS / # / OBS TYPES
DBHZ                                                        COMMENT
     30.000                                                 INTERVAL
  2020    05    13    10    00    0.0000000     GPS         TIME OF FIRST OBS
  2020    05    13    10    59   30.0000000     GPS         TIME OF LAST OBS
     0                                                      RCV CLOCK OFFS APPL
G L1C  0.00000                                              SYS / PHASE SHIFT
G L2Y  0.00000                                              SYS / PHASE SHIFT
R L1C  0.00000                                              SYS / PHASE SHIFT
R L2P  0.25000                                              SYS / PHASE SHIFT
C L1I  0.00000                                              SYS / PHASE SHIFT
C L7I  0.00000                                              SYS / PHASE SHIFT
E L1C  0.50000                                              SYS / PHASE SHIFT
E L7Q -0.25000                                              SYS / PHASE SHIFT
 13 R01  1 R06 -4 R07  5 R08  6 R09 -2 R10 -5 R11  0 R12 -1 GLONASS SLOT / FRQ #
    R16 -1 R19  3 R20  2 R21  4 R22 -3                      GLONASS SLOT / FRQ #
 C1C   71.950 C2C   71.950 C2P   71.950                     GLONASS COD/PHS/BIS
    18                                                      LEAP SECONDS
*** Above antenna height is from mark to ANTENNA BOTTOM.    COMMENT
    17     4        0.0000        ANT MEASURE TYPE/HEIGT    COMMENT
    0.0000    0.0000    0.0458    0.0405    0.0000          COMMENT
                    BASE STATION                            COMMENT
                                                            END OF HEADER
> 2020 05 13 10 00  0.0000000  0 11        .000000000000
G12  20908198.695 7 109873321.045 7     -1746.414          43.000    20908197.477 7  85615565.071 7     -1360.842          44.000
G24  23187539.188 7 121851335.771 7     -3406.062          45.000    23187545.383 7  94949095.246 7     -2654.075          46.000
G25  20149840.031 7 105888126.750 7        64.039          47.000    20149840.344 7  82510229.810 7        49.898          47.000
G29  21196306.898 8 111387349.075 8      2325.461          50.000    21196306.477 8  86795345.263 8      1812.047          50.000
R11  19547137.078 8 104453995.328 8      -634.633          51.000    19547139.125 8  81242000.459 8      -493.603          49.000
R21  19599856.305 8 104882760.191 8      -380.309          51.000    19599858.500 8  81575602.968 8      -295.796          48.000
R22  20983309.195 8 112010330.675 8      3778.723          51.000    20983315.023 7  87119218.979 7      2939.010          46.000
C26  21370757.914 8 111283162.072 8       360.227          51.000
E11  23553427.938 6 123774127.633 6       429.586          41.000    23553428.484 6  94839908.694 6       329.507          37.000
E25  23828390.266 8 125219032.515 8      -731.988          51.000    23828392.562 8  95947060.746 8      -560.835          51.000
E36  25356597.961 8 133249830.407 8      2833.457          49.000    25356601.953 7 102100549.264 7      2171.084          47.000
> 2020 05 13 10 00 30.0000000  0 11        .000000000000
G12  20918182.219 7 109925784.812 7     -1754.527          42.000    20918181.297 7  85656445.933 7     -1367.164          42.000
G24  23206992.195 7 121953558.933 7     -3412.004          47.000    23206998.883 7  95028749.646 7     -2658.704          47.000
G25  20149495.859 7 105886318.645 7        53.215          47.000    20149496.469 7  82508820.907 7        41.466          47.000
G29  21183060.719 8 111317742.423 8      2311.660          49.000    21183060.820 8  86741106.339 8      1801.294          49.000
R11  19550732.641 8 104473208.336 8      -649.629          51.000    19550735.031 8  81256943.894 8      -505.267          49.000
R21  19602054.352 8 104894521.574 8      -407.113          51.000    19602056.758 8  81584750.692 8      -316.644          48.000
R22  20962107.266 8 111897148.242 8      3763.434          51.000    20962110.797 7  87031188.254 7      2927.118          45.000
C26  21368705.195 8 111272472.269 8       349.094          51.000
E11  23551007.273 7 123761403.542 7       415.312          43.000    23551006.711 5  94830159.117 5       318.173          35.000
E25  23832575.820 8 125241027.859 8      -737.715          51.000    23832578.492 8  95963914.313 8      -565.259          51.000
E36  25340432.148 8 133164877.268 8      2826.738          50.000    25340434.898 8 102035455.357 8      2165.915          48.000
> 2020 05 13 10 01  0.0000000  0 13        .000000000000
G12  20928363.547 7 109979288.035 7     -1778.578          42.000    20928362.844 7  85698136.731 7     -1385.905          42.000
G24  23226630.469 8 122056752.921 8     -3434.172          48.000    23226636.797 8  95109160.524 8     -2675.978          48.000
G25  20149365.250 8 105885632.037 8        26.109          48.000    20149366.094 8  82508285.866 8        20.342          48.000
G29  21170044.852 8 111249345.385 8      2281.504          50.000    21170045.625 8  86687809.965 8      1777.795          50.000
G32  22489852.383 6 118184968.316 6     -1509.852          39.000    22489845.766 6  92092149.487 6     -1176.508          37.000
R11  19554564.008 8 104493680.798 8      -681.152          51.000    19554566.453 8  81272866.910 8      -529.785          49.000
R21  19604554.070 8 104907898.411 8      -450.559          51.000    19604556.578 8  81595154.922 8      -350.434          48.000
R22  20941142.414 8 111785233.289 8      3731.469          49.000    20941143.898 7  86944143.348 7      2902.253          44.000
C26  21366867.992 8 111262904.967 8       321.840          51.000
C29  23638362.750 5 123091193.316 5     -2325.918          35.000
E11  23548820.297 7 123749907.562 7       384.375          44.000    23548820.055 6  94821350.582 6       294.437          36.000
E25  23836944.320 8 125263984.432 8      -759.426          51.000    23836947.219 8  95981504.392 8      -581.901          51.000
E36  25324454.570 8 133080914.636 8      2804.004          49.000    25324457.680 8 101971120.395 8      2148.513          50.000
> 2020 05 13 10 01 30.0000000  0 15        .000000000000
G02  22942355.703 5 120562906.539 5      -366.410          33.000
G06  23967692.273 5 125951073.546 5     -1796.902          33.000    23967696.750 5  98143706.314 5     -1400.187          33.000
G12  20938474.062 6 110032420.356 6     -1773.949          41.000    20938473.086 6  85739538.536 6     -1382.295          41.000
G24  23246185.031 8 122159506.567 8     -3426.484          49.000    23246190.469 8  95189228.262 8     -2669.991          49.000
G25  20149179.828 8 105884657.269 8        28.621          48.000    20149180.867 8  82507526.296 8        22.302          48.000
G29  21156991.625 8 111180750.017 8      2281.125          51.000    21156992.625 8  86634359.040 8      1777.500          51.000
G32  22498451.734 6 118230157.942 6     -1512.621          38.000    22498446.688 6  92127362.118 6     -1178.669          36.000
R11  19558362.789 8 104513980.307 8      -682.641          51.000    19558365.172 8  81288655.403 8      -530.943          49.000
R21  19607087.289 8 104921454.090 8      -463.605          50.000    19607089.844 8  81605698.218 8      -360.582          48.000
R22  20920146.766 8 111673157.689 8      3729.602          48.000    20920147.359 7  86856973.459 7      2900.804          44.000
C26  21364978.289 8 111253064.245 8       323.906          51.000
C29  23651720.164 4 123160771.696 4     -2323.547          27.000
E11  23546598.180 7 123738230.145 7       383.324          43.000    23546599.711 6  94812403.033 6       293.878          37.000
E25  23841227.570 8 125286492.881 8      -751.594          51.000    23841230.422 8  95998751.105 8      -575.891          51.000
E36  25308397.609 8 132996534.701 8      2810.879          49.000    25308401.750 8 101906465.665 8      2153.736          51.000
> 2020 05 13 10 02  0.0000000  0 14        .000000000000
G02  22944502.406 5 120574173.320 5      -386.824          34.000
G06  23978004.078 5 126005256.046 5     -1816.602          35.000    23978006.695 6  98185926.392 6     -1415.537          36.000
G12  20948629.047 6 110085786.368 6     -1785.410          38.000    20948628.180 6  85781122.410 6     -1391.232          39.000
G24  23265770.445 8 122262423.365 8     -3435.805          49.000    23265774.570 8  95269423.145 8     -2677.253          49.000
G25  20149054.656 8 105883999.548 8        14.180          48.000    20149055.844 8  82507013.794 8        11.049          49.000
G29  21144016.227 8 111112562.539 8      2263.543          51.000    21144017.086 8  86581225.955 8      1763.803          51.000
G32  22507138.172 5 118275817.161 5     -1532.289          33.000    22507141.031 5  92162940.613 5     -1194.004          32.000
R11  19562244.406 8 104534722.975 8      -701.445          51.000    19562246.961 8  81304788.573 8      -545.569          49.000
R21  19609768.891 8 104935803.712 8      -494.105          51.000    19609771.523 8  81616859.037 8      -384.304          48.000
R22  20899236.703 7 111561539.911 7      3710.301          47.000    20899237.906 7  86770159.680 7      2885.789          45.000
C26  21363151.438 8 111243550.752 8       309.113          51.000
E11  23544456.797 7 123726976.758 7       365.684          44.000    23544456.688 6  94803780.326 6       280.109          37.000
E25  23845540.727 8 125309158.755 8      -760.762          51.000    23845543.570 8  96016118.459 8      -582.933          51.000
E36  25292377.078 8 132912344.550 8      2800.629          50.000    25292382.047 8 101841956.330 8      2145.927          51.000
> 2020 05 13 10 02 30.0000000  0 15        .000000000000
G02  22946739.898 5 120585926.992 5      -377.266          30.000
G06  23988403.680 6 126059903.247 6     -1806.668          38.000    23988405.859 6  98228508.583 6     -1407.796          38.000
G12  20958825.172 6 110139368.400 6     -1766.965          40.000    20958824.562 6  85822874.583 6     -1376.856          39.000
G24  23285382.891 7 122365483.964 7     -3414.988          47.000    23285385.766 7  95349730.067 7     -2661.030          47.000
G25  20148986.539 8 105883641.780 8        29.699          48.000    20148987.891 8  82506735.022 8        23.142          48.000
G29  21131115.562 8 111044767.170 8      2275.996          51.000    21131115.953 8  86528398.420 8      1773.503          51.000
G32  22515911.500 5 118321926.493 5     -1521.820          35.000    22515917.961 5  92198869.922 5     -1185.831          34.000
R11  19566205.844 8 104555892.325 8      -689.703          51.000    19566208.742 8  81321253.604 8      -536.436          49.000
R21  19612595.477 8 104950928.484 8      -494.000          51.000    19612598.141 8  81628622.743 8      -384.222          48.000
R22  20878409.703 7 111450366.231 7      3721.410          47.000    20878412.461 7  86683691.323 7      2894.430          46.000
C26  21361384.312 8 111234348.462 8       324.023          51.000
C29  23678631.875 5 123300752.015 5     -2319.742          32.000
E11  23542392.844 7 123716130.468 7       377.180          44.000    23542391.555 6  94795469.528 6       289.059          40.000
E25  23849880.562 8 125331965.183 8      -739.797          51.000    23849883.555 8  96033593.493 8      -566.851          51.000
E36  25276389.922 8 132828328.818 8      2820.316          51.000    25276395.258 8 101777580.658 8      2161.025          51.000
> 2020 05 13 10 03  0.0000000  0 15        .000000000000
G02  22949040.945 6 120598021.961 6      -421.887          36.000
G06  23998865.570 6 126114880.915 6     -1851.512          39.000    23998868.797 6  98271348.342 6     -1442.736          39.000
G12  20969037.445 6 110193033.344 6     -1803.531          39.000    20969036.805 6  85864691.373 6     -1405.349          38.000
G24  23304996.766 7 122468554.993 7     -3449.227          46.000    23304998.508 7  95430045.121 7     -2687.709          45.000
G25  20148950.281 8 105883451.657 8        -9.902          49.000    20148952.023 8  82506586.868 8        -7.716          49.000
G29  21118264.594 8 110977232.795 8      2233.336          51.000    21118264.578 8  86475774.266 8      1740.262          51.000
G32  22524745.719 5 118368351.490 5     -1565.938          35.000    22524751.250 5  92235045.383 5     -1220.208          35.000
R11  19570222.164 8 104577354.568 8      -733.957          51.000    19570225.250 8  81337946.436 8      -570.855          49.000
R21  19615541.336 8 104966692.397 8      -549.758          51.000    19615543.773 8  81640883.572 8      -427.586          48.000
R22  20857641.656 8 111339506.336 8      3676.398          48.000    20857646.000 7  86597467.031 7      2859.421          47.000
C26  21359651.961 8 111225327.192 8       284.391          51.000
C29  23692131.930 5 123371016.482 5     -2358.348          35.000
E11  23540381.008 7 123705559.107 7       334.461          43.000    23540380.812 6  94787369.420 6       256.290          41.000
E25  23854222.086 8 125354780.224 8      -774.027          51.000    23854225.227 8  96051075.125 8      -593.053          51.000
E36  25260411.211 8 132744357.049 8      2784.961          51.000    25260416.609 8 101713238.686 8      2133.925          51.000
> 2020 05 13 10 03 30.0000000  0 15        .000000000000
G02  22951492.102 5 120610900.239 5      -437.188          32.000    22951489.898 5  93982513.181 5      -340.666          31.000
G06  24009474.680 6 126170633.444 6     -1865.574          39.000    24009479.203 6  98314791.883 6     -1453.694          39.000
G12  20979350.000 6 110247226.256 6     -1809.375          38.000    20979349.375 6  85906919.607 6     -1409.903          39.000
G24  23324696.773 7 122572080.636 7     -3452.461          45.000    23324697.305 7  95510714.451 7     -2690.232          45.000
G25  20149030.992 8 105883875.221 8       -18.445          50.000    20149032.984 8  82506916.916 8       -14.373          50.000
G29  21105548.000 8 110910406.464 8      2221.551          51.000    21105547.898 8  86423701.826 8      1731.079          51.000
G32  22533724.789 6 118415536.200 6     -1579.766          39.000    22533730.656 6  92271812.693 6     -1230.986          39.000
R11  19574378.266 8 104599563.990 8      -746.809          51.000    19574381.172 8  81355220.434 8      -580.851          48.000
R21  19618691.391 8 104983548.469 8      -574.027          51.000    19618693.727 8  81653993.872 8      -446.463          48.000
R22  20837018.453 8 111229416.971 8      3662.797          49.000    20837023.477 7  86511842.007 7      2848.845          46.000
C26  21358039.344 8 111216929.872 8       275.332          51.000
C29  23705736.891 5 123441854.486 5     -2364.836          34.000
E11  23538506.414 7 123695708.876 7       322.309          42.000    23538506.562 6  94779821.835 6       246.865          41.000
E25  23858650.211 8 125378050.201 8      -777.238          51.000    23858653.234 8  96068905.361 8      -595.534          51.000
E36  25244526.164 8 132660877.098 8      2780.367          51.000    25244531.109 8 101649273.566 8      2130.453          51.000
> 2020 05 13 10 04  0.0000000  0 14        .000000000000
G06  24020174.195 6 126226861.246 6     -1882.512          36.000    24020179.328 5  98358605.715 5     -1466.892          35.000
G12  20989706.195 6 110301648.838 6     -1818.891          36.000    20989705.320 5  85949326.792 5     -1417.320          35.000
G24  23344425.867 7 122675760.574 7     -3458.961          43.000    23344425.734 7  95591503.963 7     -2695.294          43.000
G25  20149171.805 8 105884614.715 8       -30.320          51.000    20149173.867 8  82507493.144 8       -23.626          51.000
G29  21092909.172 8 110843991.948 8      2206.598          50.000    21092909.500 8  86371950.243 8      1719.424          50.000
G32  22542791.484 6 118463180.678 6     -1596.160          41.000    22542797.656 6  92308938.211 6     -1243.764          41.000
R11  19578617.477 8 104622218.433 8      -762.961          51.000    19578620.523 8  81372840.551 8      -593.414          48.000
R21  19621988.562 8 105001191.996 8      -601.664          51.000    19621990.680 8  81667716.628 8      -467.961          48.000
R22  20816483.906 8 111119799.166 8      3645.691          51.000    20816488.531 7  86426583.735 7      2835.538          46.000
C26  21356489.969 8 111208862.327 8       262.988          51.000
C29  23719395.570 5 123512969.199 5     -2375.918          30.000
E11  23536712.281 6 123686282.138 6       306.594          40.000    23536712.445 7  94772598.746 7       235.006          42.000
E25  23863108.164 8 125401477.673 8      -783.926          51.000    23863110.977 8  96086856.273 8      -600.700          51.000
E36  25228678.320 8 132577592.963 8      2772.559          51.000    25228682.531 8 101585458.491 8      2124.455          51.000
> 2020 05 13 10 04 30.0000000  0 13        .000000000000
G06  24030995.641 5 126283729.851 5     -1917.145          34.000    24030999.953 5  98402918.878 5     -1493.879          32.000
G12  21000137.711 5 110356468.077 5     -1844.035          35.000    21000137.062 5  85992043.050 5     -1436.914          35.000
G24  23364215.875 7 122779760.882 7     -3482.191          43.000    23364214.961 7  95672543.062 7     -2713.399          42.000
G25  20149404.539 8 105885837.604 8       -58.875          51.000    20149406.453 8  82508446.042 8       -45.877          51.000
G29  21080380.648 8 110778157.698 8      2174.648          50.000    21080381.617 8  86320650.823 8      1694.531          50.000
G32  22551977.180 7 118511450.150 7     -1629.328          43.000    22551982.602 6  92346550.742 6     -1269.609          40.000
R11  19582972.141 8 104645488.899 8      -796.254          51.000    19582975.148 8  81390939.786 8      -619.309          48.000
R21  19625464.516 8 105019791.935 8      -646.285          51.000    19625466.539 8  81682183.264 8      -502.663          49.000
R22  20796070.484 8 111010827.099 8      3611.375          51.000    20796073.836 7  86341827.692 7      2808.847          46.000
C26  21355036.031 8 111201291.390 8       234.016          51.000
E11  23535031.047 6 123677446.399 6       274.496          39.000    23535030.906 6  94765828.516 6       210.514          41.000
E25  23867627.977 8 125425230.349 8      -807.250          51.000    23867630.805 8  96105056.377 8      -618.548          51.000
E36  25212899.719 8 132494673.905 8      2747.824          51.000    25212903.094 8 101521923.170 8      2105.434          49.000
> 2020 05 13 10 05  0.0000000  0 14        .000000000000
G06  24041875.055 5 126340898.243 5     -1903.191          32.000    24041877.547 5  98447465.605 5     -1483.009          30.000
G12  21010580.047 6 110411343.593 6     -1822.301          41.000    21010579.867 6  86034803.162 6     -1419.972          41.000
G24  23384002.117 7 122883740.296 7     -3457.812          43.000    23384000.633 7  95753565.878 7     -2694.402          43.000
G25  20149664.680 8 105887204.678 8       -40.262          51.000    20149666.445 8  82509511.301 8       -31.370          51.000
G29  21067898.836 8 110712565.692 8      2190.113          51.000    21067899.859 8  86269540.182 8      1706.582          51.000
G32  22561217.094 7 118560003.221 7     -1615.484          44.000    22561222.273 6  92384384.330 6     -1258.813          37.000
R11  19587377.875 8 104669031.406 8      -781.449          51.000    19587380.508 8  81409250.595 8      -607.794          48.000
R21  19629054.508 8 105039001.561 8      -642.609          51.000    19629056.328 8  81697124.074 8      -499.807          49.000
R22  20775713.883 8 110902159.584 8      3624.902          51.000    20775716.445 7  86257308.540 7      2819.372          47.000
C26  21353613.188 8 111193881.867 8       251.969          51.000
C29  23746890.930 5 123656301.020 5     -2382.539          33.000
E11  23533398.289 5 123668862.735 5       289.355          35.000    23533396.820 6  94759251.356 6       221.801          40.000
E25  23872145.352 8 125448969.356 8      -783.324          51.000    23872148.172 8  96123245.990 8      -600.224          51.000
E36  25197126.102 8 132411782.579 8      2770.273          51.000    25197128.328 8 101458409.102 8      2122.683          48.000
> 2020 05 13 10 05 30.0000000  0 13        .000000000000
G12  21021099.594 6 110466624.703 6     -1849.223          37.000    21021099.375 5  86077879.314 5     -1440.953          35.000
G24  23403851.195 7 122988047.356 7     -3482.426          45.000    23403850.453 7  95834844.055 7     -2713.579          45.000
G25  20150018.820 8 105889065.718 8       -70.289          51.000    20150020.602 8  82510961.453 8       -54.771          51.000
G29  21055530.367 8 110647566.946 8      2156.637          51.000    21055530.891 8  86218891.834 8      1680.496          51.000
G32  22570577.305 7 118609187.472 7     -1650.223          44.000    22570581.086 7  92422709.762 7     -1285.888          43.000
R11  19591901.289 8 104693202.173 8      -816.184          51.000    19591903.781 8  81428050.056 8      -634.809          49.000
R21  19632824.750 8 105059175.373 8      -688.504          51.000    19632826.250 8  81712814.831 8      -535.500          49.000
R22  20755481.297 8 110794155.856 8      3588.906          51.000    20755483.914 8  86173305.671 8      2791.375          48.000
C26  21352288.031 8 111186981.260 8       221.398          51.000
C29  23760736.508 5 123728405.558 5     -2410.730          34.000
E11  23531886.656 5 123660900.979 5       255.547          33.000    23531878.242 6  94753135.279 6       196.180          40.000
E25  23876726.883 8 125473044.800 8      -808.234          51.000    23876729.492 8  96141693.393 8      -619.293          51.000
E36  25181424.305 8 132329270.527 8      2744.035          51.000    25181425.828 8 101395185.650 8      2102.563          48.000
> 2020 05 13 10 06  0.0000000  0 14        .000000000000
G12  21031595.125 5 110521779.656 5     -1846.301          33.000    21031594.695 5  86120857.243 5     -1438.679          34.000
G24  23423661.070 7 123092148.552 7     -3476.258          45.000    23423662.031 7  95915961.824 7     -2708.775          45.000
G25  20150365.938 8 105890889.726 8       -70.121          51.000    20150367.859 8  82512382.754 8       -54.640          51.000
G29  21043174.109 8 110582631.576 8      2153.598          51.000    21043173.820 8  86168292.867 8      1678.128          51.000
G32  22579956.227 7 118658469.731 7     -1654.156          44.000    22579960.062 7  92461111.518 7     -1288.956          44.000
R11  19596441.266 8 104717461.998 8      -820.152          51.000    19596444.070 8  81446918.772 8      -637.899          49.000
R21  19636673.625 8 105079771.301 8      -703.633          51.000    19636675.016 8  81728833.894 8      -547.270          49.000
R22  20735272.562 8 110686280.087 8      3583.656          51.000    20735275.438 8  86089402.342 8      2787.291          48.000
C26  21350959.609 8 111180064.249 8       221.047          51.000
C29  23774569.523 5 123800428.763 5     -2407.965          31.000
E11                                                                  23530372.789 6  94747073.557 6       193.666          38.000
E24  25761326.367 5 135376634.891 5     -2284.688          35.000
E25  23881271.430 8 125496925.934 8      -802.527          51.000    23881273.883 8  96159991.908 8      -614.947          51.000
E36  25165693.648 8 132246608.542 8      2747.938          50.000    25165695.516 8 101331847.264 8      2105.661          49.000
> 2020 05 13 10 06 30.0000000  0 11        .000000000000
G24  23443629.992 7 123197085.949 7     -3500.109          45.000    23443632.695 7  95997731.183 7     -2727.358          45.000
G25  20150904.586 8 105893719.921 8       -99.246          51.000    20150906.570 8  82514588.103 8       -77.335          51.000
G29  21031028.555 8 110518803.956 8      2120.867          51.000    21031027.445 8  86118557.069 8      1652.624          51.000
G32  22589551.477 7 118708891.006 7     -1688.035          43.000    22589555.688 7  92500400.797 7     -1315.355          43.000
R11  19601196.539 8 104742872.454 8      -854.227          51.000    19601199.273 8  81466682.439 8      -664.401          49.000
R21  19640799.633 8 105101849.976 8      -748.680          51.000    19640801.023 8  81746006.207 8      -582.306          50.000
R22  20715287.102 8 110579595.834 8      3548.129          50.000    20715289.820 8  86006425.739 8      2759.656          49.000
C26  21349826.797 8 111174165.519 8       191.316          51.000
E11  23529082.656 6 123646176.067 6       219.570          41.000    23529078.383 6  94741865.577 6       168.320          38.000
E25  23885977.594 8 125521656.385 8      -826.863          51.000    23885979.945 8  96178941.199 8      -633.565          51.000
E36  25150133.156 8 132164841.619 8      2722.367          50.000    25150136.273 8 101269194.718 8      2086.000          51.000
> 2020 05 13 10 07  0.0000000  0 13        .000000000000
G06  24086413.578 5 126574963.901 5     -1980.191          32.000    24086412.914 5  98629821.219 5     -1543.009          32.000
G12  21052912.805 6 110633799.744 6     -1867.445          40.000    21052910.945 6  86208154.765 6     -1455.152          40.000
G24  23463558.906 7 123301812.466 7     -3492.305          46.000    23463562.750 7  96079336.213 7     -2721.279          46.000
G25  20151435.867 8 105896511.551 8       -97.402          51.000    20151437.766 8  82516763.389 8       -75.898          51.000
G29  21018894.758 8 110455040.393 8      2119.316          51.000    21018893.359 8  86068871.181 8      1651.415          51.000
G32  22599164.211 7 118759404.180 7     -1690.266          45.000    22599167.969 7  92539761.706 7     -1317.087          44.000
R11  19605968.469 8 104768371.669 8      -856.555          51.000    19605971.070 8  81486515.150 8      -666.209          49.000
R21  19645003.406 8 105124345.990 8      -761.820          51.000    19645004.906 8  81763503.107 8      -592.527          49.000
R22  20695325.828 7 110473045.415 7      3544.547          47.000    20695329.250 8  85923553.179 8      2756.870          50.000
C26  21348690.852 8 111168250.654 8       192.406          51.000
E11  23527801.750 7 123639448.613 7       218.363          42.000    23527798.352 6  94736710.856 6       166.874          36.000
E25  23890646.578 8 125546191.607 8      -819.512          51.000    23890648.914 8  96197740.887 8      -627.953          51.000
E36  25134544.695 8 132082926.773 8      2727.973          51.000    25134549.148 8 101206428.816 8      2090.289          51.000
> 2020 05 13 10 07 30.0000000  0 15        .000000000000
G06  24097736.273 5 126634458.467 5     -1980.535          34.000    24097734.398 5  98676180.563 5     -1543.274          32.000
G12  21063569.016 6 110689803.103 6     -1860.695          38.000    21063566.836 6  86251793.794 6     -1449.889          38.000
G24  23483483.516 7 123406516.985 7     -3482.219          45.000    23483488.109 7  96160924.143 7     -2713.417          46.000
G25  20151995.961 8 105899454.877 8       -93.207          51.000    20151997.742 8  82519056.886 8       -72.629          51.000
G29  21006808.977 8 110391532.394 8      2120.078          49.000    21006808.109 8  86019384.423 8      1652.009          49.000
G32  22608830.219 7 118810197.333 7     -1690.293          45.000    22608832.789 6  92579340.795 6     -1317.114          41.000
R11  19610793.273 8 104794153.971 8      -856.496          51.000    19610796.117 8  81506568.033 8      -666.164          49.000
R12  20310273.648 6 108493831.216 6      2390.605          37.000
R21  19649320.922 8 105147451.182 8      -772.719          51.000    19649322.711 8  81781473.803 8      -601.003          49.000
R22  20675425.852 8 110366825.509 8      3542.613          49.000    20675430.750 8  85840937.680 8      2755.366          50.000
C26  21347588.180 8 111162509.095 8       195.871          51.000
C29  23816603.438 5 124019252.250 5     -2427.324          30.000
E11  23526570.562 7 123632981.045 7       218.902          45.000    23526567.805 5  94731755.163 5       167.617          35.000
E25  23895314.562 8 125570722.259 8      -810.156          51.000    23895316.938 8  96216537.083 8      -620.754          51.000
E36  25118964.703 8 132001056.073 8      2735.656          50.000    25118970.125 8 101143696.746 8      2096.218          51.000
> 2020 05 13 10 08  0.0000000  0 17        .000000000000
G02  22977927.070 5 120749821.574 5      -594.270          34.000
G06  24109172.891 5 126694564.442 5     -2016.902          34.000    24109172.844 5  98723016.285 5     -1571.615          33.000
G12  21074296.547 5 110746181.767 5     -1888.418          32.000    21074296.375 5  86295725.126 5     -1471.501          33.000
G24  23503462.969 7 123511513.068 7     -3507.926          43.000    23503468.844 7  96242739.279 7     -2733.446          43.000
G25  20152644.898 8 105902865.477 8      -124.742          51.000    20152646.523 8  82521714.494 8       -97.202          51.000
G29  20994832.172 8 110328596.483 8      2084.961          50.000    20994831.820 8  85970343.463 8      1624.648          50.000
G32  22618608.953 7 118861583.687 7     -1725.859          42.000    22618611.008 7  92619382.080 7     -1344.825          42.000
R11  19615731.211 8 104820540.637 8      -893.008          51.000    19615734.078 8  81527090.987 8      -694.562          49.000
R12  20296953.672 4 108422702.015 4      2362.637          28.000    20296953.945 4  84328747.535 4      1837.606          25.000
R21  19653812.297 8 105171485.405 8      -819.852          51.000    19653814.125 8  81800167.086 8      -637.662          49.000
R22  20655650.031 8 110261260.488 8      3504.578          51.000    20655654.844 8  85758831.578 8      2725.783          49.000
C26  21346579.023 8 111157254.393 8       163.785          51.000
C29  23830696.406 5 124092699.817 5     -2457.070          32.000
E11  23525448.984 7 123627088.805 7       183.410          44.000    23525447.117 5  94727240.346 5       140.532          34.000
E24  25813776.328 5 135652313.179 5     -2304.191          30.000
E25  23900041.812 8 125595564.197 8      -836.582          51.000    23900044.328 8  96235571.789 8      -640.937          51.000
E36  25103453.578 8 131919546.850 8      2707.613          49.000    25103459.391 8 101081241.640 8      2074.725          51.000
> 2020 05 13 10 08 30.0000000  0 13        .000000000000
G06  24120755.750 6 126755443.817 6     -2050.109          36.000    24120757.594 6  98770454.744 6     -1597.488          36.000
G12  21085129.422 5 110803114.028 5     -1914.867          34.000    21085127.484 5  86340078.156 5     -1492.104          31.000
G24  23523528.766 7 123616962.996 7     -3530.418          45.000    23523535.969 7  96324908.040 7     -2750.975          45.000
G25  20153413.914 8 105906907.158 8      -153.148          51.000    20153415.555 8  82524863.853 8      -119.336          51.000
G29  20982996.086 8 110266397.739 8      2053.121          51.000    20982995.906 8  85921876.954 8      1599.835          51.000
G32  22628530.570 6 118913724.819 6     -1758.629          40.000    22628533.008 6  92660011.483 6     -1370.360          41.000
R11  19620813.352 8 104847699.122 8      -926.109          50.000    19620816.547 8  81548214.238 8      -720.307          49.000
R21  19658508.070 8 105196613.764 8      -863.828          50.000    19658510.070 8  81819711.349 8      -671.866          48.000
R22  20636029.508 8 110156520.339 8      3469.574          51.000    20636033.570 8  85677367.077 8      2698.561          48.000
C26  21345694.648 8 111152649.718 8       134.883          51.000
E11  23524468.125 7 123621935.663 7       151.715          45.000    23524468.016 5  94723291.891 5       116.075          33.000
E25  23904859.555 8 125620881.508 8      -859.648          51.000    23904862.188 8  96254970.750 8      -658.641          51.000
E36  25088042.508 7 131838564.742 7      2682.688          47.000    25088048.602 8 101019190.411 8      2055.572          50.000
> 2020 05 13 10 09  0.0000000  0 14        .000000000000
G06  24132386.906 6 126816575.904 6     -2033.395          36.000    24132392.164 5  98818090.042 5     -1584.466          35.000
G12  21095961.516 5 110860025.626 5     -1889.434          33.000    21095962.375 5  86384444.496 5     -1472.289          33.000
G24  23543583.016 8 123722345.822 8     -3502.523          48.000    23543590.195 8  96407024.508 8     -2729.239          48.000
G25  20154204.305 8 105911061.182 8      -131.230          51.000    20154206.133 8  82528100.758 8      -102.258          51.000
G29  20971202.008 8 110204418.288 8      2071.312          51.000    20971201.641 8  85873581.310 8      1614.010          51.000
G32  22638495.781 6 118966099.581 6     -1741.289          38.000    22638499.156 6  92700822.972 6     -1356.849          36.000
R11  19625941.445 8 104875102.651 8      -908.227          51.000    19625944.641 8  81569528.087 8      -706.398          49.000
R12  20270550.992 4 108281646.388 4      2358.523          27.000
R21  19663308.906 8 105222306.024 8      -856.582          51.000    19663311.180 7  81839694.230 7      -666.230          47.000
R22  20616465.266 8 110052081.830 8      3485.379          51.000    20616468.680 7  85596137.209 7      2710.853          46.000
C26  21344836.531 8 111148181.971 8       155.598          51.000
E11  23523529.398 7 123617003.102 7       169.699          45.000    23523529.102 5  94719503.330 5       130.367          30.000
E25  23909669.141 8 125646155.845 8      -832.988          51.000    23909671.711 8  96274336.787 8      -638.177          51.000
E36  25072632.945 7 131757592.769 7      2707.922          46.000    25072639.570 8 100957146.945 8      2074.808          49.000
> 2020 05 13 10 09 30.0000000  0 16        .000000000000
G02  22988509.312 5 120805431.353 5      -649.617          34.000
G06  24144131.117 5 126878297.866 5     -2069.719          35.000    24144137.656 5  98866184.969 5     -1612.774          35.000
G12  21106864.211 5 110917319.730 5     -1918.262          30.000    21106866.023 5  86429086.144 5     -1494.752          30.000
G24  23563689.234 8 123827999.606 8     -3529.145          49.000    23563695.516 8  96489352.082 8     -2749.986          49.000
G25  20155080.656 8 105915666.838 8      -163.957          51.000    20155082.781 8  82531689.575 8      -127.759          51.000
G29  20959514.312 8 110142998.185 8      2035.043          51.000    20959513.719 8  85825721.463 8      1585.748          51.000
G32  22648569.570 6 119019045.003 6     -1777.191          38.000    22648571.922 6  92742079.115 6     -1384.824          38.000
R11  19631180.297 8 104903096.794 8      -946.016          51.000    19631183.336 8  81591301.299 8      -735.790          49.000
R12  20257406.883 5 108211429.800 5      2327.609          34.000
R21  19668279.789 8 105248906.102 8      -904.793          50.000    19668281.773 7  81860383.161 7      -703.728          47.000
R22  20597021.727 7 109948293.158 7      3445.848          47.000    20597025.312 7  85515412.727 7      2680.107          47.000
C26  21344069.594 8 111144188.158 8       122.305          51.000
E11  23522697.000 7 123612630.224 7       133.258          43.000
E24  25853285.586 5 135859991.129 5     -2316.727          34.000
E25  23914535.227 8 125671726.753 8      -860.211          51.000    23914537.648 8  96293930.078 8      -659.150          51.000
E36  25057291.000 7 131676971.965 7      2678.473          47.000    25057297.109 8 100895372.533 8      2052.411          48.000
> 2020 05 13 10 10  0.0000000  0 14        .000000000000
G06  24155957.281 5 126940447.972 5     -2079.305          33.000    24155964.930 5  98914613.568 5     -1620.237          35.000
G12  21117803.969 5 110974810.401 5     -1919.641          32.000    21117806.000 4  86473884.039 4     -1495.824          29.000
G24  23583816.008 8 123933761.921 8     -3527.637          50.000    23583820.555 8  96571764.186 8     -2748.814          50.000
G25  20156012.602 8 105920564.241 8      -168.512          51.000    20156014.859 8  82535505.731 8      -131.308          51.000
G29  20947902.828 8 110081979.097 8      2026.801          50.000    20947901.930 8  85778174.108 8      1579.325          50.000
G32  22658721.977 6 119072398.865 6     -1785.766          41.000    22658722.992 6  92783653.505 6     -1391.506          41.000
R11  19636499.273 8 104931519.458 8      -955.035          51.000    19636502.250 8  81613407.792 8      -742.808          50.000
R12  20244332.922 6 108141566.681 6      2324.496          36.000    20244342.203 4  84110165.122 4      1807.941          25.000
R21  19673389.156 8 105276249.224 8      -924.262          51.000    19673391.609 7  81881650.050 7      -718.870          47.000
R22  20577668.852 7 109844995.492 7      3434.605          47.000    20577674.664 8  85435070.073 8      2671.357          49.000
C26  21343363.609 8 111140510.705 8       116.801          51.000
E11  23521940.867 7 123608657.158 7       125.410          42.000
E25  23919427.398 8 125697434.722 8      -859.758          51.000    23919429.867 8  96313628.394 8      -658.823          51.000
E36  25041986.789 8 131596544.155 8      2677.219          49.000    25041991.320 8 100833746.065 8      2051.295          48.000
> 2020 05 13 10 10 30.0000000  0 14        .000000000000
G06  24167868.156 5 127003041.490 5     -2094.613          34.000    24167877.219 5  98963387.757 5     -1632.166          33.000
G12  21128784.281 4 111032511.173 4     -1926.496          29.000    21128786.391 4  86518847.705 4     -1501.166          25.000
G24  23603966.266 8 124039648.459 8     -3532.512          50.000    23603967.164 8  96654273.034 8     -2752.610          50.000
G25  20157003.391 8 105925770.737 8      -179.523          51.000    20157005.555 8  82539562.737 8      -139.888          51.000
G29  20936371.227 8 110021379.404 8      2012.035          51.000    20936370.008 8  85730953.587 8      1567.823          50.000
G32  22668955.172 6 119126176.144 6     -1800.371          41.000    22668955.602 6  92825557.819 6     -1402.887          41.000
R11  19641902.023 8 104960389.098 8      -970.727          51.000    19641904.758 8  81635861.938 8      -755.010          50.000
R12  20231296.133 5 108071957.621 5      2314.305          30.000
R21  19678640.633 8 105304351.186 8      -950.344          51.000    19678643.164 7  81903507.126 7      -739.156          46.000
R22  20558413.375 8 109742209.850 8      3416.582          50.000    20558419.938 8  85355125.656 8      2657.339          49.000
C26  21342721.672 8 111137167.629 8       104.973          51.000
E11  23521263.742 6 123605101.237 6       110.535          40.000
E25  23924348.945 8 125723297.356 8      -865.578          51.000    23924351.477 8  96333445.212 8      -663.217          51.000
E36  25026723.336 8 131516328.469 8      2669.387          51.000    25026726.133 8 100772282.151 8      2045.261          48.000
> 2020 05 13 10 11  0.0000000  0 14        .000000000000
G06  24179843.719 5 127065973.965 5     -2112.582          34.000    24179852.609 5  99012426.008 5     -1646.174          35.000
G24  23624120.125 8 124145554.990 8     -3539.363          50.000    23624118.383 8  96736797.480 8     -2757.948          50.000
G25  20158033.508 8 105931183.870 8      -192.602          51.000    20158035.500 8  82543780.765 8      -150.079          51.000
G29  20924900.070 8 109961097.776 8      1995.203          50.000    20924898.828 8  85683980.916 8      1554.704          50.000
G32  22679249.367 6 119180272.011 6     -1816.988          39.000    22679251.133 6  92867710.394 6     -1415.835          38.000
R11  19647369.086 8 104989601.886 8      -988.441          51.000    19647371.789 8  81658582.977 8      -768.788          50.000
R12  20218293.680 5 108002504.549 5      2303.773          33.000
R21  19684014.156 8 105333105.826 8      -978.301          51.000    19684016.820 7  81925871.864 7      -760.898          46.000
R22  20539235.750 8 109639835.766 8      3396.609          51.000    20539241.758 8  85275501.363 8      2641.807          49.000
C26  21342124.602 8 111134058.309 8        90.961          51.000
C29  23916526.375 5 124539622.654 5     -2511.754          34.000
E11  23520647.039 6 123601859.888 6        93.953          39.000
E25  23929280.547 8 125749212.600 8      -873.512          51.000    23929282.945 8  96353302.334 8      -669.311          51.000
E36  25011481.062 8 131436224.223 8      2659.566          51.000    25011482.445 8 100710903.620 8      2037.906          48.000
> 2020 05 13 10 11 30.0000000  0 13        .000000000000
G06  24191941.242 5 127129547.119 5     -2127.477          31.000    24191948.312 5  99061963.530 5     -1657.765          30.000
G24  23644335.070 8 124251783.320 8     -3543.133          49.000    23644333.461 8  96819572.706 8     -2760.886          49.000
G25  20159160.695 8 105937107.434 8      -202.711          51.000    20159162.609 8  82548396.523 8      -157.957          51.000
G29  20913547.188 8 109901438.564 8      1981.391          50.000    20913546.391 8  85637493.259 8      1543.941          50.000
G32  22689661.781 7 119234987.843 7     -1830.914          42.000    22689664.430 6  92910346.075 6     -1426.689          41.000
R11  19652958.047 8 105019467.471 8     -1003.227          51.000    19652960.859 8  81681811.741 8      -780.290          50.000
R21  19689566.891 8 105362820.329 8     -1003.180          50.000    19689569.391 7  81948983.171 7      -780.251          45.000
R22  20520193.430 8 109538185.394 8      3379.465          50.000    20520198.805 8  85196439.987 8      2628.476          48.000
C26  21341630.547 8 111131484.559 8        79.996          51.000
C29  23931020.188 6 124615087.140 6     -2519.414          36.000
E11  23520148.062 5 123599236.899 5        80.387          35.000    23520148.211 5  94705891.930 5        61.484          32.000
E25  23934280.016 8 125775484.513 8      -878.605          51.000    23934282.281 8  96373432.763 8      -673.193          51.000
E36  24996317.867 8 131356536.989 8      2652.398          51.000    24996318.438 8 100649844.613 8      2032.354          49.000
> 2020 05 13 10 12  0.0000000  0 13        .000000000000
G24  23664599.359 8 124358270.625 8     -3550.855          49.000    23664598.625 8  96902549.767 8     -2766.903          49.000
G25  20160373.328 8 105943480.176 8      -216.836          51.000    20160375.227 8  82553362.287 8      -168.963          51.000
G29  20902301.242 8 109842341.479 8      1963.555          51.000    20902301.047 8  85591443.618 8      1530.043          50.000
G32  22700179.984 7 119290259.942 7     -1848.504          42.000    22700182.484 7  92953415.271 7     -1440.390          42.000
R11  19658657.688 8 105049924.080 8     -1021.977          51.000    19658660.375 8  81705500.198 8      -794.871          49.000
R12  20192552.430 5 107864977.304 5      2282.836          30.000    20192548.648 4  83894976.777 4      1775.539          27.000
R21  19695287.445 8 105393430.576 8     -1032.184          51.000    19695289.547 7  81972791.139 7      -802.806          45.000
R22  20501275.602 8 109437199.913 8      3358.242          50.000    20501280.148 7  85117895.761 7      2611.969          46.000
C26  21341227.852 8 111129386.497 8        65.133          51.000
C29  23945586.445 6 124690928.364 6     -2531.512          37.000
E11  23519755.125 5 123597146.873 5        62.141          32.000    23519748.906 5  94704308.823 5        47.704          34.000
E25  23939335.711 8 125802052.161 8      -887.371          51.000    23939337.969 8  96393789.788 8      -679.979          51.000
E36  24981222.258 8 131277207.232 8      2641.426          51.000    24981222.922 8 100589059.493 8      2023.902          49.000
> 2020 05 13 10 12 30.0000000  0 13        .000000000000
G12  21173186.320 5 111265843.366 5     -1959.164          32.000    21173187.211 5  86700652.842 5     -1526.624          34.000
G24  23684866.891 8 124464775.537 8     -3551.293          48.000    23684867.062 8  96985540.587 8     -2767.241          48.000
G25  20161625.859 8 105950062.687 8      -223.820          51.000    20161627.820 8  82558491.511 8      -174.405          51.000
G29  20891116.719 8 109783568.365 8      1952.766          49.000    20891116.844 8  85545646.402 8      1521.636          50.000
G32  22710757.938 7 119345846.634 7     -1858.941          42.000    22710758.805 7  92996729.531 7     -1448.529          42.000
R11  19664422.234 8 105080728.660 8     -1033.578          51.000    19664425.000 8  81729459.298 8      -803.894          49.000
R21  19701129.438 8 105424690.689 8     -1053.773          50.000    19701131.500 7  81997104.592 7      -819.602          45.000
R22  20482437.594 8 109336640.108 8      3343.867          49.000    20482441.414 7  85039682.611 7      2600.789          45.000
C26  21340871.000 8 111127527.782 8        57.062          51.000
C29  23960179.477 5 124766906.953 5     -2535.695          34.000
E11  23519421.672 5 123595394.396 5        51.891          34.000    23519418.461 6  94702968.978 6        39.952          37.000
E25  23944402.062 8 125828676.516 8      -889.406          51.000    23944404.469 8  96414190.260 8      -681.550          51.000
E36  24966149.430 8 131197997.305 8      2637.359          51.000    24966150.297 8 100528366.196 8      2020.834          49.000
> 2020 05 13 10 13  0.0000000  0 13        .000000000000
G12  21184400.305 6 111324767.176 6     -1970.051          38.000    21184400.250 6  86746567.465 6     -1535.108          38.000
G24  23705159.336 7 124571414.540 7     -3558.766          46.000    23705160.703 7  97068635.898 7     -2773.067          46.000
G25  20162940.898 8 105956973.269 8      -237.578          51.000    20162942.906 8  82563876.371 8      -185.126          51.000
G29  20880016.586 8 109725238.449 8      1934.949          50.000    20880016.617 8  85500194.508 8      1507.753          50.000
G32  22721417.883 6 119401863.719 6     -1876.207          41.000    22721417.547 7  93040379.169 7     -1461.980          42.000
R11  19670274.539 8 105112002.413 8     -1052.199          51.000    19670277.312 8  81753783.318 8      -818.377          48.000
R21  19707114.586 8 105456718.861 8     -1082.289          51.000    19707117.023 7  82022015.409 7      -841.780          45.000
R22  20463701.781 8 109236629.153 8      3322.715          49.000    20463705.602 7  84961896.360 7      2584.334          45.000
C26  21340582.609 8 111126026.394 8        42.188          51.000
C29  23974820.398 5 124843138.325 5     -2547.223          34.000
E11  23519172.320 5 123594084.591 5        35.098          35.000    23519170.836 6  94701963.040 6        26.561          38.000
E25  23949501.609 8 125855476.170 8      -898.082          51.000    23949504.195 8  96434725.035 8      -688.162          51.000
E36  24951122.352 8 131119027.193 8      2626.316          51.000    24951123.234 8 100467856.665 8      2012.408          49.000
> 2020 05 13 10 13 30.0000000  0 13        .000000000000
G12  21195658.969 6 111383930.449 6     -1966.004          39.000    21195657.797 6  86792668.702 6     -1531.951          38.000
G24  23725478.578 7 124678196.676 7     -3551.656          44.000    23725481.359 7  97151842.741 7     -2767.521          44.000
G25  20164320.391 8 105964222.529 8      -237.207          51.000    20164322.492 8  82569525.139 8      -184.837          51.000
G29  20869003.555 8 109667362.993 8      1931.707          51.000    20869003.070 8  85455096.752 8      1505.226          51.000
G32  22732161.172 6 119458319.317 6     -1879.027          36.000    22732162.492 6  93084370.476 6     -1464.177          37.000
R11  19676216.664 8 105143756.405 8     -1056.184          51.000    19676219.766 8  81778480.835 8      -821.479          48.000
R21  19713245.156 8 105489524.089 8     -1096.109          50.000    19713247.258 7  82047530.574 7      -852.530          46.000
R22  20445071.578 8 109137181.146 8      3315.754          51.000    20445075.484 7  84884547.969 7      2578.923          45.000
C26  21340365.023 8 111124893.634 8        41.766          51.000
C29  23989510.141 5 124919630.778 5     -2543.703          34.000
E11  23519008.742 5 123593224.946 5        31.871          32.000    23519004.945 6  94701298.897 6        23.945          39.000
E25  23954636.742 8 125882462.045 8      -892.488          51.000    23954639.336 8  96455402.513 8      -683.780          51.000
E36  24936142.922 8 131040309.240 8      2629.824          51.000    24936144.055 8 100407540.365 8      2015.072          49.000
> 2020 05 13 10 14  0.0000000  0 14        .000000000000
G12  21206980.078 6 111443422.118 6     -1985.703          40.000    21206978.562 6  86839025.799 6     -1547.301          41.000
G24  23745841.859 7 124785209.197 7     -3567.660          44.000    23745845.359 7  97235229.116 7     -2779.995          44.000
G25  20165781.344 8 105971899.982 8      -259.684          51.000    20165783.477 8  82575507.557 8      -202.351          51.000
G29  20858094.562 8 109610032.809 8      1905.164          51.000    20858093.594 8  85410423.891 8      1484.543          51.000
G32  22743003.859 5 119515300.362 5     -1904.863          35.000    22743008.773 5  93128771.384 5     -1484.306          33.000
R11  19682265.836 8 105176082.118 8     -1083.785          51.000    19682268.758 8  81803623.035 8      -842.944          49.000
R12  20141669.070 5 107593187.675 5      2243.930          32.000
R21  19719537.531 8 105523195.229 8     -1133.527          49.000    19719539.711 7  82073719.264 7      -881.629          46.000
R22  20426565.336 8 109038390.631 8      3285.328          51.000    20426568.805 7  84807710.932 7      2555.258          46.000
C26  21340235.469 8 111124219.098 8        18.000          51.000
C29  24004266.109 5 124996513.213 5     -2564.285          30.000
E11  23518945.516 6 123592893.840 6         5.172          37.000    23518941.578 6  94701045.153 6         4.145          41.000
E25  23959824.531 8 125909724.035 8      -910.086          51.000    23959827.094 8  96476291.565 8      -697.321          51.000
E36  24921228.406 8 130961934.759 8      2609.996          51.000    24921230.258 8 100347487.247 8      1999.918          49.000
> 2020 05 13 10 14 30.0000000  0 13        .000000000000
G12  21218334.688 6 111503091.642 6     -1992.891          38.000    21218333.523 6  86885521.576 6     -1552.899          37.000
G24  23766220.289 7 124892300.300 7     -3572.211          44.000    23766224.086 7  97318676.700 7     -2783.541          44.000
G25  20167295.219 8 105979855.549 8      -271.168          51.000    20167297.359 8  82581706.694 8      -211.300          51.000
G29  20847260.664 8 109553098.697 8      1889.973          51.000    20847259.328 8  85366059.641 8      1472.706          51.000
G32  22753917.820 6 119572654.563 6     -1919.055          39.000    22753925.594 6  93173462.904 6     -1495.370          39.000
R11  19688393.820 8 105208827.710 8     -1099.770          51.000    19688396.641 8  81829091.813 8      -855.376          49.000
R12  20129091.078 5 107526009.415 5      2233.742          31.000
R21  19725962.625 8 105557577.522 8     -1159.102          49.000    19725964.797 7  82100461.048 7      -901.523          46.000
R22  20408154.422 8 108940108.609 8      3266.301          51.000    20408157.664 7  84731269.385 7      2540.456          47.000
C26  21340165.492 8 111123854.762 8         5.754          51.000
E11  23518955.578 6 123592948.051 6        -9.348          39.000    23518952.750 7  94701086.644 7        -7.183          42.000
E25  23965036.242 8 125937112.310 8      -916.328          51.000    23965038.914 8  96497277.380 8      -702.137          51.000
E36  24906350.812 8 130883755.314 8      2601.465          51.000    24906353.484 8 100287583.580 8      1993.294          49.000
> 2020 05 13 10 15  0.0000000  0 13        .000000000000
G12  21229738.062 5 111563024.113 5     -2001.727          32.000    21229738.102 5  86932222.137 5     -1559.793          33.000
G24  23786629.641 7 124999554.165 7     -3577.020          42.000    23786633.891 7  97402251.079 7     -2787.291          42.000
G25  20168878.383 8 105988174.950 8      -282.727          51.000    20168880.539 8  82588189.335 8      -220.306          51.000
G29  20836518.070 8 109496647.400 8      1874.402          50.000    20836516.977 8  85322071.603 8      1460.573          50.000
G32  22764918.953 6 119630465.103 6     -1934.039          40.000    22764927.867 6  93218510.088 6     -1507.043          39.000
R11  19694616.703 8 105242080.747 8     -1116.168          51.000    19694619.602 8  81854955.272 8      -868.131          50.000
R12  20116580.336 5 107459166.871 5      2223.320          31.000
R21  19732536.641 8 105592755.705 8     -1185.141          48.000    19732538.719 7  82127821.853 7      -921.776          46.000
R22  20389855.312 8 108842425.732 8      3246.781          51.000    20389858.406 7  84655293.843 7      2525.274          47.000
C26  21340171.375 8 111123886.448 8        -6.969          51.000
E11  23519055.336 6 123593473.075 6       -24.660          40.000    23519053.156 7  94701488.951 7       -19.042          43.000
E25  23970288.273 8 125964713.026 8      -922.836          51.000    23970291.000 8  96518425.959 8      -707.093          51.000
E36  24891526.953 8 130805858.476 8      2592.602          50.000    24891530.305 8 100227896.420 8      1986.449          50.000
> 2020 05 13 10 15 30.0000000  0 13        .000000000000
G12  21241185.734 6 111623182.871 6     -2009.016          37.000    21241186.031 6  86979099.017 6     -1565.473          37.000
G24  23807062.680 6 125106933.127 6     -3581.578          39.000    23807067.625 6  97485922.941 6     -2790.843          39.000
G25  20170523.953 8 105996822.078 8      -293.852          51.000    20170526.055 8  82594927.344 8      -228.975          51.000
G29  20825860.492 8 109440643.463 8      1859.215          51.000    20825859.820 8  85278432.177 8      1448.739          51.000
G32  22775999.570 6 119688693.326 6     -1948.336          37.000    22776008.453 6  93263882.751 6     -1518.181          38.000
R11  19700927.734 8 105275804.839 8     -1132.129          51.000    19700930.766 8  81881185.119 8      -880.545          50.000
R12  20104125.625 5 107392625.417 5      2213.008          31.000
R21  19739251.680 8 105628690.933 8     -1210.574          49.000    19739253.758 7  82155771.467 7      -941.558          46.000
R22  20371661.484 8 108745308.483 8      3227.730          49.000    20371664.773 7  84579758.227 7      2510.457          47.000
C26  21340246.516 8 111124279.093 8       -19.199          50.000
E11  23519237.367 6 123594432.747 6       -39.145          41.000    23519235.969 7  94702224.255 7       -30.164          43.000
E25  23975573.969 8 125992490.294 8      -928.918          51.000    23975576.781 8  96539709.822 8      -711.792          51.000
E36  24876750.398 8 130728209.751 8      2583.988          51.000    24876754.133 8 100168399.367 8      1979.957          50.000
> 2020 05 13 10 16  0.0000000  0 12        .000000000000
G12  21252682.109 6 111683594.980 6     -2017.395          41.000    21252682.305 6  87026173.423 6     -1571.993          41.000
G24  23827524.648 6 125214462.436 6     -3586.480          40.000    23827530.406 6  97569711.978 6     -2794.660          40.000
G25  20172237.258 8 106005825.103 8      -305.859          51.000    20172239.266 8  82601942.682 8      -238.332          51.000
G29  20815294.070 8 109385116.036 8      1843.125          51.000    20815293.547 8  85235164.082 8      1436.201          51.000
G32  22787164.430 6 119747364.760 6     -1962.785          39.000    22787172.531 6  93309600.860 6     -1529.437          39.000
R11  19707332.398 8 105310029.328 8     -1149.031          51.000    19707335.555 8  81907804.166 8      -893.688          50.000
R21  19746113.586 8 105665409.792 8     -1236.809          48.000    19746115.766 7  82184330.569 7      -961.962          46.000
R22  20353579.688 8 108648788.672 8      3207.547          50.000    20353582.828 7  84504687.281 7      2494.759          47.000
C26  21340396.664 8 111125061.423 8       -32.379          51.000
E11  23519508.055 6 123595855.022 6       -54.801          41.000    23519506.727 7  94703314.010 7       -42.041          42.000
E25  23980898.891 8 126020472.691 8      -936.000          51.000    23980901.688 8  96561150.860 8      -717.165          51.000
E36  24862027.117 8 130650839.063 8      2574.609          51.000    24862030.922 8 100109115.333 8      1972.818          51.000
> 2020 05 13 10 16 30.0000000  0 12        .000000000000
G12  21264221.422 6 111744235.177 6     -2024.953          41.000    21264221.445 6  87073425.505 6     -1577.889          41.000
G24  23848010.766 6 125322116.366 6     -3590.281          41.000    23848017.125 6  97653598.126 6     -2797.622          41.000
G25  20174013.484 8 106015159.078 8      -316.355          51.000    20174015.453 8  82609215.903 8      -246.511          51.000
G29  20804813.844 8 109330041.160 8      1828.484          51.000    20804813.281 8  85192248.653 8      1424.796          51.000
G32  22798409.133 6 119806452.228 6     -1976.047          41.000    22798415.945 6  93355643.028 6     -1539.783          41.000
R11  19713826.062 8 105344729.213 8     -1164.344          51.000    19713829.180 8  81934792.961 8      -905.601          50.000
R21  19753116.266 8 105702884.503 8     -1261.480          49.000    19753118.477 7  82213477.568 7      -981.151          46.000
R22  20335606.289 8 108552844.697 8      3188.707          50.000    20335609.258 7  84430064.195 7      2480.102          47.000
C26  21340617.344 8 111126209.482 8       -44.219          51.000
E11  23519861.859 7 123597714.722 7       -69.266          42.000    23519861.047 7  94704738.964 7       -53.181          42.000
E25  23986258.188 8 126048635.581 8      -941.633          51.000    23986260.828 8  96582730.203 8      -721.499          51.000
E36  24847352.672 8 130573723.150 8      2566.438          51.000    24847356.000 8 100050026.544 8      1966.434          51.000
> 2020 05 13 10 17  0.0000000  0 12        .000000000000
G12  21275806.641 6 111805117.151 6     -2033.910          39.000    21275806.547 6  87120865.995 6     -1584.865          40.000
G24  23868523.211 7 125429906.922 7     -3595.469          42.000    23868530.102 6  97737590.729 6     -2801.667          41.000
G25  20175855.445 8 106024838.483 8      -328.875          51.000    20175857.328 8  82616758.289 8      -256.266          51.000
G29  20794422.648 8 109275433.916 8      1811.922          51.000    20794421.523 8  85149697.603 8      1411.887          51.000
G32  22809735.164 6 119865967.603 6     -1991.484          41.000    22809740.555 7  93402018.598 7     -1551.809          42.000
R11  19720411.414 8 105379919.504 8     -1181.637          51.000    19720414.578 8  81962163.174 8      -919.051          49.000
R21  19760263.039 8 105741127.422 8     -1288.039          49.000    19760265.234 7  82243222.042 7     -1001.808          46.000
R22  20317743.992 8 108457494.306 8      3167.996          51.000    20317746.969 7  84355902.800 7      2463.997          46.000
C26  21340911.016 8 111127738.388 8       -57.820          51.000
E11  23520301.523 7 123600026.083 7       -84.762          42.000    23520301.523 6  94706509.997 6       -64.965          41.000
E25  23991654.586 8 126076993.759 8      -949.004          51.000    23991657.188 8  96604459.183 8      -727.126          51.000
E36  24832729.992 8 130496878.150 8      2556.484          51.000    24832732.523 8  99991145.318 8      1958.898          51.000
> 2020 05 13 10 17 30.0000000  0 13        .000000000000
G12  21287437.844 6 111866239.736 6     -2040.598          38.000    21287437.789 6  87168493.933 6     -1590.082          38.000
G24  23889061.141 7 125537831.264 7     -3599.039          42.000    23889068.133 6  97821687.579 6     -2804.446          41.000
G25  20177762.938 8 106034862.274 8      -339.246          51.000    20177764.766 8  82624569.027 8      -264.348          51.000
G29  20784120.461 8 109221294.111 8      1797.383          51.000    20784119.117 8  85107510.762 8      1400.558          51.000
G32  22821141.547 6 119925907.313 6     -2004.535          41.000    22821146.242 6  93448724.763 6     -1561.978          41.000
R11  19727088.562 8 105415599.783 8     -1196.828          51.000    19727091.508 8  81989914.492 8      -930.866          49.000
R12  20054929.641 5 107129819.583 5      2169.551          33.000
R21  19767552.539 8 105780135.076 8     -1312.383          50.000    19767554.625 7  82273561.326 7     -1020.742          46.000
R22  20299993.281 8 108362739.853 8      3149.055          51.000    20299996.250 7  84282204.935 7      2449.268          47.000
C26  21341277.570 8 111129647.898 8       -69.395          51.000
E11  23520827.406 7 123602788.036 7       -99.086          42.000    23520827.180 6  94708626.249 6       -75.812          39.000
E25  23997087.961 8 126105546.545 8      -954.367          51.000    23997090.742 8  96626337.282 8      -731.200          51.000
E36  24818158.844 8 130420304.824 8      2548.465          51.000    24818160.844 8  99932472.272 8      1952.705          51.000
> 2020 05 13 10 18  0.0000000  0 12        .000000000000
G12  21299115.039 7 111927603.981 7     -2050.410          42.000    21299114.547 7  87216310.200 7     -1597.722          42.000
G24  23909624.664 6 125645890.384 6     -3605.320          41.000    23909631.016 6  97905889.448 6     -2809.344          41.000
G25  20179736.383 8 106045232.717 8      -352.355          51.000    20179738.133 8  82632649.890 8      -274.563          51.000
G29  20773907.609 8 109167625.149 8      1780.188          51.000    20773906.859 8  85065690.802 8      1387.159          51.000
G32  22832628.094 6 119986270.879 6     -2020.250          41.000    22832632.703 6  93495761.296 6     -1574.221          41.000
R11  19733857.867 8 105451772.668 8     -1214.906          51.000    19733860.711 8  82018048.919 8      -944.930          48.000
R21  19774985.242 8 105819907.540 8     -1339.406          50.000    19774987.234 7  82304495.454 7     -1041.757          46.000
R22  20282355.422 8 108268586.823 8      3127.484          51.000    20282358.367 7  84208974.866 7      2432.488          47.000
C26  21341717.836 8 111131940.980 8       -83.848          51.000
E11  23521439.016 6 123606002.467 6      -115.734          41.000    23521438.609 6  94711089.174 6       -88.677          39.000
E25  24002559.000 8 126134296.554 8      -962.621          51.000    24002561.836 8  96648366.490 8      -737.608          51.000
E36  24803639.750 8 130344007.098 8      2537.641          50.000    24803641.680 8  99874010.364 8      1944.441          51.000
> 2020 05 13 10 18 30.0000000  0 13        .000000000000
G12  21310838.766 6 111989211.551 6     -2057.613          41.000    21310838.062 6  87264316.137 6     -1603.335          41.000
G24  23930213.727 6 125754084.215 6     -3608.504          41.000    23930219.109 6  97990196.296 6     -2811.821          41.000
G25  20181776.109 8 106055951.857 8      -363.105          51.000    20181777.883 8  82641002.463 8      -282.939          51.000
G29  20763784.648 8 109114429.362 8      1765.219          51.000    20763784.227 8  85024239.535 8      1375.492          51.000
G32  22844194.836 6 120047057.881 6     -2033.504          40.000    22844199.711 6  93543127.793 6     -1584.548          40.000
R11  19740719.875 8 105488440.651 8     -1230.520          51.000    19740722.469 8  82046568.425 8      -957.074          48.000
R12  20030655.719 5 107000166.322 5      2146.781          30.000
R21  19782560.359 8 105860444.246 8     -1363.895          51.000    19782562.234 7  82336024.009 7     -1060.807          46.000
R22  20264831.203 8 108175040.871 8      3107.973          51.000    20264834.562 8  84136216.943 8      2417.312          49.000
C26  21342232.188 8 111134620.447 8       -95.793          51.000
E11  23522137.461 7 123609671.142 7      -129.555          42.000    23522137.562 6  94713900.195 6       -99.332          39.000
E25  24008068.008 8 126163246.178 8      -968.289          51.000    24008071.039 8  96670548.655 8      -741.909          51.000
E36  24789173.242 8 130267988.686 8      2529.277          49.000    24789175.453 8  99815762.474 8      1938.045          51.000
> 2020 05 13 10 19  0.0000000  0 13        .000000000000
G12  21322607.258 6 112051054.184 6     -2065.336          40.000    21322607.500 6  87312505.163 6     -1609.353          39.000
G24  23950826.750 7 125862403.364 7     -3612.652          42.000    23950831.266 7  98074600.802 7     -2815.054          43.000
G25  20183880.648 8 106067012.047 8      -374.441          51.000    20183882.547 8  82649620.793 8      -291.773          51.000
G29  20753750.531 8 109061700.208 8      1749.738          51.000    20753749.875 8  84983151.878 8      1363.432          51.000
G32  22855840.383 6 120108258.170 6     -2047.285          40.000    22855845.500 6  93590816.312 6     -1595.287          39.000
R11  19747673.203 8 105525596.460 8     -1246.832          51.000    19747675.703 8  82075467.371 8      -969.758          48.000
R21  19790276.664 8 105901735.166 8     -1388.996          51.000    19790278.305 7  82368139.159 7     -1080.330          47.000
R22  20247419.203 8 108082097.368 8      3088.035          49.000    20247423.773 8  84063927.576 8      2401.805          50.000
C26  21342819.586 8 111137679.393 8      -108.410          51.000
C29  24154432.539 5 125778459.038 5     -2647.906          30.000
E11  23522920.828 6 123613786.342 6      -145.086          39.000    23522920.672 6  94717053.293 6      -110.957          40.000
E25  24013613.547 8 126192388.085 8      -974.715          51.000    24013616.656 8  96692878.149 8      -746.868          51.000
E36  24774758.828 8 130192243.606 8      2520.195          50.000    24774761.633 8  99757724.046 8      1930.990          50.000
> 2020 05 13 10 19 30.0000000  0 12        .000000000000
G12  21334418.711 6 112113122.914 6     -2073.008          40.000    21334419.180 6  87360870.325 6     -1615.334          39.000
G24  23971461.844 7 125970837.098 7     -3616.738          44.000    23971465.609 7  98159094.582 7     -2818.238          44.000
G25  20186048.531 8 106078404.805 8      -385.727          51.000    20186050.586 8  82658498.256 8      -300.566          51.000
G29  20743803.680 8 109009430.151 8      1734.121          51.000    20743803.031 8  84942421.992 8      1351.263          51.000
G32  22867562.977 7 120169860.605 7     -2060.719          42.000    22867567.719 7  93638818.168 7     -1605.755          43.000
R11  19754715.969 8 105563231.775 8     -1263.047          51.000    19754719.070 8  82104739.254 8      -982.373          49.000
R21  19798131.703 8 105943769.169 8     -1414.055          51.000    19798133.656 7  82400832.278 7     -1099.817          47.000
R22  20230118.820 8 107989750.570 8      3067.680          48.000    20230124.211 8  83992102.312 8      2385.973          50.000
C26  21343478.414 8 111141110.209 8      -121.094          51.000
E11  23523787.094 6 123618339.069 6      -160.066          37.000    23523786.938 7  94720541.704 7      -122.391          42.000
E25  24019194.203 8 126221714.149 8      -981.301          51.000    24019197.227 8  96715348.742 8      -751.924          51.000
E36  24760395.508 8 130116765.021 8      2510.930          50.000    24760398.719 8  99699889.849 8      1923.917          50.000
> 2020 05 13 10 20  0.0000000  0 13        .000000000000
G12  21346275.195 7 112175427.531 7     -2081.418          44.000    21346274.781 7  87409419.399 7     -1621.884          44.000
G24  23992120.312 7 126079394.132 7     -3621.559          43.000    23992123.812 7  98243684.413 7     -2821.997          43.000
G25  20188281.805 8 106090140.772 8      -397.777          51.000    20188284.000 8  82667643.160 8      -309.956          51.000
G29  20733946.258 8 108957630.660 8      1718.000          51.000    20733945.703 8  84902058.787 8      1338.701          51.000
G32  22879363.898 7 120231873.308 7     -2074.762          45.000    22879367.445 7  93687139.714 7     -1616.697          46.000
R11  19761850.766 8 105601357.695 8     -1279.824          51.000    19761853.680 8  82134392.740 8      -995.419          49.000
R21  19806127.328 8 105986554.480 8     -1439.430          51.000    19806128.695 7  82434109.712 7     -1119.556          47.000
R22  20212933.789 8 107898014.805 8      3046.809          50.000    20212938.250 8  83920752.229 8      2369.740          49.000
C26  21344210.727 8 111144924.121 8      -134.297          51.000
C29  24185027.047 5 125937742.046 5     -2665.031          30.000
E11  23524738.836 6 123623339.812 6      -174.957          36.000    23524738.305 7  94724373.415 7      -133.998          43.000
E25  24024812.023 8 126251235.288 8      -987.973          51.000    24024814.828 8  96737968.820 8      -757.039          51.000
E36  24746085.617 8 130041565.278 8      2501.195          51.000    24746089.266 8  99642269.308 8      1916.500          50.000
> 2020 05 13 10 20 30.0000000  0 13        .000000000000
G12  21358178.797 7 112237980.096 7     -2089.277          42.000    21358177.883 6  87458161.712 6     -1628.005          41.000
G24  24012804.094 7 126188086.022 7     -3625.207          43.000    24012807.711 7  98328379.314 7     -2824.837          42.000
G25  20190582.812 8 106102232.344 8      -408.793          51.000    20190585.055 8  82677065.166 8      -318.540          51.000
G29  20724180.875 8 108906314.710 8      1702.621          51.000    20724180.305 8  84862072.352 8      1326.721          51.000
G32  22891244.859 7 120294306.065 7     -2088.004          47.000    22891247.250 7  93735788.576 7     -1627.016          47.000
R11  19769079.906 8 105639987.365 8     -1295.914          51.000    19769082.602 8  82164438.010 8     -1007.933          49.000
R21  19814264.914 8 106030101.260 8     -1464.074          51.000    19814266.562 8  82467979.428 8     -1138.724          48.000
R22  20195866.602 8 107806905.725 8      3026.621          51.000    20195869.914 8  83849889.589 8      2354.039          48.000
C26  21345019.133 8 111149134.168 8      -146.773          51.000
C29  24200397.758 4 126017822.541 4     -2672.656          28.000
E11  23525777.367 5 123628794.785 5      -189.871          33.000    23525776.711 7  94728557.700 7      -145.327          45.000
E25  24030469.383 8 126280964.350 8      -994.434          51.000    24030472.008 8  96760748.217 8      -761.987          51.000
E36  24731831.922 8 129966658.478 8      2492.121          51.000    24731835.438 8  99584873.232 8      1909.496          50.000
> 2020 05 13 10 21  0.0000000  0 12        .000000000000
G12  21370125.312 6 112300759.105 6     -2097.230          40.000    21370124.266 6  87507080.325 6     -1634.209          39.000
G24  24033508.695 6 126296889.001 6     -3629.801          41.000    24033512.664 6  98413160.807 6     -2828.419          41.000
G25  20192947.484 8 106114658.571 8      -420.938          51.000    20192949.789 8  82686747.938 8      -328.003          51.000
G29  20714503.844 8 108855461.799 8      1686.258          51.000    20714503.219 8  84822446.697 8      1313.967          51.000
G32  22903201.188 8 120357135.228 8     -2101.895          48.000    22903202.984 8  93784746.327 8     -1637.843          48.000
R11  19776399.453 8 105679099.771 8     -1312.898          51.000    19776402.055 8  82194858.740 8     -1021.143          49.000
R21  19822540.664 8 106074385.514 8     -1489.535          50.000    19822542.539 8  82502422.724 8     -1158.527          48.000
R22  20178913.234 8 107716405.461 8      3005.371          51.000    20178916.320 8  83779500.520 8      2337.511          49.000
C26  21345899.883 8 111153720.304 8      -160.277          51.000
E11  23526899.477 5 123634690.527 5      -205.293          33.000    23526899.234 7  94733078.248 7      -157.308          46.000
E25  24036162.305 8 126310880.654 8     -1001.441          51.000    24036165.023 8  96783671.076 8      -767.365          51.000
E36  24717630.336 8 129892025.351 8      2482.082          51.000    24717633.375 8  99527686.841 8      1901.819          49.000
> 2020 05 13 10 21 30.0000000  0 12        .000000000000
G12  21382117.055 6 112363776.251 6     -2104.484          38.000    21382115.938 6  87556184.562 6     -1639.861          38.000
G24  24054236.125 6 126405814.107 6     -3632.906          39.000    24054240.492 6  98498037.470 6     -2830.836          39.000
G25  20195378.180 8 106127431.612 8      -431.473          51.000    20195380.430 8  82696700.943 8      -336.212          51.000
G29  20704917.750 8 108805085.189 8      1671.352          51.000    20704917.031 8  84783192.198 8      1302.355          51.000
G32  22915234.789 8 120420370.368 8     -2114.418          48.000    22915236.883 8  93834020.424 8     -1647.598          48.000
R11  19783811.719 8 105718707.552 8     -1328.477          51.000    19783814.023 8  82225664.751 8     -1033.263          49.000
R21  19830955.852 8 106119417.363 8     -1513.383          51.000    19830957.508 8  82537447.467 8     -1177.076          49.000
R22  20162076.898 8 107626529.322 8      2985.484          51.000    20162079.883 8  83709596.884 8      2322.043          48.000
C26  21346855.352 8 111158695.230 8      -172.230          51.000
E11  23528108.156 5 123641041.935 5      -218.906          35.000    23528107.773 7  94737944.108 7      -167.763          46.000
E25  24041893.055 8 126340996.693 8     -1007.160          51.000    24041896.000 8  96806746.976 8      -771.693          51.000
E36  24703482.844 8 129817679.627 8      2473.500          50.000    24703485.617 8  99470720.690 8      1895.216          49.000
> 2020 05 13 10 22  0.0000000  0 13        .000000000000
G06  24466017.250 4 128569787.920 4     -2440.715          29.000
G12  21394153.266 6 112427026.787 6     -2113.039          40.000    21394152.297 6  87605470.732 6     -1646.521          40.000
G24  24074985.094 6 126514854.512 6     -3637.316          37.000    24074989.664 6  98583003.978 6     -2834.276          37.000
G25  20197874.188 8 106140547.649 8      -443.582          51.000    20197876.352 8  82706921.228 8      -345.648          51.000
G29  20695421.602 8 108755181.807 8      1654.883          51.000    20695421.047 8  84744306.471 8      1289.519          51.000
G32  22927344.406 7 120484005.045 7     -2128.488          47.000    22927346.969 7  93883605.859 7     -1658.562          47.000
R11  19791316.031 8 105758807.151 8     -1345.629          51.000    19791318.016 8  82256853.290 8     -1046.603          49.000
R21  19839509.547 8 106165189.867 8     -1538.742          51.000    19839511.586 8  82573048.300 8     -1196.799          49.000
R22  20145356.984 8 107537276.307 8      2963.934          51.000    20145359.820 8  83640177.921 8      2305.285          48.000
C26  21347884.906 8 111164055.914 8      -185.785          51.000
E11  23529401.586 5 123647839.865 5      -234.340          35.000    23529401.016 7  94743152.156 7      -179.864          47.000
E25  24047661.219 8 126371309.038 8     -1014.445          51.000    24047664.172 8  96829973.303 8      -777.284          51.000
E36  24689388.383 7 129743619.267 7      2463.215          45.000    24689392.016 8  99413973.173 8      1887.437          49.000
> 2020 05 13 10 22 30.0000000  0 13        .000000000000
G12  21406232.117 6 112490500.531 6     -2118.848          38.000    21406231.953 6  87654930.800 6     -1651.053          38.000
G24  24095754.055 6 126624000.216 6     -3639.074          38.000    24095758.602 6  98668052.564 6     -2835.642          38.000
G25  20200433.586 8 106153997.053 8      -453.180          51.000    20200435.898 8  82717401.281 8      -353.127          51.000
G29  20686013.820 8 108705742.731 8      1640.863          51.000    20686013.438 8  84705782.526 8      1278.595          51.000
G32  22939527.570 7 120548026.947 7     -2139.754          46.000    22939530.398 7  93933493.035 7     -1667.341          46.000
R11  19798910.445 8 105799388.964 8     -1360.098          51.000    19798912.500 8  82288416.882 8     -1057.857          50.000
R12  19936259.688 5 106495875.813 5      2056.758          31.000
R21  19848199.273 8 106211690.851 8     -1561.391          51.000    19848201.117 8  82609215.715 8     -1214.418          49.000
R22  20128752.242 8 107448640.023 8      2944.914          51.000    20128755.266 8  83571238.629 8      2290.489          48.000
C26  21348986.773 8 111169793.460 8      -196.879          51.000
E11  23530778.383 6 123655073.404 6      -247.594          38.000    23530777.328 7  94748694.690 7      -189.790          47.000
E25  24053465.070 8 126401808.338 8     -1019.004          51.000    24053468.102 8  96853342.896 8      -780.771          51.000
E36  24675344.641 6 129669836.291 6      2455.395          40.000    24675351.367 8  99357438.132 8      1881.427          50.000
> 2020 05 13 10 23  0.0000000  0 14        .000000000000
G02  23122558.477 5 121509850.339 5     -1093.805          35.000
G12  21418360.422 6 112554233.660 6     -2127.789          39.000    21418359.578 6  87704592.975 6     -1658.014          39.000
G24  24116550.023 6 126733285.134 6     -3644.121          39.000    24116554.859 6  98753209.625 6     -2839.575          39.000
G25  20203063.312 8 106167816.501 8      -465.781          51.000    20203065.789 8  82728169.667 8      -362.946          51.000
G29  20676701.305 8 108656804.993 8      1624.008          51.000    20676701.172 8  84667649.213 8      1265.461          51.000
G32  22951790.578 7 120612470.089 7     -2153.957          46.000    22951793.133 7  93983708.442 7     -1678.411          46.000
R11  19806601.930 8 105840490.752 8     -1377.715          51.000    19806604.133 8  82320384.914 8     -1071.556          49.000
R12  19924728.523 5 106434325.195 5      2043.688          35.000
R21  19857031.812 8 106258954.752 8     -1587.141          51.000    19857033.656 8  82645976.515 8     -1234.443          49.000
R22  20112270.852 8 107360660.833 8      2922.680          51.000    20112273.797 8  83502810.379 8      2273.195          48.000
C26  21350168.141 8 111175944.910 8      -210.926          51.000
E11  23532245.039 6 123662779.795 6      -263.297          37.000    23532243.984 7  94754599.554 7      -202.010          47.000
E25  24059311.523 8 126432531.702 8     -1026.949          51.000    24059314.680 8  96876884.154 8      -786.907          51.000
E36  24661363.031 7 129596368.886 7      2444.598          44.000    24661371.117 8  99301144.917 8      1873.073          51.000
> 2020 05 13 10 23 30.0000000  0 14        .000000000000
G02  23128846.352 6 121542886.317 6     -1108.938          39.000
G12  21430526.242 6 112618164.880 6     -2134.625          37.000    21430523.812 6  87754409.605 6     -1663.338          38.000
G24  24137361.000 6 126842647.285 6     -3647.035          39.000    24137366.016 6  98838426.845 6     -2841.849          39.000
G25  20205751.914 8 106181945.454 8      -476.398          51.000    20205754.375 8  82739179.237 8      -371.220          51.000
G29  20667472.547 8 108608308.867 8      1608.906          51.000    20667472.711 8  84629860.049 8      1253.693          51.000
G32  22964121.711 7 120677271.301 7     -2166.348          45.000    22964123.969 7  94034202.889 7     -1688.060          45.000
R11  19814378.828 8 105882051.142 8     -1393.258          50.000    19814381.578 8  82352709.675 8     -1083.645          50.000
R12  19913294.727 5 106373237.074 5      2033.090          35.000
R21  19865994.719 8 106306917.275 8     -1610.570          51.000    19865996.680 8  82683280.704 8     -1252.666          49.000
R22  20095901.406 8 107273280.087 8      2902.422          51.000    20095904.094 7  83434847.582 7      2257.439          47.000
C26  21351417.633 8 111182450.965 8      -223.082          51.000
E11  23533789.719 6 123670899.038 6      -277.730          37.000    23533788.977 7  94760820.084 7      -212.995          47.000
E25  24065189.234 8 126463418.846 8     -1032.523          51.000    24065192.445 8  96900550.922 8      -791.193          51.000
E36  24647432.305 8 129523158.118 8      2435.832          48.000    24647440.000 8  99245048.383 8      1866.363          51.000
> 2020 05 13 10 24  0.0000000  0 13        .000000000000
G02  23135230.609 6 121576439.444 6     -1127.410          36.000    23135200.742 5  94734796.096 5      -878.526          34.000
G12  21442741.055 6 112682355.469 6     -2144.422          36.000    21442739.750 6  87804428.184 6     -1670.978          36.000
G24  24158198.148 6 126952146.410 6     -3652.609          39.000    24158202.352 6  98923750.741 6     -2846.192          38.000
G25  20208511.148 8 106196445.677 8      -489.691          51.000    20208513.641 8  82750478.093 8      -381.578          51.000
G29  20658339.820 8 108560316.750 8      1591.008          51.000    20658339.992 8  84592463.618 8      1239.746          51.000
G32  22976532.031 7 120742489.673 7     -2181.082          45.000    22976534.469 7  94085022.364 7     -1699.544          45.000
R11  19822253.203 8 105924133.261 8     -1411.613          50.000    19822256.789 8  82385440.232 8     -1097.921          50.000
R21  19875099.375 8 106355638.629 8     -1636.938          51.000    19875101.422 8  82721175.088 8     -1273.174          49.000
R22  20079656.047 8 107186563.614 8      2879.219          51.000    20079658.617 7  83367401.423 7      2239.389          46.000
C26  21352747.008 8 111189373.507 8      -238.020          51.000
E11  23535426.000 6 123679490.721 6      -294.621          37.000    23535423.672 7  94767403.274 7      -225.590          47.000
E25  24071109.914 8 126494531.932 8     -1041.234          51.000    24071113.289 8  96924390.810 8      -797.838          51.000
E36  24633562.984 8 129450267.445 8      2424.184          51.000    24633569.875 8  99189197.139 8      1857.443          51.000
> 2020 05 13 10 24 30.0000000  0 13        .000000000000
G02  23141706.820 6 121610471.059 6     -1141.883          38.000    23141680.250 4  94761314.030 4      -889.782          29.000
G12  21454998.031 5 112746767.149 5     -2150.309          34.000    21454997.375 5  87854619.102 5     -1675.568          32.000
G24  24179053.938 6 127061743.087 6     -3654.016          40.000    24179056.570 6  99009150.639 6     -2847.288          40.000
G25  20211333.844 8 106211279.421 8      -499.371          51.000    20211336.391 8  82762036.846 8      -389.120          51.000
G29  20649295.586 8 108512791.649 8      1577.051          48.000    20649295.977 8  84555431.117 8      1228.874          48.000
G32  22989013.992 7 120808084.645 7     -2192.137          45.000    22989016.648 7  94136135.335 7     -1708.158          46.000
R11  19830218.695 8 105966699.018 8     -1426.250          51.000    19830222.609 8  82418546.913 8     -1109.309          49.000
R21  19884338.219 8 106405077.650 8     -1659.195          51.000    19884340.180 8  82759627.652 8     -1290.485          49.000
R22  20063528.703 8 107100476.267 8      2859.730          51.000    20063531.148 7  83300444.617 7      2224.235          45.000
C26  21354149.398 8 111196675.815 8      -249.051          51.000
E11  23537143.859 5 123688517.548 5      -306.980          34.000    23537141.266 7  94774320.021 7      -235.380          46.000
E25  24077066.359 8 126525833.556 8     -1045.691          51.000    24077069.805 8  96948375.161 8      -801.214          51.000
E36  24619747.680 8 129377660.814 8      2416.223          51.000    24619753.555 8  99133563.524 8      1851.469          51.000
> 2020 05 13 10 25  0.0000000  0 13        .000000000000
G02  23148272.547 6 121644975.344 6     -1158.285          37.000    23148251.773 4  94788200.250 4      -902.566          27.000
G12  21467296.766 6 112811394.543 6     -2158.227          36.000    21467295.992 6  87904978.178 6     -1681.732          37.000
G24  24199927.250 6 127171430.288 6     -3657.949          40.000    24199928.672 6  99094621.111 6     -2850.350          41.000
G25  20214219.148 8 106226441.912 8      -511.070          51.000    20214221.680 8  82773851.758 8      -398.237          51.000
G29  20640339.445 8 108465729.476 8      1560.820          49.000    20640339.906 8  84518759.308 8      1216.224          49.000
G32  23001566.594 7 120874048.942 7     -2205.223          46.000    23001568.734 7  94187536.064 7     -1718.358          46.000
R11  19838274.273 8 106009743.714 8     -1443.027          51.000    19838277.562 8  82452026.089 8     -1122.358          48.000
R21  19893709.844 8 106455226.808 8     -1683.617          51.000    19893711.828 8  82798632.552 8     -1309.480          49.000
R22  20047518.820 8 107015016.023 8      2837.973          51.000    20047520.891 7  83233975.594 7      2207.312          45.000
C26  21355623.898 8 111204353.807 8      -262.465          51.000
E11  23538945.141 5 123697974.630 5      -323.273          35.000    23538941.055 7  94781566.310 7      -247.347          46.000
E25  24083057.891 8 126557319.314 8     -1052.750          51.000    24083061.281 8  96972500.596 8      -806.677          51.000
E36  24605985.500 8 129305335.055 8      2405.938          51.000    24605990.523 8  99078145.111 8      1843.570          51.000
> 2020 05 13 10 25 30.0000000  0 13        .000000000000
G02  23154931.539 5 121679971.859 5     -1175.164          33.000    23154931.055 5  94815571.197 5      -915.712          32.000
G12  21479639.797 5 112876257.415 5     -2165.965          34.000    21479638.555 5  87955520.550 5     -1687.771          33.000
G24  24220821.562 6 127281226.461 6     -3661.562          39.000    24220823.055 6  99180176.507 6     -2853.166          39.000
G25  20217170.898 8 106241953.386 8      -522.930          51.000    20217173.328 8  82785938.605 8      -407.478          51.000
G29  20631475.719 8 108419151.063 8      1544.629          49.000    20631476.000 8  84482464.425 8      1203.607          49.000
G32  23014192.969 7 120940399.985 7     -2217.973          47.000    23014194.227 8  94239238.153 8     -1728.290          48.000
R11  19846423.453 8 106053288.338 8     -1459.754          51.000    19846426.250 7  82485894.059 7     -1135.367          47.000
R21  19903217.398 8 106506103.714 8     -1707.984          51.000    19903219.469 8  82838203.477 8     -1328.432          49.000
R22  20031631.062 8 106930206.135 8      2816.180          51.000    20031633.195 7  83168012.379 7      2190.362          46.000
C26  21357174.422 8 111212428.168 8      -275.750          51.000
E11                                                                  23540826.508 7  94789157.247 7      -258.658          45.000
E25  24089088.500 8 126589009.723 8     -1059.762          51.000    24089091.695 8  96996782.848 8      -812.091          51.000
E36  24592280.305 8 129233312.026 8      2395.684          50.000    24592285.227 8  99022958.657 8      1835.657          51.000
> 2020 05 13 10 26  0.0000000  0 13        .000000000000
G02  23161683.930 6 121715458.928 6     -1190.629          36.000
G12  21492027.461 6 112941354.906 6     -2173.363          36.000    21492026.414 5  88006245.941 5     -1693.527          35.000
G24  24241736.328 6 127391130.455 6     -3665.160          39.000    24241738.680 6  99265815.915 6     -2855.969          39.000
G25  20220189.109 8 106257813.720 8      -534.277          51.000    20220191.375 8  82798297.297 8      -416.320          51.000
G29  20622704.312 8 108373056.902 8      1528.574          50.000    20622704.758 8  84446546.917 8      1191.097          50.000
G32  23026892.406 7 121007134.984 7     -2230.805          47.000    23026893.336 7  94291239.421 7     -1738.292          46.000
R11  19854666.070 8 106097332.684 8     -1476.246          51.000    19854668.422 7  82520150.716 7     -1148.194          46.000
R21  19912860.359 8 106557705.313 8     -1731.867          51.000    19912862.656 8  82878338.044 8     -1347.011          49.000
R22  20015865.672 8 106846050.019 8      2794.504          51.000    20015868.820 8  83102557.659 8      2173.506          48.000
C26  21358801.211 8 111220899.410 8      -288.820          51.000
E11  23542798.992 5 123718243.356 5      -352.719          34.000    23542797.070 7  94797092.490 7      -269.999          44.000
E25  24095157.914 8 126620905.061 8     -1066.328          51.000    24095161.227 8  97021222.092 8      -817.051          51.000
E36  24578631.930 8 129161593.200 8      2385.805          48.000    24578637.844 8  98968005.268 8      1828.027          51.000
> 2020 05 13 10 26 30.0000000  0 13        .000000000000
G02  23168527.172 5 121751424.630 5     -1206.586          31.000
G12  21504457.750 5 113006675.746 5     -2181.328          35.000    21504456.781 5  88057145.251 5     -1699.736          35.000
G24  24262669.047 6 127501128.247 6     -3668.105          39.000    24262671.703 6  99351528.448 6     -2858.267          39.000
G25  20223271.602 8 106274011.627 8      -545.508          51.000    20223273.625 8  82810919.039 8      -425.071          51.000
G29  20614023.375 8 108327436.138 8      1512.844          51.000    20614023.844 8  84410998.278 8      1178.839          51.000
G32  23039662.172 7 121074239.942 7     -2242.941          47.000    23039663.414 7  94343528.971 7     -1747.747          47.000
R11  19862999.906 8 106141865.613 8     -1492.539          51.000    19863001.859 7  82554787.375 7     -1160.867          46.000
R21  19922636.250 8 106610017.469 8     -1755.512          51.000    19922638.367 8  82919025.259 8     -1365.398          49.000
R22  20000221.086 8 106762538.521 8      2772.984          51.000    20000224.930 8  83037604.319 8      2156.769          48.000
C26  21360502.266 8 111229757.014 8      -301.664          51.000
E11  23544849.859 5 123729024.018 5      -367.383          35.000    23544851.281 7  94805363.008 7      -281.360          44.000
E25  24101264.227 8 126652994.396 8     -1072.965          51.000    24101267.578 8  97045809.985 8      -822.097          51.000
E36  24565039.414 7 129090168.885 7      2375.902          47.000    24565046.195 8  98913277.538 8      1820.524          51.000
> 2020 05 13 10 27  0.0000000  0 12        .000000000000
G12  21516931.344 6 113072223.492 6     -2188.309          39.000    21516930.664 6  88108221.439 6     -1705.172          39.000
G24  24283620.148 6 127611223.703 6     -3671.266          39.000    24283622.547 6  99437317.067 6     -2860.726          39.000
G25  20226419.172 8 106290551.964 8      -556.754          51.000    20226421.031 8  82823807.607 8      -433.834          51.000
G29  20605433.758 8 108282294.370 8      1497.039          51.000    20605433.992 8  84375822.852 8      1166.524          51.000
G32  23052502.688 7 121141716.896 7     -2255.160          47.000    23052504.609 7  94396108.374 7     -1757.271          47.000
R11  19871426.156 8 106186892.208 8     -1508.859          51.000    19871428.109 8  82589808.025 8     -1173.560          48.000
R21  19932545.078 8 106663042.065 8     -1779.066          51.000    19932547.234 8  82960266.607 8     -1383.721          49.000
R22  19984698.969 8 106679679.699 8      2751.363          51.000    19984703.211 7  82973158.640 7      2139.952          47.000
C26  21362278.656 8 111239006.348 8      -314.566          51.000
E11  23546987.734 6 123740254.757 6      -381.613          40.000    23546989.898 7  94813972.218 7      -292.402          43.000
E25  24107408.602 8 126685282.859 8     -1079.273          51.000    24107411.617 8  97070550.471 8      -827.000          51.000
E36  24551504.828 8 129019045.473 8      2366.035          49.000    24551511.547 8  98858780.411 8      1812.876          51.000
> 2020 05 13 10 27 30.0000000  0 12        .000000000000
G02  23182484.531 5 121824749.764 5     -1239.305          32.000
G24  24304588.383 6 127721409.816 6     -3674.340          38.000    24304590.531 6  99523176.300 6     -2863.122          39.000
G25  20229630.938 8 106307430.168 8      -568.133          51.000    20229632.758 8  82836959.443 8      -442.701          51.000
G29  20596934.219 8 108237627.677 8      1481.004          50.000    20596934.562 8  84341017.643 8      1154.029          50.000
G32  23065412.688 8 121209558.601 8     -2267.492          48.000    23065414.922 8  94448972.020 8     -1766.877          48.000
R11  19879943.711 8 106232408.137 8     -1525.297          51.000    19879946.062 8  82625209.277 8     -1186.342          49.000
R21  19942585.812 8 106716771.629 8     -1802.754          51.000    19942587.922 8  83002056.265 8     -1402.142          49.000
R22  19969298.992 8 106597471.783 8      2729.438          51.000    19969302.383 7  82909219.167 7      2122.896          47.000
C26  21364129.461 8 111248643.544 8      -327.660          51.000
E11  23549208.812 6 123751927.502 6      -396.344          41.000    23549210.445 6  94822916.249 6      -303.548          41.000
E25  24113590.008 8 126717766.321 8     -1086.012          51.000    24113592.867 8  97095440.368 8      -832.109          51.000
E36  24538027.758 8 128948220.029 8      2355.879          51.000    24538033.461 8  98804511.610 8      1805.166          51.000
> 2020 05 13 10 28  0.0000000  0 12        .000000000000
G24  24325575.195 6 127831694.469 6     -3678.227          37.000    24325577.242 6  99609112.372 6     -2866.151          37.000
G25  20232908.812 8 106324656.170 8      -579.793          51.000    20232910.625 8  82850382.291 8      -451.787          51.000
G29  20588526.875 8 108193446.205 8      1464.777          51.000    20588527.305 8  84306590.504 8      1141.382          51.000
G32  23078393.555 8 121277772.236 8     -2279.672          48.000    23078395.594 7  94502125.467 7     -1776.371          47.000
R11  19888554.945 8 106278423.451 8     -1542.000          51.000    19888557.422 8  82660998.954 8     -1199.333          49.000
R21  19952759.305 8 106771213.402 8     -1826.418          51.000    19952761.625 8  83044399.865 8     -1420.550          48.000
R22  19954023.148 8 106515927.822 8      2707.281          51.000    19954025.703 8  82845796.085 8      2105.663          48.000
C26  21366056.562 8 111258679.108 8      -341.031          51.000
C29  24436178.008 5 127245593.554 5     -2782.277          30.000
E11  23551515.219 7 123764046.671 7      -411.539          42.000    23551516.273 6  94832202.374 6      -315.401          41.000
E25  24119810.414 8 126750455.036 8     -1092.887          51.000    24119813.133 8  97120487.525 8      -837.359          51.000
E36  24524609.945 8 128877704.107 8      2345.613          51.000    24524613.750 8  98750479.984 8      1797.258          50.000
> 2020 05 13 10 28 30.0000000  0 14        .000000000000
G02  23196786.555 5 121899905.187 5     -1256.496          35.000    23196781.219 5  94986939.861 5      -979.088          33.000
G24  24346551.875 5 127941929.058 5     -3666.328          33.000    24346554.258 5  99695009.372 5     -2856.882          33.000
G25  20236224.789 8 106342082.545 8      -576.555          51.000    20236226.797 8  82863961.258 8      -449.263          51.000
G29  20580184.203 8 108149603.236 8      1463.316          51.000    20580184.250 8  84272427.129 8      1140.247          51.000
G32  23091416.602 8 121346207.646 8     -2277.293          48.000    23091418.609 8  94555451.702 8     -1774.517          48.000
R11  19897231.555 8 106324788.506 8     -1543.594          51.000    19897234.234 8  82697060.653 8     -1200.573          50.000
R12  19802636.828 5 105782085.139 5      1922.598          34.000
R21  19963037.633 8 106826214.135 8     -1834.906          51.000    19963039.883 8  83087178.205 8     -1427.149          48.000
R22  19938843.945 8 106434900.656 8      2699.945          51.000    19938846.867 8  82782774.978 8      2099.961          50.000
C26  21368032.336 8 111268967.520 8      -339.703          51.000
C29  24452198.219 5 127329011.711 5     -2774.723          31.000
E11  23553878.656 7 123776464.374 7      -411.527          43.000    23553879.938 6  94841717.209 6      -315.251          39.000
E25  24126041.914 8 126783201.920 8     -1085.066          51.000    24126044.305 8  97145579.264 8      -831.504          51.000
E36  24511223.336 8 128807351.855 8      2349.773          51.000    24511225.203 8  98696573.749 8      1800.449          50.000
> 2020 05 13 10 29  0.0000000  0 12        .000000000000
G02  23204089.711 4 121938312.746 4     -1305.207          29.000
G24  24367572.852 5 128052397.050 5     -3701.969          35.000    24367575.594 5  99781088.269 5     -2884.651          35.000
G25  20239633.391 8 106359994.882 8      -620.918          51.000    20239635.414 8  82877918.918 8      -483.832          51.000
G29  20571960.070 8 108106385.057 8      1414.402          51.000    20571959.742 8  84238750.652 8      1102.132          51.000
G32  23104535.453 8 121415147.605 8     -2322.262          48.000    23104537.594 8  94609171.094 8     -1809.558          48.000
R11  19906027.898 8 106371793.857 8     -1593.578          51.000    19906030.648 8  82733620.353 8     -1239.450          50.000
R21  19973473.945 8 106882061.764 8     -1891.816          51.000    19973476.297 8  83130615.239 8     -1471.413          48.000
R22  19923816.750 8 106354683.297 8      2644.254          51.000    19923820.164 8  82720383.731 8      2056.642          51.000
C26  21370111.227 8 111279792.322 8      -385.441          51.000
E11  23556352.633 7 123789465.673 7      -458.840          44.000    23556353.844 6  94851679.244 6      -351.546          38.000
E25  24132338.992 8 126816292.917 8     -1124.605          51.000    24132341.258 8  97170934.676 8      -861.735          51.000
E36  24497922.188 8 128737450.417 8      2306.699          51.000    24497922.859 8  98643012.913 8      1767.561          50.000
> 2020 05 13 10 29 30.0000000  0 12        .000000000000
G02  23211518.602 6 121977337.568 6     -1299.250          38.000
G24  24388644.633 6 128163129.341 6     -3683.730          37.000    24388646.758 6  99867373.079 6     -2870.442          36.000
G25  20243140.867 8 106378426.008 8      -610.961          51.000    20243142.586 8  82892280.820 8      -476.073          51.000
G29  20563860.891 8 108063824.789 8      1419.691          51.000    20563860.109 8  84205586.849 8      1106.256          51.000
G32  23117755.609 7 121484622.186 7     -2312.680          47.000    23117758.461 7  94663307.129 7     -1802.088          47.000
R11  19914950.328 8 106419472.822 8     -1588.168          51.000    19914953.188 8  82770703.994 8     -1235.242          49.000
R21  19984074.398 8 106938786.611 8     -1893.102          51.000    19984076.828 8  83174734.569 8     -1472.412          48.000
R22  19908948.141 8 106275311.706 8      2643.898          51.000    19908951.648 8  82658650.259 8      2056.365          50.000
C26  21372299.484 8 111291186.669 8      -377.242          51.000
E11  23558944.180 7 123803082.958 7      -452.090          44.000    23558944.141 6  94862113.212 6      -346.418          37.000
E25  24138707.883 8 126849761.186 8     -1109.648          51.000    24138710.234 8  97196579.170 8      -850.184          51.000
E36  24484712.828 8 128668034.216 8      2317.926          51.000    24484713.164 8  98589823.880 8      1776.094          50.000
> 2020 05 13 10 30  0.0000000  0 13        .000000000000
G12  21592682.789 5 113470313.646 5     -2232.914          34.000
G24  24409688.883 6 128273716.656 6     -3688.566          36.000    24409690.695 6  99953544.921 6     -2874.211          36.000
G25  20246669.500 8 106396968.288 8      -624.785          51.000    20246670.953 8  82906729.346 8      -486.846          51.000
G29  20555809.391 8 108021515.315 8      1401.223          51.000    20555808.492 8  84172618.458 8      1091.865          51.000
G32  23130999.070 7 121554221.013 7     -2326.973          46.000    23131002.891 7  94717539.965 7     -1813.228          46.000
R11  19923921.109 8 106467411.288 8     -1607.250          51.000    19923924.477 8  82807989.464 8     -1250.083          49.000
R12  19770840.734 6 105612242.885 6      1869.133          38.000
R21  19994760.516 8 106995970.760 8     -1918.789          50.000    19994763.141 7  83219211.125 7     -1492.391          47.000
R22  19894160.219 8 106196374.862 8      2618.820          49.000    19894164.531 8  82597254.946 8      2036.860          50.000
C26  21374519.500 8 111302747.265 8      -393.020          51.000
E11  23561575.422 6 123816908.007 6      -469.051          41.000    23561574.453 6  94872706.418 6      -359.166          37.000
E25  24145071.055 8 126883199.516 8     -1119.129          51.000    24145073.734 8  97222200.727 8      -857.505          51.000
E36  24471518.188 8 128598697.177 8      2304.996          50.000    24471518.773 8  98536695.518 8      1766.124          50.000
> 2020 05 13 10 30 30.0000000  0 14        .000000000000
G12  21605452.578 5 113537419.461 5     -2241.066          32.000
G24  24430743.164 6 128384354.556 6     -3692.043          37.000    24430744.539 6 100039756.199 6     -2876.917          38.000
G25  20250256.805 8 106415819.132 8      -637.020          51.000    20250258.062 8  82921418.315 8      -496.379          51.000
G29  20547843.227 8 107979654.527 8      1384.250          51.000    20547842.688 8  84139999.694 8      1078.636          51.000
G32  23144303.695 7 121624138.693 7     -2339.543          47.000    23144307.742 7  94772021.250 7     -1823.024          47.000
R11  19932978.273 8 106515809.643 8     -1624.613          51.000    19932981.570 8  82845632.631 8     -1263.591          48.000
R12  19760373.547 5 105556297.847 5      1855.090          32.000    19760351.234 4  82099307.530 4      1442.848          26.000
R21  20005569.594 8 107053811.939 8     -1942.605          49.000    20005571.883 8  83264198.697 8     -1510.915          48.000
R22  19879491.758 8 106118075.767 8      2595.672          50.000    19879496.617 8  82536355.644 8      2018.856          51.000
C26  21376808.852 8 111314670.197 8      -407.094          51.000
C29  24516783.367 5 127665311.773 5     -2816.828          31.000
E11  23564283.344 7 123831137.742 7      -484.797          44.000    23564283.438 6  94883609.721 6      -371.312          38.000
E25  24151466.062 8 126916805.565 8     -1126.621          51.000    24151469.164 8  97247950.772 8      -863.261          51.000
E36  24458376.203 8 128529638.146 8      2293.664          49.000    24458377.383 8  98483780.169 8      1757.456          50.000
> 2020 05 13 10 31  0.0000000  0 15        .000000000000
G02  23234201.914 5 122096559.671 5     -1350.258          32.000
G12  21618246.523 5 113604670.075 5     -2248.359          35.000    21618243.508 5  88523092.972 5     -1751.962          34.000
G24  24451830.641 6 128495170.099 6     -3694.789          37.000    24451832.523 6 100126105.935 6     -2879.059          37.000
G25  20253927.328 8 106435107.352 8      -647.816          51.000    20253928.414 8  82936448.107 8      -504.792          51.000
G29  20539987.336 8 107938371.897 8      1368.840          51.000    20539986.750 8  84107831.407 8      1066.628          51.000
G32  23157693.305 8 121694501.321 8     -2350.453          48.000    23157697.250 8  94826849.226 8     -1831.525          48.000
R11  19942146.133 8 106564799.286 8     -1640.461          51.000    19942149.414 8  82883735.655 8     -1275.917          48.000
R12  19749989.375 6 105500845.488 6      1843.000          36.000    19749979.320 4  82056237.313 4      1433.447          29.000
R21  20016525.227 8 107112438.454 8     -1964.879          51.000    20016527.906 8  83309797.103 8     -1528.239          48.000
R22  19864968.250 8 106040547.923 8      2573.836          51.000    19864973.000 8  82476056.202 8      2001.872          51.000
C26  21379192.430 8 111327083.769 8      -419.605          51.000
C29  24533026.891 5 127749896.306 5     -2822.191          32.000
E11  23567092.898 7 123845900.489 7      -498.758          42.000    23567092.711 6  94894921.397 6      -382.057          38.000
E25  24157917.727 8 126950708.534 8     -1132.711          51.000    24157920.656 8  97273928.362 8      -867.960          51.000
E36  24445311.492 8 128460987.617 8      2283.855          48.000    24445313.281 8  98431177.828 8      1749.970          49.000
> 2020 05 13 10 31 30.0000000  0 14        .000000000000
G12  21631105.562 6 113672243.452 6     -2256.125          36.000    21631104.109 6  88575747.582 6     -1758.016          37.000
G24  24472932.867 6 128606063.153 6     -3697.816          37.000    24472935.547 6 100212516.035 6     -2881.418          38.000
G25  20257662.344 8 106454734.617 8      -659.746          51.000    20257663.398 8  82951742.080 8      -514.088          51.000
G29  20532223.023 8 107897569.405 8      1352.203          51.000    20532222.258 8  84076037.247 8      1053.668          51.000
G32  23171148.383 8 121765207.710 8     -2362.512          48.000    23171152.391 7  94881945.072 7     -1840.918          47.000
R11  19951405.812 8 106614280.086 8     -1657.387          51.000    19951409.008 8  82922220.680 8     -1289.082          48.000
R12  19739679.109 5 105445787.861 5      1829.105          32.000    19739675.344 5  82013414.708 5      1422.635          30.000
R21  20027608.617 8 107171746.981 8     -1988.164          48.000    20027610.891 7  83355925.943 7     -1546.350          47.000
R22  19850571.039 8 105963694.060 8      2550.676          51.000    19850575.414 8  82416281.007 8      1983.859          50.000
C26  21381651.773 8 111339891.034 8      -433.297          51.000
C29  24549305.930 5 127834672.697 5     -2828.609          31.000
E11  23569984.648 6 123861097.277 6      -513.469          40.000    23569983.602 6  94906565.711 6      -393.656          38.000
E25  24164407.258 8 126984810.522 8     -1139.812          51.000    24164409.969 8  97300058.437 8      -873.363          51.000
E36  24432306.180 8 128392648.799 8      2272.984          48.000    24432308.320 8  98378814.331 8      1741.661          48.000
> 2020 05 13 10 32  0.0000000  0 15        .000000000000
G02  23249797.555 5 122178509.853 5     -1380.320          31.000
G12  21644003.008 4 113740002.793 4     -2262.082          29.000    21644001.562 4  88628564.087 4     -1762.664          27.000
G24  24494047.500 6 128717020.969 6     -3698.691          37.000    24494051.094 6 100298976.611 6     -2882.097          37.000
G25  20261459.852 8 106474690.301 8      -670.020          51.000    20261460.969 8  82967291.959 8      -522.093          51.000
G29  20524548.250 8 107857236.784 8      1337.203          51.000    20524547.430 8  84044609.249 8      1041.976          51.000
G32  23184666.320 8 121836244.410 8     -2372.605          48.000    23184670.766 8  94937298.322 8     -1848.783          48.000
R11  19960755.398 8 106664241.520 8     -1672.707          51.000    19960758.461 7  82961079.540 7     -1300.994          47.000
R12  19729442.266 5 105391117.064 5      1817.348          30.000    19729442.742 4  81970892.939 4      1413.493          29.000
R21  20038816.648 8 107231723.702 8     -2009.645          50.000    20038819.250 8  83402574.500 8     -1563.057          48.000
R22  19836298.789 8 105887506.014 8      2529.117          51.000    19836302.289 8  82357023.648 8      1967.091          49.000
C26  21384184.797 8 111353082.021 8      -445.422          51.000
C29  24565620.703 5 127919628.584 5     -2834.270          32.000
E11  23572957.539 6 123876716.869 6      -527.074          41.000    23572956.523 6  94918534.001 6      -403.880          39.000
E25  24170932.531 8 127019101.135 8     -1145.570          51.000    24170935.477 8  97326333.031 8      -877.763          51.000
E36  24419358.711 8 128324612.591 8      2263.406          49.000    24419360.703 8  98326682.713 8      1734.322          48.000
> 2020 05 13 10 32 30.0000000  0 14        .000000000000
G12  21656943.859 6 113808003.567 6     -2269.965          36.000    21656937.688 6  88681551.676 6     -1768.798          36.000
G24  24515176.703 6 128828122.721 6     -3701.496          37.000    24515181.641 6 100385496.498 6     -2884.283          37.000
G25  20265322.148 8 106494986.510 8      -681.625          51.000    20265323.367 8  82983107.186 8      -531.136          51.000
G29  20516965.242 8 107817386.580 8      1320.840          51.000    20516964.211 8  84013557.164 8      1029.229          51.000
G32  23198248.844 8 121907620.744 8     -2384.266          48.000    23198253.789 8  94992916.215 8     -1857.869          48.000
R11  19970197.219 8 106714695.821 8     -1689.438          51.000    19970200.039 8  83000321.752 8     -1314.007          48.000
R12  19719287.188 4 105336902.179 4      1803.070          29.000    19719278.211 4  81928691.758 4      1402.385          27.000
R21  20050151.578 7 107292377.675 7     -2032.449          47.000    20050153.773 7  83449749.808 7     -1580.794          47.000
R22  19822153.859 8 105811998.754 8      2506.121          51.000    19822156.820 8  82298295.808 8      1949.205          48.000
C26  21386794.094 8 111366669.320 8      -459.000          51.000
C29  24581973.156 5 128004774.039 5     -2840.922          33.000
E11  23576012.797 6 123892771.023 6      -541.922          40.000    23576011.539 6  94930835.197 6      -415.227          39.000
E25  24177496.078 8 127053592.901 8     -1152.520          51.000    24177499.133 8  97352761.767 8      -883.147          51.000
E36  24406472.078 8 128256892.617 8      2252.582          51.000    24406473.406 8  98274793.425 8      1725.980          48.000
> 2020 05 13 10 33  0.0000000  0 13        .000000000000
G02  23265724.367 5 122262195.228 5     -1412.180          35.000
G24  24536290.852 6 128939080.144 6     -3705.324          37.000    24536298.180 6 100471956.713 6     -2887.269          37.000
G25  20269220.984 8 106515474.988 8      -693.781          51.000    20269222.430 8  82999072.219 8      -540.609          51.000
G29  20509445.609 8 107777870.977 8      1303.930          51.000    20509444.516 8  83982765.813 8      1016.049          51.000
G32  23211867.305 7 121979185.665 7     -2396.211          47.000    23211872.148 7  95048681.044 7     -1867.180          47.000
R11  19979703.047 8 106765492.152 8     -1706.703          51.000    19979705.812 8  83039829.973 8     -1327.439          48.000
R21  20061583.867 8 107353554.832 8     -2055.750          49.000    20061586.117 8  83497332.021 8     -1598.917          48.000
R22  19808108.109 8 105737024.263 8      2482.477          50.000    19808111.273 8  82239982.358 8      1930.815          49.000
C26  21389451.445 8 111380506.453 8      -472.918          51.000
C29  24598334.383 5 128089960.207 5     -2847.445          32.000
E11  23579122.242 6 123909110.594 6      -556.605          38.000    23579120.016 6  94943355.143 6      -426.753          39.000
E25  24184069.711 8 127088137.821 8     -1159.871          51.000    24184072.625 8  97379231.246 8      -888.673          51.000
E36  24393618.094 8 128189342.094 8      2241.223          51.000    24393619.352 8  98223033.977 8      1717.324          49.000
> 2020 05 13 10 33 30.0000000  0 14        .000000000000
G02  23273833.820 5 122304816.927 5     -1423.293          34.000
G24  24557450.766 6 129050279.800 6     -3702.289          36.000    24557466.383 5 100558694.256 5     -2884.901          33.000
G25  20273216.594 8 106536471.823 8      -699.922          51.000    20273218.164 8  83015433.379 8      -545.394          51.000
G29  20502049.812 8 107739006.577 8      1292.949          51.000    20502048.781 8  83952481.887 8      1007.493          51.000
G32  23225581.438 8 122051252.503 8     -2402.336          48.000    23225585.578 8  95104836.976 8     -1871.953          48.000
R11  19989333.359 8 106816951.989 8     -1717.914          51.000    19989335.828 8  83079854.268 8     -1336.155          48.000
R12  19699181.688 5 105229506.597 5      1779.047          30.000
R21  20073173.609 8 107415573.601 8     -2072.832          48.000    20073175.977 8  83545568.845 8     -1612.203          48.000
R22  19794222.797 8 105662906.220 8      2464.684          50.000    19794226.352 8  82182334.999 8      1916.976          49.000
C26  21392217.250 8 111394907.233 8      -481.164          51.000
C29  24614762.922 4 128175498.559 4     -2849.191          29.000
E11  23582346.453 6 123926051.368 6      -566.477          36.000    23582344.609 6  94956335.776 6      -434.080          40.000
E25  24190713.633 8 127123052.408 8     -1161.879          49.000    24190716.773 8  97405983.983 8      -890.238          51.000
E36  24380856.617 8 128122278.676 8      2235.625          50.000    24380858.789 8  98171647.777 8      1712.943          51.000
> 2020 05 13 10 34  0.0000000  0 13        .000000000000
G02  23282068.883 5 122348089.912 5     -1447.469          34.000
G12  21696030.023 4 114013403.788 4     -2296.453          29.000    21696024.172 4  88841579.411 4     -1789.441          29.000
G24  24578658.680 5 129161726.139 5     -3713.117          35.000    24578672.719 5 100645541.946 5     -2893.332          30.000
G25  20277312.602 8 106557996.356 8      -720.336          51.000    20277314.148 8  83032205.733 8      -561.301          51.000
G29  20494781.766 8 107700813.084 8      1267.715          51.000    20494781.047 8  83922720.746 8       987.830          51.000
G32  23239394.125 8 122123837.585 8     -2422.160          48.000    23239397.773 8  95161396.709 8     -1887.398          48.000
R11  19999091.258 8 106869095.007 8     -1743.477          51.000    19999093.742 8  83120409.902 8     -1356.040          48.000
R21  20084923.820 8 107478450.812 8     -2104.336          48.000    20084925.984 8  83594473.315 8     -1636.709          48.000
R22  19780502.445 8 105589666.724 8      2432.664          50.000    19780506.367 8  82125370.928 8      1892.072          49.000
C26  21395095.078 8 111409891.329 8      -503.438          51.000
E11                                                                  23585687.219 6  94969791.252 6      -451.895          40.000
E25  24197431.414 8 127158356.383 8     -1177.375          49.000    24197435.094 8  97433035.076 8      -902.186          51.000
E36  24368191.383 8 128055723.185 8      2215.875          50.000    24368195.172 8  98120650.746 8      1697.899          51.000
> 2020 05 13 10 34 30.0000000  0 13        .000000000000
G02  23290354.180 5 122391626.895 5     -1459.688          34.000
G12  21709140.602 5 114082303.748 5     -2300.461          33.000
G24  24599842.461 5 129273044.166 5     -3713.062          34.000    24599851.922 5 100732287.004 5     -2893.286          34.000
G25  20281435.516 8 106579662.747 8      -728.348          51.000    20281437.117 8  83049088.619 8      -567.544          51.000
G29  20487568.070 8 107662905.016 8      1255.062          51.000    20487567.758 8  83893182.021 8       977.971          51.000
G32  23253231.305 8 122196552.378 8     -2429.648          49.000    23253234.789 8  95218057.544 8     -1893.233          49.000
R11  20008903.617 8 106921528.636 8     -1756.500          51.000    20008905.922 8  83161191.569 8     -1366.170          48.000
R21  20096760.266 7 107541790.213 7     -2122.957          47.000    20096762.773 7  83643737.313 7     -1651.189          47.000
R22  19766874.273 8 105516916.185 8      2412.945          51.000    19766877.820 8  82068787.190 8      1876.735          49.000
C26  21398011.555 8 111425076.912 8      -513.305          51.000
E11  23589073.422 5 123961419.630 5      -600.809          33.000    23589072.125 6  94983425.499 6      -460.087          39.000
E25  24204149.852 8 127193664.248 8     -1180.840          49.000    24204154.016 8  97460089.129 8      -904.766          51.000
E36  24355549.742 8 127989291.279 8      2208.586          50.000    24355554.930 8  98069748.420 8      1692.209          51.000
> 2020 05 13 10 35  0.0000000  0 12        .000000000000
G02  23298719.023 5 122435581.387 5     -1474.570          35.000
G24  24621031.852 5 129384397.536 5     -3715.133          33.000    24621030.141 5 100818991.635 5     -2894.909          32.000
G25  20285614.836 8 106601625.277 8      -739.574          51.000    20285616.570 8  83066202.271 8      -576.292          51.000
G29  20480438.219 8 107625436.900 8      1239.109          51.000    20480438.109 8  83863986.089 8       965.540          51.000
G32  23267121.828 8 122269548.195 8     -2440.391          49.000    23267125.609 8  95274937.380 8     -1901.603          49.000
R11  20018799.719 8 106974409.972 8     -1772.691          51.000    20018802.000 8  83202321.456 8     -1378.763          48.000
R21  20108712.016 7 107605745.728 7     -2144.652          47.000    20108714.422 8  83693480.475 8     -1668.063          48.000
R22  19753367.781 8 105444813.737 8      2389.941          51.000    19753370.523 8  82012707.530 8      1858.843          50.000
C26  21400996.164 8 111440617.269 8      -526.434          51.000
E11  23592529.172 5 123979577.368 5      -614.754          32.000    23592530.844 6  94997356.273 6      -471.099          38.000
E25  24210898.883 8 127229130.528 8     -1187.504          51.000    24210902.953 8  97487264.579 8      -909.873          51.000
E36  24342961.469 8 127923138.730 8      2197.840          50.000    24342967.227 8  98019060.106 8      1684.020          51.000
> 2020 05 13 10 35 30.0000000  0 13        .000000000000
G02  23307148.281 5 122479889.229 5     -1491.242          31.000
G24  24642210.156 5 129495687.805 5     -3718.188          33.000    24642211.867 5 100905753.621 5     -2897.289          32.000
G25  20289835.992 8 106623807.064 8      -752.617          51.000    20289837.672 8  83083486.768 8      -586.455          51.000
G29  20473377.438 8 107588332.239 8      1221.188          51.000    20473377.578 8  83835073.360 8       951.572          51.000
G32  23281050.734 8 122342745.487 8     -2452.656          49.000    23281054.773 8  95331974.188 8     -1911.164          49.000
R11  20028764.891 8 107027660.717 8     -1790.891          51.000    20028766.977 8  83243738.688 8     -1392.918          48.000
R21  20120763.664 7 107670235.807 7     -2168.246          45.000    20120765.680 7  83743639.438 7     -1686.414          46.000
R22  19739968.242 8 105373284.013 8      2365.062          51.000    19739970.430 8  81957073.343 8      1839.496          50.000
C26  21404034.367 8 111456436.889 8      -541.449          51.000
C29  24680804.875 5 128519434.298 5     -2879.777          33.000
E11  23596051.531 5 123998087.769 5      -631.199          35.000    23596050.039 6  95011524.300 6      -483.661          38.000
E25  24217663.836 8 127264678.855 8     -1195.809          51.000    24217667.570 8  97514502.897 8      -916.305          51.000
E36  24330412.227 8 127857190.293 8      2185.391          50.000    24330417.836 8  97968528.185 8      1674.439          51.000
> 2020 05 13 10 36  0.0000000  0 12        .000000000000
G24  24663458.273 5 129607346.391 5     -3717.133          34.000    24663460.625 5 100992760.311 5     -2896.449          33.000
G25  20294180.281 8 106646636.285 8      -760.863          51.000    20294181.977 8  83101275.767 8      -592.880          51.000
G29  20466467.305 8 107552019.421 8      1208.066          51.000    20466467.562 8  83806777.667 8       941.350          51.000
G32  23295098.961 8 122416569.593 8     -2460.508          48.000    23295102.891 8  95389499.438 8     -1917.279          48.000
R11  20038880.492 8 107081716.181 8     -1804.215          51.000    20038883.000 8  83285781.805 8     -1403.278          48.000
R21  20132995.641 7 107735693.176 7     -2186.961          46.000    20132997.586 7  83794550.718 7     -1700.973          46.000
R22  19726757.531 8 105302764.043 8      2344.910          51.000    19726759.453 8  81902224.494 8      1823.819          49.000
C26  21407207.547 8 111472960.461 8      -551.719          51.000
C29  24697427.078 5 128606003.058 5     -2882.672          34.000
E11  23599709.258 6 124017315.197 6      -642.086          38.000    23599709.672 6  95026257.008 6      -491.892          37.000
E25  24224525.844 8 127300737.740 8     -1199.668          51.000    24224529.070 8  97542132.407 8      -919.193          51.000
E36  24317983.516 8 127791875.511 8      2177.512          50.000    24317988.484 8  97918481.788 8      1668.516          51.000
> 2020 05 13 10 36 30.0000000  0 13        .000000000000
G12  21761959.422 5 114359872.700 5     -2327.895          32.000    21761960.484 5  89111575.688 5     -1813.938          32.000
G25  20298557.000 8 106669635.977 8      -772.840          51.000    20298558.812 8  83119197.593 8      -602.213          51.000
G29  20459617.320 8 107516021.830 8      1191.430          51.000    20459617.125 8  83778727.592 8       928.387          51.000
G32  23309175.047 7 122490540.557 7     -2471.344          46.000    23309178.648 7  95447139.142 7     -1925.722          46.000
R11  20049056.008 8 107136091.258 8     -1821.129          51.000    20049058.836 8  83328073.495 8     -1416.434          48.000
R12  19640774.766 5 104917470.480 5      1691.922          34.000    19640773.695 4  81602495.231 4      1315.942          29.000
R21  20145317.086 7 107801628.936 7     -2208.996          45.000    20145319.523 7  83845834.110 7     -1718.108          45.000
R22  19713645.461 8 105232772.186 8      2321.117          51.000    19713647.500 8  81847786.384 8      1805.313          49.000
C26  21410425.172 8 111489715.809 8      -565.543          51.000
C29  24714052.344 5 128692578.220 5     -2889.066          35.000
E11  23603417.352 6 124036802.108 6      -656.992          39.000    23603417.914 6  95041188.537 6      -503.466          37.000
E25  24231394.211 8 127336830.507 8     -1206.785          51.000    24231396.852 8  97569787.876 8      -924.650          51.000
E36  24305584.828 8 127726718.949 8      2166.094          51.000    24305589.016 8  97868556.625 8      1659.704          51.000
> 2020 05 13 10 37  0.0000000  0 13        .000000000000
G12  21775271.336 5 114429830.377 5     -2335.922          31.000    21775279.070 5  89166088.035 5     -1820.211          30.000
G25  20303003.305 8 106693001.448 8      -784.422          51.000    20303005.164 8  83137404.442 8      -611.238          51.000
G29  20452864.680 8 107480535.291 8      1174.781          51.000    20452863.820 8  83751075.738 8       915.414          51.000
G32  23323315.711 7 122564850.944 7     -2482.184          46.000    23323318.883 7  95505043.326 7     -1934.169          46.000
R11  20059328.422 8 107190984.498 8     -1837.953          51.000    20059331.352 8  83370768.196 8     -1429.519          48.000
R12  19631310.633 5 104866947.740 5      1677.039          30.000    19631307.430 4  81563160.416 4      1304.364          25.000
R21  20157764.781 7 107868238.733 7     -2231.094          46.000    20157767.211 7  83897641.710 7     -1735.295          45.000
R22  19700669.602 8 105163508.693 8      2297.008          51.000    19700672.312 8  81793914.781 8      1786.562          48.000
C26  21413724.453 8 111506896.979 8      -579.477          51.000
C29  24730716.094 5 128779351.486 5     -2895.309          35.000
E11  23607212.414 6 124056743.192 6      -672.285          39.000    23607212.375 6  95056468.020 6      -515.047          36.000
E25  24238306.320 8 127373152.871 8     -1214.246          51.000    24238308.750 8  97597619.269 8      -930.435          51.000
E36  24293253.516 8 127661917.334 8      2154.445          51.000    24293257.344 8  97818903.449 8      1650.824          51.000
> 2020 05 13 10 37 30.0000000  0 13        .000000000000
G12  21788623.914 6 114500006.829 6     -2341.836          40.000    21788654.648 5  89220834.460 5     -1824.822          34.000
G25  20307515.156 8 106716712.053 8      -795.082          51.000    20307517.141 8  83155880.233 8      -619.544          51.000
G29  20446205.195 8 107445539.216 8      1159.375          50.000    20446204.141 8  83723806.075 8       903.409          50.000
G32  23337516.688 8 122639477.138 8     -2491.684          48.000    23337519.609 8  95563193.591 8     -1941.572          48.000
R11  20069694.125 8 107246374.804 8     -1853.590          51.000    20069696.781 8  83413849.511 8     -1441.681          48.000
R12  19621933.273 4 104816847.822 4      1663.137          29.000
R21  20170333.859 7 107935498.041 7     -2251.797          46.000    20170336.555 7  83949954.507 7     -1751.398          44.000
R22  19687827.117 8 105094955.046 8      2274.324          51.000    19687830.195 8  81740595.290 8      1768.922          48.000
C26  21417101.484 8 111524483.968 8      -591.957          51.000
C29  24747413.500 5 128866300.531 5     -2900.098          32.000
E11  23611089.594 6 124077116.833 6      -685.098          37.000    23611089.211 5  95072079.040 5      -524.894          35.000
E25  24245258.391 8 127409684.510 8     -1220.102          51.000    24245260.711 8  97625611.001 8      -934.886          51.000
E36  24280986.016 8 127597451.499 8      2144.297          51.000    24280989.188 8  97769507.569 8      1643.024          50.000
> 2020 05 13 10 38  0.0000000  0 14        .000000000000
G12  21802015.805 6 114570381.063 6     -2349.164          38.000    21802037.516 6  89275671.382 6     -1830.524          37.000
G24  24748440.367 5 130053941.795 5     -3724.938          34.000    24748447.961 5 101340744.371 5     -2902.555          34.000
G25  20312088.750 8 106740746.966 8      -806.742          51.000    20312090.750 8  83174608.729 8      -628.630          51.000
G29  20439635.000 8 107411013.148 8      1143.023          51.000    20439634.023 8  83696902.631 8       890.668          51.000
G32  23351773.461 8 122714395.559 8     -2502.285          48.000    23351776.430 8  95621571.537 8     -1949.833          48.000
R11  20080148.773 8 107302240.662 8     -1870.168          51.000    20080151.312 8  83457300.712 8     -1454.575          48.000
R12  19612636.070 5 104767180.522 5      1648.980          34.000
R21  20183019.883 7 108003382.441 7     -2273.441          44.000    20183022.125 7  84002753.470 7     -1768.232          43.000
R22  19675114.281 8 105027092.407 8      2250.473          51.000    19675117.172 7  81687813.280 7      1750.368          47.000
C26  21420552.742 8 111542456.509 8      -605.625          51.000
C29  24764140.141 4 128953402.977 4     -2905.863          29.000
E11  23615044.781 6 124097901.746 6      -699.859          38.000    23615043.688 5  95088005.218 5      -536.477          34.000
E25  24252246.188 8 127446404.904 8     -1227.184          51.000    24252248.633 8  97653747.363 8      -940.265          51.000
E36  24268778.516 8 127533302.058 8      2132.953          51.000    24268781.266 8  97720354.140 8      1634.404          50.000
> 2020 05 13 10 38 30.0000000  0 13        .000000000000
G12  21815462.391 6 114641043.165 6     -2355.891          40.000    21815476.875 6  89330732.745 6     -1835.753          36.000
G24  24769727.656 6 130165803.339 6     -3726.660          37.000    24769734.547 6 101427909.140 6     -2903.894          37.000
G25  20316741.312 8 106765196.791 8      -818.027          51.000    20316743.227 8  83193660.553 8      -637.424          51.000
G29  20433171.516 8 107377048.052 8      1126.898          50.000    20433170.602 8  83670436.279 8       878.100          50.000
G32  23366102.531 8 122789693.872 8     -2512.234          48.000    23366105.727 8  95680245.511 8     -1957.585          48.000
R11  20090709.453 8 107358674.314 8     -1886.555          51.000    20090712.234 8  83501193.516 8     -1467.320          49.000
R12  19603428.734 5 104718006.998 5      1634.445          34.000    19603436.969 4  81447353.316 4      1271.235          26.000
R21  20195838.719 7 108071980.709 7     -2294.508          45.000    20195841.109 7  84056107.685 7     -1784.617          43.000
R22  19662548.500 8 104960014.950 8      2226.789          51.000    19662550.867 7  81635641.973 7      1731.947          47.000
C26  21424095.555 8 111560904.879 8      -618.859          51.000
E11  23619095.523 6 124119187.870 6      -714.082          39.000    23619093.391 5  95104315.322 5      -546.911          32.000
E25  24259287.062 8 127483405.096 8     -1234.004          51.000    24259289.305 8  97682098.120 8      -945.550          51.000
E36  24256648.805 8 127469561.071 8      2121.895          51.000    24256651.227 8  97671513.697 8      1625.846          50.000
> 2020 05 13 10 39  0.0000000  0 13        .000000000000
G12  21828931.625 6 114711824.538 6     -2363.328          38.000    21828938.453 6  89385886.992 6     -1841.560          38.000
G24  24791006.758 5 130277622.983 5     -3728.543          35.000    24791012.953 5 101515041.255 5     -2905.361          34.000
G25  20321440.844 8 106789893.027 8      -828.965          51.000    20321442.664 8  83212904.373 8      -645.944          51.000
G29  20426782.492 8 107343475.658 8      1110.723          49.000    20426781.938 8  83644275.952 8       865.498          49.000
G32  23380471.195 8 122865200.810 8     -2522.039          49.000    23380474.617 8  95739082.069 8     -1965.228          49.000
R11  20101344.453 8 107415504.060 8     -1902.711          51.000    20101347.492 8  83545394.419 8     -1479.886          49.000
R12  19594287.820 5 104669174.188 5      1619.957          35.000    19594289.312 4  81409363.234 4      1259.967          25.000
R21  20208759.141 7 108141118.135 7     -2315.230          42.000    20208760.578 7  84109881.205 7     -1800.732          42.000
R22  19650098.031 8 104893553.919 8      2203.305          51.000    19650099.883 7  81583950.093 7      1713.684          47.000
C26  21427697.859 8 111579662.638 8      -632.117          51.000
E11  23623209.445 5 124140805.908 5      -727.332          34.000
E25  24266349.273 8 127520516.941 8     -1240.613          51.000    24266351.242 8  97710534.444 8      -950.600          51.000
E36  24244565.250 8 127406061.553 8      2110.902          51.000    24244567.766 8  97622858.251 8      1617.400          51.000
> 2020 05 13 10 39 30.0000000  0 13        .000000000000
G02  23377973.125 5 122852099.288 5     -1610.859          34.000
G12  21842444.984 6 114782836.915 6     -2370.848          40.000    21842449.078 6  89441221.260 6     -1847.414          39.000
G24  24812299.336 5 130389510.907 5     -3730.594          35.000    24812305.234 6 101602226.522 6     -2906.962          36.000
G25  20326208.703 8 106814948.385 8      -841.082          51.000    20326210.445 8  83232428.037 8      -655.389          51.000
G29  20420489.898 8 107310408.914 8      1093.844          50.000    20420489.391 8  83618509.668 8       852.346          50.000
G32  23394900.430 8 122941026.071 8     -2532.594          49.000    23394904.023 8  95798166.649 8     -1973.450          49.000
R11  20112074.820 8 107472844.565 8     -1919.824          51.000    20112078.430 8  83589992.543 8     -1493.200          49.000
R21  20221799.961 7 108210905.830 7     -2336.988          45.000    20221802.500 6  84164160.555 6     -1817.661          41.000
R22  19637784.789 8 104827825.932 8      2178.793          51.000    19637787.250 8  81532828.359 8      1694.617          49.000
C26  21431381.273 8 111598841.746 8      -646.258          51.000
E11  23627407.250 5 124162862.839 5      -742.402          34.000
E25  24273454.281 8 127557853.437 8     -1248.219          51.000    24273456.594 8  97739142.910 8      -956.424          51.000
E36  24232549.570 8 127342917.573 8      2098.977          51.000    24232552.344 8  97574475.227 8      1608.295          51.000
> 2020 05 13 10 40  0.0000000  0 14        .000000000000
G02  23387206.711 5 122900630.072 5     -1624.293          32.000
G12  21855999.680 6 114854064.923 6     -2377.344          37.000    21855999.836 6  89496723.550 6     -1852.479          37.000
G24  24833601.867 5 130501450.809 5     -3731.891          33.000    24833607.766 5 101689452.328 5     -2907.970          34.000
G25  20331042.172 8 106840348.037 8      -851.934          51.000    20331043.734 8  83252219.979 8      -663.844          51.000
G29  20414291.023 8 107277833.196 8      1078.238          51.000    20414290.258 8  83593126.015 8       840.189          51.000
G32  23409386.672 8 123017152.052 8     -2542.109          48.000    23409390.367 8  95857485.554 8     -1980.867          49.000
R11  20122898.109 8 107530680.402 8     -1935.523          51.000    20122901.430 8  83634975.931 8     -1505.410          49.000
R12  19576257.242 5 104572847.205 5      1592.039          33.000    19576267.859 4  81334464.374 4      1238.250          28.000
R21  20234960.414 6 108281325.456 6     -2357.352          40.000    20234962.422 6  84218931.349 6     -1833.490          40.000
R22  19625606.641 8 104762818.070 8      2155.449          51.000    19625609.703 8  81482266.725 8      1676.464          50.000
C26  21435143.023 8 111618428.002 8      -659.125          51.000
E11  23631686.477 5 124185350.250 5      -756.078          34.000
E25  24280599.078 8 127595400.137 8     -1254.484          51.000    24280602.102 8  97767912.410 8      -961.204          51.000
E36  24220599.148 8 127280115.765 8      2088.125          51.000    24220602.375 8  97526354.377 8      1600.001          51.000
> 2020 05 13 10 40 30.0000000  0 13        .000000000000
G12  21869581.156 6 114925433.360 6     -2394.363          39.000    21869577.570 6  89552335.283 6     -1865.738          39.000
G24  24854899.977 5 130613366.380 5     -3743.641          32.000    24854906.297 5 101776659.267 5     -2917.113          31.000
G25  20335926.953 8 106866017.320 8      -873.195          51.000    20335928.586 8  83272222.014 8      -680.412          51.000
G29  20408171.383 8 107245673.659 8      1051.938          51.000    20408170.367 8  83568066.670 8       819.695          51.000
G32  23423915.203 7 123093501.059 7     -2561.684          47.000    23423918.898 7  95916978.266 7     -1996.117          47.000
R11  20133799.867 8 107588935.441 8     -1962.129          51.000    20133802.836 8  83680285.367 8     -1526.100          48.000
R12  19567353.359 5 104525289.423 5      1565.855          32.000    19567364.727 4  81297474.923 4      1217.882          28.000
R21  20248222.594 7 108352297.497 7     -2388.285          44.000    20248225.430 6  84274131.837 6     -1857.558          40.000
R22  19613549.828 8 104698456.720 8      2121.316          51.000    19613552.938 8  81432207.917 8      1649.913          50.000
C26  21438968.703 8 111638347.784 8      -682.551          51.000
C29  24848259.727 5 129391354.753 5     -2943.184          31.000
E25  24287769.734 8 127633082.723 8     -1271.527          51.000    24287773.094 8  97796786.061 8      -974.269          51.000
E36  24208699.898 8 127217582.834 8      2066.895          51.000    24208703.398 8  97478439.554 8      1583.673          51.000
> 2020 05 13 10 41  0.0000000  0 13        .000000000000
G12  21883217.133 5 114997089.340 5     -2401.066          31.000    21883213.719 5  89608171.124 5     -1870.961          33.000
G25  20340891.047 8 106892103.321 8      -884.582          51.000    20340892.719 8  83292548.762 8      -689.285          51.000
G29  20402158.898 8 107214078.300 8      1035.754          51.000    20402158.266 8  83543446.948 8       807.081          51.000
G32  23438513.531 7 123170217.428 7     -2571.336          46.000    23438517.070 7  95976757.239 7     -2003.638          46.000
R11  20144807.984 8 107647759.064 8     -1978.383          51.000    20144810.898 8  83726037.017 8     -1538.742          48.000
R12  19558548.203 5 104478255.893 5      1550.965          34.000    19558557.758 4  81260903.193 4      1206.306          26.000
R21  20261616.383 6 108423968.448 6     -2408.574          39.000    20261619.531 6  84329875.964 6     -1873.329          38.000
R22  19601642.398 8 104634893.160 8      2097.320          51.000    19601645.367 8  81382769.591 8      1631.249          50.000
C26  21442886.391 8 111658747.288 8      -695.941          51.000
C29  24865173.938 5 129479444.606 5     -2948.340          32.000
E11  23640473.234 5 124231522.264 5      -794.676          35.000
E25  24294994.430 8 127671048.615 8     -1278.301          51.000    24294997.695 8  97825876.797 8      -979.453          51.000
E36  24196879.852 8 127155467.376 8      2055.512          51.000    24196883.336 8  97430844.588 8      1574.994          51.000
> 2020 05 13 10 41 30.0000000  0 11        .000000000000
G25  20345907.703 8 106918465.578 8      -882.000          51.000    20345909.062 8  83313090.789 8      -687.273          51.000
G29  20396227.047 8 107182906.343 8      1033.305          51.000    20396226.938 8  83519157.119 8       805.172          51.000
G32  23453154.695 8 123247157.801 8     -2566.926          48.000    23453157.945 8  96036710.734 8     -2000.205          48.000
R11  20155895.859 8 107707008.390 8     -1980.711          51.000    20155898.383 7  83772119.770 7     -1540.556          47.000
R12  19549816.859 6 104431606.361 6      1550.008          36.000
R21  20275111.828 7 108496191.800 7     -2415.266          45.000    20275115.945 5  84386049.656 5     -1878.543          35.000
R22  19589857.867 8 104571986.790 8      2087.215          51.000    19589860.883 8  81333842.406 8      1623.389          50.000
C26  21446869.383 8 111679487.705 8      -695.785          51.000
C29  24882106.711 5 129567627.843 5     -2940.090          33.000
E25  24302246.242 8 127709157.719 8     -1271.363          51.000    24302249.570 8  97855077.279 8      -974.150          51.000
E36  24185112.539 8 127093630.293 8      2057.918          51.000    24185115.961 8  97383462.916 8      1576.837          51.000
> 2020 05 13 10 42  0.0000000  0 11        .000000000000
G25  20351000.797 8 106945230.072 8      -898.125          51.000    20351002.086 8  83333946.232 8      -699.838          51.000
G29  20390399.812 8 107152283.758 8      1012.281          51.000    20390399.703 8  83495295.368 8       788.791          51.000
G32  23467862.102 8 123324445.208 8     -2581.219          48.000    23467864.891 8  96096934.646 8     -2011.342          48.000
R11  20167087.312 8 107766810.983 8     -2001.879          51.000    20167089.523 7  83818632.863 7     -1557.017          47.000
R12  19541181.172 5 104385471.627 5      1529.574          33.000
R21  20288736.102 7 108569092.280 7     -2440.688          42.000    20288737.750 5  84442749.963 5     -1898.312          34.000
R22  19578220.242 8 104509867.764 8      2058.191          50.000    19578223.984 8  81285527.608 8      1600.816          51.000
C26  21450941.906 8 111700694.215 8      -713.949          51.000
C29  24899081.820 5 129656027.514 5     -2949.449          35.000
E25  24309549.227 8 127747536.421 8     -1283.074          51.000    24309552.758 8  97884484.301 8      -983.135          51.000
E36  24173422.352 8 127032198.949 8      2041.602          51.000    24173425.773 8  97336392.134 8      1564.368          51.000
> 2020 05 13 10 42 30.0000000  0 13        .000000000000
G12  21924351.039 5 115213241.507 5     -2412.418          30.000
G25  20356157.188 8 106972327.454 8      -908.574          51.000    20356158.609 8  83355061.056 8      -707.983          51.000
G29  20384664.211 8 107122141.706 8       996.824          51.000    20384663.812 8  83471808.067 8       776.746          51.000
G32  23482621.703 7 123402007.466 7     -2589.828          46.000    23482624.344 7  96157372.721 7     -2018.048          46.000
R11  20178368.680 8 107827096.164 8     -2017.281          51.000    20178371.344 8  83865521.289 8     -1568.997          48.000
R12  19532629.477 5 104339783.779 5      1515.516          35.000    19532642.828 4  81153200.887 4      1178.731          28.000
R21  20302471.656 7 108642595.868 7     -2460.172          43.000    20302475.172 5  84499919.492 5     -1913.464          32.000
R22  19566717.102 8 104448467.618 8      2034.824          51.000    19566721.664 8  81237771.935 8      1582.641          51.000
C26  21455090.648 8 111722298.513 8      -726.621          51.000
C29  24916084.938 6 129744573.236 6     -2953.250          36.000
E11  23654290.656 5 124304133.521 5      -826.859          34.000
E25  24316890.633 8 127786115.633 8     -1289.207          51.000    24316893.898 8  97914044.972 8      -987.813          51.000
E36  24161796.477 8 126971105.387 8      2030.977          51.000    24161799.820 8  97289580.174 8      1556.113          51.000
> 2020 05 13 10 43  0.0000000  0 12        .000000000000
G12  21938145.883 5 115285741.993 5     -2419.582          33.000    21938147.820 5  89833034.010 5     -1885.398          33.000
G25  20361381.664 8 106999782.287 8      -920.180          51.000    20361383.141 8  83376454.422 8      -717.023          51.000
G29  20379024.766 8 107092504.899 8       980.410          51.000    20379024.023 8  83448714.472 8       763.956          51.000
G32  23497437.508 7 123479866.208 7     -2599.094          44.000    23497440.445 7  96218041.835 7     -2025.271          44.000
R11  20189744.773 8 107887888.647 8     -2033.828          49.000    20189747.836 8  83912804.311 8     -1581.866          48.000
R12  19524166.195 5 104294591.675 5      1500.797          31.000    19524170.445 4  81118032.480 4      1167.274          24.000
R21  20316324.422 7 108716724.240 7     -2480.121          43.000
R22  19555354.078 8 104387813.188 8      2010.309          51.000    19555358.859 8  81190596.263 8      1563.573          51.000
C26  21459320.180 8 111744325.284 8      -740.305          51.000
C29  24933120.867 5 129833287.606 5     -2958.957          35.000
E25  24324274.898 8 127824920.339 8     -1296.305          51.000    24324277.789 8  97943778.431 8      -993.222          51.000
E36  24150239.703 8 126910375.536 8      2019.305          51.000    24150243.078 8  97243046.916 8      1547.325          51.000
> 2020 05 13 10 43 30.0000000  0 12        .000000000000
G12  21951976.062 6 115358417.325 6     -2426.137          39.000    21951966.961 5  89889663.947 5     -1890.505          33.000
G25  20366664.016 8 107027541.294 8      -931.172          51.000    20366665.617 8  83398084.805 8      -725.588          51.000
G29  20373471.141 8 107063320.013 8       964.574          51.000    20373469.953 8  83425973.010 8       751.619          51.000
G32  23512298.984 7 123557965.229 7     -2608.082          45.000    23512302.344 7  96278898.201 7     -2032.272          45.000
R11  20201205.820 8 107949133.980 8     -2049.883          51.000    20201209.242 8  83960439.555 8     -1594.353          48.000
R12  19515780.812 5 104249801.314 5      1484.727          34.000
R21  20330283.414 7 108791419.579 7     -2499.965          42.000    20330306.398 4  84615643.512 4     -1944.417          27.000
R22  19544121.805 8 104327852.321 8      1986.309          51.000    19544126.031 8  81143960.036 8      1544.907          51.000
C26  21463620.602 8 111766722.089 8      -753.543          51.000
C29  24950179.336 5 129922116.059 5     -2963.949          34.000
E25  24331691.852 8 127863897.535 8     -1302.855          51.000    24331694.750 8  97973644.045 8      -998.223          51.000
E36  24138742.438 8 126849957.488 8      2007.945          51.000    24138745.828 8  97196752.590 8      1538.550          51.000
> 2020 05 13 10 44  0.0000000  0 14        .000000000000
G12  21965845.750 6 115431300.766 6     -2432.816          39.000    21965830.273 5  89946456.247 5     -1895.704          34.000
G14  23048879.008 6 121122673.964 6     -1267.238          36.000
G25  20372011.102 8 107055640.569 8      -942.457          51.000    20372012.883 8  83419980.318 8      -734.382          51.000
G29  20368010.336 8 107034623.532 8       948.258          51.000    20368008.883 8  83403612.125 8       738.902          51.000
G32  23527212.789 7 123636337.786 7     -2617.094          45.000    23527216.555 7  96339967.708 7     -2039.294          45.000
R11  20212758.445 8 108010868.415 8     -2066.062          51.000    20212762.180 8  84008455.180 8     -1606.937          48.000
R12  19507481.938 6 104205473.369 6      1469.895          36.000    19507481.078 4  81048690.366 4      1143.251          27.000
R21  20344354.266 7 108866715.064 7     -2519.891          43.000
R22  19533027.086 8 104268623.689 8      1961.961          51.000    19533030.836 8  81097893.332 8      1525.970          51.000
C26  21467999.203 8 111789525.085 8      -766.977          51.000
C29  24967266.156 5 130011092.620 5     -2968.293          34.000
E11                                                                  23668787.641 5  95304406.264 5      -665.133          35.000
E25  24339148.703 8 127903083.775 8     -1309.875          51.000    24339151.859 8  98003669.832 8     -1003.617          51.000
E36  24127311.852 8 126789888.748 8      1996.383          51.000    24127315.508 8  97150725.931 8      1529.717          51.000
> 2020 05 13 10 44 30.0000000  0 14        .000000000000
G12  21979741.562 6 115504322.951 6     -2434.973          39.000    21979728.336 5  90003356.444 5     -1897.387          34.000
G14  23056141.492 5 121160849.503 5     -1278.031          33.000
G25  20377409.750 8 107084010.848 8      -948.859          51.000    20377411.609 8  83442087.019 8      -739.371          51.000
G29  20362629.180 8 107006346.291 8       936.945          51.000    20362627.656 8  83381577.916 8       730.087          51.000
G32  23542165.094 7 123714911.725 7     -2621.227          45.000    23542169.383 7  96401194.108 7     -2042.517          45.000
R11  20224389.867 8 108073021.592 8     -2077.352          51.000    20224393.414 8  84056796.506 8     -1615.721          49.000
R12  19499257.188 5 104161540.252 5      1459.105          34.000    19499258.719 4  81014519.624 4      1134.860          29.000
R21  20358523.938 7 108942536.752 7     -2534.883          42.000    20358522.211 4  84733087.380 4     -1971.579          27.000
R22  19522056.109 8 104210058.597 8      1942.473          51.000    19522059.922 8  81052342.739 8      1510.815          50.000
C26  21472442.836 8 111812666.007 8      -775.668          50.000
C29  24984367.656 5 130100147.031 5     -2968.309          33.000
E11                                                                  23673768.891 5  95324469.175 5      -672.026          34.000
E25  24346632.305 8 127942410.130 8     -1311.820          50.000    24346635.508 8  98033803.001 8     -1005.155          51.000
E36  24115934.875 8 126730101.475 8      1989.527          51.000    24115939.070 8  97104914.931 8      1524.437          51.000
> 2020 05 13 10 45  0.0000000  0 14        .000000000000
G12  21993700.078 6 115577674.704 6     -2434.059          39.000    21993690.891 5  90060513.505 5     -1896.678          30.000
G14  23063524.609 5 121199594.628 5     -1286.609          32.000
G25  20382896.477 8 107112844.088 8      -952.480          51.000    20382898.320 8  83464554.473 8      -742.193          51.000
G29  20357364.062 8 106978679.946 8       928.332          51.000    20357362.688 8  83360019.729 8       723.376          51.000
G32  23557191.844 7 123793876.054 7     -2622.309          46.000    23557196.258 7  96462724.720 7     -2043.357          46.000
R11  20236136.109 8 108135788.133 8     -2085.797          51.000    20236139.617 8  84105614.873 8     -1622.286          49.000
R12  19491142.430 5 104118199.306 5      1451.348          31.000    19491145.562 4  80980809.979 4      1128.829          29.000
R21  20372828.078 6 109019076.510 6     -2546.504          39.000    20372827.156 4  84792618.315 4     -1980.614          29.000
R22  19511245.883 8 104152354.062 8      1925.832          51.000    19511249.820 8  81007461.461 8      1497.869          48.000
C26  21476988.008 8 111836335.285 8      -781.508          50.000
C29  25001520.445 5 130189467.763 5     -2965.574          33.000
E11                                                                  23678854.094 5  95344945.282 5      -676.554          34.000
E25  24354179.031 8 127982068.839 8     -1311.047          50.000    24354182.438 8  98064190.807 8     -1004.518          51.000
E36  24104648.094 8 126670788.883 8      1985.570          51.000    24104652.773 8  97059467.640 8      1521.423          51.000
> 2020 05 13 10 45 30.0000000  0 13        .000000000000
G12  22007689.055 6 115651189.219 6     -2455.645          37.000    22007685.438 6  90117797.425 6     -1913.489          37.000
G25  20388439.578 8 107141973.383 8      -978.395          51.000    20388441.477 8  83487252.623 8      -762.385          51.000
G29  20352183.773 8 106951458.226 8       897.527          51.000    20352182.500 8  83338808.007 8       699.372          51.000
G32  23572260.453 7 123873060.873 7     -2645.633          45.000    23572264.203 7  96524427.152 7     -2061.532          45.000
R11  20247965.203 8 108198997.791 8     -2116.891          51.000    20247968.227 8  84154777.916 8     -1646.474          49.000
R12  19483107.016 5 104075283.550 5      1421.102          34.000    19483111.609 5  80947431.068 5      1105.301          30.000
R21  20387231.992 6 109096160.747 6     -2580.977          38.000    20387230.227 5  84852572.709 5     -2007.426          32.000
R22  19500564.852 8 104095342.381 8      1886.320          49.000    19500569.117 7  80963119.085 7      1467.141          47.000
C26  21481603.016 8 111860367.879 8      -809.516          50.000
C29  25018691.977 4 130278887.628 4     -2984.816          29.000
E11  23684009.469 5 124460309.971 5      -911.637          33.000    23684011.234 5  95365706.135 5      -698.443          34.000
E25  24361757.328 8 128021893.371 8     -1332.727          51.000    24361761.180 8  98094705.677 8     -1021.165          51.000
E36  24093419.938 8 126611785.445 8      1959.152          51.000    24093425.102 8  97014257.229 8      1501.181          51.000
> 2020 05 13 10 46  0.0000000  0 13        .000000000000
G12  22021715.117 5 115724897.001 5     -2459.660          35.000    22021715.461 5  90175232.000 5     -1916.618          35.000
G25  20394045.016 8 107171429.930 8      -986.430          51.000    20394046.852 8  83510205.774 8      -768.647          51.000
G29  20347094.203 8 106924712.089 8       884.578          51.000    20347092.914 8  83317966.857 8       689.282          51.000
G32  23587376.219 7 123952494.624 7     -2650.836          44.000    23587378.922 7  96586323.534 7     -2065.586          44.000
R11  20259882.789 8 108262682.433 8     -2129.871          51.000    20259886.055 8  84204310.399 8     -1656.566          50.000
R12  19475157.477 4 104032794.647 4      1407.906          29.000    19475161.430 5  80914409.780 5      1095.038          30.000
R21  20401743.688 6 109173817.877 6     -2596.852          36.000    20401746.570 5  84912972.689 5     -2019.773          35.000
R22  19490020.172 8 104039057.003 8      1864.957          49.000    19490023.766 7  80919341.579 7      1450.522          46.000
C26  21486294.211 8 111884795.053 8      -820.012          50.000
C29  25035888.344 4 130368438.901 4     -2985.750          29.000
E11  23689241.633 5 124487804.611 5      -922.551          34.000    23689244.789 5  95386774.996 5      -706.587          34.000
E25  24369373.430 8 128061915.287 8     -1336.367          51.000    24369377.469 8  98125371.801 8     -1024.027          51.000
E36  24082256.727 8 126553123.702 8      1950.598          51.000    24082261.734 8  96969308.643 8      1494.569          51.000
> 2020 05 13 10 46 30.0000000  0 13        .000000000000
G12  22035778.695 5 115798806.101 5     -2465.508          30.000    22035779.984 5  90232823.397 5     -1921.190          31.000
G25  20399714.242 8 107201221.807 8      -997.344          51.000    20399716.078 8  83533420.211 8      -777.151          51.000
G29  20342096.445 8 106898449.238 8       868.711          51.000    20342095.586 8  83297502.314 8       676.921          51.000
G32  23602540.102 7 124032182.429 7     -2659.012          42.000    23602542.211 7  96648417.879 7     -2071.960          42.000
R11  20271890.766 8 108326849.332 8     -2145.625          51.000    20271894.258 8  84254217.972 8     -1668.819          49.000
R12  19467296.398 5 103990804.117 5      1393.500          30.000    19467301.477 5  80881754.325 5      1083.833          31.000
R21  20416362.625 5 109252052.546 5     -2616.016          34.000    20416367.453 5  84973821.978 5     -2034.673          35.000
R22  19479613.906 8 103983507.708 8      1840.660          51.000    19479616.180 7  80876136.573 7      1431.625          46.000
C26  21491062.906 8 111909625.075 8      -833.070          50.000
C29  25053110.766 4 130458120.986 4     -2990.320          28.000
E11  23694551.914 5 124515710.407 5      -935.703          35.000    23694554.352 5  95408157.399 5      -716.752          32.000
E25  24377028.680 8 128102143.040 8     -1343.051          51.000    24377032.773 8  98156195.637 8     -1029.163          51.000
E36  24071160.570 8 126494813.056 8      1939.215          51.000    24071164.789 8  96924629.078 8      1485.865          51.000
> 2020 05 13 10 47  0.0000000  0 12        .000000000000
G25  20405443.312 8 107231328.013 8     -1006.496          51.000    20405445.266 8  83556879.581 8      -784.283          51.000
G29  20337186.766 8 106872649.139 8       854.656          51.000    20337186.398 8  83277398.332 8       665.966          51.000
G32  23617747.508 6 124112100.326 6     -2665.445          38.000    23617749.867 6  96710691.527 6     -2076.970          38.000
R11  20283985.109 8 108391477.043 8     -2159.594          51.000    20283988.500 8  84304483.959 8     -1679.684          49.000
R12  19459520.117 6 103949270.283 6      1379.242          36.000    19459527.828 5  80849450.238 5      1072.747          32.000
R21  20431085.938 6 109330839.869 6     -2633.012          37.000    20431089.953 5  85035100.966 5     -2047.901          35.000
R22  19469342.266 8 103928674.907 8      1818.145          51.000    19469343.680 7  80833488.838 7      1414.112          47.000
C26  21495904.906 8 111934837.409 8      -844.371          49.000
C29  25070355.516 4 130547918.357 4     -2993.176          27.000
E11  23699936.375 5 124544003.500 5      -946.906          34.000    23699936.516 5  95429825.553 5      -725.647          31.000
E25  24384719.094 8 128142555.933 8     -1347.770          51.000    24384723.047 8  98187161.342 8     -1032.745          51.000
E36  24060127.703 8 126436833.821 8      1929.402          51.000    24060131.148 8  96880203.470 8      1478.379          51.000
> 2020 05 13 10 47 30.0000000  0 12        .000000000000
G25  20411239.570 8 107261787.574 8     -1017.434          51.000    20411241.602 8  83580614.276 8      -792.805          51.000
G29  20332372.727 8 106847351.046 8       838.699          51.000    20332372.414 8  83257685.515 8       653.532          51.000
G32  23633005.875 6 124192284.423 6     -2673.266          41.000    23633008.781 6  96773172.661 6     -2083.064          41.000
R11  20296172.719 8 108456604.790 8     -2175.520          51.000    20296176.258 8  84355138.827 8     -1692.071          48.000
R12  19451837.555 6 103908230.519 6      1363.570          37.000    19451844.773 5  80817530.432 5      1060.555          31.000
R21  20445920.102 5 109410215.863 5     -2651.637          30.000    20445923.836 6  85096837.911 6     -2062.375          36.000
R22  19459212.445 8 103874600.089 8      1793.578          51.000    19459214.188 8  80791430.656 8      1395.005          48.000
C26  21500827.836 8 111960471.127 8      -857.797          50.000
C29  25087628.633 4 130637864.982 4     -2997.176          28.000
E11  23705401.094 6 124572724.186 6      -960.695          36.000    23705400.938 5  95451825.836 5      -735.997          31.000
E25  24392452.109 8 128183193.408 8     -1354.727          51.000    24392455.922 8  98218299.119 8     -1038.034          51.000
E36  24049165.539 8 126379226.388 8      1917.699          51.000    24049168.320 8  96836062.753 8      1469.406          51.000
> 2020 05 13 10 48  0.0000000  0 11        .000000000000
G25  20417110.953 8 107292642.142 8     -1036.070          51.000    20417113.242 8  83604656.769 8      -807.328          51.000
G29  20327662.141 8 106822596.291 8       815.066          51.000    20327661.898 8  83238396.113 8       635.117          51.000
G32  23648322.797 7 124272773.612 7     -2689.070          47.000    23648325.961 7  96835891.466 7     -2095.379          47.000
R11  20308462.117 8 108522274.550 8     -2199.043          50.000    20308464.836 7  84406215.270 7     -1710.370          47.000
R12  19444255.930 5 103867729.704 5      1340.480          31.000    19444263.055 5  80786029.857 5      1042.596          32.000
R21  20460870.383 5 109490219.659 5     -2678.086          35.000    20460875.039 6  85159063.115 6     -2082.959          36.000
R22  19449232.492 8 103821327.097 8      1761.301          51.000    19449235.320 8  80749996.147 8      1369.904          49.000
C26  21505839.695 8 111986567.689 8      -878.699          51.000
E11  23710954.172 6 124601909.157 6      -981.297          38.000    23710955.156 5  95474189.355 5      -751.798          31.000
E25  24400235.875 8 128224097.395 8     -1368.988          51.000    24400239.469 8  98249641.126 8     -1048.947          51.000
E36  24038282.023 8 126322033.684 8      1898.414          51.000    24038284.297 8  96792239.837 8      1454.662          50.000
> 2020 05 13 10 48 30.0000000  0 13        .000000000000
G02  23556878.789 4 123792233.093 4     -1868.344          29.000
G14  23117610.891 6 121483824.132 6     -1406.586          36.000
G25  20423035.789 8 107323777.935 8     -1042.152          51.000    20423038.086 8  83628918.421 8      -812.067          51.000
G29  20323033.625 8 106798271.158 8       804.000          51.000    20323033.422 8  83219441.474 8       626.494          51.000
G32  23663675.656 8 124353451.139 8     -2692.055          48.000    23663678.703 8  96898757.000 8     -2097.708          48.000
R11  20320830.781 8 108588370.139 8     -2210.012          51.000    20320833.430 7  84457622.899 7     -1718.898          47.000
R12  19436753.578 5 103827654.983 5      1328.781          34.000    19436760.531 5  80754860.579 5      1033.500          32.000
R21  20475916.234 5 109570731.686 5     -2691.883          33.000    20475919.484 5  85221683.519 5     -2093.690          34.000
R22  19439381.578 8 103768742.121 8      1741.652          51.000    19439385.289 8  80709096.741 8      1354.618          50.000
C26  21510918.852 8 112013014.686 8      -887.090          51.000
E11  23716574.805 6 124631445.856 6      -989.695          37.000    23716576.875 5  95496824.385 5      -757.961          31.000
E25  24408048.805 8 128265154.533 8     -1370.781          51.000    24408052.289 8  98281100.480 8     -1050.318          51.000
E36  24027456.094 8 126265143.289 8      1891.648          51.000    24027458.172 8  96748648.542 8      1449.436          50.000
> 2020 05 13 10 49  0.0000000  0 12        .000000000000
G14  23125691.945 5 121526278.362 5     -1423.934          34.000
G25  20429023.133 8 107355242.888 8     -1054.945          50.000    20429025.508 8  83653436.561 8      -822.035          50.000
G29  20318495.828 8 106774423.517 8       786.453          51.000    20318495.727 8  83200858.911 8       612.821          51.000
G32  23679072.844 7 124434362.007 7     -2701.402          47.000    23679075.500 7  96961804.337 7     -2104.989          47.000
R11  20333288.508 8 108654939.956 8     -2227.418          51.000    20333291.297 8  84509399.402 8     -1732.436          48.000
R12  19429342.461 6 103788057.448 6      1311.277          37.000    19429347.805 5  80724062.453 5      1019.882          32.000
R21  20491063.633 6 109651796.956 6     -2712.035          38.000    20491068.766 5  85284734.340 5     -2109.364          34.000
R22  19429668.805 8 103716895.021 8      1715.348          51.000    19429673.078 8  80668771.243 8      1334.159          49.000
C26  21516074.430 8 112039859.809 8      -901.984          51.000
E11  23722271.680 6 124661378.307 6     -1005.367          36.000
E25  24415900.125 8 128306413.061 8     -1379.145          51.000    24415903.625 8  98312714.147 8     -1056.849          51.000
E36  24016697.047 8 126208604.352 8      1878.289          51.000    24016699.344 8  96705326.515 8      1439.211          51.000
> 2020 05 13 10 49 30.0000000  0 11        .000000000000
G25  20435076.062 8 107387052.519 8     -1067.340          50.000    20435078.516 8  83678223.280 8      -831.693          50.000
G29  20314051.742 8 106751069.041 8       769.016          51.000    20314051.500 8  83182660.624 8       599.233          51.000
G32  23694516.664 7 124515518.755 7     -2710.715          44.000    23694519.062 7  97025043.292 7     -2112.245          45.000
R11  20345837.438 8 108721999.030 8     -2244.809          50.000    20345840.664 7  84561556.425 7     -1745.962          47.000
R12  19422024.008 6 103748955.593 6      1293.734          38.000    19422027.516 5  80693649.968 5      1006.241          34.000
R21  20506318.938 5 109733427.986 5     -2731.570          35.000    20506322.477 5  85348225.057 5     -2124.558          31.000
R22  19420097.734 8 103665803.588 8      1689.176          51.000    19420102.070 8  80629033.485 8      1313.803          50.000
C26  21521309.133 8 112067118.699 8      -916.828          51.000
E11  23728047.297 5 124691726.981 5     -1019.859          35.000
E25  24423792.992 8 128347888.870 8     -1387.301          51.000    24423796.328 8  98344494.279 8     -1062.982          51.000
E36  24006007.969 8 126152433.739 8      1864.887          51.000    24006010.641 8  96662286.688 8      1428.966          51.000
> 2020 05 13 10 50  0.0000000  0 11        .000000000000
G25  20441195.133 8 107419209.482 8     -1076.270          49.000    20441197.656 8  83703280.655 8      -838.652          49.000
G29  20309701.992 8 106728210.278 8       755.125          51.000    20309701.609 8  83164848.623 8       588.412          51.000
G32  23710006.648 7 124596921.130 7     -2716.262          42.000    23710009.812 7  97088473.670 7     -2116.568          42.000
R11  20358478.477 8 108789549.813 8     -2258.520          51.000    20358481.516 7  84614095.919 7     -1756.626          46.000
R12  19414798.531 6 103710354.724 6      1279.387          37.000    19414802.586 5  80663626.993 5       995.076          34.000
R21  20521679.453 5 109815623.504 5     -2747.879          31.000    20521679.664 5  85412154.941 5     -2137.233          32.000
R22  19410669.125 8 103615471.777 8      1666.391          51.000    19410673.250 8  80589886.511 8      1296.082          49.000
C26  21526623.883 8 112094794.221 8      -928.102          51.000
E11  23733901.781 5 124722490.806 5     -1030.547          35.000
E25  24431727.797 8 128389584.903 8     -1392.254          51.000    24431730.820 8  98376443.173 8     -1066.804          51.000
E36  23995389.602 8 126096635.306 8      1855.094          51.000    23995392.547 8  96619532.046 8      1421.412          51.000
> 2020 05 13 10 50 30.0000000  0 11        .000000000000
G25  20447373.992 8 107451679.540 8     -1088.031          50.000    20447376.594 8  83728582.006 8      -847.817          50.000
G29  20305439.695 8 106705813.037 8       738.543          51.000    20305439.750 8  83147396.236 8       575.488          51.000
G32  23725536.188 7 124678531.998 7     -2724.273          42.000    23725540.641 7  97152066.536 7     -2122.810          42.000
R11  20371205.367 8 108857557.091 8     -2274.973          51.000    20371208.016 7  84666990.464 7     -1769.423          46.000
R12  19407660.367 6 103672222.540 6      1262.742          38.000    19407663.508 5  80633968.626 5       982.133          34.000
R21  20537139.156 5 109898345.245 5     -2766.172          32.000    20537140.367 5  85476494.100 5     -2151.464          33.000
R22  19401376.453 8 103565866.246 8      1641.027          51.000    19401380.016 8  80551304.457 8      1276.355          49.000
C26  21532012.516 8 112122852.690 8      -942.090          51.000
E11  23739828.273 6 124753634.655 6     -1044.844          36.000    23739832.102 5  95590461.035 5      -800.825          31.000
E25  24439697.742 8 128431467.297 8     -1399.496          51.000    24439700.586 8  98408534.860 8     -1072.392          50.000
E36  23984835.938 8 126041176.120 8      1842.590          51.000    23984839.211 8  96577037.348 8      1411.843          51.000
> 2020 05 13 10 51  0.0000000  0 12        .000000000000
G02  23611238.984 5 124077912.160 5     -1934.738          31.000
G25  20453607.789 8 107484437.479 8     -1095.176          51.000    20453610.352 8  83754107.662 8      -853.384          51.000
G29  20301260.227 8 106683852.008 8       726.246          51.000    20301260.656 8  83130283.735 8       565.906          51.000
G32  23741100.680 7 124760323.379 7     -2727.871          46.000    23741105.547 7  97215800.031 7     -2125.614          46.000
R11  20384012.633 8 108925994.578 8     -2286.867          51.000    20384015.047 7  84720219.553 7     -1778.674          45.000
R12  19400606.086 6 103634536.038 6      1250.035          41.000    19400608.016 5  80604656.910 5       972.250          35.000
R21  20552690.914 5 109981563.996 5     -2780.855          35.000    20552692.578 5  85541219.802 5     -2162.888          31.000
R22  19392215.570 8 103516963.077 8      1619.930          51.000    19392218.391 8  80513268.671 8      1259.948          49.000
C26  21537469.750 8 112151269.445 8      -951.676          51.000
E11  23745822.547 5 124785138.370 5     -1054.008          34.000    23745825.102 5  95614598.676 5      -807.904          31.000
E25  24447698.352 8 128473511.316 8     -1402.625          51.000    24447700.984 8  98440750.372 8     -1074.703          50.000
E36  23974342.391 8 125986032.290 8      1834.422          51.000    23974345.859 8  96534784.307 8      1405.599          51.000
> 2020 05 13 10 51 30.0000000  0 12        .000000000000
G02  23622348.492 5 124136292.207 5     -1954.469          32.000
G25  20459921.266 8 107517613.921 8     -1112.812          51.000    20459923.695 8  83779959.423 8      -867.127          51.000
G29  20297189.023 8 106662458.089 8       703.836          51.000    20297189.078 8  83113613.151 8       548.444          51.000
G32  23756723.930 8 124842422.862 8     -2741.746          48.000    23756727.961 8  97279773.611 8     -2136.429          48.000
R11  20396925.414 8 108994994.669 8     -2309.203          51.000    20396927.375 7  84773886.252 7     -1796.047          46.000
R12  19393660.344 6 103597430.504 6      1227.211          39.000    19393662.586 6  80575797.068 6       954.500          37.000
R21  20568359.922 5 110065409.257 5     -2805.383          34.000    20568360.570 5  85606432.704 5     -2181.964          33.000
R22  19383211.062 8 103468896.176 8      1588.312          51.000    19383213.781 8  80475883.306 8      1235.354          49.000
C26  21543020.438 8 112180174.028 8      -971.551          51.000
E11                                                                  23751908.320 5  95639103.794 5      -822.833          33.000
E25  24455754.617 8 128515847.786 8     -1416.016          51.000    24455757.359 8  98473189.983 8     -1085.053          50.000
E36  23963933.914 8 125931335.640 8      1815.840          51.000    23963937.422 8  96492873.917 8      1391.316          51.000
> 2020 05 13 10 52  0.0000000  0 13        .000000000000
G02  23633533.219 4 124195054.899 4     -1964.984          28.000
G12  22193002.398 4 116624986.397 4     -2538.988          27.000
G25  20466295.664 8 107551110.672 8     -1121.480          51.000    20466298.055 8  83806060.776 8      -873.881          51.000
G29  20293206.727 8 106641531.963 8       690.148          51.000    20293206.750 8  83097307.103 8       537.778          51.000
G32  23772386.547 8 124924729.327 8     -2746.562          49.000    23772388.688 8  97343908.480 8     -2140.179          49.000
R11  20409924.422 8 109064456.976 8     -2322.688          51.000    20409926.672 8  84827912.467 8     -1806.535          48.000
R12  19386803.969 6 103560809.030 6      1212.988          39.000    19386807.312 6  80547313.667 6       943.435          37.000
R21  20584125.641 6 110149777.154 6     -2820.773          37.000    20584129.602 5  85672052.208 5     -2193.935          35.000
R22  19374344.648 8 103421567.266 8      1565.730          51.000    19374347.680 8  80439071.937 8      1217.793          50.000
C26  21548646.250 8 112209469.324 8      -982.637          51.000
E11  23758068.430 5 124849491.390 5     -1085.270          31.000    23758065.484 5  95663903.489 5      -830.992          33.000
E25  24463847.984 8 128558378.864 8     -1420.590          51.000    24463850.641 8  98505778.710 8     -1088.489          51.000
E36  23953592.109 8 125876989.213 8      1806.004          51.000    23953595.664 8  96451231.879 8      1383.854          51.000
> 2020 05 13 10 52 30.0000000  0 12        .000000000000
G25  20472728.148 8 107584912.771 8     -1132.156          51.000    20472730.516 8  83832400.060 8      -882.200          51.000
G29  20289310.695 8 106621059.143 8       674.391          51.000    20289310.656 8  83081354.264 8       525.499          51.000
G32  23788085.008 8 125007224.936 8     -2753.457          49.000    23788085.867 8  97408190.738 8     -2145.551          49.000
R11  20423006.938 8 109134365.707 8     -2338.133          51.000    20423009.859 8  84882285.894 8     -1818.548          49.000
R12  19380036.461 7 103524658.366 7      1196.645          43.000    19380039.656 6  80519196.480 6       930.724          38.000
R21  20599987.594 5 110234648.895 5     -2838.137          34.000    20599991.453 5  85738063.548 5     -2207.440          31.000
R22  19365614.148 8 103374962.357 8      1540.988          51.000    19365617.312 8  80402823.689 8      1198.546          50.000
C12  24460618.414 6 127372860.866 6      3088.594          37.000
C26  21554344.398 8 112239140.707 8      -995.742          51.000
E11                                                                  23764295.656 5  95688985.551 5      -841.420          35.000
E25  24471975.461 8 128601089.999 8     -1427.203          51.000    24471978.172 8  98538505.392 8     -1093.601          51.000
E36  23943314.312 8 125822979.321 8      1794.238          51.000    23943317.977 8  96409847.690 8      1374.833          51.000
> 2020 05 13 10 53  0.0000000  0 12        .000000000000
G25  20479212.648 8 107618988.559 8     -1140.008          51.000    20479214.711 8  83858952.604 8      -888.318          51.000
G29  20285495.078 8 106601007.906 8       661.840          51.000    20285494.492 8  83065729.929 8       515.719          51.000
G32  23803812.906 8 125089875.082 8     -2757.020          48.000    23803813.625 8  97472593.421 8     -2148.327          48.000
R11  20436166.828 8 109204688.014 8     -2350.449          51.000    20436170.125 8  84936981.011 8     -1828.127          49.000
R12  19373351.758 7 103488949.389 7      1183.566          42.000    19373354.852 6  80491422.825 6       920.552          38.000
R22  19357013.500 8 103329050.709 8      1519.285          51.000    19357016.344 8  80367114.621 8      1181.666          50.000
C12  24442832.859 6 127280241.455 6      3085.480          37.000
C26  21560108.672 8 112269157.058 8     -1005.750          51.000
C29  25279212.586 5 131635489.749 5     -3040.617          31.000
E11                                                                  23770589.961 5  95714325.033 5      -848.308          35.000
E25  24480131.438 8 128643949.811 8     -1430.445          51.000    24480134.094 8  98571345.996 8     -1096.002          51.000
E36  23933094.438 8 125769275.537 8      1785.570          49.000    23933098.617 8  96368698.030 8      1368.236          51.000
> 2020 05 13 10 53 30.0000000  0 14        .000000000000
G02  23667494.203 5 124373514.287 5     -2015.199          31.000
G25  20485747.664 8 107653329.800 8     -1165.531          51.000    20485749.508 8  83885711.996 8      -908.206          51.000
G29  20281758.180 8 106581370.000 8       631.305          51.000    20281757.383 8  83050427.661 8       491.926          51.000
G32  23819568.086 7 125172668.687 7     -2778.594          47.000    23819569.539 7  97537107.890 7     -2165.138          47.000
R11  20449402.445 8 109275414.995 8     -2381.008          51.000    20449405.812 8  84991990.882 8     -1851.895          49.000
R12  19366748.656 7 103453675.979 7      1152.004          43.000    19366751.570 6  80463987.987 6       896.003          38.000
R21  20631962.953 5 110405838.219 5     -2884.660          35.000    20631975.266 5  85871224.851 5     -2243.628          33.000
R22  19348541.398 8 103283825.104 8      1479.410          51.000    19348544.258 8  80331939.173 8      1150.652          51.000
C12  24425071.766 6 127187752.903 6      3064.137          36.000    24425073.445 5  98349645.709 5      2369.590          32.000
C26  21565937.516 8 112299510.382 8     -1033.578          51.000
C29  25296737.305 5 131726747.925 5     -3059.344          32.000
E11                                                                  23776944.086 5  95739914.917 5      -869.906          35.000
E25  24488314.336 8 128686950.484 8     -1452.238          51.000    24488317.047 8  98604294.551 8     -1112.736          51.000
E36  23922931.320 8 125715870.842 8      1758.754          49.000    23922936.305 8  96327777.552 8      1347.623          51.000
> 2020 05 13 10 54  0.0000000  0 13        .000000000000
G25  20492403.516 8 107688306.184 8     -1166.477          51.000    20492405.195 8  83912966.314 8      -908.943          51.000
G29  20278170.109 8 106562514.948 8       625.504          51.000    20278169.422 8  83035735.413 8       487.406          51.000
G32  23835420.320 7 125255972.523 7     -2775.398          47.000    23835422.836 7  97602019.932 7     -2162.648          47.000
R11  20462783.547 8 109346921.849 8     -2386.414          49.000    20462787.203 8  85047607.285 8     -1856.103          48.000
R12  19360297.250 6 103419216.883 6      1145.461          41.000    19360300.891 6  80437186.479 6       890.911          39.000
R21  20648158.375 5 110492462.745 5     -2890.770          31.000    20648159.289 4  85938599.462 4     -2248.376          29.000
R22  19340268.352 8 103239662.324 8      1464.559          51.000    19340271.266 8  80297590.359 8      1139.101          51.000
C12  24407406.586 5 127095762.992 5      3067.812          31.000    24407407.930 6  98278513.280 6      2372.424          38.000
C26  21571901.555 8 112330567.143 8     -1036.977          51.000
C29  25314340.984 5 131818408.548 5     -3052.457          32.000
E11                                                                  23783430.492 5  95766037.670 5      -872.097          35.000
E25  24496594.172 8 128730462.005 8     -1448.727          51.000    24496597.414 8  98637634.521 8     -1110.003          51.000
E36  23912896.039 8 125663136.094 8      1756.770          50.000    23912901.609 8  96287370.430 8      1346.069          51.000
> 2020 05 13 10 54 30.0000000  0 14        .000000000000
G12  22265952.727 5 117008370.404 5     -2571.727          31.000
G25  20499086.414 8 107723425.089 8     -1177.785          51.000    20499088.031 8  83940331.682 8      -917.755          51.000
G29  20274637.492 8 106543950.157 8       609.297          51.000    20274636.617 8  83021269.324 8       474.777          51.000
G32  23851275.258 7 125339291.054 7     -2782.164          47.000    23851278.727 7  97666943.422 7     -2167.923          47.000
R11  20476217.070 8 109418707.277 8     -2402.262          49.000    20476220.742 8  85103440.375 8     -1868.426          48.000
R12  19353904.398 7 103385073.769 7      1128.039          42.000    19353909.789 6  80410630.674 6       877.364          40.000
R21  20664401.375 5 110579387.777 5     -2908.160          30.000    20664396.961 4  86006170.069 4     -2261.902          26.000
R22  19332100.789 8 103196063.420 8      1439.055          51.000    19332103.805 8  80263680.096 8      1119.265          51.000
C12                                                                  24389742.703 6  98207390.191 6      2367.177          40.000
C26  21577907.320 8 112361839.353 8     -1050.703          51.000
C29  25331928.477 5 131909987.007 5     -3055.758          33.000
E11                                                                  23789956.648 6  95792315.225 6      -881.869          36.000
E25  24504877.414 8 128773992.117 8     -1456.051          50.000    24504881.047 8  98670988.755 8     -1115.648          51.000
E36  23902895.180 8 125610579.920 8      1744.121          51.000    23902900.727 8  96247100.128 8      1336.446          51.000
> 2020 05 13 10 55  0.0000000  0 14        .000000000000
G14  23229307.273 5 122070836.188 5     -1600.590          32.000
G25  20505839.242 8 107758911.540 8     -1188.383          51.000    20505840.969 8  83967983.448 8      -926.013          51.000
G29  20271202.773 8 106525899.972 8       593.734          51.000    20271201.703 8  83007204.241 8       462.650          51.000
G32  23867175.258 7 125422846.351 7     -2788.559          46.000    23867179.391 7  97732051.400 7     -2172.906          46.000
R11  20489745.305 8 109490999.330 8     -2417.641          49.000    20489749.203 8  85159667.503 8     -1880.390          48.000
R12  19347615.023 7 103351477.563 7      1111.246          45.000    19347620.156 6  80384500.306 6       864.306          39.000
R21  20680762.008 5 110666884.777 5     -2924.629          30.000    20680760.336 5  86074222.761 5     -2274.714          31.000
R22  19324081.508 8 103153257.803 8      1414.234          51.000    19324085.070 8  80230386.866 8      1099.960          51.000
C12                                                                  24372123.820 6  98136450.081 6      2362.208          41.000
C26  21583997.258 8 112393550.147 8     -1063.867          51.000
C29  25349542.461 5 132001704.651 5     -3059.195          33.000
E11  23796566.195 5 125051795.343 5     -1163.859          33.000    23796563.672 5  95818919.128 5      -891.824          35.000
E25  24513206.984 8 128817766.116 8     -1462.562          49.000    24513210.797 8  98704529.894 8     -1120.671          51.000
E36  23892971.719 8 125558428.481 8      1732.199          51.000    23892976.648 8  96207139.940 8      1327.296          51.000
> 2020 05 13 10 55 30.0000000  0 13        .000000000000
G14  23238490.336 5 122119085.853 5     -1615.164          34.000
G25  20512655.227 8 107794729.690 8     -1199.223          51.000    20512656.992 8  83995893.681 8      -934.459          51.000
G29  20267859.133 8 106508328.596 8       577.965          51.000    20267857.945 8  82993512.272 8       450.365          51.000
G32  23883112.906 7 125506599.716 7     -2794.918          46.000    23883117.383 7  97797313.716 7     -2177.861          46.000
R11  20503361.758 8 109563761.068 8     -2432.938          51.000    20503365.664 8  85216259.944 8     -1892.285          48.000
R12  19341421.734 7 103318394.711 7      1094.395          44.000    19341426.500 6  80358769.201 6       851.196          40.000
R22  19316204.164 8 103111210.423 8      1389.121          51.000    19316208.234 8  80197683.353 8      1080.428          50.000
C12  24354540.508 5 126820514.746 5      3048.258          35.000    24354543.930 7  98065666.700 7      2356.985          43.000
C26  21590164.141 8 112425664.183 8     -1077.051          50.000
C29  25367175.820 5 132093524.469 5     -3061.422          33.000
E11  23803248.648 5 125086914.901 5     -1176.793          32.000    23803244.570 5  95845821.191 5      -901.474          35.000
E25  24521576.375 8 128861748.574 8     -1469.234          49.000    24521580.227 8  98738230.755 8     -1125.786          51.000
E36  23883118.633 8 125506647.170 8      1720.098          51.000    23883122.969 8  96167463.364 8      1318.012          51.000
> 2020 05 13 10 56  0.0000000  0 14        .000000000000
G14  23247753.484 5 122167755.800 5     -1628.871          33.000
G25  20519532.758 8 107830871.358 8     -1210.059          51.000    20519534.547 8  84024056.018 8      -942.903          51.000
G29  20264605.125 8 106491227.751 8       562.191          51.000    20264603.805 8  82980186.932 8       438.071          51.000
G32  23899086.352 7 125590540.044 7     -2800.992          45.000    23899090.609 7  97862721.723 7     -2182.594          45.000
R11  20517064.734 8 109636983.496 8     -2448.336          51.000    20517068.570 8  85273210.701 8     -1904.261          49.000
R12  19335323.500 7 103285819.241 7      1077.344          45.000    19335328.219 6  80333432.702 6       837.934          40.000
R21  20713760.164 6 110843509.307 6     -2958.484          36.000
R22  19308467.406 8 103069913.954 8      1364.047          51.000    19308472.148 8  80165563.895 8      1060.925          50.000
C12  24337001.164 6 126729172.427 6      3041.578          38.000    24337001.758 7  97995035.021 7      2351.911          43.000
C26  21596406.633 8 112458173.496 8     -1090.273          50.000
C29  25384826.547 5 132185436.887 5     -3065.812          33.000
E11  23810002.070 5 125122405.363 5     -1189.492          34.000    23809997.953 5  95873014.444 5      -911.202          35.000
E25  24529984.250 8 128905931.676 8     -1476.164          50.000    24529988.039 8  98772085.347 8     -1131.171          51.000
E36  23873334.406 8 125455229.019 8      1707.895          51.000    23873338.188 8  96128065.052 8      1308.631          51.000
> 2020 05 13 10 56 30.0000000  0 13        .000000000000
G14  23257099.727 4 122216882.597 4     -1643.926          29.000
G25  20526475.508 8 107867355.640 8     -1221.633          51.000    20526477.383 8  84052485.312 8      -951.922          51.000
G29  20261444.102 8 106474616.484 8       545.809          51.000    20261442.961 8  82967243.067 8       425.305          51.000
G32  23915098.688 7 125674683.554 7     -2807.789          45.000    23915102.195 7  97928288.054 7     -2187.888          46.000
R11  20530857.305 8 109710685.312 8     -2464.469          51.000    20530860.945 8  85330534.315 8     -1916.812          49.000
R12  19329324.297 7 103253773.206 7      1059.547          45.000    19329328.117 6  80308508.031 6       824.092          40.000
R22  19300875.711 8 103029388.870 8      1338.254          51.000    19300880.492 8  80134044.401 8      1040.864          50.000
C12  24319501.758 6 126638046.773 6      3033.898          38.000    24319501.391 7  97924570.896 7      2346.111          45.000
C26  21602729.258 8 112491097.074 8     -1104.148          51.000
C29  25402497.875 5 132277459.046 5     -3068.633          34.000
E11  23816831.102 5 125158292.013 5     -1202.988          35.000    23816826.766 5  95900512.738 5      -921.627          34.000
E25  24538434.328 8 128950334.804 8     -1483.492          51.000    24538437.766 8  98806108.495 8     -1136.720          51.000
E36  23863622.922 8 125404194.254 8      1694.988          51.000    23863626.172 8  96088960.512 8      1298.733          51.000
> 2020 05 13 10 57  0.0000000  0 13        .000000000000
G02  23749489.766 5 124804399.175 5     -2095.891          32.000
G25  20533477.484 8 107904151.260 8     -1231.637          51.000    20533479.508 8  84081157.218 8      -959.717          51.000
G29  20258370.242 8 106458463.023 8       530.859          51.000    20258369.406 8  82954655.959 8       413.657          51.000
G32  23931143.398 7 125758996.072 7     -2813.219          46.000    23931145.938 7  97993986.076 7     -2192.122          45.000
R11  20544733.523 8 109784834.220 8     -2479.086          51.000    20544737.070 8  85388205.655 8     -1928.178          48.000
R12  19323418.688 7 103222227.388 7      1043.090          46.000    19323422.125 6  80283972.388 6       811.292          40.000
R22  19293422.805 8 102989604.466 8      1313.859          51.000    19293427.406 8  80103100.974 8      1021.891          49.000
C12  24302036.883 6 126547108.317 6      3028.617          39.000    24302037.188 7  97854251.591 7      2341.553          45.000
C26  21609125.688 8 112524404.090 8     -1116.602          51.000
C29  25420184.125 5 132369558.651 5     -3071.453          34.000
E11                                                                  23823725.797 5  95928270.372 5      -930.839          34.000
E25  24546920.531 8 128994927.049 8     -1489.594          51.000    24546923.477 8  98840276.542 8     -1141.371          51.000
E36  23853978.266 8 125353512.814 8      1683.496          50.000    23853981.133 8  96050126.673 8      1289.990          51.000
> 2020 05 13 10 57 30.0000000  0 13        .000000000000
G02  23761497.172 4 124867509.668 4     -2109.746          27.000
G25  20540545.141 8 107941292.280 8     -1244.383          51.000    20540547.156 8  84110098.273 8      -969.649          51.000
G29  20255390.094 8 106442801.630 8       513.246          51.000    20255389.398 8  82942452.286 8       399.932          51.000
G32  23947226.117 7 125843508.807 7     -2821.109          46.000    23947228.078 7  98059840.101 7     -2198.270          46.000
R11  20558699.414 8 109859463.968 8     -2496.195          50.000    20558702.766 7  85446250.993 7     -1941.485          47.000
R12  19317613.945 7 103191218.735 7      1024.223          46.000    19317617.367 6  80259854.531 6       796.615          41.000
R22  19286115.477 8 102950596.376 8      1286.820          51.000    19286119.508 8  80072761.355 8      1000.860          49.000
C12  24284614.609 6 126456392.545 6      3019.598          39.000    24284615.867 7  97784104.412 7      2335.077          46.000
C26  21615602.070 8 112558128.432 8     -1131.637          51.000
C29  25437891.453 5 132461767.885 5     -3075.965          33.000
E11  23830702.875 5 125231188.752 5     -1228.543          33.000    23830700.883 5  95956354.658 5      -941.537          34.000
E25  24555449.180 8 129039742.840 8     -1498.039          51.000    24555451.523 8  98874615.881 8     -1147.803          51.000
E36  23844407.172 8 125303219.913 8      1669.414          50.000    23844410.234 8  96011590.548 8      1279.146          51.000
> 2020 05 13 10 58  0.0000000  0 12        .000000000000
G25  20547683.477 8 107978805.033 8     -1254.281          51.000    20547685.586 8  84139328.973 8      -977.362          51.000
G29  20252508.352 8 106427658.337 8       498.457          51.000    20252507.953 8  82930652.329 8       388.408          51.000
G32  23963351.102 7 125928245.089 7     -2825.820          47.000    23963353.008 7  98125868.313 7     -2201.941          47.000
R11  20572760.070 8 109934600.721 8     -2510.648          51.000    20572763.711 8  85504690.663 8     -1952.730          48.000
R12  19311915.773 8 103160776.603 8      1007.707          48.000    19311918.992 7  80236177.317 7       783.772          42.000
R22  19278958.664 8 102912392.137 8      1262.410          51.000    19278962.117 8  80043047.001 8       981.878          48.000
C12  24267239.672 6 126365926.999 6      3013.824          36.000    24267242.477 7  97714150.746 7      2330.438          45.000
C26  21622163.578 8 112592296.248 8     -1144.105          51.000
C29  25455624.961 5 132554111.300 5     -3078.328          32.000
E11  23837757.633 5 125268261.403 5     -1240.297          34.000    23837755.750 5  95984764.056 5      -951.061          34.000
E25  24564025.242 8 129084808.821 8     -1504.082          51.000    24564027.297 8  98909146.926 8     -1152.460          51.000
E36  23834915.648 8 125253342.970 8      1657.938          51.000    23834918.750 8  95973373.148 8      1270.443          51.000
> 2020 05 13 10 58 30.0000000  0 13        .000000000000
G02  23785730.336 5 124994840.809 5     -2135.465          33.000
G25  20554873.273 8 108016588.014 8     -1266.359          51.000    20554875.367 8  84168770.247 8      -986.774          51.000
G29  20249705.727 8 106412930.907 8       481.711          51.000    20249705.727 8  82919176.416 8       375.359          51.000
G32  23979498.523 7 126013100.623 7     -2832.738          47.000    23979500.812 7  98191989.446 7     -2207.332          47.000
R11  20586896.336 8 110010140.505 8     -2527.051          51.000    20586900.070 7  85563443.792 7     -1965.484          47.000
R12  19306304.406 8 103130800.207 8       988.930          48.000    19306307.883 7  80212862.336 7       769.168          43.000
R22  19271933.258 8 102874889.608 8      1236.078          51.000    19271935.406 7  80013878.344 7       961.394          47.000
C12  24249892.703 5 126275612.669 5      3005.945          33.000    24249897.789 7  97644314.035 7      2324.086          44.000
C26  21628790.984 8 112626807.069 8     -1158.312          51.000
C29  25473365.133 5 132646486.966 5     -3081.582          31.000
E11  23844874.281 6 125305658.821 6     -1254.645          37.000    23844872.891 5  96013419.921 5      -961.204          34.000
E25  24572629.516 8 129130023.862 8     -1511.980          51.000    24572631.570 8  98943792.184 8     -1158.632          51.000
E36  23825484.680 8 125203781.666 8      1644.414          51.000    23825487.672 8  95935397.643 8      1259.949          51.000
> 2020 05 13 10 59  0.0000000  0 14        .000000000000
G02  23797954.922 5 125059078.019 5     -2147.996          33.000
G12  22399555.453 5 117710481.423 5     -2629.414          33.000
G25  20562130.242 8 108054723.848 8     -1277.254          51.000    20562132.273 8  84198486.461 8      -995.263          51.000
G29  20246997.961 8 106398702.096 8       465.836          51.000    20246998.172 8  82908089.050 8       362.989          51.000
G32  23995683.609 7 126098155.148 7     -2838.582          46.000    23995686.477 7  98258265.641 7     -2211.882          45.000
R11  20601123.602 8 110086166.611 8     -2542.445          51.000    20601127.203 7  85622575.175 7     -1977.457          45.000
R12  19300796.461 8 103101376.018 8       971.469          49.000    19300799.359 7  80189976.858 7       755.587          42.000
R22  19265054.758 8 102838173.932 8      1210.613          50.000    19265057.219 8  79985321.732 8       941.588          48.000
C12  24232590.953 5 126185533.058 5      2998.262          31.000    24232597.531 7  97574658.779 7      2318.621          42.000
C26  21635500.164 8 112661742.862 8     -1171.711          51.000
C29  25491127.352 4 132738975.221 4     -3085.629          29.000
E11  23852067.695 6 125343460.573 6     -1267.164          36.000    23852068.305 5  96042384.856 5      -970.363          35.000
E25  24581277.773 8 129175470.897 8     -1518.906          51.000    24581280.031 8  98978615.207 8     -1163.807          51.000
E36  23816129.852 8 125154619.742 8      1631.961          51.000    23816132.773 8  95897728.158 8      1250.488          51.000
> 2020 05 13 10 59 30.0000000  0 13        .000000000000
G02  23810273.812 5 125123810.413 5     -2160.488          34.000
G12  22414598.859 5 117789516.703 5     -2635.273          31.000    22414611.578 4  91784078.892 4     -2053.466          29.000
G25  20569472.680 8 108093308.286 8     -1288.133          51.000    20569474.641 8  84228552.223 8     -1003.740          51.000
G29  20244403.289 8 106385067.465 8       450.145          51.000    20244403.398 8  82897464.687 8       350.765          51.000
G32  24011924.117 7 126183501.473 7     -2844.180          44.000    24011927.289 7  98324769.225 7     -2216.244          44.000
R11  20615459.867 8 110162775.664 8     -2557.613          51.000    20615463.266 7  85682159.929 7     -1989.258          44.000
R12  19295410.602 8 103072604.049 8       953.820          49.000    19295413.031 7  80167598.682 7       741.860          44.000
R22  19258342.211 8 102802342.852 8      1185.195          50.000    19258344.680 7  79957453.111 7       921.816          47.000
C12  24215354.930 5 126095784.616 5      2991.410          32.000    24215360.266 6  97505259.604 6      2312.897          39.000
C26  21642309.141 8 112697198.540 8     -1185.020          51.000
E11                                                                  23859357.594 5  96071731.466 5      -980.199          34.000
E25  24589988.211 8 129221246.043 8     -1525.926          51.000    24589990.875 8  99013689.648 8     -1169.240          51.000
E36  23806869.555 8 125105954.095 8      1619.355          51.000    23806872.305 8  95860438.941 8      1240.802          51.000
