     3.02           OBSERVATION DATA    M (MIXED)           RINEX VERSION / TYPE
SAVERINEX           SC600               20200505 175931 LCL PGM / RUN BY / DATE
       G = GPS       R = GLONASS       C = COMPASS          COMMENT
       S = SBAS      J = QZSS          E = GALILEO          COMMENT
BEAN                                                        MARKER NAME
1                                                           MARKER NUMBER
GEODETIC                                                    MARKER TYPE
Unige DICCA         GTER                                    OBSERVER / AGENCY
SC60291900056       SC600               2.12(191226)        REC # / TYPE / VERS
                    HEMA45          NONE                    ANT # / TYPE
  4509407.8091   693652.4678  4442337.6214                  APPROX POSITION XYZ
        0.0000        0.0000        0.0000                  ANTENNA: DELTA H/E/N
G    8 C1C L1C D1C S1C C2Y L2Y D2Y S2Y                      SYS / # / OBS TYPES
R    8 C1C L1C D1C S1C C2P L2P D2P S2P                      SYS / # / OBS TYPES
C    8 C1I L1I D1I S1I C7I L7I D7I S7I                      SYS / # / OBS TYPES
E    8 C1C L1C D1C S1C C7Q L7Q D7Q S7Q                      SYS / # / OBS TYPES
DBHZ                                                        COMMENT
     30.000                                                 INTERVAL
  2020    05    05    15    00    0.0000000     GPS         TIME OF FIRST OBS
  2020    05    05    15    59   30.0000000     GPS         TIME OF LAST OBS
     0                                                      RCV CLOCK OFFS APPL
G L1C  0.00000                                              SYS / PHASE SHIFT
G L2Y  0.00000                                              SYS / PHASE SHIFT
R L1C  0.00000                                              SYS / PHASE SHIFT
R L2P  0.25000                                              SYS / PHASE SHIFT
C L1I  0.00000                                              SYS / PHASE SHIFT
C L7I  0.00000                                              SYS / PHASE SHIFT
E L1C  0.50000                                              SYS / PHASE SHIFT
E L7Q -0.25000                                              SYS / PHASE SHIFT
 12 R01  1 R06 -4 R07  5 R08  6 R10 -5 R11  0 R12 -1 R13 -2 GLONASS SLOT / FRQ #
    R14 -7 R17  4 R22 -3 R23  3                             GLONASS SLOT / FRQ #
 C1C   71.950 C2C   71.950 C2P   71.950                     GLONASS COD/PHS/BIS
    18                                                      LEAP SECONDS
*** Above antenna height is from mark to ANTENNA BOTTOM.    COMMENT
    17     4        0.0000        ANT MEASURE TYPE/HEIGT    COMMENT
    0.0000    0.0000    0.0458    0.0405    0.0000          COMMENT
                    BASE STATION                            COMMENT
                                                            END OF HEADER
> 2020 05 05 15 00  0.0000000  0 16        .000000000000
G10  23470621.586 6 123338934.444 6      3336.793          36.000    23470626.383 6  96108276.817 6      2600.101          37.000
G18  21304602.133 8 111956515.280 8     -2209.898          51.000    21304602.016 7  87238855.478 7     -1721.999          45.000
G20  21533129.414 8 113157442.570 8      1884.551          49.000    21533129.938 7  88174618.595 7      1468.478          47.000
G21  21642903.961 7 113734253.186 7     -1956.820          47.000    21642902.656 7  88624073.131 7     -1524.795          44.000
G26  20545295.602 8 107966260.383 8     -1293.043          51.000    20545298.211 8  84129556.054 8     -1007.566          51.000
R13  21461902.969 6 114605391.735 6     -3962.914          38.000    21461908.250 7  89137523.111 7     -3082.266          42.000
R14  19893452.508 7 106043297.065 7      -219.867          42.000    19893472.578 4  82478202.442 4      -171.008          25.000
C11  22375030.055 8 116512750.913 8     -1246.129          51.000    22375029.781 8  90095052.338 8      -963.501          51.000
C14  25552141.641 6 133056696.597 6      3099.188          40.000    25552142.422 6 102887899.841 6      2396.476          37.000
C21  24854485.531 5 129423846.754 5       233.246          31.000
C23  23453608.703 8 122129103.470 8     -1779.969          49.000
C28  23855709.367 5 124223043.812 5      2203.867          31.000
E01  24141086.180 8 126862274.632 8     -1490.863          51.000    24141088.266 8  97206144.021 8     -1142.332          51.000
E13  26624283.406 5 139911554.087 5     -2468.852          35.000    26624283.703 5 107204958.941 5     -1891.738          35.000
E21  27134823.477 5 142594459.903 5     -3158.824          33.000    27134832.148 6 109260696.929 6     -2420.428          39.000
E33  24645210.156 7 129511550.856 7      1578.293          42.000    24645208.266 7  99236084.401 7      1209.410          45.000
> 2020 05 05 15 00 30.0000000  0 19        .000000000000
G10  23451586.258 7 123238903.992 7      3335.016          43.000    23451591.477 7  96030331.137 7      2598.717          44.000
G18  21317248.461 8 112022971.901 8     -2217.211          51.000    21317248.258 7  87290639.841 7     -1727.697          46.000
G20  21522414.773 8 113101137.654 8      1872.273          48.000    21522415.031 7  88130744.637 7      1458.914          47.000
G21  21654096.391 7 113793069.519 7     -1960.973          46.000    21654095.180 7  88669904.058 7     -1528.028          45.000
G26  20552725.047 8 108005302.584 8     -1306.562          51.000    20552727.742 8  84159978.521 8     -1018.101          51.000
R07  22978429.242 5 123005234.041 5      -855.027          31.000    22978424.383 4  95670774.463 4      -665.024          27.000
R13  21484200.180 6 114724455.824 6     -3971.699          38.000    21484205.305 7  89230128.491 7     -3089.099          42.000
R14  19894768.875 6 106050300.844 6      -243.750          41.000    19894768.422 5  82483559.975 5      -189.580          31.000
R17  22856052.516 5 122307343.567 5      3010.988          32.000    22856066.250 5  95127973.901 5      2341.880          33.000
R24  19752312.398 5 105624481.712 5       741.895          33.000    19752318.227 4  82152380.233 4       577.032          26.000
C11  22382225.469 8 116550220.103 8     -1248.566          51.000    22382225.305 8  90124025.892 8      -965.537          51.000
C14  25534288.531 6 132963733.118 6      3101.688          40.000    25534288.500 6 102816014.602 6      2398.385          40.000
C21  24853186.781 6 129417088.645 6       220.555          36.000
C23  23463902.664 8 122182705.001 8     -1790.242          50.000
C28  23843025.102 5 124156886.664 5      2203.504          32.000
E01  24149632.398 8 126907185.838 8     -1499.891          51.000    24149634.195 8  97240556.510 8     -1149.330          51.000
E13  26638376.047 5 139985616.494 5     -2465.410          34.000    26638376.320 6 107261708.014 6     -1889.027          37.000
E21  27152863.055 5 142689257.474 5     -3158.594          32.000    27152873.375 6 109333340.798 6     -2419.850          40.000
E33  24636217.500 6 129464299.678 6      1574.695          37.000    24636217.773 7  99199879.004 7      1206.785          46.000
> 2020 05 05 15 01  0.0000000  0 19        .000000000000
G10  23432564.500 7 123138938.749 7      3320.254          47.000    23432569.094 7  95952436.223 7      2587.214          47.000
G18  21329938.219 8 112089656.227 8     -2237.402          51.000    21329938.031 7  87342601.645 7     -1743.430          45.000
G20  21511771.352 8 113045206.618 8      1847.281          48.000    21511771.211 7  88087162.035 7      1439.443          46.000
G21  21665313.680 7 113852016.450 7     -1977.805          47.000    21665311.844 7  88715836.716 7     -1541.147          43.000
G26  20560232.945 8 108044755.730 8     -1332.711          51.000    20560235.453 8  84190721.214 8     -1038.476          51.000
R07  22983292.258 4 123031268.633 4      -889.738          29.000
R13  21506549.430 6 114843794.778 6     -3993.281          39.000    21506554.266 6  89322947.620 6     -3105.888          41.000
R14  19896219.992 6 106058029.593 6      -280.613          41.000    19896218.477 5  82489571.221 5      -218.249          33.000
R17  22839184.000 6 122217079.403 6      2996.598          37.000    22839197.898 5  95057768.397 5      2330.693          31.000
R23  20014714.336 5 107065205.033 5     -1775.289          34.000
C11  22389436.109 8 116587768.869 8     -1263.648          51.000    22389436.070 8  90153060.962 8      -977.067          51.000
C14  25516422.398 6 132870702.100 6      3091.637          39.000    25516421.820 7 102744077.218 7      2390.438          42.000
C21  24851960.781 5 129410718.353 5       195.355          32.000
C23  23474256.773 8 122236617.164 8     -1812.938          51.000
C28  23830359.445 4 124090865.185 4      2189.090          28.000
E01  24158230.906 8 126952372.297 8     -1521.523          51.000    24158232.625 8  97275179.899 8     -1165.879          51.000
E13  26652452.000 5 140059583.089 5     -2474.965          34.000    26652453.148 6 107318389.826 6     -1896.467          38.000
E21                                                                  27170912.422 6 109405975.330 6     -2429.212          40.000
E33  24627243.695 5 129417157.902 5      1558.703          35.000    24627246.969 7  99163757.380 7      1194.358          44.000
> 2020 05 05 15 01 30.0000000  0 18        .000000000000
G10  23413615.312 8 123039356.147 8      3314.852          49.000    23413619.156 8  95874839.489 8      2583.004          49.000
G18  21342730.758 8 112156880.766 8     -2247.988          51.000    21342730.578 7  87394984.390 7     -1751.679          46.000
G20  21501259.711 8 112989966.008 8      1831.656          50.000    21501258.852 7  88044117.435 7      1427.265          45.000
G21  21676615.383 7 113911406.582 7     -1985.348          47.000    21676613.070 7  88762114.719 7     -1547.024          44.000
G26  20567878.734 8 108084933.661 8     -1349.484          51.000    20567881.398 8  84222028.683 8     -1051.546          51.000
R13  21529009.164 6 114963724.196 6     -4005.641          38.000    21529013.609 6  89416226.000 6     -3115.501          40.000
R14  19897866.031 6 106066802.395 6      -307.977          41.000    19897862.180 6  82496394.550 6      -239.528          36.000
R17  22822384.219 6 122127207.628 6      2991.348          36.000    22822404.586 4  94987868.143 4      2326.607          28.000
R23  20024699.195 5 107118540.208 5     -1784.426          33.000
C11  22396721.781 8 116625708.446 8     -1269.340          50.000    22396721.914 8  90182398.254 8      -981.588          51.000
C14  25498603.445 6 132777917.870 6      3090.527          38.000    25498602.727 7 102672330.655 7      2389.798          43.000
C21  24850871.156 5 129405010.662 5       178.270          31.000
C23  23484729.781 8 122291149.935 8     -1826.266          51.000
C28  23817761.664 4 124025334.503 4      2185.715          27.000
E01  24166941.602 8 126998147.872 8     -1533.832          51.000    24166943.188 8  97310254.695 8     -1175.292          51.000
E13  26666571.281 5 140133777.854 5     -2475.199          33.000    26666573.773 6 107375244.933 6     -1896.788          38.000
E21                                                                  27189008.328 6 109478840.404 6     -2431.373          37.000
E33  24618352.398 6 129370440.057 6      1552.148          39.000    24618355.375 7  99127960.564 7      1189.207          43.000
> 2020 05 05 15 02  0.0000000  0 17        .000000000000
G10  23394665.977 8 122939773.584 8      3311.887          51.000    23394667.695 8  95797242.829 8      2580.694          51.000
G18  21355552.281 8 112224257.908 8     -2255.871          51.000    21355551.875 7  87447486.049 7     -1757.822          45.000
G20  21490806.719 8 112935032.800 8      1818.523          51.000    21490805.086 7  88001312.369 7      1417.034          45.000
G21  21687927.773 7 113970853.665 7     -1990.109          47.000    21687925.961 7  88808437.113 7     -1550.735          44.000
G26  20575588.727 8 108125450.154 8     -1363.605          51.000    20575591.492 8  84253599.954 8     -1062.550          51.000
R13  21551504.008 5 115083848.027 5     -4015.301          35.000    21551508.766 6  89509655.626 6     -3123.012          38.000
R14  19899624.461 5 106076233.113 5      -332.273          30.000    19899631.750 6  82503761.612 6      -258.429          36.000
R17  22805584.320 5 122037335.512 5      2987.523          32.000
C11  22404009.102 8 116663656.348 8     -1272.441          50.000    22404009.445 8  90211741.977 8      -983.941          51.000
C14  25480758.875 6 132685000.852 6      3092.117          38.000    25480758.273 7 102600481.470 7      2390.970          43.000
C21  24849840.688 5 129399659.424 5       166.488          31.000
C23  23495247.883 8 122345919.575 8     -1837.023          51.000
C28  23805128.406 5 123959494.469 5      2183.789          34.000
E01  24175690.711 8 127044126.373 8     -1543.414          51.000    24175692.383 8  97345484.960 8     -1182.655          51.000
E13  26680660.188 5 140207815.605 5     -2473.125          32.000    26680664.336 6 107431977.407 6     -1894.624          37.000
E21                                                                  27207088.188 6 109551639.558 6     -2431.260          36.000
E33  24609470.305 6 129323760.472 6      1547.930          41.000    24609471.750 7  99092193.117 7      1186.043          44.000
> 2020 05 05 15 02 30.0000000  0 21        .000000000000
G10  23375774.172 8 122840494.497 8      3310.953          51.000    23375773.320 8  95719882.661 8      2579.967          51.000
G18  21368459.516 8 112292086.059 8     -2261.793          50.000    21368459.094 7  87500339.148 7     -1762.436          45.000
G20  21480469.867 8 112880709.749 8      1807.324          51.000    21480467.930 7  87958982.769 7      1408.308          46.000
G21  21699307.844 8 114030656.136 8     -1992.656          49.000    21699306.336 7  88855036.463 7     -1552.719          44.000
G26  20583420.312 8 108166604.931 8     -1375.727          51.000    20583422.828 8  84285668.621 8     -1071.992          51.000
R01  23499295.453 6 125617199.244 6      3910.480          37.000    23499296.672 4  97702273.075 4      3041.485          26.000
R07  22998795.703 5 123114273.499 5      -955.562          31.000    22998789.500 5  95755572.540 5      -743.215          31.000
R13  21574091.648 6 115204467.529 6     -4021.863          37.000    21574095.555 6  89603470.756 6     -3128.119          36.000
R14  19901575.547 6 106086619.225 6      -354.973          36.000    19901578.484 6  82511815.457 6      -276.081          36.000
R17  22788847.156 5 121947769.406 5      2987.336          32.000
R23  20044723.773 6 107225785.349 6     -1794.062          38.000
C11  22411355.258 8 116701909.902 8     -1273.605          50.000    22411355.773 8  90241322.065 8      -984.760          51.000
C14  25462946.758 6 132592251.449 6      3094.996          37.000    25462946.102 7 102528761.858 7      2393.583          44.000
C21  24848938.867 5 129394962.679 5       154.012          35.000
C23  23505868.406 8 122401222.146 8     -1845.609          51.000
C25  25813719.531 4 134418799.010 4     -3378.070          28.000
C28  23792557.641 5 123894047.797 5      2184.188          32.000
E01  24184535.547 8 127090607.560 8     -1551.035          51.000    24184537.219 8  97381100.393 8     -1188.396          51.000
E13  26694774.695 5 140281988.139 5     -2468.273          32.000    26694781.898 6 107488816.985 6     -1891.529          37.000
E21                                                                  27225208.031 5 109624601.851 5     -2429.898          34.000
E33  24600652.789 7 129277419.671 7      1545.531          42.000    24600654.203 7  99056685.270 7      1184.472          45.000
> 2020 05 05 15 03  0.0000000  0 18        .000000000000
G10  23356898.891 8 122741302.588 8      3312.184          51.000    23356897.547 8  95642590.382 8      2580.925          51.000
G18  21381410.438 8 112360143.888 8     -2265.113          48.000    21381410.375 7  87553371.226 7     -1765.023          45.000
G20  21470207.664 8 112826779.208 8      1798.379          51.000    21470205.500 7  87916959.017 7      1401.334          46.000
G21  21710713.664 8 114090593.431 8     -1992.922          49.000    21710711.922 7  88901740.811 7     -1552.926          44.000
G26  20591331.664 8 108208178.068 8     -1385.457          51.000    20591334.047 8  84318063.271 8     -1079.577          51.000
G27  21944025.984 5 115316632.867 5      2332.789          34.000    21944028.625 5  89857097.431 5      1817.758          33.000
R01  23477369.477 6 125499994.258 6      3913.684          37.000    23477373.789 4  97611113.738 4      3043.979          26.000
R13  21596731.695 6 115325355.997 6     -4026.773          39.000    21596733.469 6  89697494.978 6     -3131.941          36.000
R14  19903663.773 6 106097737.264 6      -375.480          37.000    19903667.305 6  82520462.867 6      -292.037          37.000
R23  20054824.516 7 107279784.609 7     -1795.289          42.000
C11  22418718.461 8 116740251.400 8     -1272.289          50.000    22418718.984 8  90270970.143 8      -983.787          51.000
C14  25445126.070 6 132499454.872 6      3100.895          36.000    25445124.844 7 102457005.796 7      2398.047          42.000
C21  24848101.422 5 129390628.950 5       145.078          35.000
C23  23516549.156 8 122456838.633 8     -1851.812          51.000
E01  24193434.469 8 127137371.430 8     -1556.152          51.000    24193435.656 8  97416932.436 8     -1192.350          51.000
E13  26708877.055 6 140356092.584 6     -2461.422          36.000    26708883.555 6 107545595.159 6     -1885.953          36.000
E21                                                                  27243325.672 5 109697558.170 5     -2425.989          35.000
E33  24591857.859 7 129231198.421 7      1546.121          42.000    24591860.578 7  99021269.013 7      1184.582          46.000
> 2020 05 05 15 03 30.0000000  0 20        .000000000000
G10  23338077.312 8 122642393.429 8      3294.926          50.000    23338076.594 8  95565518.376 8      2567.478          50.000
G18  21394441.398 8 112428621.985 8     -2286.844          48.000    21394441.477 7  87606730.795 7     -1781.956          44.000
G20  21460056.859 8 112773435.913 8      1771.051          51.000    21460054.562 7  87875392.857 7      1380.040          46.000
G21  21722181.430 8 114150855.840 8     -2011.457          49.000    21722179.516 7  88948698.522 7     -1567.369          46.000
G26  20599358.961 8 108250361.444 8     -1413.488          51.000    20599361.250 8  84350933.426 8     -1101.419          51.000
G27  21930800.258 5 115247133.019 5      2315.250          32.000
R01  23455485.727 5 125383013.928 5      3898.160          33.000    23455490.898 4  97520140.077 4      3031.902          27.000
R13  21619457.984 6 115446704.758 6     -4049.598          39.000    21619459.188 6  89791877.238 6     -3149.693          38.000
R14  19905921.883 6 106109785.314 6      -414.309          38.000    19905927.492 5  82529833.490 5      -322.234          35.000
R23  20064992.289 6 107334151.788 6     -1815.395          41.000
C11  22426135.156 8 116778871.156 8     -1289.203          50.000    22426135.422 8  90300833.386 8      -996.948          51.000
C14  25427334.258 5 132406804.503 5      3088.777          35.000    25427331.789 6 102385362.820 6      2388.306          41.000
C21  24847376.258 5 129386825.655 5       117.359          32.000
C23  23527326.164 8 122512958.182 8     -1876.312          50.000
C25  25852686.578 5 134621724.005 5     -3382.082          31.000
C28  23767491.406 5 123763559.891 5      2171.926          34.000
E01  24202423.812 8 127184609.950 8     -1579.750          51.000    24202424.438 8  97453128.173 8     -1210.461          51.000
E13  26723001.141 6 140430304.865 6     -2472.461          37.000    26723005.695 6 107602459.089 6     -1894.998          36.000
E21                                                                  27261479.461 6 109770655.001 6     -2436.641          38.000
E33  24583121.750 6 129185289.341 6      1527.832          41.000    24583126.148 7  98986091.910 7      1170.736          46.000
> 2020 05 05 15 04  0.0000000  0 19        .000000000000
G10  23319262.438 7 122543521.740 7      3285.395          47.000    23319262.711 7  95488475.540 7      2560.048          47.000
G18  21407504.750 8 112497270.025 8     -2300.805          48.000    21407504.438 7  87660222.768 7     -1792.835          44.000
G20  21449970.875 8 112720433.997 8      1751.402          50.000    21449968.656 7  87834092.677 7      1364.732          47.000
G21  21733663.367 8 114211193.564 8     -2022.082          49.000    21733661.727 7  88995714.921 7     -1575.651          46.000
G26  20607455.109 8 108292906.075 8     -1433.910          51.000    20607457.227 8  84384085.063 8     -1117.333          51.000
R01  23433597.328 5 125266010.531 5      3890.898          33.000    23433603.250 4  97429141.509 4      3026.254          26.000
R13  21642222.047 6 115568257.776 6     -4064.801          38.000    21642223.336 6  89886418.397 6     -3161.515          39.000
R14  19908309.578 6 106122511.268 6      -444.992          37.000    19908314.398 5  82539731.484 5      -346.102          33.000
R23  20075179.047 6 107388632.294 6     -1827.566          38.000
C11  22433558.047 8 116817522.883 8     -1298.398          50.000    22433557.797 8  90330721.345 8     -1004.034          51.000
C14  25409524.172 5 132314057.057 5      3083.527          33.000    25409520.414 6 102313644.708 6      2384.454          40.000
C21  24846726.258 5 129383429.844 5        98.000          35.000
C23  23538152.023 8 122569333.048 8     -1892.965          50.000
C25  25872155.562 4 134723103.134 4     -3386.320          28.000
C28  23754966.516 5 123698387.648 5      2162.785          33.000
E01  24211456.203 8 127232074.120 8     -1595.500          51.000    24211456.641 8  97489496.804 8     -1222.538          51.000
E13  26737099.172 6 140504380.204 6     -2476.340          38.000    26737100.734 6 107659218.050 6     -1897.458          36.000
E21                                                                  27279620.586 6 109843701.013 6     -2441.191          38.000
E33  24574397.562 6 129139444.173 6      1517.465          40.000    24574403.016 7  98950963.772 7      1162.763          44.000
> 2020 05 05 15 04 30.0000000  0 20        .000000000000
G10  23300504.023 7 122444950.861 7      3286.316          45.000    23300505.469 7  95411667.075 7      2560.766          46.000
G18  21420649.492 8 112566346.348 8     -2303.914          48.000    21420649.031 7  87714048.481 7     -1795.255          43.000
G20  21439999.555 8 112668035.161 8      1742.301          51.000    21439997.992 8  87793262.427 8      1357.637          48.000
G21  21745208.859 8 114271865.825 8     -2022.305          49.000    21745207.422 7  89042991.999 7     -1575.822          46.000
G26  20615669.586 8 108336071.442 8     -1443.426          51.000    20615671.445 8  84417720.414 8     -1124.747          51.000
G27  21904410.781 6 115108459.317 6      2305.754          38.000
R07  23021377.484 5 123235232.942 5     -1054.199          33.000
R13  21665072.672 5 115690275.232 5     -4068.711          34.000    21665073.859 6  89981320.798 6     -3164.556          39.000
R14  19910872.828 6 106136178.812 6      -465.590          38.000    19910877.656 5  82550361.780 5      -362.122          33.000
R23  20085431.867 6 107443489.764 6     -1829.051          36.000    20085432.766 4  83567178.668 4     -1422.595          25.000
R24  19721427.453 5 105459343.469 5       639.934          31.000    19721430.984 4  82023946.707 4       497.732          26.000
C11  22441036.625 8 116856464.075 8     -1297.199          50.000    22441035.773 8  90360833.141 8     -1003.074          49.000
C14  25391745.055 5 132221473.014 5      3088.652          32.000    25391740.758 6 102242052.898 6      2388.783          40.000
C21  24846184.359 5 129380638.848 5        88.926          34.000
C23  23549075.906 8 122626219.450 8     -1898.934          49.000
C28  23742495.891 5 123633465.018 5      2164.660          32.000
E01  24220580.984 8 127280023.540 8     -1600.648          51.000    24220581.570 8  97526237.248 8     -1226.441          51.000
E13  26751220.289 6 140578578.349 6     -2469.523          37.000    26751219.086 6 107716071.133 6     -1892.244          36.000
E21                                                                  27297797.805 6 109916894.674 6     -2437.737          37.000
E33  24565735.242 6 129093923.241 6      1517.645          40.000    24565739.188 7  98916084.123 7      1162.936          43.000
> 2020 05 05 15 05  0.0000000  0 17        .000000000000
G10  23281779.305 7 122346562.885 7      3269.605          46.000    23281782.656 7  95335001.109 7      2547.745          46.000
G18  21433852.344 8 112635728.065 8     -2324.594          48.000    21433851.859 6  87768112.136 6     -1811.372          41.000
G20  21430120.367 8 112616121.002 8      1715.594          51.000    21430119.477 8  87752809.853 8      1336.826          48.000
G21  21756794.422 8 114332749.119 8     -2039.781          50.000    21756792.984 7  89090433.519 7     -1589.440          45.000
G26  20623978.711 8 108379735.985 8     -1470.660          51.000    20623980.727 8  84451744.708 8     -1145.972          51.000
G27  21891284.930 6 115039482.884 6      2288.828          36.000
R13  21687985.578 5 115812630.469 5     -4091.125          31.000    21687987.422 6  90076485.915 6     -3181.986          38.000
R14  19913590.695 5 106150665.140 5      -502.926          35.000    19913596.500 6  82561628.845 6      -391.164          36.000
R23  20095732.523 6 107498599.800 6     -1848.234          38.000    20095732.945 4  83610041.555 4     -1437.516          28.000
C11  22448547.648 8 116895574.544 8     -1313.328          50.000    22448546.297 8  90391075.829 8     -1015.512          49.000
C14  25373973.000 4 132128935.128 4      3077.750          29.000    25373970.672 7 102170496.856 7      2379.265          42.000
C23  23560074.297 8 122683495.902 8     -1922.465          48.000
C28  23730067.422 5 123568727.566 5      2151.363          32.000
E01  24229775.039 8 127328336.656 8     -1623.285          51.000    24229775.734 8  97563256.371 8     -1243.849          51.000
E13  26765340.922 5 140652815.775 5     -2479.402          30.000    26765338.375 5 107772925.242 5     -1900.385          35.000
E21                                                                  27315988.383 6 109990142.226 6     -2447.782          38.000
E33  24557111.672 6 129048605.660 6      1500.570          41.000    24557113.430 7  98881360.331 7      1149.548          43.000
> 2020 05 05 15 05 30.0000000  0 17        .000000000000
G10  23263104.102 7 122248432.860 7      3272.598          47.000    23263108.695 7  95258536.205 7      2550.079          47.000
G18  21447126.789 7 112705485.238 7     -2325.418          47.000    21447125.953 7  87822468.348 7     -1812.017          42.000
G20  21420347.664 8 112564765.734 8      1708.582          51.000    21420347.008 7  87712792.783 7      1331.363          47.000
G21  21768433.695 8 114393914.606 8     -2037.359          50.000    21768432.148 7  89138094.932 7     -1587.550          45.000
G26  20632396.305 8 108423970.998 8     -1477.906          51.000    20632398.492 8  84486213.513 8     -1151.615          51.000
R07  23033514.781 5 123300222.399 5     -1103.375          31.000
R14  19916475.812 5 106166042.842 5      -521.426          35.000    19916481.680 5  82573589.329 5      -405.547          34.000
R23  20106094.984 6 107554034.264 6     -1847.137          39.000    20106095.109 5  83653157.205 5     -1436.662          30.000
C11  22456104.812 8 116934925.501 8     -1309.656          49.000    22456103.078 8  90421504.495 8     -1012.788          48.000
C14  25356222.773 4 132036510.601 4      3084.250          29.000    25356224.156 7 102099033.801 7      2385.213          43.000
C21  24845402.742 5 129376570.890 5        55.016          33.000
C23  23571161.320 8 122741232.110 8     -1926.141          48.000
C28  23717650.336 5 123504137.120 5      2155.910          31.000
E01  24239051.859 8 127377084.833 8     -1626.062          51.000    24239052.398 8  97600608.865 8     -1245.968          51.000
E13                                                                  26779471.977 5 107829835.182 5     -1893.109          33.000
E21                                                                  27334206.109 6 110063497.804 6     -2442.271          40.000
E33  24548541.109 7 129003563.617 7      1502.801          43.000    24548540.930 7  98846847.619 7      1151.613          44.000
> 2020 05 05 15 06  0.0000000  0 17        .000000000000
G10  23244466.562 8 122150495.505 8      3259.273          48.000    23244471.070 8  95182221.455 8      2539.697          48.000
G18  21460459.297 7 112775547.560 7     -2342.316          47.000    21460458.070 6  87877062.343 6     -1825.182          40.000
G20  21410668.906 8 112513903.418 8      1685.125          51.000    21410668.141 8  87673159.810 8      1313.084          48.000
G21  21780113.414 8 114455292.502 8     -2051.434          49.000    21780111.938 7  89185921.855 7     -1598.520          45.000
G26  20640909.844 8 108468712.324 8     -1501.508          51.000    20640911.852 8  84521076.984 8     -1170.006          51.000
R07  23039799.203 5 123333857.675 5     -1135.664          32.000    23039808.734 4  95926366.976 4      -883.291          27.000
R14  19919514.430 5 106182242.235 5      -555.461          32.000    19919520.578 6  82586188.907 6      -432.028          36.000
R23  20116504.828 6 107609722.121 6     -1862.367          37.000    20116503.727 5  83696469.916 5     -1448.511          31.000
C11  22463694.945 8 116974448.785 8     -1322.156          48.000    22463692.938 7  90452066.398 7     -1022.333          46.000
C14  25338484.672 5 131944148.151 5      3075.961          35.000    25338487.656 6 102027613.395 6      2378.425          40.000
C21  24845151.406 5 129375312.932 5        31.355          32.000
C23  23582323.969 8 122799358.660 8     -1946.062          49.000
C28  23705265.125 5 123439681.169 5      2144.500          31.000
E01  24248398.156 8 127426199.069 8     -1645.070          51.000    24248398.438 8  97638241.824 8     -1260.493          51.000
E13                                                                  26793607.102 5 107886751.249 5     -1898.545          33.000
E21                                                                  27352437.398 6 110136908.050 6     -2449.407          40.000
E33  24540009.945 7 128958728.691 7      1489.129          42.000    24540008.781 7  98812493.645 7      1141.084          43.000
> 2020 05 05 15 06 30.0000000  0 20        .000000000000
G10  23225863.523 8 122052736.027 8      3256.699          49.000    23225867.562 8  95106045.322 8      2537.688          49.000
G18  21473846.070 7 112845895.324 7     -2348.637          46.000    21473845.047 6  87931878.754 6     -1830.110          40.000
G20  21401080.656 8 112463518.023 8      1672.613          50.000    21401080.164 8  87633898.491 8      1303.338          48.000
G21  21791830.008 8 114516863.538 8     -2054.449          49.000    21791828.766 7  89233899.290 7     -1600.870          45.000
G26  20649513.922 8 108513928.512 8     -1514.273          51.000    20649516.352 8  84556315.707 8     -1179.953          51.000
G27  21852164.922 4 114833903.428 4      2276.102          29.000
R01  23324670.250 5 124683761.479 5      3871.188          32.000    23324682.727 4  96976283.616 4      3010.927          29.000
R07  23046214.156 4 123368204.818 4     -1155.711          29.000    23046223.703 5  95953081.656 5      -898.880          31.000
R13  21757139.305 5 116181874.371 5     -4118.016          33.000    21757134.109 5  90363691.149 5     -3202.904          31.000
R14  19922703.828 5 106199244.926 5      -579.230          35.000    19922711.484 5  82599413.162 5      -450.519          34.000
R23  20126956.281 5 107665644.137 5     -1866.895          34.000    20126957.430 5  83739964.855 5     -1452.026          31.000
C11  22471314.594 7 117014126.401 7     -1324.117          47.000    22471312.273 7  90482747.643 7     -1023.946          45.000
C14  25320754.836 6 131851826.013 6      3077.484          37.000    25320757.664 6 101956224.035 6      2379.915          41.000
C21  24844996.273 6 129374528.151 6        19.594          36.000
C23  23593558.094 8 122857856.174 8     -1955.039          50.000
C28  23692905.500 5 123375342.634 5      2143.910          34.000
E01  24257810.391 8 127475660.874 8     -1653.477          51.000    24257810.570 8  97676141.091 8     -1266.988          51.000
E13                                                                  26807739.086 5 107943653.321 5     -1895.713          34.000
E21                                                                  27370678.688 6 110210358.268 6     -2448.287          40.000
E33  24531514.055 6 128914083.331 6      1486.031          40.000    24531513.062 7  98778284.912 7      1138.662          43.000
> 2020 05 05 15 07  0.0000000  0 21        .000000000000
G10  23207305.969 8 121955212.781 8      3248.945          51.000    23207310.023 8  95030053.260 8      2531.649          51.000
G16  20539220.227 6 107934339.260 6       728.355          38.000    20539216.711 5  84104665.145 5       567.547          31.000
G18  21487297.164 7 112916581.732 7     -2359.539          45.000    21487296.688 6  87986959.103 6     -1838.599          41.000
G20  21391594.125 8 112413666.863 8      1655.012          51.000    21391593.742 8  87595053.467 8      1289.623          48.000
G21  21803593.547 8 114578680.968 8     -2062.402          49.000    21803592.180 7  89282068.708 7     -1607.067          45.000
G26  20658220.195 8 108559684.991 8     -1532.031          51.000    20658223.219 8  84591970.099 8     -1193.791          51.000
R01  23302969.234 4 124567761.308 4      3863.535          29.000    23302987.523 4  96886066.968 4      3004.978          28.000
R07  23052775.609 5 123403319.446 5     -1181.469          35.000    23052782.914 4  95980393.204 4      -918.914          29.000
R13  21780318.320 5 116305644.416 5     -4128.961          33.000    21780313.445 5  90459951.579 5     -3211.417          30.000
R14  19926055.148 6 106217106.577 6      -607.527          39.000    19926062.523 5  82613305.697 5      -472.518          32.000
R17  22639670.539 5 121149471.487 5      2928.656          32.000    22639704.164 4  94227473.525 4      2277.847          29.000
R23  20137461.570 6 107721855.068 6     -1876.316          39.000    20137466.617 5  83783684.505 5     -1459.360          32.000
C11  22478974.453 7 117054012.844 7     -1330.852          47.000    22478971.594 7  90513590.373 7     -1029.051          44.000
C14  25303043.750 6 131759601.495 6      3074.758          39.000    25303046.938 7 101884910.251 7      2377.592          42.000
C21  24844943.305 5 129374271.879 5         2.301          30.000
C23  23604873.320 8 122916777.653 8     -1968.863          49.000
C28  23680580.414 5 123311176.657 5      2138.461          34.000
E01  24267298.945 8 127525524.810 8     -1666.625          51.000    24267299.117 8  97714348.487 8     -1276.988          50.000
E13                                                                  26821878.781 5 108000586.505 5     -1896.557          34.000
E21                                                                  27388940.039 6 110283889.781 6     -2450.715          39.000
E33  24523063.953 6 128869682.870 6      1478.051          41.000    24523063.906 7  98744263.738 7      1132.592          42.000
> 2020 05 05 15 07 30.0000000  0 20        .000000000000
G10  23188763.477 8 121857767.560 8      3242.102          51.000    23188767.672 8  94954121.985 8      2526.316          51.000
G16  20535100.031 6 107912685.404 6       710.082          38.000    20535098.969 5  84087792.039 5       553.314          32.000
G18  21500781.555 7 112987443.707 7     -2369.703          46.000    21500781.336 6  88042176.216 6     -1846.522          41.000
G20  21382178.977 8 112364190.375 8      1638.332          51.000    21382178.547 7  87556500.386 7      1276.625          47.000
G21  21815372.938 8 114640582.202 8     -2069.504          49.000    21815371.289 7  89330303.426 7     -1612.600          44.000
G26  20666998.578 8 108605816.731 8     -1548.723          51.000    20667001.758 8  84627916.917 8     -1206.797          51.000
R01  23281286.336 5 124451823.044 5      3859.090          31.000    23281298.836 4  96795903.841 4      3001.514          28.000
R07  23059448.406 5 123439036.073 5     -1205.043          33.000    23059453.828 4  96008172.840 4      -937.250          27.000
R13  21803533.875 4 116429609.456 4     -4140.160          29.000    21803531.469 5  90556368.736 5     -3220.128          33.000
R14  19929536.906 6 106235663.130 6      -634.672          37.000    19929543.680 4  82627738.450 4      -493.646          27.000
R17  22623247.594 5 121061603.031 5      2923.332          31.000    22623289.461 4  94159171.873 4      2273.697          26.000
R23  20147992.625 7 107778189.415 7     -1884.602          42.000    20147998.273 5  83827500.045 5     -1465.801          32.000
C11  22486643.719 7 117093948.061 7     -1336.469          45.000    22486640.602 7  90544470.832 7     -1033.575          45.000
C14  25285321.219 6 131667317.582 6      3072.016          39.000    25285324.688 7 101813550.530 7      2375.955          42.000
C23  23616239.086 8 122975961.630 8     -1981.832          50.000
C28  23668258.633 5 123247023.680 5      2133.285          33.000
E01  24276832.805 8 127575628.877 8     -1678.824          51.000    24276833.453 8  97752739.897 8     -1286.396          51.000
E13                                                                  26835996.094 5 108057426.820 5     -1896.605          35.000
E21                                                                  27407190.828 6 110357378.024 6     -2452.460          39.000
E33  24514631.203 7 128825365.993 7      1471.176          44.000    24514630.578 6  98710306.641 6      1127.423          41.000
> 2020 05 05 15 08  0.0000000  0 19        .000000000000
G10  23170277.242 8 121760618.089 8      3236.883          51.000    23170281.344 8  94878421.142 8      2522.246          51.000
G16  20531098.578 6 107891656.771 6       694.324          38.000    20531095.148 5  84071406.055 5       541.029          31.000
G18  21514340.023 7 113058693.954 7     -2378.012          46.000    21514339.680 6  88097695.875 6     -1852.993          39.000
G20  21372876.461 8 112315305.503 8      1623.109          51.000    21372876.281 7  87518408.306 7      1264.761          47.000
G21  21827208.750 8 114702780.304 8     -2074.652          50.000    21827207.000 7  89378769.469 7     -1616.612          44.000
G26  20675889.164 8 108652537.632 8     -1563.695          51.000    20675892.281 8  84664322.822 8     -1218.461          51.000
R01  23259649.109 6 124336158.893 6      3855.602          37.000    23259656.570 4  96705921.810 4      2998.807          26.000
R07  23066274.984 4 123475463.831 4     -1227.910          28.000
R14  19933190.328 6 106255131.564 6      -660.410          37.000
R17  22606881.172 5 120973973.012 5      2918.684          30.000    22606894.422 4  94090901.652 4      2270.087          27.000
R23  20158588.273 6 107834864.468 6     -1891.270          40.000    20158593.727 5  83871580.571 5     -1470.987          32.000
C11  22494362.977 7 117134144.412 7     -1340.746          44.000    22494360.211 7  90575553.191 7     -1036.762          46.000
C14  25267628.852 6 131575189.650 6      3072.176          39.000    25267632.156 7 101742311.489 7      2375.142          42.000
C21  24845115.711 5 129375016.850 5       -29.652          32.000
C23  23627696.680 8 123035619.141 8     -1993.012          51.000
E01  24286452.781 8 127626187.103 8     -1689.383          51.000    24286454.539 8  97791479.306 8     -1294.465          51.000
E13                                                                  26850130.258 5 108114338.418 5     -1895.635          34.000
E21                                                                  27425471.977 6 110430986.366 6     -2452.927          40.000
E33  24506255.609 7 128781347.453 7      1465.832          44.000    24506254.148 6  98676578.169 6      1123.122          40.000
> 2020 05 05 15 08 30.0000000  0 18        .000000000000
G10  23151818.188 8 121663612.874 8      3234.609          51.000    23151822.211 8  94802832.702 8      2520.478          51.000
G16  20527186.820 6 107871099.996 6       680.949          38.000    20527183.281 5  84055387.845 5       530.610          35.000
G18  21527942.656 7 113130175.954 7     -2382.758          46.000    21527942.219 6  88153396.114 6     -1856.697          39.000
G20  21363657.492 8 112266859.826 8      1611.070          51.000    21363657.594 7  87480658.466 7      1255.379          47.000
G21  21839071.383 8 114765119.201 8     -2076.684          50.000    21839069.500 7  89427345.229 7     -1618.195          43.000
G26  20684862.352 8 108699692.348 8     -1575.410          51.000    20684865.500 8  84701066.736 8     -1227.592          51.000
R01  23238028.031 6 124220572.095 6      3854.902          37.000    23238032.219 4  96616022.024 4      2998.257          28.000
R14  19936984.844 6 106275354.521 6      -683.312          37.000    19937008.719 4  82658703.476 4      -531.465          26.000
R23  20169216.695 6 107891721.351 6     -1894.719          36.000    20169222.180 5  83915802.673 5     -1473.661          30.000
C11  22502102.898 7 117174448.509 7     -1341.598          43.000    22502100.633 7  90606718.873 7     -1037.366          46.000
C14  25249937.891 6 131483067.302 6      3074.145          38.000    25249940.742 6 101671076.717 6      2377.151          41.000
C21  24845340.438 6 129376141.256 6       -40.918          36.000
C23  23639215.547 8 123095595.286 8     -2000.953          51.000
C28  23643748.391 5 123119199.394 5      2131.102          31.000
E01  24296130.031 8 127677044.215 8     -1696.598          51.000    24296132.523 8  97830447.725 8     -1299.972          51.000
E13                                                                  26864253.312 5 108171202.440 5     -1891.948          34.000
E21  27443746.602 5 144217858.972 5     -3198.664          34.000    27443753.172 6 110504595.425 6     -2450.921          39.000
E33  24497906.961 7 128737472.802 7      1463.613          43.000    24497905.562 6  98642959.968 6      1121.554          40.000
> 2020 05 05 15 09  0.0000000  0 19        .000000000000
G10  23133415.859 8 121566906.930 8      3221.578          51.000    23133419.719 8  94727477.466 8      2510.321          51.000
G16  20523393.438 6 107851168.737 6       657.012          37.000    20523391.234 5  84039856.944 5       511.957          31.000
G18  21541617.844 7 113202039.762 7     -2398.781          46.000    21541617.906 6  88209393.879 6     -1869.180          37.000
G20  21354551.367 8 112219007.550 8      1588.312          51.000    21354551.719 7  87443371.006 7      1237.646          47.000
G21  21850989.531 8 114827749.625 8     -2089.469          51.000    21850987.625 7  89476148.141 7     -1628.157          43.000
G26  20693947.016 8 108747431.982 8     -1597.934          51.000    20693950.164 8  84738266.437 8     -1245.143          51.000
R01  23216455.047 6 124105243.968 6      3843.031          38.000    23216457.883 5  96526322.436 5      2989.024          30.000
R13  21873573.500 5 116803670.642 5     -4170.609          34.000    21873574.773 5  90847291.813 5     -3243.810          33.000
R14  19940948.773 6 106296485.850 6      -716.301          36.000    19940959.008 5  82675080.990 5      -557.117          30.000
R17  22574242.211 5 120799311.009 5      2906.461          30.000
R23  20179907.211 7 107948913.594 7     -1908.684          42.000    20179913.281 5  83960285.457 5     -1484.538          31.000
C11  22509892.266 7 117215010.625 7     -1353.430          42.000    22509890.500 7  90638084.109 7     -1046.431          47.000
C14  25232277.750 6 131391103.755 6      3065.781          38.000    25232279.945 6 101599964.747 6      2370.780          41.000
C23  23650823.602 8 123156038.874 8     -2019.531          51.000
C25  26067098.492 5 135738210.455 5     -3382.031          32.000
E01  24305893.648 8 127728351.444 8     -1714.609          51.000    24305896.133 8  97869761.051 8     -1313.765          51.000
E13                                                                  26878393.242 5 108228134.991 5     -1896.258          34.000
E21  27462056.664 5 144314081.632 5     -3206.297          34.000    27462062.672 6 110578320.611 6     -2457.288          37.000
E33  24489614.414 7 128693894.107 7      1450.801          43.000    24489613.516 6  98609568.529 6      1111.629          40.000
> 2020 05 05 15 09 30.0000000  0 21        .000000000000
G10  23115046.883 8 121470376.411 8      3212.941          51.000    23115050.227 8  94652258.932 8      2503.591          51.000
G16  20519694.961 6 107831737.366 6       637.820          38.000    20519693.180 5  84024715.572 5       497.000          35.000
G18  21555341.188 7 113274156.533 7     -2409.895          46.000    21555341.586 6  88265588.748 6     -1877.840          38.000
G20  21345534.484 8 112171623.234 8      1569.910          51.000    21345534.906 8  87406448.172 8      1223.307          48.000
G21  21862938.766 8 114890542.965 8     -2097.621          51.000    21862937.023 7  89525077.994 7     -1634.510          43.000
G26  20703118.758 8 108795628.807 8     -1615.945          51.000    20703121.844 8  84775822.386 8     -1259.181          51.000
R01  23194906.398 6 123990050.405 6      3835.648          38.000    23194909.227 5  96436727.560 5      2983.288          33.000
R13  21897038.062 5 116928959.544 5     -4182.910          35.000    21897037.008 5  90944738.667 5     -3253.378          31.000
R14  19945058.656 5 106318396.069 5      -745.812          35.000    19945068.406 4  82692122.295 4      -580.079          29.000
R17  22557969.062 5 120712234.771 5      2898.582          31.000
R23  20190637.281 7 108006310.866 7     -1918.410          43.000    20190643.500 5  84004927.719 5     -1492.100          33.000
C11  22517706.867 6 117255704.691 6     -1360.629          41.000    22517705.617 7  90669551.372 7     -1051.998          47.000
C14  25214623.625 5 131299176.033 5      3061.867          33.000    25214625.992 6 101528880.539 6      2367.705          40.000
C21  24846077.430 5 129380047.910 5       -81.012          34.000
C23  23662496.312 8 123216822.376 8     -2033.512          50.000
C25  26086583.375 4 135839670.928 4     -3383.605          28.000
C28  23619312.234 5 122991954.349 5      2114.637          30.000
E01  24315719.164 8 127779981.195 8     -1728.145          51.000    24315721.297 8  97909321.506 8     -1324.133          51.000
E13  26892522.953 5 141321167.960 5     -2476.547          34.000    26892525.656 5 108285038.612 5     -1897.503          35.000
E21  27480371.438 5 144410325.626 5     -3210.004          34.000    27480376.688 6 110652063.626 6     -2459.703          37.000
E33  24481353.633 7 128650484.502 7      1442.320          42.000    24481353.859 6  98576306.677 6      1105.122          40.000
> 2020 05 05 15 10  0.0000000  0 20        .000000000000
G10  23096730.922 8 121374123.832 8      3207.039          51.000    23096733.742 8  94577257.002 8      2498.995          51.000
G16  20516111.250 6 107812906.532 6       620.973          36.000    20516108.828 5  84010042.234 5       483.872          35.000
G18  21569131.109 7 113346623.818 7     -2418.211          46.000    21569131.609 6  88322056.768 6     -1884.320          37.000
G20  21336625.766 8 112124808.371 8      1554.152          50.000    21336626.406 7  87369969.060 7      1211.028          46.000
G21  21874937.633 8 114953597.081 8     -2102.852          50.000    21874935.992 7  89574211.064 7     -1638.586          45.000
G26  20712396.164 8 108844381.390 8     -1631.047          51.000    20712399.375 8  84813811.386 8     -1270.946          51.000
R01  23173401.852 6 123875096.993 6      3831.098          37.000    23173404.758 5  96347319.474 5      2979.746          33.000
R13  21920569.234 5 117054611.678 5     -4191.027          35.000    21920566.844 4  91042469.572 4     -3259.688          29.000
R14  19949332.750 5 106341185.118 5      -770.758          33.000    19949338.117 4  82709847.143 4      -599.475          29.000
R17  22541740.695 6 120625400.155 6      2893.762          36.000
R23  20201424.422 7 108064013.037 7     -1925.320          42.000    20201430.922 5  84049807.175 5     -1497.474          34.000
C11  22525565.852 6 117296629.131 6     -1365.004          39.000    22525564.891 7  90701196.747 7     -1055.314          47.000
C14  25196994.438 5 131207385.348 5      3061.457          33.000    25196996.703 6 101457902.340 6      2366.443          37.000
C21  24846600.594 5 129382762.407 5       -97.203          30.000
C23  23674252.680 8 123278042.584 8     -2044.715          51.000
C28  23607149.531 5 122928631.365 5      2110.004          31.000
E01  24325624.891 8 127832032.185 8     -1738.750          51.000    24325626.812 8  97949204.727 8     -1332.283          51.000
E13  26906665.086 5 141395493.195 5     -2474.809          34.000    26906669.922 6 108341989.072 6     -1896.512          36.000
E21  27498709.656 5 144506693.029 5     -3211.105          35.000    27498714.383 6 110725899.677 6     -2460.272          36.000
E33  24473143.453 6 128607343.501 6      1436.715          41.000    24473145.930 6  98543250.609 6      1100.997          40.000
> 2020 05 05 15 10 30.0000000  0 20        .000000000000
G10  23078449.703 8 121278054.388 8      3198.887          51.000    23078452.477 8  94502397.778 8      2492.642          51.000
G16  20512623.594 6 107794579.832 6       602.203          38.000    20512621.234 5  83995761.676 5       469.246          35.000
G18  21582968.883 7 113419341.834 7     -2428.480          46.000    21582969.102 6  88378720.115 6     -1892.322          38.000
G20  21327807.188 8 112078467.189 8      1536.375          51.000    21327807.656 7  87333859.048 7      1197.172          46.000
G21  21886967.164 8 115016812.617 8     -2110.242          50.000    21886965.469 7  89623469.919 7     -1644.342          44.000
G26  20721760.719 8 108893590.987 8     -1648.410          51.000    20721763.734 8  84852156.513 8     -1284.475          51.000
R01  23151921.492 5 123760289.205 5      3824.375          32.000    23151927.336 5  96258024.598 5      2974.517          32.000
R13  21944149.055 5 117180523.938 5     -4201.625          34.000    21944146.477 4  91140402.249 4     -3267.934          26.000
R14  19953753.359 5 106364753.264 5      -799.621          31.000    19953757.891 5  82728145.946 5      -621.928          34.000
R17  22525538.914 6 120538708.151 6      2886.871          37.000
R23  20212249.453 5 108121919.106 5     -1934.098          35.000    20212256.227 5  84094845.231 5     -1504.298          34.000
C11  22533450.672 6 117337686.603 6     -1371.379          39.000    22533449.781 8  90732944.993 8     -1060.205          48.000
C14  25179373.578 6 131115637.607 6      3057.008          36.000    25179374.508 6 101386957.206 6      2364.090          39.000
C21  24847223.734 6 129385934.565 6      -113.621          36.000
C23  23686074.398 8 123339600.766 8     -2057.953          51.000
C28  23595011.008 6 122865401.032 6      2105.289          36.000
E01  24335591.812 8 127884405.806 8     -1751.578          51.000    24335593.742 8  97989335.147 8     -1342.112          51.000
E13  26920801.859 5 141469766.402 5     -2476.484          34.000    26920805.859 6 108398911.126 6     -1897.003          36.000
E21  27517051.688 5 144603079.624 5     -3213.926          35.000    27517056.180 6 110799752.695 6     -2462.391          37.000
E33  24464965.000 6 128564373.286 6      1429.273          38.000    24464969.906 6  98510325.358 6      1095.008          41.000
> 2020 05 05 15 11  0.0000000  0 19        .000000000000
G10  23060224.945 8 121182283.222 8      3191.949          51.000    23060228.055 8  94427770.959 8      2487.233          51.000
G16  20509253.438 6 107776870.667 6       584.641          38.000    20509251.180 5  83981962.376 5       455.564          35.000
G18  21596875.492 7 113492420.767 7     -2437.453          46.000    21596875.281 6  88435664.724 6     -1899.314          37.000
G20  21319100.797 8 112032713.874 8      1519.902          51.000    21319100.680 7  87298207.140 7      1184.339          46.000
G21  21899048.469 8 115080300.176 8     -2116.191          51.000    21899046.641 7  89672940.734 7     -1648.980          44.000
G26  20731233.305 8 108943368.792 8     -1664.277          51.000    20731235.867 8  84890944.403 8     -1296.839          51.000
R01  23130490.180 5 123645745.455 5      3818.332          34.000    23130499.664 5  96168935.085 5      2969.814          32.000
R07  23110085.312 5 123710023.819 5     -1373.125          31.000    23110084.344 4  96218947.293 4     -1067.995          29.000
R13  21967798.266 5 117306805.363 5     -4211.141          33.000
R14  19958341.938 5 106389176.481 5      -825.523          35.000    19958348.852 5  82747160.363 5      -642.068          35.000
R17  22509385.039 4 120452273.668 4      2881.562          29.000
C11  22541382.219 6 117378987.931 6     -1376.496          38.000    22541381.547 7  90764881.792 7     -1064.225          47.000
C14  25161784.273 6 131024046.296 6      3055.008          39.000    25161784.336 6 101316133.120 6      2362.184          41.000
C21  24847946.266 6 129389675.465 6      -129.785          39.000
C23  23697982.219 8 123401606.182 8     -2069.750          51.000
E01  24345641.000 8 127937213.347 8     -1762.910          51.000    24345643.086 8  98029798.055 8     -1350.795          51.000
E13  26934953.867 5 141544131.019 5     -2475.637          35.000    26934955.523 6 108455890.311 6     -1896.994          37.000
E21  27535419.070 5 144699601.085 5     -3214.707          35.000    27535422.438 5 110873707.564 5     -2463.292          35.000
E33  24456841.086 6 128521686.110 6      1422.613          39.000    24456848.336 7  98477616.908 7      1090.189          43.000
> 2020 05 05 15 11 30.0000000  0 20        .000000000000
G10  23042027.680 8 121086657.301 8      3183.273          50.000    23042031.062 8  94353257.300 8      2480.473          50.000
G16  20505971.477 6 107759624.300 6       565.473          39.000    20505969.289 6  83968523.622 6       440.625          37.000
G18  21610820.773 7 113565702.632 7     -2448.117          45.000    21610820.438 6  88492767.468 6     -1907.627          38.000
G20  21310477.016 8 111987393.853 8      1501.629          51.000    21310476.203 7  87262892.892 7      1170.103          46.000
G21  21911151.570 8 115143902.168 8     -2123.816          51.000    21911149.727 7  89722500.724 7     -1654.922          44.000
G26  20740783.898 8 108993557.860 8     -1681.785          50.000    20740786.227 8  84930052.723 8     -1310.482          49.000
R01  23109081.750 6 123531311.845 6      3810.887          37.000    23109092.367 5  96079931.262 5      2964.023          32.000
R07  23117854.391 5 123751614.542 5     -1398.453          35.000    23117852.227 4  96251295.556 4     -1087.683          26.000
R13  21991486.219 4 117433293.863 4     -4222.012          29.000
R14  19963067.031 5 106414369.249 5      -853.957          34.000    19963072.930 5  82766754.817 5      -664.186          35.000
R23  20234045.781 5 108238480.798 5     -1949.988          34.000    20234053.734 5  84185520.304 5     -1516.661          33.000
R24  19678456.281 4 105229517.838 4       459.914          28.000    19678455.398 4  81845199.764 4       357.711          29.000
C11  22549330.312 6 117420378.339 6     -1383.180          36.000    22549330.336 8  90796887.457 8     -1069.475          48.000
C14  25144197.047 6 130932459.662 6      3050.930          41.000    25144196.492 7 101245312.604 7      2359.121          43.000
C21  24848746.484 5 129393831.180 5      -147.309          35.000
C23  23709946.094 8 123463902.419 8     -2083.234          51.000
E01  24355742.445 8 127990298.034 8     -1775.996          51.000    24355744.852 8  98070473.317 8     -1360.807          51.000
E13  26949089.594 6 141618411.813 6     -2476.504          37.000    26949089.898 6 108512806.678 6     -1897.590          37.000
E21  27553781.789 5 144796099.122 5     -3217.703          34.000    27553783.680 5 110947643.723 5     -2465.576          34.000
E33  24448742.859 6 128479125.780 6      1414.832          41.000    24448750.805 7  98445005.744 7      1084.065          43.000
> 2020 05 05 15 12  0.0000000  0 17        .000000000000
G10  23023881.961 8 120991302.075 8      3174.398          49.000    23023885.281 8  94278954.571 8      2473.557          49.000
G16  20502801.070 6 107742964.357 6       545.820          39.000    20502799.336 6  83955541.838 6       425.318          39.000
G18  21624827.531 7 113639307.848 7     -2458.508          44.000    21624827.125 6  88550122.182 6     -1915.720          37.000
G20  21301959.211 8 111942631.535 8      1483.129          51.000    21301957.789 7  87228013.204 7      1155.685          45.000
G21  21923299.461 8 115207739.654 8     -2131.453          51.000    21923297.648 7  89772244.215 7     -1660.873          44.000
G26  20750435.859 8 109044279.670 8     -1699.254          50.000    20750438.305 8  84969576.164 8     -1324.094          50.000
R01  23087719.789 6 123417117.927 6      3802.656          39.000    23087729.820 5  95991113.799 5      2957.625          31.000
R14  19967953.398 5 106440418.103 5      -882.000          34.000    19967961.258 6  82787015.051 6      -686.003          38.000
R23  20245013.562 6 108297140.135 6     -1959.414          39.000    20245019.008 5  84231144.178 5     -1523.995          31.000
C11  22557318.836 5 117461978.630 5     -1390.230          35.000    22557319.258 7  90829055.390 7     -1074.743          47.000
C14  25126634.461 6 130841001.698 6      3046.617          41.000    25126633.844 7 101174591.532 7      2355.901          46.000
C21  24849648.578 5 129398523.125 5      -165.047          34.000
C23  23721988.148 8 123526608.952 8     -2096.578          51.000
E01  24365919.445 8 128043781.422 8     -1788.977          51.000    24365922.234 8  98111454.069 8     -1370.831          51.000
E13  26963232.211 5 141692732.638 5     -2477.883          35.000    26963232.219 6 108569753.757 6     -1898.506          38.000
E21  27572162.953 5 144892692.830 5     -3220.488          32.000    27572163.898 5 111021653.904 5     -2468.030          33.000
E33  24440692.344 6 128436814.903 6      1406.363          40.000    24440699.719 6  98412585.680 6      1077.747          40.000
> 2020 05 05 15 12 30.0000000  0 18        .000000000000
G10  23005780.586 8 120896178.849 8      3167.766          48.000    23005782.344 8  94204832.702 8      2468.395          48.000
G16  20499735.047 6 107726850.797 6       528.762          40.000    20499734.148 6  83942985.837 6       412.019          39.000
G18  21638887.453 7 113713192.877 7     -2466.410          45.000    21638887.398 5  88607694.884 5     -1921.878          35.000
G20  21293539.875 8 111898387.293 8      1467.055          51.000    21293537.922 7  87193537.191 7      1143.159          45.000
G21  21935483.953 8 115271769.403 8     -2136.574          51.000    21935482.070 7  89822137.526 7     -1664.863          43.000
G26  20760181.297 8 109095491.510 8     -1714.234          51.000    20760184.062 8  85009481.462 8     -1335.767          51.000
R01  23066396.008 6 123303125.437 6      3797.387          40.000    23066404.508 5  95902453.101 5      2953.526          32.000
R14  19972995.539 5 106467279.831 5      -908.215          35.000    19973000.758 6  82807907.493 6      -706.392          37.000
R23  20256026.055 6 108356035.974 6     -1966.172          39.000    20256028.750 5  84276951.967 5     -1529.248          30.000
R24  19673435.289 4 105202688.637 4       435.355          29.000
C11  22565340.211 5 117503747.137 5     -1394.344          35.000    22565340.359 8  90861353.494 8     -1078.080          48.000
C14  25109088.617 7 130749633.660 7      3044.918          42.000    25109088.797 8 101103940.060 8      2354.590          48.000
C23  23734100.148 8 123589682.546 8     -2107.594          50.000
C28  23546725.898 5 122613994.268 5      2086.812          30.000
E01  24376164.297 8 128097620.998 8     -1799.652          51.000    24376167.266 8  98152707.746 8     -1378.889          51.000
E13  26977374.250 5 141767058.358 5     -2476.496          35.000    26977374.789 6 108626699.274 6     -1897.623          38.000
E21                                                                  27590554.672 5 111095705.075 5     -2468.584          32.000
E33  24432680.250 6 128394711.651 6      1400.938          37.000    24432686.664 5  98380324.784 5      1073.658          35.000
> 2020 05 05 15 13  0.0000000  0 18        .000000000000
G10  22987723.266 7 120801287.365 7      3156.844          47.000    22987720.039 7  94130891.494 7      2459.884          46.000
G16  20496772.414 6 107711281.123 6       507.770          41.000    20496771.758 6  83930853.613 6       395.665          39.000
G18  21652999.703 7 113787352.399 7     -2478.980          44.000    21652999.742 6  88665481.487 6     -1931.673          37.000
G20  21285218.531 8 111854659.327 8      1446.672          51.000    21285217.023 7  87159463.497 7      1127.280          47.000
G21  21947704.062 8 115335986.547 8     -2146.105          51.000    21947702.094 7  89872176.845 7     -1672.293          42.000
G26  20770019.188 8 109147189.071 8     -1733.754          51.000    20770021.953 8  85049765.269 8     -1350.977          51.000
R01  23045110.594 6 123189336.073 6      3787.043          40.000    23045116.914 5  95813950.404 5      2945.484          32.000
R07  23141965.734 4 123880753.565 4     -1474.262          29.000
R14  19978188.625 6 106494949.796 6      -938.523          39.000    19978191.297 6  82829428.580 6      -729.963          38.000
R23  20267080.078 6 108415163.157 6     -1977.012          39.000    20267081.992 4  84322939.716 4     -1537.676          29.000
R24  19671038.656 4 105189859.174 4       420.270          27.000
C11  22573392.953 5 117545680.492 5     -1401.953          32.000    22573393.344 7  90893779.026 7     -1084.807          47.000
C14  25091559.883 7 130658355.112 7      3038.875          43.000    25091560.930 8 101033357.759 8      2349.606          49.000
C21  24851727.578 5 129409470.512 5      -199.520          34.000
C23  23746281.102 8 123653118.063 8     -2122.789          49.000
E01  24386476.344 8 128151812.622 8     -1814.680          51.000    24386479.008 8  98194231.193 8     -1390.448          51.000
E13  26991515.539 6 141841371.259 6     -2479.531          36.000    26991516.430 6 108683640.289 6     -1899.778          38.000
E33  24424705.820 6 128352812.918 6      1390.672          38.000    24424706.992 6  98348220.675 6      1065.714          36.000
> 2020 05 05 15 13 30.0000000  0 17        .000000000000
G10  22969716.750 7 120706664.778 7      3151.062          45.000    22969714.750 7  94057159.710 7      2455.376          45.000
G16  20493919.672 6 107696290.572 6       491.500          41.000    20493918.977 6  83919172.665 6       382.990          40.000
G18  21667170.000 6 113861818.589 6     -2485.613          39.000    21667169.828 6  88723507.053 6     -1936.845          39.000
G20  21277002.094 8 111811483.801 8      1431.508          51.000    21277001.547 7  87125820.271 7      1115.461          47.000
G21  21959966.016 8 115400423.692 8     -2149.949          51.000    21959964.078 7  89922387.585 7     -1675.285          42.000
G26  20779955.602 8 109199405.546 8     -1747.699          51.000    20779958.656 8  85090453.418 8     -1361.844          51.000
R01  23023870.031 6 123075789.139 6      3782.441          40.000    23023875.555 5  95725636.211 5      2941.899          33.000
R14  19983540.359 6 106523461.859 6      -962.848          36.000    19983540.461 6  82851604.593 6      -748.888          39.000
R23  20278181.789 6 108474555.574 6     -1982.738          36.000    20278186.531 5  84369133.750 5     -1542.130          31.000
C11  22581483.812 5 117587812.335 5     -1406.523          32.000    22581484.461 7  90926357.977 7     -1087.350          47.000
C14  25074055.133 7 130567202.528 7      3037.895          43.000    25074056.984 8 100962872.850 8      2349.123          50.000
C21  24852915.266 5 129415675.908 5      -214.145          35.000
C23  23758538.805 8 123716947.524 8     -2132.691          49.000
E01  24396861.930 8 128206389.599 8     -1824.039          51.000    24396863.867 8  98236049.899 8     -1397.634          51.000
E13  27005662.281 5 141915712.070 5     -2477.078          35.000    27005663.125 6 108740602.695 6     -1897.874          38.000
E21                                                                  27627368.953 5 111243965.697 5     -2471.382          32.000
E33  24416777.680 6 128311152.685 6      1386.449          41.000    24416777.633 6  98316299.236 6      1062.156          39.000
> 2020 05 05 15 14  0.0000000  0 19        .000000000000
G10  22951746.773 7 120612238.380 7      3143.703          42.000    22951748.570 6  93983580.714 6      2449.639          41.000
G16  20491163.086 6 107681805.123 6       474.145          41.000    20491162.203 6  83907885.288 6       369.460          40.000
G18  21681383.773 6 113936513.833 6     -2494.203          40.000    21681383.242 6  88781711.187 6     -1943.538          36.000
G20  21268876.781 8 111768786.841 8      1414.844          51.000    21268876.602 7  87092549.914 7      1102.476          47.000
G21  21972255.102 8 115465003.613 8     -2155.418          50.000    21972253.188 7  89972709.596 7     -1679.546          43.000
G26  20789976.094 8 109252064.109 8     -1763.023          51.000    20789979.234 8  85131486.062 8     -1373.784          51.000
R01  23002660.141 6 122962412.339 6      3775.988          39.000    23002666.133 5  95637454.315 5      2936.880          34.000
R14  19989032.836 6 106552737.939 6      -989.078          41.000    19989031.266 6  82874374.801 6      -769.283          38.000
R17  22413144.023 5 119937241.280 5      2844.043          33.000    22413160.844 4  93284556.084 4      2212.024          29.000
R23  20289316.891 4 108534166.524 4     -1988.887          26.000    20289324.086 5  84415472.971 5     -1546.915          32.000
R24  19666442.484 5 105165287.970 5       398.141          34.000
C11                                                                  22589599.211 7  90959032.062 7     -1091.005          47.000
C14  25056560.273 7 130476103.503 7      3035.125          44.000    25056562.961 8 100892429.363 8      2347.129          50.000
C21  24854195.641 4 129422318.023 4      -230.039          28.000
C23  23770858.000 8 123781094.017 8     -2143.898          49.000
E01  24407306.531 8 128261275.388 8     -1835.098          51.000    24407307.648 8  98278105.229 8     -1406.090          51.000
E13  27019799.398 5 141990004.598 5     -2475.988          35.000    27019800.391 6 108797528.079 6     -1897.087          36.000
E21                                                                  27645786.195 5 111318121.142 5     -2472.388          33.000
E33  24408881.336 6 128269655.302 6      1380.109          41.000    24408882.125 6  98284502.532 6      1057.567          41.000
> 2020 05 05 15 14 30.0000000  0 19        .000000000000
G10  22933830.969 7 120518100.654 7      3133.891          42.000    22933836.602 7  93910226.603 7      2441.993          42.000
G16  20488519.828 7 107667914.897 7       453.773          43.000    20488519.523 6  83897061.749 6       353.590          41.000
G18  21695657.750 6 114011525.700 6     -2505.125          39.000    21695657.383 5  88840161.953 5     -1952.048          35.000
G20  21260860.047 8 111726659.597 8      1395.438          51.000    21260859.742 7  87059723.486 7      1087.354          47.000
G21  21984588.109 8 115529814.166 8     -2163.559          51.000    21984585.883 6  90023211.305 6     -1685.890          41.000
G26  20800097.727 8 109305253.212 8     -1781.133          51.000    20800100.406 8  85172932.117 8     -1387.896          51.000
G27  21649383.281 5 113768276.349 5      2162.641          31.000
R01  22981499.977 6 122849301.583 6      3766.484          40.000    22981506.305 5  95549479.329 5      2929.491          33.000
R14  19994684.594 6 106582867.868 6     -1017.848          39.000    19994682.625 6  82897809.179 6      -791.659          39.000
R17  22397234.117 5 119852072.531 5      2836.121          35.000    22397240.562 4  93218313.712 4      2205.863          25.000
R23  20300505.531 5 108594035.757 5     -1999.055          35.000    20300511.547 5  84462037.141 5     -1554.820          30.000
C11                                                                  22597754.422 7  90991869.626 7     -1096.678          46.000
C14  25039093.500 7 130385149.408 7      3030.059          45.000    25039096.266 8 100822097.984 8      2343.021          49.000
C21  24855578.203 5 129429515.238 5      -248.480          34.000
C23  23783254.398 8 123845644.239 8     -2157.762          48.000
E01  24417826.992 8 128316558.543 8     -1848.723          51.000    24417827.602 8  98320465.032 8     -1416.542          51.000
E13  27033943.867 6 142064337.947 6     -2478.020          37.000    27033944.953 5 108854484.691 5     -1898.485          35.000
E21                                                                  27664221.266 5 111392346.455 5     -2474.471          32.000
E33  24401032.875 6 128228410.224 6      1371.359          41.000    24401034.719 7  98252899.151 7      1050.602          42.000
> 2020 05 05 15 15  0.0000000  0 19        .000000000000
G10  22915963.852 7 120424208.261 7      3125.012          45.000    22915970.320 7  93837063.675 7      2435.074          45.000
G16  20485981.250 7 107654574.784 7       434.789          43.000    20485981.508 7  83886666.824 7       338.797          42.000
G18  21709983.047 6 114086805.928 6     -2514.316          40.000    21709982.812 6  88898821.891 6     -1959.211          38.000
G20  21252943.555 8 111685057.504 8      1377.223          51.000    21252943.211 7  87027306.291 7      1073.161          47.000
G21  21996955.992 8 115594808.003 8     -2170.305          51.000    21996953.602 7  90073855.830 7     -1691.150          42.000
G26  20810311.344 8 109358925.563 8     -1797.863          51.000    20810313.617 8  85214754.720 8     -1400.932          51.000
R01  22960381.906 7 122736414.251 7      3758.258          42.000    22960387.773 5  95461678.140 5      2923.092          34.000
R14  20000486.883 6 106613803.380 6     -1045.438          39.000    20000485.719 6  82921870.072 6      -813.118          39.000
R17  22381354.805 5 119767086.633 5      2829.098          34.000
R23  20311736.531 6 108654119.626 6     -2007.469          38.000    20311743.719 5  84508769.023 5     -1561.368          30.000
C11                                                                  22605941.398 7  91024835.037 7     -1101.568          46.000
C14  25021646.453 7 130294297.143 7      3025.887          46.000    25021648.375 7 100751845.331 7      2339.841          47.000
C21  24857056.406 5 129437207.127 5      -265.938          34.000
C23  23795718.211 7 123910550.509 7     -2170.172          47.000
C28  23487007.156 5 122303030.154 5      2059.871          30.000
E01  24428414.133 8 128372191.982 8     -1861.020          51.000    24428414.914 8  98363093.225 8     -1426.006          51.000
E13  27048086.914 5 142138656.396 5     -2478.312          34.000    27048089.094 6 108911436.846 6     -1899.074          36.000
E21                                                                  27682664.016 4 111466616.331 4     -2477.632          29.000
E33  24393223.305 6 128187371.227 6      1363.789          40.000    24393226.656 6  98221453.684 6      1044.963          41.000
> 2020 05 05 15 15 30.0000000  0 18        .000000000000
G10  22898142.250 8 120330550.527 8      3117.859          49.000    22898148.391 8  93764083.663 8      2429.504          49.000
G16  20483545.203 7 107641772.596 7       417.426          43.000    20483545.648 7  83876691.072 7       325.264          43.000
G18  21724356.578 6 114162339.019 6     -2522.426          39.000    21724356.031 5  88957678.836 5     -1965.530          33.000
G20  21245124.758 8 111643968.651 8      1360.910          51.000    21245124.398 7  86995289.037 7      1060.453          46.000
G21  22009355.922 8 115659969.668 8     -2175.043          50.000    22009353.797 7  90124631.141 7     -1694.836          43.000
G26  20820614.172 8 109413066.410 8     -1812.676          51.000    20820616.305 8  85256942.385 8     -1412.475          51.000
R01  22939304.188 7 122623741.389 7      3751.973          43.000    22939308.734 5  95374043.813 5      2918.207          32.000
R14  20006436.719 6 106645529.450 6     -1071.000          40.000    20006436.000 6  82946545.870 6      -833.000          38.000
R17  22365503.727 5 119682270.165 5      2824.445          34.000
R23  20323012.727 6 108714416.507 6     -2013.633          38.000    20323017.141 5  84555666.522 5     -1566.159          30.000
C11  22614155.953 5 117757841.899 5     -1429.086          31.000    22614157.516 7  91057917.596 7     -1104.900          46.000
C14  25004216.875 7 130203535.800 7      3023.680          45.000    25004217.906 7 100681662.992 7      2338.119          46.000
C21  24858624.789 5 129445380.081 5      -280.961          35.000
C23  23808247.703 7 123975797.325 7     -2180.754          47.000
C28  23475146.547 4 122241244.063 4      2057.465          28.000
E01  24439064.977 8 128428161.148 8     -1871.371          51.000    24439066.289 8  98405978.670 8     -1433.935          51.000
E13  27062226.273 5 142212959.836 5     -2476.590          33.000    27062230.289 6 108968373.702 6     -1897.713          37.000
E33  24385450.820 7 128146524.642 7      1358.328          42.000    24385454.047 6  98190155.685 6      1040.839          39.000
> 2020 05 05 15 16  0.0000000  0 19        .000000000000
G10  22880376.430 8 120237185.038 8      3106.164          50.000    22880381.695 8  93691331.380 8      2420.388          50.000
G16  20481222.148 7 107629564.053 7       395.992          45.000    20481222.648 7  83867177.901 7       308.565          43.000
G18  21738788.625 6 114238177.540 6     -2534.195          39.000    21738786.703 5  89016773.780 5     -1974.698          35.000
G20  21237414.383 8 111603449.192 8      1340.074          51.000    21237413.672 7  86963715.470 7      1044.217          45.000
G21  22021797.938 8 115725352.239 8     -2184.234          50.000    22021796.227 7  90175578.599 7     -1702.001          43.000
G26  20831016.438 8 109467729.189 8     -1831.898          51.000    20831018.625 8  85299536.748 8     -1427.453          51.000
G27  21612532.703 5 113574625.538 5      2139.129          32.000
R01  22918278.055 6 122511343.090 6      3740.848          41.000    22918281.453 5  95286623.028 5      2909.554          34.000
R07  23193855.969 5 124158513.702 5     -1615.805          31.000
R14  20012546.008 7 106678100.208 7     -1100.891          43.000    20012546.070 6  82971878.648 6      -856.248          40.000
R17  22349695.805 5 119597678.897 5      2814.805          31.000
R23  20334335.695 5 108774980.721 5     -2024.680          32.000    20334338.828 4  84602771.975 4     -1574.754          29.000
C11  22622412.914 6 117800830.273 6     -1437.207          37.000    22622413.102 7  91091158.920 7     -1111.479          46.000
C14  24986815.695 7 130112922.256 7      3016.816          45.000    24986816.172 7 100611594.952 7      2332.897          46.000
C21  24860296.258 5 129454088.492 5      -300.746          34.000
C23  23820853.102 8 124041436.873 8     -2195.543          48.000
E01  24449789.461 8 128484519.692 8     -1886.215          51.000    24449791.742 8  98449162.468 8     -1445.276          51.000
E13  27076372.836 5 142287299.549 5     -2479.887          35.000    27076377.961 6 109025336.810 6     -1899.954          37.000
E33  24377726.148 7 128105925.024 7      1348.242          43.000    24377727.281 6  98159046.929 6      1033.230          38.000
> 2020 05 05 15 16 30.0000000  0 18        .000000000000
G10  22862660.242 8 120144081.503 8      3099.457          51.000    22862664.438 8  93618783.218 8      2415.164          51.000
G16  20479006.000 7 107617916.745 7       379.379          46.000    20479005.812 7  83858102.082 7       295.620          42.000
G18  21753271.961 6 114314286.270 6     -2540.910          38.000    21753269.531 6  89076079.318 6     -1979.927          36.000
G20  21229806.258 8 111563467.524 8      1324.195          51.000    21229805.070 7  86932560.958 7      1031.841          43.000
G21  22034275.414 8 115790921.090 8     -2188.336          49.000    22034273.828 7  90226671.202 7     -1705.197          43.000
G26  20841511.469 8 109522879.508 8     -1846.148          51.000    20841513.766 8  85342511.007 8     -1438.557          51.000
R01  22897297.547 6 122399190.489 6      3734.727          41.000    22897301.711 5  95199393.343 5      2904.790          33.000
R07  23202962.547 5 124207285.499 5     -1637.160          30.000
R14  20018808.234 7 106711480.580 7     -1125.703          44.000    20018808.906 6  82997841.145 6      -875.547          40.000
R23  20345702.641 5 108835777.395 5     -2029.832          32.000    20345703.125 4  84650058.158 4     -1578.761          27.000
R24  19656166.672 5 105110378.112 5       334.902          30.000
C11  22630703.227 6 117843990.696 6     -1441.320          38.000    22630701.609 7  91124533.287 7     -1114.197          45.000
C14  24969437.102 7 130022426.135 7      3015.105          45.000    24969437.531 7 100541617.727 7      2331.383          47.000
C21  24862065.461 6 129463299.466 6      -314.707          38.000
C23  23833527.781 8 124107434.231 8     -2205.445          48.000
E01  24460580.938 8 128541233.402 8     -1895.840          50.000    24460584.766 8  98492618.414 8     -1452.689          51.000
E13  27090519.414 5 142361641.763 5     -2477.438          34.000    27090525.602 6 109082300.280 6     -1898.329          37.000
E33  24370041.961 7 128065539.086 7      1343.090          43.000    24370040.703 6  98128101.911 6      1029.330          37.000
> 2020 05 05 15 17  0.0000000  0 16        .000000000000
G10  22845007.430 8 120051311.416 8      3086.023          51.000    22845010.602 8  93546494.873 8      2404.697          51.000
G16  20476909.969 7 107606900.402 7       355.914          47.000    20476909.500 7  83849517.933 7       277.339          44.000
G18  21767818.969 6 114390731.913 6     -2554.688          39.000    21767818.344 6  89135647.317 6     -1990.666          36.000
G20  21222313.445 8 111524093.981 8      1301.586          49.000    21222312.289 7  86901880.315 7      1014.226          43.000
G21  22046800.969 8 115856743.144 8     -2198.965          49.000    22046799.391 7  90277961.105 7     -1713.479          43.000
G26  20852111.891 8 109578584.765 8     -1866.910          51.000    20852114.164 8  85385917.674 8     -1454.735          51.000
R01  22876376.570 6 122287358.041 6      3721.621          41.000    22876380.727 5  95112412.572 5      2894.594          32.000
R07  23212218.508 4 124256831.440 4     -1664.633          29.000    23212220.477 4  96644198.029 4     -1294.717          29.000
R14  20025234.469 7 106745738.836 7     -1157.219          43.000    20025235.211 6  83024486.417 6      -900.059          40.000
C11  22639038.484 6 117887390.853 6     -1451.289          38.000    22639035.922 7  91158093.020 7     -1122.241          44.000
C14  24952094.664 7 129932118.126 7      3006.461          45.000    24952095.391 7 100471785.913 7      2324.708          47.000
C21  24863944.281 6 129473080.962 6      -336.391          38.000
C23  23846283.102 8 124173855.423 8     -2221.883          48.000
E01  24471452.562 8 128598369.897 8     -1912.242          49.000    24471458.031 8  98536398.335 8     -1465.290          51.000
E13  27104678.867 5 142436048.657 5     -2482.160          32.000    27104685.719 6 109139316.384 6     -1901.873          36.000
E33  24362410.414 6 128025435.341 6      1331.574          41.000    24362407.867 6  98097373.038 6      1020.210          38.000
> 2020 05 05 15 17 30.0000000  0 17        .000000000000
G10  22827380.102 8 119958676.169 8      3084.402          51.000    22827382.312 8  93474311.602 8      2403.430          51.000
G16  20474895.445 7 107596314.279 7       344.453          47.000    20474895.141 7  83841268.996 7       268.405          45.000
G18  21782391.312 6 114467310.825 6     -2556.125          39.000    21782391.703 5  89195319.221 5     -1991.783          31.000
G20  21214897.977 8 111485128.345 8      1290.816          49.000    21214897.336 7  86871517.512 7      1005.831          44.000
G21  22059335.875 8 115922615.258 8     -2197.793          48.000    22059334.500 7  90329290.028 7     -1712.563          43.000
G26  20862779.219 8 109634642.202 8     -1875.582          51.000    20862781.062 8  85429598.770 8     -1461.492          51.000
R01  22855478.531 7 122175645.160 7      3720.430          42.000    22855481.836 5  95025524.878 5      2893.671          30.000
R14  20031786.516 7 106780668.845 7     -1176.570          44.000    20031787.711 6  83051654.218 6      -915.107          41.000
R17  22302477.445 6 119345038.267 6      2800.551          36.000    22302489.305 4  92823973.773 4      2178.209          29.000
C11  22647381.344 6 117930830.747 6     -1449.652          39.000    22647377.828 7  91191683.490 7     -1121.084          43.000
C14  24934750.266 7 129841801.063 7      3009.418          44.000    24934751.672 8 100401947.097 8      2327.070          48.000
C21  24865893.984 5 129483233.471 5      -345.473          30.000
C23  23859080.984 8 124240498.578 8     -2226.402          49.000
C28  23427997.258 5 121995720.638 5      2039.191          31.000
E01  24482366.562 8 128655726.651 8     -1916.801          50.000    24482372.969 8  98580347.025 8     -1468.747          51.000
E13                                                                  27118820.133 5 109196230.304 5     -1896.198          34.000
E33  24354793.602 6 127985412.116 6      1331.750          40.000    24354791.641 6  98066705.923 6      1020.225          39.000
> 2020 05 05 15 18  0.0000000  0 19        .000000000000
G10  22809782.883 8 119866202.776 8      3072.199          50.000    22809784.094 8  93402254.392 8      2393.921          50.000
G16  20472967.500 7 107586183.423 7       322.621          47.000    20472967.188 7  83833374.816 7       251.393          45.000
G18  21796993.336 6 114544045.225 6     -2567.797          39.000    21796994.289 6  89255112.236 6     -2000.884          36.000
G20  21207565.398 8 111446596.418 8      1269.688          50.000    21207565.023 7  86841492.642 7       989.367          44.000
G21  22071884.695 8 115988560.210 8     -2206.844          48.000    22071883.445 7  90380675.710 7     -1719.622          42.000
G26  20873517.695 8 109691074.644 8     -1894.828          51.000    20873519.062 8  85473572.080 8     -1476.489          51.000
R01  22834608.508 7 122064081.016 7      3708.898          43.000    22834611.258 4  94938752.874 4      2884.702          28.000
R14  20038468.633 6 106816293.672 6     -1206.547          41.000    20038470.688 6  83079362.409 6      -938.431          41.000
R17  22286777.992 5 119261040.912 5      2791.246          30.000    22286791.305 5  92758642.488 5      2170.966          30.000
R23  20380020.211 5 109019345.433 5     -2053.148          35.000
R24  19650806.062 5 105081696.461 5       297.969          31.000
C11  22655736.391 6 117974333.781 6     -1458.461          39.000    22655731.875 7  91225322.803 7     -1127.790          43.000
C14  24917409.133 7 129751501.387 7      3002.309          45.000    24917410.859 7 100332121.698 7      2321.581          46.000
C21  24867917.070 6 129493780.545 6      -365.781          38.000
C23  23871926.305 8 124307385.551 8     -2240.926          50.000
C28  23416252.141 5 121934541.250 5      2031.461          32.000
E01  24493327.633 8 128713326.695 8     -1931.441          51.000    24493334.023 8  98624482.116 8     -1479.924          51.000
E13  27132927.602 5 142584495.914 5     -2477.617          32.000    27132933.625 5 109253060.140 5     -1898.542          33.000
E33  24347197.641 6 127945493.386 6      1321.543          41.000    24347195.742 6  98036118.848 6      1012.575          40.000
> 2020 05 05 15 18 30.0000000  0 18        .000000000000
G10  22792263.016 8 119774139.861 8      3059.887          50.000    22792262.320 8  93330517.070 8      2384.327          49.000
G16  20471173.219 8 107576754.580 8       300.457          48.000    20471173.008 7  83826027.650 7       234.122          45.000
G18  21811671.336 6 114621178.769 6     -2579.832          37.000    21811671.586 5  89315216.260 5     -2010.265          33.000
G20  21200362.641 8 111408745.383 8      1248.367          50.000    21200362.148 7  86811998.351 7       972.754          45.000
G21  22084493.953 8 116054822.171 8     -2216.098          48.000    22084492.680 6  90432308.416 6     -1726.826          41.000
G26  20884373.812 8 109748126.591 8     -1914.020          49.000    20884375.023 8  85518028.128 8     -1491.447          50.000
R01  22813813.727 6 121952920.382 6      3696.234          41.000    22813816.508 4  94852294.702 4      2874.852          29.000
R14  20045327.711 7 106852861.065 7     -1236.758          44.000    20045330.930 6  83107803.718 6      -961.923          41.000
R23  20391551.773 6 109081021.179 6     -2064.086          38.000
R24  19649174.195 5 105072901.325 5       282.664          34.000    19649168.969 4  81723378.759 4       219.850          25.000
C11  22664150.008 6 118018143.336 6     -1467.961          37.000    22664144.633 7  91259199.140 7     -1134.655          42.000
C14  24900118.297 7 129661465.315 7      2994.754          45.000    24900120.352 7 100262500.161 7      2315.791          45.000
C21  24870065.172 5 129504965.694 5      -385.699          35.000
C23  23884864.914 8 124374757.873 8     -2255.711          51.000
C28  23404555.000 5 121873647.116 5      2022.668          34.000
E01  24504381.906 8 128771414.830 8     -1946.344          51.000    24504387.750 8  98668991.181 8     -1491.372          51.000
E13                                                                  27147072.531 5 109310011.838 5     -1900.933          32.000
E33  24339668.906 6 127905924.886 6      1310.996          40.000    24339667.086 6  98005800.139 6      1004.706          40.000
> 2020 05 05 15 19  0.0000000  0 18        .000000000000
G10  22774828.453 8 119682522.726 8      3056.648          51.000    22774825.086 8  93259127.222 8      2381.810          50.000
G16  20469518.906 8 107568061.274 8       287.867          48.000    20469518.492 7  83819253.631 7       224.312          46.000
G18  21826430.883 6 114698741.894 6     -2582.258          36.000    21826429.789 4  89375655.115 4     -2012.140          29.000
G20  21193295.938 8 111371608.974 8      1236.285          51.000    21193295.156 7  86783060.923 7       963.339          46.000
G21  22097169.469 8 116121432.163 8     -2215.961          48.000    22097168.062 6  90484212.308 6     -1726.723          41.000
G26  20895353.648 8 109805829.272 8     -1924.031          49.000    20895355.219 8  85562991.252 8     -1499.245          49.000
R01  22793100.492 6 121842201.045 6      3693.527          37.000    22793104.273 5  94766179.723 5      2872.743          31.000
R14  20052370.320 7 106890402.151 7     -1257.160          44.000    20052374.195 6  83137002.349 6      -977.791          41.000
R17  22255582.742 6 119094092.502 6      2781.348          36.000    22255581.719 4  92628752.725 4      2163.276          27.000
R23  20403159.500 6 109143095.237 6     -2065.512          36.000
C11  22672628.711 6 118062291.105 6     -1467.352          37.000    22672622.375 7  91293337.030 7     -1134.489          43.000
C14  24882884.883 7 129571727.652 7      2996.648          44.000    24882885.750 7 100193109.455 7      2317.144          44.000
C21  24872342.812 5 129516821.265 5      -396.047          35.000
C23  23897902.352 8 124442645.665 8     -2261.387          51.000
C28  23392916.250 5 121813070.824 5      2024.500          33.000
E01  24515534.930 8 128830022.486 8     -1951.934          51.000    24515539.812 8  98713898.318 8     -1495.640          51.000
E13  27161238.852 5 142733272.180 5     -2475.047          33.000    27161244.055 5 109367073.934 5     -1896.417          30.000
E33  24332211.797 6 127866739.010 6      1309.930          37.000    24332211.852 6  97975774.553 6      1003.916          41.000
> 2020 05 05 15 19 30.0000000  0 18        .000000000000
G10  22757405.734 8 119590965.395 8      3047.148          51.000    22757403.266 8  93187783.948 8      2374.404          51.000
G16  20467930.648 8 107559715.559 8       268.734          48.000    20467929.758 7  83812750.475 7       209.403          45.000
G18  21841198.031 6 114776343.875 6     -2590.898          39.000    21841197.047 5  89436124.091 5     -2018.876          30.000
G20  21186291.812 8 111334800.465 8      1217.895          51.000    21186290.891 7  86754378.982 7       949.009          47.000
G21  22109836.945 8 116187999.545 8     -2221.859          48.000    22109835.422 6  90536082.989 6     -1731.319          41.000
G26  20906383.406 8 109863792.508 8     -1940.020          49.000    20906385.219 8  85608157.416 8     -1511.704          50.000
R01  22772395.891 5 121731532.065 5      3684.203          31.000    22772401.562 5  94680103.890 5      2865.494          31.000
R14  20059521.359 7 106928521.198 7     -1283.973          44.000    20059525.555 6  83166650.492 6      -998.645          40.000
R17  22240015.047 5 119010765.121 5      2774.391          35.000    22240009.414 4  92563942.755 4      2157.865          28.000
R23  20414767.328 5 109205170.558 5     -2073.309          33.000
R24  19646114.789 5 105056589.131 5       263.898          33.000    19646112.648 4  81710678.983 4       205.251          26.000
C11  22681097.094 5 118106391.400 5     -1472.941          30.000    22681091.500 7  91327438.184 7     -1138.932          44.000
C14  24865635.062 7 129481905.642 7      2991.777          42.000    24865634.086 7 100123653.545 7      2313.441          45.000
C21  24874673.398 6 129528961.689 6      -413.023          38.000
C23  23910963.883 8 124510661.469 8     -2272.949          50.000
E01  24526712.227 8 128888759.667 8     -1963.723          51.000    24526715.859 8  98758904.694 8     -1504.701          51.000
E13  27175367.828 5 142807520.425 5     -2475.133          33.000
E33  24324753.477 6 127827546.681 6      1302.676          38.000    24324756.047 7  97945744.010 7       998.382          42.000
> 2020 05 05 15 20  0.0000000  0 16        .000000000000
G10  22740058.320 8 119499804.876 8      3036.559          51.000    22740058.102 8  93116749.835 8      2366.153          51.000
G16  20466472.305 8 107552052.460 8       248.758          48.000    20466470.898 7  83806779.237 7       193.837          44.000
G18  21856035.797 6 114854316.855 6     -2600.723          39.000    21856034.844 4  89496807.132 4     -2026.546          24.000
G20  21179413.820 8 111298654.869 8      1198.320          51.000    21179412.727 7  86726213.612 7       933.759          47.000
G21  22122559.586 7 116254857.177 7     -2228.793          46.000    22122557.805 6  90588179.836 6     -1736.722          39.000
G26  20917526.555 8 109922349.092 8     -1957.141          51.000    20917528.492 8  85653785.929 8     -1525.045          51.000
R01  22751764.898 5 121621257.713 5      3673.223          32.000    22751772.570 5  94594335.080 5      2856.951          31.000
R14  20066844.820 7 106967555.232 7     -1311.836          44.000    20066848.031 6  83197010.291 6     -1020.320          41.000
R17  22224507.422 5 118927748.995 5      2767.117          34.000    22224498.906 4  92499374.716 4      2152.199          27.000
R23  20426436.461 5 109267585.850 5     -2081.676          32.000
C11  22689618.984 5 118150805.171 5     -1479.660          33.000    22689615.375 7  91361758.580 7     -1144.348          43.000
C14  24848431.711 6 129392333.068 6      2986.047          39.000    24848432.078 8 100054390.448 8      2308.877          48.000
C21  24877124.039 6 129541718.031 6      -431.312          36.000
C23  23924113.102 8 124579134.295 8     -2285.492          51.000
E01  24537977.281 8 128947959.502 8     -1976.562          50.000    24537979.664 8  98804265.575 8     -1514.485          51.000
E33  24317358.516 6 127788681.832 6      1294.340          40.000    24317362.453 7  97915964.452 7       991.827          42.000
> 2020 05 05 15 20 30.0000000  0 16        .000000000000
G10  22722753.086 8 119408867.827 8      3027.328          50.000    22722754.727 8  93045889.830 8      2358.957          50.000
G16  20465110.414 8 107544896.305 8       230.168          48.000    20465109.047 7  83801203.000 7       179.352          47.000
G18  21870910.336 6 114932482.554 6     -2608.883          39.000    21870909.906 4  89557715.477 4     -2032.911          29.000
G20  21172628.695 8 111262997.508 8      1180.398          51.000    21172627.672 8  86698428.664 8       919.791          48.000
G21  22135303.492 7 116321826.705 7     -2234.145          45.000    22135301.352 6  90640363.882 6     -1740.892          40.000
G26  20928749.133 8 109981321.490 8     -1972.707          51.000    20928751.172 8  85699738.417 8     -1537.177          51.000
R01  22731177.914 4 121511172.690 4      3666.469          29.000    22731184.141 4  94508737.413 4      2851.701          28.000
R14  20074305.219 7 107007324.010 7     -1337.938          43.000    20074308.945 7  83227941.532 7     -1040.618          42.000
R24  19643314.656 6 105041598.400 6       239.387          37.000    19643313.258 4  81699041.335 4       186.187          26.000
C11  22698163.914 5 118195297.417 5     -1484.570          35.000    22698160.109 7  91396162.856 7     -1148.332          44.000
C14  24831242.430 6 129302837.972 6      2981.672          40.000    24831245.805 8  99985187.112 8      2305.733          49.000
C21  24879659.609 6 129554915.550 6      -447.375          37.000
C23  23937316.219 8 124647887.477 8     -2296.402          51.000
C28  23358090.711 5 121631705.545 5      2007.629          35.000
E01  24549296.609 8 129007444.679 8     -1987.562          50.000    24549298.461 8  98849845.097 8     -1522.940          51.000
E33  24309992.391 6 127749968.268 6      1287.906          38.000    24309997.516 6  97886300.773 6       986.643          38.000
> 2020 05 05 15 21  0.0000000  0 17        .000000000000
G10  22705498.953 8 119318199.169 8      3018.000          48.000    22705502.203 8  92975238.938 8      2351.688          48.000
G16  20463853.422 8 107538290.076 8       211.250          48.000    20463852.047 7  83796055.270 7       164.610          47.000
G18  21885829.000 6 115010880.999 6     -2616.895          36.000    21885828.438 5  89618808.162 5     -2039.145          30.000
G20  21165944.734 8 111227871.809 8      1162.219          51.000    21165943.805 8  86671058.005 8       905.628          48.000
G21  22148076.578 7 116388949.230 7     -2239.820          45.000    22148074.180 6  90692667.141 6     -1745.311          38.000
G26  20940058.562 8 110040750.380 8     -1988.281          51.000    20940060.602 8  85746046.603 8     -1549.310          51.000
R14  20081911.516 7 107047868.041 7     -1364.191          45.000    20081915.297 7  83259475.807 7     -1061.038          43.000
R17  22193567.516 5 118762186.709 5      2754.332          33.000
R23  20449859.977 5 109392961.423 5     -2095.379          34.000
R24  19642019.406 5 105034617.725 5       227.617          33.000    19642009.992 4  81693611.830 4       177.033          28.000
C11  22706737.414 6 118239939.575 6     -1490.145          36.000    22706733.281 7  91430682.942 7     -1152.374          44.000
C14  24814078.781 7 129213464.336 7      2977.441          44.000    24814082.984 8  99916077.781 8      2302.298          50.000
C21  24882286.133 6 129568595.575 6      -463.785          36.000
C23  23950581.172 8 124716960.524 8     -2307.555          51.000
C28  23346540.094 6 121571547.566 6      2003.344          37.000
E01  24560678.391 8 129067256.130 8     -1998.898          51.000    24560680.445 8  98895674.639 8     -1531.617          51.000
E33  24302660.430 5 127711447.829 5      1281.160          35.000    24302670.055 5  97856785.025 5       981.581          34.000
> 2020 05 05 15 21 30.0000000  0 15        .000000000000
G10  22688303.133 8 119227836.822 8      3006.605          49.000    22688307.633 8  92904826.710 8      2342.809          49.000
G16  20462707.945 8 107532269.715 8       190.758          49.000    20462706.148 7  83791364.075 7       148.642          46.000
G18  21900798.070 6 115089545.277 6     -2626.523          36.000    21900798.117 5  89680105.088 5     -2046.642          34.000
G20  21159368.719 8 111193314.409 8      1142.191          51.000    21159367.789 7  86644130.179 7       890.019          47.000
G21  22160885.234 7 116456258.028 7     -2246.914          45.000    22160882.547 6  90745115.520 6     -1750.839          38.000
G26  20951461.203 8 110100669.490 8     -2005.668          51.000    20951463.344 8  85792736.779 8     -1562.858          51.000
R13  22475740.836 5 120019193.544 5     -4388.250          30.000    22475754.117 4  93348309.613 4     -3413.083          26.000
R14  20089670.680 7 107089254.421 7     -1392.133          45.000    20089672.938 7  83291649.532 7     -1082.770          42.000
R23  20461638.875 6 109455972.635 6     -2104.121          37.000
C11  22715345.648 6 118284765.940 6     -1497.691          36.000    22715341.812 7  91465345.495 7     -1157.938          44.000
C14  24796947.039 7 129124249.786 7      2970.801          45.000    24796950.797 8  99847091.483 8      2297.284          51.000
C23  23963913.719 8 124786386.093 8     -2320.223          51.000
C28  23335021.148 5 121511556.348 5      1996.688          32.000
E01  24572129.031 8 129127427.826 8     -2011.949          51.000    24572131.664 8  98941780.220 8     -1541.596          51.000
E33  24295371.445 5 127673045.567 5      1272.012          35.000
> 2020 05 05 15 22  0.0000000  0 16        .000000000000
G10  22671161.602 8 119137758.815 8      2996.930          49.000    22671166.633 8  92834636.059 8      2335.270          49.000
G16  20461669.164 8 107526811.260 8       171.668          49.000    20461667.016 7  83787110.739 7       133.767          47.000
G18  21915812.883 6 115168448.803 6     -2635.012          38.000    21915812.391 5  89741589.369 5     -2053.274          31.000
G20  21152896.156 8 111159301.677 8      1123.812          51.000    21152895.227 7  86617626.751 7       875.698          47.000
G21  22173724.141 7 116523726.939 7     -2252.574          42.000    22173721.984 6  90797688.697 6     -1755.253          40.000
G26  20962951.977 8 110161052.594 8     -2021.285          51.000    20962954.305 8  85839788.532 8     -1575.030          51.000
R07  23311729.039 5 124789434.360 5     -1890.430          31.000
R13  22500413.438 5 120150919.027 5     -4394.863          31.000
R14  20097574.773 7 107131390.012 7     -1418.379          45.000    20097577.594 7  83324421.679 7     -1103.181          42.000
R24  19639611.031 5 105021877.132 5       201.480          32.000    19639605.820 4  81683633.486 4       156.701          27.000
C11  22723984.359 6 118329751.607 6     -1503.355          36.000    22723981.156 7  91500131.261 7     -1162.179          44.000
C14  24779841.898 7 129035172.258 7      2966.113          46.000    24779844.797 8  99778211.158 8      2293.593          51.000
C23  23977308.430 8 124856137.518 8     -2331.273          49.000
C28  23323530.672 5 121451707.600 5      1991.895          33.000
E01  24583643.398 8 129187933.899 8     -2023.336          51.000    24583646.578 8  98988142.006 8     -1550.291          51.000
E33  24288124.055 6 127634956.454 6      1265.559          39.000
> 2020 05 05 15 22 30.0000000  0 19        .000000000000
G10  22654048.688 8 119047829.167 8      2981.242          50.000    22654053.297 8  92764560.991 8      2323.046          50.000
G16  20460711.047 8 107521776.579 8       146.832          49.000    20460708.898 8  83783187.599 8       114.415          48.000
G18  21930846.578 6 115247450.687 6     -2648.930          39.000
G20  21146500.789 8 111125696.179 8      1099.484          48.000    21146500.352 7  86591440.665 7       856.744          47.000
G21  22186566.586 7 116591215.558 7     -2264.078          42.000    22186565.242 6  90850277.253 6     -1764.217          40.000
G26  20974504.102 8 110221759.502 8     -2042.898          51.000    20974506.234 8  85887092.600 8     -1591.872          51.000
G27  21457278.469 5 112758756.862 5      2035.949          34.000
R01  22649343.852 5 121073722.051 5      3618.016          30.000
R07  23322354.805 5 124846324.137 5     -1919.281          31.000
R13  22525092.781 5 120282716.216 5     -4408.082          31.000
R14  20105598.820 7 107174164.985 7     -1450.605          46.000    20105601.500 6  83357691.099 6     -1128.252          41.000
R23  20485286.781 5 109582511.068 5     -2125.375          33.000    20485298.719 4  85230856.134 4     -1653.063          25.000
C11  22732626.594 6 118374758.764 6     -1514.629          36.000    22732624.789 7  91534933.575 7     -1170.947          45.000
C14  24762736.898 7 128946096.804 7      2955.324          46.000    24762738.516 8  99709332.426 8      2285.265          49.000
C21  24890714.484 5 129612496.146 5      -521.223          32.000
C23  23990738.867 8 124926075.042 8     -2348.195          48.000
C28  23312039.180 5 121391864.238 5      1980.586          34.000
E01  24595194.602 8 129248634.406 8     -2040.566          51.000    24595198.242 8  99034652.770 8     -1563.494          51.000
E33  24280889.844 5 127596931.469 5      1252.691          35.000    24280901.070 5  97769094.421 5       959.397          30.000
> 2020 05 05 15 23  0.0000000  0 17        .000000000000
G10  22637044.117 8 118958467.268 8      2973.363          51.000    22637047.391 8  92694928.348 8      2316.906          51.000
G16  20459913.125 8 107517583.150 8       129.852          50.000    20459910.828 8  83779919.987 8       101.183          48.000
G18  21945977.914 6 115326965.422 6     -2654.871          39.000
G20  21140262.086 7 111092915.794 7      1083.047          47.000    21140262.109 7  86565897.540 7       843.933          46.000
G21  22199491.898 7 116659139.549 7     -2267.297          42.000    22199491.180 6  90903205.055 6     -1766.722          39.000
G26  20986196.664 8 110283205.364 8     -2056.355          51.000    20986198.812 8  85934972.461 8     -1602.355          51.000
R01  22629047.852 5 120965260.861 5      3609.488          31.000    22629051.023 4  94084074.618 4      2807.380          27.000
R07  23333161.391 4 124904166.004 4     -1939.441          27.000
R14  20113822.945 8 107218000.139 8     -1474.570          48.000    20113824.344 6  83391785.054 6     -1146.888          41.000
R23  20497211.156 6 109646287.110 6     -2129.906          36.000    20497223.781 4  85280459.788 4     -1656.594          28.000
R24  19637465.953 6 105010386.398 6       173.621          36.000    19637470.477 4  81674754.052 4       135.039          28.000
C11  22741351.875 5 118420199.782 5     -1517.223          33.000    22741351.492 7  91570071.437 7     -1173.690          43.000
C14  24745711.305 7 128857438.818 7      2952.340          45.000    24745711.469 8  99640776.524 8      2282.997          48.000
C23  24004284.445 8 124996609.352 8     -2357.109          49.000
C28  23300628.172 6 121332439.175 6      1978.062          36.000
E01  24606861.688 8 129309944.732 8     -2049.605          51.000    24606865.320 8  99081630.813 8     -1570.528          51.000
E33  24273745.016 5 127559391.967 5      1247.453          34.000    24273738.812 5  97740287.431 5       955.889          32.000
> 2020 05 05 15 23 30.0000000  0 17        .000000000000
G10  22620069.953 8 118869264.758 8      2969.457          51.000    22620071.438 8  92625419.931 8      2313.863          51.000
G16  20459197.289 8 107513820.653 8       116.859          51.000    20459195.008 8  83776988.170 8        91.059          48.000
G18  21961128.062 5 115406580.038 5     -2657.422          32.000
G20  21134102.953 7 111060550.785 7      1070.625          47.000    21134103.219 7  86540678.036 7       834.253          46.000
G21  22212421.680 7 116727085.457 7     -2266.453          43.000    22212420.750 5  90956149.894 5     -1766.067          35.000
G26  20997951.320 8 110344977.575 8     -2065.773          51.000    20997953.648 8  85983106.621 8     -1609.694          51.000
R01  22608789.422 5 120856965.532 5      3605.934          31.000    22608797.727 5  93999845.036 5      2804.615          31.000
R14  20122167.336 8 107262476.405 8     -1494.520          48.000    20122168.102 7  83426377.706 7     -1162.404          42.000
R23  20509147.781 6 109710132.485 6     -2130.441          37.000    20509159.336 4  85330117.257 4     -1657.016          28.000
R24  19636495.391 5 105005202.260 5       167.938          30.000    19636498.641 4  81670721.967 4       130.624          24.000
C11  22750081.750 5 118465667.098 5     -1516.648          33.000    22750083.008 7  91605229.559 7     -1173.306          43.000
C14  24728687.102 7 128768793.525 7      2953.398          43.000    24728686.703 8  99572230.465 8      2283.643          48.000
C21  24896866.250 5 129644484.580 5      -546.398          35.000
C23  24017866.773 8 125067330.861 8     -2361.727          50.000
C28  23289219.070 5 121273025.369 5      1980.203          32.000
E01  24618566.531 8 129371452.647 8     -2054.867          51.000    24618569.820 8  99128760.242 8     -1574.479          51.000
E33  24266615.781 6 127521916.944 6      1246.289          36.000    24266608.539 5  97711572.754 5       955.263          34.000
> 2020 05 05 15 24  0.0000000  0 18        .000000000000
G10  22603165.766 8 118780432.017 8      2959.359          50.000    22603166.023 8  92556199.713 8      2305.997          51.000
G16  20458602.961 8 107510696.860 8        97.930          50.000    20458600.742 8  83774554.040 8        76.309          49.000
G18  21976335.273 5 115486421.708 5     -2664.609          32.000
G20  21128062.594 7 111028809.688 7      1052.055          47.000    21128063.141 7  86515944.754 7       819.786          46.000
G21  22225394.938 7 116795259.645 7     -2271.961          42.000    22225393.281 5  91009272.608 5     -1770.359          32.000
G26  21009807.344 8 110407282.253 8     -2081.215          51.000    21009809.664 8  86031655.685 8     -1621.726          51.000
R01  22588602.828 5 120749051.705 5      3595.516          34.000    22588611.125 5  93915912.067 5      2796.512          33.000
R14  20130670.055 7 107307802.294 7     -1520.500          46.000    20130672.102 7  83461631.177 7     -1182.611          44.000
R17  22101597.711 5 118270086.738 5      2715.605          35.000
R23  20521136.055 6 109774257.752 6     -2137.773          39.000    20521145.625 4  85379992.495 4     -1662.713          28.000
R24  19635605.367 5 105000381.863 5       156.527          32.000
C05  39611572.875 5 206267853.876 5         1.734          34.000
C11  22758857.180 5 118511365.886 5     -1523.012          33.000    22758858.859 7  91640566.741 7     -1177.390          42.000
C14  24711704.680 7 128680369.236 7      2948.008          43.000    24711705.438 8  99503855.262 8      2279.707          50.000
C21  24900085.727 6 129661220.940 6      -562.754          36.000
C23  24031524.383 8 125138443.125 8     -2372.531          50.000
E01  24630348.383 8 129433364.524 8     -2066.008          51.000    24630351.344 8  99176199.193 8     -1583.066          51.000
E33  24259539.703 5 127484718.688 5      1239.582          35.000    24259532.406 5  97683070.169 5       950.297          35.000
> 2020 05 05 15 24 30.0000000  0 17        .000000000000
G10  22586297.398 8 118691789.601 8      2944.863          48.000    22586296.852 8  92487127.805 8      2294.702          48.000
G16  20458095.516 8 107508030.307 8        74.531          51.000    20458093.383 8  83772476.194 8        58.076          50.000
G18  21991566.555 6 115566462.752 6     -2676.699          36.000
G20  21122106.797 8 110997511.495 8      1029.227          48.000    21122106.828 7  86491556.567 7       801.995          45.000
G21  22238376.469 6 116863478.191 6     -2281.367          40.000    22238374.477 6  91062429.898 6     -1777.689          37.000
G26  21021729.789 8 110469935.616 8     -2100.848          50.000    21021732.039 8  86080476.467 8     -1637.024          50.000
R01  22568453.492 6 120641338.472 6      3580.113          38.000    22568461.445 5  93832135.179 5      2784.536          33.000
R14  20139296.578 7 107353790.850 7     -1550.809          47.000    20139299.883 7  83497400.039 7     -1206.184          44.000
R23  20533140.359 5 109838475.751 5     -2148.434          35.000    20533148.383 4  85429939.742 4     -1671.010          27.000
R24  19634759.617 4 104995865.209 4       140.715          27.000    19634762.805 4  81663470.927 4       109.445          25.000
C05  39611561.133 5 206267792.426 5        -2.609          35.000
C11  22767642.906 6 118557115.271 6     -1532.219          36.000    22767644.477 6  91675943.125 6     -1184.866          39.000
C14  24694731.586 7 128591987.805 7      2938.457          44.000    24694733.602 8  99435513.214 8      2272.328          51.000
C23  24045221.422 8 125209763.299 8     -2387.426          50.000
C28  23266481.992 5 121154689.865 5      1965.004          32.000
E01  24642172.008 8 129495496.920 8     -2081.449          51.000    24642174.695 8  99223807.111 8     -1594.868          51.000
E33  24252479.930 5 127447641.674 5      1228.590          35.000    24252472.367 5  97654639.940 5       941.130          34.000
> 2020 05 05 15 25  0.0000000  0 17        .000000000000
G10  22569504.539 8 118603545.688 8      2938.266          48.000    22569504.492 8  92418366.406 8      2289.561          48.000
G16  20457714.484 8 107506027.171 8        59.184          51.000    20457712.484 8  83770915.305 8        46.117          49.000
G18  22006860.188 6 115646828.343 6     -2680.461          39.000
G20  21116275.023 8 110966862.909 8      1014.363          49.000    21116274.539 7  86467674.595 7       790.416          46.000
G21  22251404.977 6 116931945.060 6     -2282.648          40.000    22251403.500 5  91115780.700 5     -1778.690          35.000
G26  21033757.273 8 110533141.487 8     -2112.492          49.000    21033759.680 8  86129727.829 8     -1646.098          49.000
R01  22548381.055 6 120534039.649 6      3573.113          38.000    22548387.680 4  93748680.572 4      2779.088          29.000
R14  20148086.539 8 107400648.248 8     -1572.789          48.000    20148090.203 7  83533844.682 7     -1223.280          45.000
R17  22071226.344 5 118107589.791 5      2702.531          33.000
R23  20545202.320 5 109902994.329 5     -2152.320          32.000    20545208.492 4  85480120.834 4     -1674.027          28.000
C05  39611567.133 5 206267823.934 5          .961          35.000
C11  22776477.461 5 118603118.633 5     -1534.281          35.000    22776478.438 6  91711515.799 6     -1186.497          41.000
C14  24677807.211 7 128503855.339 7      2937.035          45.000    24677809.875 8  99367363.687 8      2271.032          51.000
C23  24058996.453 8 125281492.658 8     -2394.242          49.000
C28  23255167.703 6 121095770.845 6      1963.824          36.000
E01  24654076.094 8 129558054.004 8     -2088.828          51.000    24654078.570 8  99271740.450 8     -1600.477          51.000
E33  24245475.789 6 127410837.048 6      1225.426          41.000    24245468.875 6  97626439.109 6       938.942          36.000
> 2020 05 05 15 25 30.0000000  0 18        .000000000000
G10  22552762.492 8 118515567.873 8      2926.477          48.000    22552763.633 8  92349812.316 8      2280.371          49.000
G16  20457433.953 8 107504552.666 8        38.719          51.000    20457432.070 8  83769766.343 8        30.170          49.000
G18  22022189.789 5 115727381.240 5     -2689.355          33.000
G20  21110541.445 8 110936729.961 8       994.086          51.000    21110540.414 7  86444194.417 7       774.612          46.000
G21  22264454.977 7 117000523.732 7     -2289.723          42.000    22264454.086 5  91169218.630 5     -1784.199          32.000
G26  21045863.781 8 110596763.198 8     -2129.320          50.000    21045866.422 8  86179303.220 8     -1659.211          50.000
R01  22528361.867 6 120427022.194 6      3560.766          40.000
R14  20157013.250 8 107448235.316 8     -1600.004          48.000    20157017.688 7  83570856.840 7     -1244.447          44.000
R23  20557294.344 6 109967674.969 6     -2160.137          36.000    20557298.688 4  85530428.045 4     -1680.106          29.000
R24  19633296.539 5 104988035.248 5       118.676          31.000    19633304.148 5  81657395.688 5        92.300          31.000
C05  39611565.109 5 206267813.027 5         -.277          34.000
C11  22785334.914 5 118649241.446 5     -1541.094          30.000    22785335.516 6  91747180.900 6     -1191.916          39.000
C14  24660905.609 7 128415840.473 7      2930.281          46.000    24660908.594 8  99299305.096 8      2265.771          51.000
C21  24910257.688 5 129714218.082 5      -615.160          32.000
C23  24072822.617 7 125353495.079 7     -2406.133          47.000
C28  23243873.664 5 121036958.864 5      1956.969          31.000
E01  24666034.906 8 129620899.427 8     -2101.367          51.000    24666037.125 8  99319894.719 8     -1610.112          51.000
E33  24238503.914 7 127374196.678 7      1216.934          43.000    24238497.664 6  97598363.988 6       932.704          38.000
> 2020 05 05 15 26  0.0000000  0 16        .000000000000
G10  22536090.391 8 118427956.666 8      2914.859          50.000    22536092.422 8  92281543.859 8      2271.319          50.000
G16  20457272.586 8 107503705.266 8        18.465          51.000    20457270.797 8  83769106.023 8        14.388          50.000
G18  22037573.250 5 115808217.369 5     -2698.930          33.000
G20  21104924.695 8 110907211.339 8       974.297          51.000    21104923.016 7  86421192.900 7       759.192          46.000
G21  22277544.766 7 117069310.340 7     -2295.863          42.000    22277543.898 6  91222818.570 6     -1788.984          37.000
G26  21058068.023 8 110660897.013 8     -2145.727          51.000    21058070.461 8  86229277.604 8     -1671.995          51.000
R01  22508414.508 6 120320390.012 6      3548.645          40.000    22508423.016 4  93582529.989 4      2760.063          29.000
R14  20166095.195 8 107496648.788 8     -1626.910          49.000    20166098.477 7  83608511.731 7     -1265.375          42.000
R24  19632674.062 5 104984687.264 5       105.465          33.000    19632681.102 4  81654791.823 4        82.031          29.000
C05  39611573.766 5 206267858.638 5        -1.754          34.000
C11  22794233.883 4 118695556.417 4     -1547.875          29.000    22794233.664 6  91783013.116 6     -1196.655          36.000
C14  24644045.688 7 128328042.708 7      2923.637          47.000    24644048.492 8  99231414.348 8      2260.729          51.000
C21  24913849.812 5 129732928.335 5      -632.348          32.000
C23  24086719.109 8 125425865.142 8     -2417.801          48.000
E01  24678067.188 8 129684129.659 8     -2113.422          51.000    24678068.547 8  99368343.840 8     -1619.384          50.000
E33  24231581.078 6 127337817.971 6      1208.633          37.000    24231576.367 6  97570489.367 6       926.362          39.000
> 2020 05 05 15 26 30.0000000  0 15        .000000000000
G10  22519470.781 8 118340619.652 8      2905.895          50.000    22519472.797 8  92213489.071 8      2264.333          50.000
G16  20457212.586 8 107503390.824 8          .723          51.000    20457211.062 8  83768860.991 8          .560          50.000
G18  22052991.898 6 115889239.434 6     -2704.449          36.000
G20  21099406.758 8 110878213.281 8       957.047          51.000    21099405.203 8  86398597.018 8       745.751          48.000
G21  22290655.875 7 117138208.515 7     -2299.238          44.000    22290654.836 5  91276505.399 5     -1791.614          30.000
G26  21070351.430 8 110725446.228 8     -2159.305          51.000    21070353.594 8  86279575.647 8     -1682.575          51.000
R01  22488521.852 6 120214051.015 6      3538.938          40.000    22488529.242 5  93499821.942 5      2752.507          33.000
R14  20175314.305 8 107545790.093 8     -1650.988          50.000    20175315.477 7  83646732.697 7     -1284.105          43.000
R23  20581600.195 5 110097687.058 5     -2173.328          32.000    20581605.727 4  85631540.489 4     -1690.366          27.000
C11  22803156.961 5 118742016.912 5     -1552.422          33.000    22803155.523 6  91818939.211 6     -1199.561          38.000
C14  24627209.234 7 128240370.317 7      2919.551          45.000    24627212.039 8  99163620.537 8      2257.549          51.000
C21  24917529.992 4 129752093.637 4      -647.875          28.000
C23  24100668.742 8 125498506.448 8     -2426.582          49.000
E01  24690154.633 8 129747648.358 8     -2122.906          51.000    24690154.875 8  99417013.989 8     -1626.639          50.000
E33  24224686.422 5 127301601.557 5      1203.332          33.000    24224686.273 6  97542742.225 6       922.073          38.000
> 2020 05 05 15 27  0.0000000  0 17        .000000000000
G10  22502912.219 8 118253603.657 8      2895.395          51.000    22502913.836 8  92145684.436 8      2256.152          51.000
G16  20457262.555 8 107503653.291 8       -18.211          51.000    20457261.086 8  83769065.515 8       -14.190          50.000
G18  22068453.547 5 115970489.693 5     -2712.285          33.000
G20  21093996.188 8 110849780.649 8       938.480          51.000    21093994.867 8  86376441.749 8       731.283          48.000
G21  22303796.289 7 117207260.279 7     -2304.270          43.000    22303794.891 5  91330311.939 5     -1795.535          32.000
G26  21082721.898 8 110790453.357 8     -2174.383          51.000    21082723.992 8  86330230.489 8     -1694.327          51.000
R01  22468693.352 6 120108054.770 6      3527.750          38.000    22468700.938 5  93417380.421 5      2743.809          32.000
R14  20184678.000 8 107595701.643 8     -1676.352          50.000    20184679.656 7  83685552.785 7     -1303.829          46.000
R17  22010943.625 4 117785004.444 4      2675.414          29.000
R23  20593804.352 5 110162995.771 5     -2180.270          35.000    20593811.461 4  85682338.160 4     -1695.762          25.000
C05  39611577.133 5 206267875.737 5         -.105          34.000
C11  22812110.945 5 118788648.216 5     -1556.914          31.000    22812109.742 6  91854992.753 6     -1203.696          39.000
C14  24610404.688 7 128152869.472 7      2913.969          43.000    24610408.383 8  99095959.390 8      2253.232          51.000
C21  24921303.977 4 129771769.423 4      -663.570          28.000
C23  24114679.102 8 125571460.375 8     -2436.809          50.000
E01  24702304.977 8 129811498.342 8     -2133.598          51.000    24702304.742 8  99465937.977 8     -1634.870          51.000
E33  24217833.734 6 127265582.441 6      1196.578          37.000    24217833.602 6  97515156.207 6       917.029          36.000
> 2020 05 05 15 27 30.0000000  0 16        .000000000000
G10  22486407.047 8 118166869.137 8      2886.629          50.000    22486408.688 8  92078099.112 8      2249.321          50.000
G16  20457414.406 8 107504451.202 8       -35.336          51.000    20457413.086 8  83769687.267 8       -27.534          51.000
G18  22083949.625 6 116051923.742 6     -2717.090          36.000
G20  21088685.398 8 110821872.519 8       921.676          51.000    21088684.078 8  86354695.162 8       718.189          49.000
G21  22316957.469 6 117276422.039 6     -2306.914          39.000    22316955.695 5  91384204.254 5     -1797.595          34.000
G26  21095171.070 8 110855874.394 8     -2187.316          51.000    21095173.438 8  86381207.867 8     -1704.402          51.000
R01  22448920.828 6 120002362.754 6      3518.121          36.000    22448929.844 5  93335175.542 5      2736.319          30.000
R14  20194177.438 8 107646338.142 8     -1699.676          49.000    20194180.852 7  83724936.741 7     -1321.970          47.000
R17  21995953.523 6 117704755.635 6      2671.277          36.000
R23  20606044.547 5 110228466.382 5     -2184.840          35.000    20606054.078 4  85733260.606 4     -1699.323          29.000
C05  39611572.211 5 206267850.032 5         1.820          34.000
C11                                                                  22821087.961 6  91891141.093 6     -1206.170          38.000
C14  24593625.234 7 128065500.892 7      2910.418          42.000    24593629.789 8  99028400.493 8      2250.520          51.000
C23  24128740.883 8 125644682.733 8     -2444.969          50.000
E01  24714509.617 8 129875636.050 8     -2142.395          51.000    24714509.805 8  99515082.421 8     -1641.560          51.000
E33  24211015.336 5 127229747.954 5      1192.086          34.000    24211012.742 6  97487698.662 6       913.411          38.000
> 2020 05 05 15 28  0.0000000  0 19        .000000000000
G10  22469973.312 8 118080510.784 8      2876.996          49.000    22469975.914 8  92010806.916 8      2241.815          49.000
G16  20457685.602 8 107505876.825 8       -53.266          51.000    20457684.523 8  83770798.137 8       -41.506          51.000
G18  22099497.844 5 116133631.725 5     -2723.449          34.000
G20  21083492.055 8 110794581.816 8       904.113          51.000    21083490.750 8  86333429.681 8       704.504          49.000
G21  22330156.547 6 117345784.317 6     -2310.652          37.000    22330155.414 5  91438252.722 5     -1800.511          34.000
G26  21107716.156 8 110921799.805 8     -2201.113          49.000    21107718.617 8  86432578.270 8     -1715.156          49.000
G27  21331763.914 5 112099175.134 5      1957.852          30.000
R01  22429222.586 5 119897073.060 5      3507.570          34.000    22429233.438 4  93253283.495 4      2728.110          27.000
R07  23447819.773 5 125517900.208 5     -2151.719          33.000
R14  20203830.648 8 107697785.547 8     -1723.895          50.000    20203836.141 7  83764961.305 7     -1340.807          47.000
R23  20618333.031 5 110294191.155 5     -2190.328          30.000    20618343.336 4  85784379.827 4     -1703.595          29.000
R24  19630799.477 5 104974642.840 5        63.324          33.000    19630790.719 4  81646968.578 4        49.243          27.000
C05  39611577.742 5 206267878.628 5         2.777          34.000
C11                                                                  22830106.680 5  91927454.563 5     -1209.070          34.000
C14  24576889.773 7 127978358.294 7      2905.562          44.000    24576894.477 8  98961016.324 8      2246.808          50.000
C21  24929134.977 5 129812507.232 5      -692.961          30.000
C23  24142870.852 8 125718262.444 8     -2453.871          49.000
E01  24726786.117 8 129940152.234 8     -2152.113          51.000    24726787.148 8  99564516.866 8     -1649.019          51.000
E33                                                                  24204244.125 6  97460439.910 6       908.996          39.000
> 2020 05 05 15 28 30.0000000  0 17        .000000000000
G10  22453537.773 8 117994139.514 8      2859.754          51.000    22453541.016 8  91943504.670 8      2228.380          51.000
G16  20458001.758 8 107507539.025 8       -78.805          51.000    20458000.984 8  83772093.361 8       -61.406          51.000
G20  21078341.742 8 110767517.770 8       878.816          51.000    21078340.789 8  86312340.836 8       684.795          49.000
G21  22343319.055 6 117414954.276 6     -2321.734          38.000    22343318.211 5  91492151.409 5     -1809.141          30.000
G26  21120282.367 8 110987836.092 8     -2222.434          49.000    21120284.680 8  86484035.125 8     -1731.766          49.000
R01  22409524.844 5 119791791.988 5      3488.918          31.000    22409537.219 4  93171398.350 4      2713.609          26.000
R07  23459895.891 5 125582549.823 5     -2179.938          33.000    23459902.508 4  97675430.251 4     -1695.501          25.000
R14  20213560.258 8 107749654.169 8     -1755.695          50.000    20213564.078 7  83805303.528 7     -1365.541          45.000
R17  21966049.773 5 117544771.953 5      2652.203          31.000
C05  39611519.141 5 206267574.794 5        -3.383          34.000
C11                                                                  22839090.945 5  91963632.568 5     -1218.283          35.000
C14  24560124.625 7 127891055.971 7      2893.305          46.000    24560128.836 8  98893508.658 8      2237.444          50.000
C21  24933132.938 5 129833330.002 5      -716.168          32.000
C23  24156994.648 8 125791809.005 8     -2470.270          50.000
C28  23176682.898 5 120687105.485 5      1924.078          35.000
E01  24739060.008 8 130004653.822 8     -2169.176          51.000    24739061.906 8  99613940.145 8     -1662.114          51.000
E33  24197447.531 6 127158448.305 6      1172.746          36.000    24197451.906 6  97433079.628 6       898.822          39.000
> 2020 05 05 15 29  0.0000000  0 16        .000000000000
G10  22437265.641 8 117908624.529 8      2846.453          51.000    22437268.828 8  91876869.649 8      2218.018          51.000
G16  20458528.008 8 107510304.749 8      -100.457          51.000    20458527.320 8  83774248.471 8       -78.275          51.000
G20  21073399.641 8 110741547.875 8       857.535          51.000    21073398.938 8  86292104.570 8       668.209          49.000
G21  22356609.305 6 117484796.168 6     -2328.895          36.000    22356608.250 5  91546573.557 5     -1814.744          32.000
G26  21133034.352 8 111054848.145 8     -2239.785          49.000    21133036.766 8  86536252.342 8     -1745.284          49.000
R07  23472192.922 4 125648381.154 4     -2204.141          29.000
R14  20223532.805 8 107802815.301 8     -1783.324          50.000    20223535.539 7  83846651.035 7     -1387.030          44.000
R17  21951202.648 4 117465383.527 4      2643.996          29.000
R24  19630228.289 5 104971690.923 5        31.391          35.000    19630226.664 4  81644629.136 4        24.412          27.000
C05  39611561.281 5 206267794.132 5        -6.008          34.000
C11  22848205.727 5 118976665.752 5     -1583.719          30.000    22848207.391 5  92000338.871 5     -1224.674          35.000
C14  24543494.922 8 127804455.063 8      2885.027          48.000    24543498.250 8  98826543.380 8      2230.986          49.000
C23  24171277.031 8 125866178.783 8     -2482.586          50.000
C28  23165628.406 5 120629568.645 5      1916.750          31.000
E01  24751496.156 8 130070006.013 8     -2182.301          51.000    24751498.320 8  99664015.186 8     -1672.123          51.000
E33  24190793.016 5 127123474.530 5      1163.973          34.000    24190797.789 6  97406281.547 6       891.702          37.000
> 2020 05 05 15 29 30.0000000  0 15        .000000000000
G10  22421040.984 8 117823359.978 8      2842.098          51.000    22421044.008 8  91810429.789 8      2214.625          51.000
G16  20459148.625 8 107513565.786 8      -112.887          51.000    20459147.930 8  83776789.535 8       -87.964          51.000
G18  22146419.766 6 116380208.515 6     -2747.094          36.000
G20  21068549.898 8 110716064.327 8       845.266          50.000    21068549.445 8  86272247.260 8       658.649          48.000
G21  22369911.172 5 117554700.236 5     -2326.719          35.000    22369910.148 5  91601041.344 5     -1813.018          35.000
G26  21145856.125 8 111122225.782 8     -2248.016          49.000    21145858.680 8  86588754.403 8     -1751.700          49.000
R14  20233632.047 8 107856649.268 8     -1801.547          50.000    20233634.648 7  83888521.864 7     -1401.203          45.000
R17  21936393.125 5 117386124.395 5      2644.234          33.000
C05  39611588.477 5 206267934.660 5          .379          34.000
C11  22857338.359 5 119024214.951 5     -1582.438          30.000    22857338.344 6  92037106.946 6     -1223.701          37.000
C14  24526884.773 8 127717955.124 8      2885.633          49.000    24526886.922 8  98759656.201 8      2231.234          48.000
C23  24185601.469 8 125940766.481 8     -2485.914          51.000
C28  23154586.492 5 120572020.796 5      1918.871          31.000
E01  24763978.562 8 130135599.014 8     -2186.449          51.000    24763980.297 8  99714274.737 8     -1675.346          51.000
E33  24184161.367 5 127088625.752 5      1163.691          35.000    24184164.914 5  97379579.242 5       891.465          34.000
> 2020 05 05 15 30  0.0000000  0 13        .000000000000
G10  22404850.641 8 117738277.518 8      2837.543          51.000    22404853.133 8  91744131.802 8      2211.072          51.000
G16  20459850.000 8 107517251.511 8      -125.461          51.000    20459849.328 8  83779661.518 8       -97.762          51.000
G20  21063779.523 8 110690997.159 8       833.203          50.000    21063779.375 8  86252714.408 8       649.249          49.000
G26  21158733.797 8 111189896.249 8     -2256.133          51.000    21158736.430 8  86641484.627 8     -1758.026          51.000
R14  20243843.242 8 107911081.538 8     -1819.828          50.000    20243845.781 7  83930858.052 7     -1415.422          45.000
R17  21921597.234 5 117306862.239 5      2644.812          31.000    21921596.664 4  91238693.430 4      2057.076          24.000
R24  19629963.508 6 104970213.742 6        21.625          36.000    19629965.797 4  81643521.683 4        16.819          26.000
C05  39611586.945 5 206267926.986 5         7.809          34.000
C11  22866473.992 5 119071773.265 5     -1580.988          35.000    22866471.031 6  92073882.070 6     -1222.445          37.000
C14  24510280.719 8 127631488.318 8      2886.066          48.000    24510281.516 8  98692794.629 8      2231.762          48.000
C23  24199953.656 8 126015499.334 8     -2489.047          50.000
E01  24776493.258 8 130201360.386 8     -2190.277          51.000    24776494.367 8  99764663.294 8     -1678.276          51.000
E33  24177540.508 6 127053830.676 6      1163.559          39.000    24177541.555 5  97352918.065 5       891.465          34.000
> 2020 05 05 15 30 30.0000000  0 14        .000000000000
G10  22388750.070 8 117653668.504 8      2818.539          51.000    22388751.695 8  91678202.708 8      2196.264          51.000
G16  20460687.305 8 107521651.274 8      -152.363          51.000    20460686.461 8  83783089.893 8      -118.725          51.000
G18  22177858.617 5 116545436.101 5     -2762.219          34.000
G20  21059143.703 8 110666636.182 8       806.398          51.000    21059143.742 8  86233731.832 8       628.362          48.000
G21  22396564.344 5 117694739.049 5     -2337.270          34.000
G26  21171721.828 8 111258146.479 8     -2278.457          51.000    21171724.102 8  86694666.612 8     -1775.421          51.000
R14  20254221.141 8 107966402.207 8     -1852.566          50.000    20254223.297 7  83973885.236 7     -1440.885          45.000
R24  19629944.000 5 104970092.200 5         2.324          31.000
C05  39611611.867 5 206268056.667 5         -.520          34.000
C11  22875665.656 5 119119626.369 5     -1593.668          34.000    22875660.781 6  92110885.120 6     -1232.467          38.000
C14  24493737.820 8 127545343.180 8      2872.148          48.000    24493737.383 8  98626181.803 8      2221.051          48.000
C23  24214387.711 8 126090661.085 8     -2506.387          49.000
E01  24789094.578 8 130267577.482 8     -2208.684          51.000    24789094.961 8  99815401.039 8     -1692.341          51.000
E33  24170985.289 6 127019377.745 6      1149.004          40.000    24170985.367 6  97326518.975 6       880.537          36.000
> 2020 05 05 15 31  0.0000000  0 16        .000000000000
G10  22372681.242 8 117569228.500 8      2807.219          50.000    22372682.328 8  91612405.261 8      2187.443          50.000
G16  20461602.133 8 107526457.810 8      -171.527          51.000    20461600.883 8  83786835.234 8      -133.658          51.000
G18  22193638.883 5 116628350.515 5     -2768.625          32.000
G20  21054584.172 8 110642674.801 8       787.500          51.000    21054583.664 7  86215060.648 7       613.636          47.000
G21  22409911.945 5 117764878.243 5     -2342.023          35.000    22409915.789 4  91764861.551 4     -1824.953          26.000
G26  21184761.164 8 111326667.636 8     -2293.027          51.000    21184763.172 8  86748059.697 8     -1786.778          51.000
R01  22312443.594 5 119272781.167 5      3430.922          31.000    22312451.781 5  92767748.449 5      2668.495          33.000
R14  20264706.945 8 108022297.142 8     -1877.352          51.000    20264708.641 7  84017359.054 7     -1460.162          45.000
R17  21892108.148 5 117149118.618 5      2623.297          30.000
R24  19629943.297 4 104970136.637 4        -9.332          29.000    19629949.266 4  81643457.890 4        -7.258          27.000
C05  39611604.836 5 206268020.836 5         -.449          34.000
C11  22884853.367 5 119167469.735 5     -1599.434          34.000    22884848.711 6  92147880.618 6     -1236.418          36.000
C14  24477198.125 7 127459217.839 7      2866.035          47.000    24477196.711 7  98559584.308 7      2216.131          47.000
C23  24228843.969 7 126165945.033 7     -2515.965          46.000
E01  24801723.578 8 130333941.773 8     -2219.117          51.000    24801723.281 8  99866251.568 8     -1700.348          50.000
E33  24164436.328 6 126984959.562 6      1142.012          40.000    24164436.633 6  97300146.534 6       875.195          39.000
> 2020 05 05 15 31 30.0000000  0 18        .000000000000
G10  22356688.094 8 117485185.480 8      2801.621          51.000    22356688.844 8  91546917.181 8      2183.081          51.000
G16  20462637.328 8 107531896.874 8      -185.016          51.000    20462635.547 8  83791073.469 8      -144.168          51.000
G18  22209466.625 5 116711527.191 5     -2769.281          31.000
G20  21050143.969 8 110619339.480 8       774.285          51.000    21050142.703 8  86196877.293 8       603.339          48.000
G21  22423296.078 5 117835210.073 5     -2341.012          35.000    22423296.555 5  91819650.549 5     -1824.180          34.000
G26  21197894.359 8 111395683.418 8     -2301.785          51.000    21197896.320 8  86801838.191 8     -1793.602          51.000
R01  22293225.828 5 119170036.311 5      3424.961          35.000    22293232.414 5  92687835.793 5      2663.859          31.000
R14  20275343.250 8 108078992.604 8     -1896.250          51.000    20275345.164 7  84061455.494 7     -1474.861          47.000
R23  20705351.531 6 110759675.122 6     -2232.828          36.000    20705357.055 4  86146432.288 4     -1736.638          27.000
R24  19630038.906 5 104970602.630 5       -14.578          34.000    19630046.688 4  81643840.000 4       -11.342          26.000
C05  39611608.398 5 206268038.899 5         5.391          34.000
C11  22894082.445 6 119215526.207 6     -1598.781          36.000    22894078.172 6  92185040.939 6     -1236.028          39.000
C14  24460705.562 7 127373338.256 7      2865.527          46.000    24460703.172 7  98493176.849 7      2215.744          47.000
C21  24959543.367 5 129970799.416 5      -805.305          30.000
C23  24243365.844 7 126241572.233 7     -2519.750          47.000
C28  23110661.188 4 120343272.564 4      1902.957          28.000
E01  24814422.656 8 130400677.352 8     -2223.812          51.000    24814422.141 8  99917386.598 8     -1703.948          50.000
E33  24157936.445 6 126950801.190 6      1140.930          41.000    24157936.906 6  97273973.203 6       874.377          41.000
> 2020 05 05 15 32  0.0000000  0 16        .000000000000
G10  22340777.492 8 117401572.641 8      2783.180          51.000    22340777.906 8  91481764.366 8      2168.714          51.000
G16  20463798.625 8 107537999.502 8      -210.992          51.000    20463796.742 8  83795828.744 8      -164.409          51.000
G18  22225349.195 5 116794994.687 5     -2783.301          33.000
G20  21045828.688 8 110596661.513 8       748.414          51.000    21045827.367 8  86179206.178 8       583.180          48.000
G21  22436722.344 5 117905770.783 5     -2352.730          35.000    22436723.789 5  91874628.522 5     -1833.300          32.000
G26  21211127.000 8 111465222.576 8     -2323.316          51.000    21211129.000 8  86856024.514 8     -1810.379          51.000
R01  22274094.055 5 119067763.504 5      3404.395          35.000    22274100.305 4  92608290.260 4      2647.862          27.000
R14  20286134.812 8 108136516.468 8     -1927.801          51.000    20286137.328 7  84106196.249 7     -1499.401          47.000
R23  20717946.984 5 110827023.924 5     -2246.379          35.000    20717949.812 4  86198814.571 4     -1747.181          27.000
R24  19630209.195 5 104971489.863 5       -32.934          35.000
C11  22903358.555 5 119263825.789 5     -1610.430          35.000    22903354.547 6  92222389.223 6     -1245.425          39.000
C14  24444266.594 7 127287737.254 7      2852.113          46.000    24444263.500 8  98426984.799 8      2205.402          48.000
C21  24964288.992 5 129995460.286 5      -828.133          34.000
C23  24257960.359 8 126317570.618 8     -2536.047          49.000
E01  24827197.531 8 130467813.419 8     -2241.180          51.000    24827197.320 8  99968828.485 8     -1717.241          51.000
E33  24151491.797 6 126916932.918 6      1127.352          41.000    24151491.727 7  97248022.210 7       863.985          42.000
> 2020 05 05 15 32 30.0000000  0 18        .000000000000
G10  22324888.156 8 117318071.449 8      2779.176          51.000    22324888.695 8  91416698.572 8      2165.595          51.000
G16  20465025.016 8 107544444.749 8      -222.750          51.000    20465023.070 8  83800851.001 8      -173.568          51.000
G18  22241254.195 6 116878556.810 6     -2782.969          36.000
G20  21041577.414 8 110574320.581 8       736.664          51.000    21041576.000 8  86161797.678 8       574.027          48.000
G21  22450129.227 5 117976224.500 5     -2349.109          34.000    22450128.258 5  91929524.095 5     -1830.469          34.000
G26  21224397.688 8 111534962.185 8     -2330.340          50.000    21224399.836 8  86910367.038 8     -1815.849          50.000
R01  22254988.781 5 118965640.722 5      3398.969          34.000
R14  20297019.656 8 108194540.554 8     -1944.711          50.000    20297022.984 7  84151326.060 7     -1512.553          47.000
R23  20730531.422 6 110894322.589 6     -2244.418          37.000    20730530.766 4  86251157.974 4     -1745.661          28.000
R24  19630388.406 4 104972512.218 4       -37.293          29.000
C05  39611604.547 5 206268019.639 5         5.766          35.000
C11  22912619.070 5 119312049.984 5     -1608.145          34.000    22912616.297 5  92259679.173 5     -1243.852          35.000
C14  24427820.016 7 127202099.038 7      2852.777          44.000    24427817.375 8  98360764.013 8      2205.909          48.000
C21  24969077.484 5 130020376.836 5      -837.645          30.000
C23  24272565.297 8 126393619.658 8     -2538.066          50.000
C28  23088845.125 5 120229670.065 5      1892.781          32.000
E01  24839987.344 8 130535027.422 8     -2244.121          51.000    24839987.688 8 100020330.093 8     -1719.485          51.000
E33  24145041.547 7 126883033.412 7      1128.266          42.000    24145040.430 7  97222047.291 7       864.357          43.000
> 2020 05 05 15 33  0.0000000  0 15        .000000000000
G10  22309064.836 8 117234918.624 8      2738.438          51.000    22309065.844 8  91351904.228 8      2133.850          51.000
G16  20466361.172 8 107551467.132 8      -271.141          51.000    20466359.039 8  83806322.985 8      -211.278          50.000
G18  22257173.148 6 116962222.899 6     -2818.609          39.000
G20  21037434.875 8 110552551.761 8       688.621          51.000    21037433.523 8  86144834.973 8       536.588          49.000
G21  22463561.000 5 118046809.292 5     -2381.828          34.000
G26  21237750.805 8 111605134.557 8     -2373.766          50.000    21237753.141 8  86965046.807 8     -1849.684          50.000
R01  22235957.703 5 118863910.259 5      3356.074          34.000
R14  20308042.172 8 108253299.550 8     -1998.625          50.000    20308045.516 7  84197027.471 7     -1554.486          46.000
R23  20743145.891 5 110961808.655 5     -2281.520          31.000    20743143.484 4  86303647.079 4     -1774.518          25.000
C05  39611580.609 5 206267893.589 5       -22.844          34.000
C11  22921909.383 5 119360430.323 5     -1642.430          34.000    22921906.750 5  92297090.040 5     -1270.312          33.000
C14  24411411.242 7 127116658.159 7      2817.449          43.000    24411409.344 8  98294695.770 8      2178.615          49.000
C23  24287223.906 8 126469948.984 8     -2576.266          50.000
E01  24852836.617 8 130602552.118 8     -2283.500          51.000    24852837.586 8 100072069.776 8     -1749.737          51.000
E33  24138629.250 6 126849336.565 6      1092.660          39.000    24138628.148 7  97196227.634 7       836.907          44.000
> 2020 05 05 15 33 30.0000000  0 15        .000000000000
G10  22293339.242 8 117152280.705 8      2749.750          51.000    22293340.570 8  91287511.124 8      2142.665          51.000
G16  20467838.406 8 107559230.564 8      -267.312          50.000    20467836.219 8  83812372.421 8      -208.295          50.000
G18  22273154.766 5 117046219.627 5     -2802.066          35.000
G20  21033432.500 8 110531519.528 8       692.512          51.000    21033431.320 8  86128446.244 8       539.620          49.000
G26  21251217.336 8 111675901.823 8     -2364.996          50.000    21251219.695 8  87020190.117 8     -1842.854          50.000
R01  22217032.609 5 118762743.865 5      3366.559          35.000    22217037.867 4  92371060.100 4      2618.434          26.000
R14  20319233.109 8 108312956.936 8     -1999.613          49.000    20319237.305 8  84243427.649 8     -1555.255          48.000
R17  21818995.086 5 116757848.255 5      2591.539          32.000    21819003.727 4  90811685.049 4      2015.635          26.000
R23  20755825.031 6 111029647.581 6     -2263.258          37.000    20755823.414 4  86356406.662 4     -1760.306          24.000
C05  39611587.805 5 206267931.817 5         -.609          35.000
C11  22931260.461 5 119409129.026 5     -1624.879          32.000    22931259.195 6  92334746.923 6     -1256.118          36.000
C14  24395072.055 7 127031579.564 7      2833.695          45.000    24395070.711 7  98228907.604 7      2191.247          47.000
C23  24301967.062 8 126546718.551 8     -2562.512          50.000
E01  24865776.328 8 130670550.003 8     -2270.578          51.000    24865777.938 8 100124172.028 8     -1739.845          51.000
E33  24132285.008 6 126816006.046 6      1108.918          38.000    24132286.016 7  97170688.610 7       849.574          44.000
> 2020 05 05 15 34  0.0000000  0 16        .000000000000
G10  22277682.578 8 117070005.534 8      2732.938          51.000    22277683.633 8  91223400.672 8      2129.562          51.000
G16  20469427.188 8 107567580.589 8      -291.656          51.000    20469425.484 8  83818878.920 8      -227.265          50.000
G18  22289177.859 5 117130419.380 5     -2813.992          33.000
G20  21029540.984 8 110511069.791 8       668.543          51.000    21029539.680 8  86112511.384 8       520.943          48.000
G26  21264767.508 8 111747107.423 8     -2384.262          51.000    21264769.750 8  87075674.964 8     -1857.869          51.000
R01  22198183.828 5 118661988.099 5      3348.109          34.000    22198190.906 4  92292694.460 4      2604.085          28.000
R14  20330562.820 8 108373352.724 8     -2028.977          50.000    20330568.281 8  84290402.141 8     -1578.096          49.000
R23  20768540.414 6 111097680.857 6     -2274.516          37.000
R24  19631393.117 6 104977833.385 6       -82.398          37.000    19631400.891 4  81649495.946 4       -64.085          25.000
C05  39611596.648 5 206267977.452 5        -4.855          34.000
C11  22940641.055 5 119457945.438 5     -1634.418          31.000    22940644.336 6  92372531.142 6     -1263.990          36.000
C14  24378774.125 7 126946712.295 7      2822.059          45.000    24378772.805 8  98163282.864 8      2182.125          48.000
C21  24984043.297 5 130098472.296 5      -897.805          30.000
C23  24316764.469 8 126623772.663 8     -2576.621          49.000
E01  24878776.633 8 130738864.920 8     -2285.859          51.000    24878778.570 8 100176517.199 8     -1751.527          51.000
E33  24125981.688 6 126782886.626 6      1097.066          41.000    24125983.586 7  97145311.392 7       840.558          43.000
> 2020 05 05 15 34 30.0000000  0 16        .000000000000
G10  22262095.922 8 116988098.763 8      2728.516          51.000    22262096.586 8  91159577.278 8      2126.119          51.000
G16  20471128.344 8 107576520.395 8      -303.453          51.000    20471126.953 8  83825844.996 8      -236.454          50.000
G20  21025760.930 8 110491206.465 8       656.762          51.000    21025759.828 8  86097033.486 8       511.765          48.000
G26  21278401.430 8 111818752.603 8     -2391.043          51.000    21278403.156 8  87131502.333 8     -1863.150          51.000
R01  22179413.750 6 118561651.042 6      3341.898          36.000    22179422.914 5  92214654.511 5      2599.254          30.000
R14  20342032.203 8 108434487.365 8     -2045.668          51.000    20342037.578 8  84337951.282 8     -1591.075          48.000
R23  20781293.805 6 111165910.514 6     -2273.148          37.000    20781298.438 4  86462392.933 4     -1768.007          24.000
R24  19631870.789 5 104980490.853 5       -85.934          34.000    19631871.586 4  81651462.389 4       -66.840          25.000
C05  39611608.016 5 206268037.096 5         1.953          34.000
C11  22950056.352 6 119506976.143 6     -1632.684          36.000    22950062.414 5  92410444.827 5     -1262.353          35.000
C14  24362518.234 7 126862061.909 7      2822.273          47.000    24362516.914 8  98097825.850 8      2182.470          48.000
C21  24989236.734 5 130125515.497 5      -905.230          32.000
C23  24331616.445 8 126701112.002 8     -2578.363          49.000
C28  23045598.578 5 120004485.343 5      1868.816          32.000
E01  24891837.484 8 130807498.516 8     -2288.734          51.000    24891839.664 8 100229106.566 8     -1753.732          51.000
E33  24119720.008 6 126749981.154 6      1097.758          41.000    24119721.469 6  97120098.144 6       841.109          41.000
> 2020 05 05 15 35  0.0000000  0 17        .000000000000
G10  22246568.812 8 116906505.159 8      2711.004          51.000    22246569.688 8  91095997.880 8      2112.474          51.000
G16  20472930.852 8 107585992.224 8      -328.055          50.000    20472929.492 8  83833225.643 8      -255.627          50.000
G20  21022081.766 8 110471872.225 8       632.117          51.000    21022080.859 8  86081967.864 8       492.562          48.000
G26  21292107.570 8 111890777.604 8     -2410.582          51.000    21292108.797 8  87187625.658 8     -1878.376          51.000
R01  22160712.430 6 118461678.045 6      3323.238          37.000    22160719.258 4  92136897.808 4      2584.741          25.000
R14  20353628.680 8 108496299.147 8     -2075.234          51.000    20353632.703 7  84386027.086 7     -1614.071          46.000
R17  21775603.453 5 116525690.516 5      2568.359          34.000
R23  20794072.930 5 111234276.432 5     -2284.234          32.000
R24  19632395.367 5 104983331.294 5      -103.297          35.000    19632404.500 4  81653669.230 4       -80.342          26.000
C05  39611610.688 5 206268050.750 5        -3.117          34.000
C11  22959493.727 6 119556116.438 6     -1643.250          36.000    22959501.758 5  92448443.307 5     -1270.961          31.000
C14  24346293.391 7 126777573.544 7      2810.152          47.000    24346291.773 7  98032494.149 7      2173.006          47.000
C21  24994516.602 5 130152997.531 5      -925.930          33.000
C23  24346512.195 8 126778676.813 8     -2592.699          49.000
C28  23034844.859 5 119948564.041 5      1859.430          30.000
E01  24904947.469 8 130876391.436 8     -2304.195          50.000    24904950.227 8 100281894.636 8     -1765.555          51.000
E33  24113487.680 7 126717231.514 7      1085.586          42.000    24113488.555 6  97095004.307 6       831.834          40.000
> 2020 05 05 15 35 30.0000000  0 17        .000000000000
G10  22231122.273 8 116825335.773 8      2701.004          50.000    22231124.336 8  91032749.036 8      2104.678          50.000
G16  20474855.367 8 107596104.660 8      -345.469          51.000    20474854.219 8  83841105.457 8      -269.196          50.000
G20  21018524.133 8 110453176.359 8       614.945          51.000    21018523.336 8  86067399.683 8       479.181          48.000
G26  21305906.117 8 111963289.118 8     -2422.742          50.000    21305907.359 8  87244128.089 8     -1887.851          50.000
R01  22142100.352 5 118362184.245 5      3310.820          34.000
R14  20365371.430 8 108558895.200 8     -2097.137          51.000    20365374.484 7  84434712.871 7     -1631.106          46.000
R17  21761216.914 5 116448718.453 5      2563.805          32.000
R23  20806899.938 5 111302888.257 5     -2288.555          34.000    20806909.188 4  86568918.078 4     -1779.990          28.000
R24  19633001.461 5 104986574.934 5      -112.723          31.000    19633010.945 4  81656191.465 4       -87.670          28.000
C05  39611625.469 5 206268128.101 5        -1.492          34.000
C11  22968972.633 5 119605473.874 5     -1646.680          30.000    22968983.781 5  92486609.385 5     -1273.021          31.000
C14  24330120.531 7 126693357.249 7      2804.965          45.000    24330118.219 7  97967372.763 7      2169.082          46.000
C21  24999899.672 5 130181025.268 5      -940.938          35.000
C23  24361471.812 8 126856572.287 8     -2599.652          48.000
C28  23024142.656 4 119892858.868 4      1855.371          29.000
E01  24918126.883 8 130945650.810 8     -2312.355          50.000    24918130.539 8 100334963.510 8     -1771.805          51.000
E33  24107305.836 7 126684745.983 7      1080.844          43.000    24107306.094 6  97070112.859 6       828.239          40.000
> 2020 05 05 15 36  0.0000000  0 14        .000000000000
G10  22215739.406 8 116744501.093 8      2688.672          50.000    22215742.742 8  90969760.964 8      2095.069          50.000
G16  20476884.133 8 107606766.001 8      -364.887          50.000    20476883.250 8  83849412.987 8      -284.327          50.000
G20  21015070.531 8 110435027.234 8       595.547          51.000    21015069.719 8  86053257.518 8       464.062          48.000
G26  21319779.047 8 112036193.175 8     -2437.020          49.000    21319780.789 8  87300936.433 8     -1898.976          49.000
R14  20377243.391 8 108622179.131 8     -2121.230          51.000    20377245.750 7  84483933.690 7     -1649.846          47.000
R23  20819754.453 6 111371650.908 6     -2294.898          38.000    20819765.398 4  86622400.069 4     -1784.924          27.000
R24  19633665.547 4 104990127.286 4      -123.613          29.000    19633675.203 4  81658954.437 4       -96.141          25.000
C05  39611634.594 5 206268175.816 5        -1.430          34.000
C11  22978474.164 5 119654945.697 5     -1652.047          31.000
C14  24313982.359 7 126609324.335 7      2797.758          44.000    24313980.891 8  97902393.215 8      2163.398          48.000
C21  25005369.992 5 130209506.544 5      -957.176          35.000
C23  24376476.539 7 126934704.783 7     -2608.609          47.000
E01  24931358.156 8 131015183.125 8     -2322.551          50.000    24931362.438 8 100388241.532 8     -1779.608          51.000
E33  24101156.969 7 126652432.195 7      1073.930          42.000    24101156.594 6  97045352.975 6       822.905          40.000
> 2020 05 05 15 36 30.0000000  0 14        .000000000000
G10  22200419.844 8 116663998.592 8      2675.215          50.000    22200424.312 8  90907031.740 8      2084.583          50.000
G16  20479016.266 8 107617971.168 8      -385.273          49.000    20479015.781 8  83858144.280 8      -300.213          49.000
G20  21011720.180 8 110417420.538 8       575.180          51.000    21011719.555 8  86039538.028 8       448.192          49.000
G26  21333725.008 8 112109482.740 8     -2451.992          48.000    21333727.539 8  87358045.229 8     -1910.640          48.000
R14  20389243.414 8 108686143.161 8     -2146.070          51.000    20389245.953 8  84533683.483 8     -1669.166          48.000
R23  20832635.508 5 111440558.240 5     -2302.250          35.000    20832640.797 4  86676006.711 4     -1790.639          24.000
R24  19634386.102 5 104993982.181 5      -136.441          34.000
C05  39611637.453 5 206268190.812 5        -2.578          35.000
C11  22988001.117 6 119704548.337 6     -1657.738          36.000
C14  24297878.648 7 126525472.251 7      2789.414          44.000    24297879.016 8  97837553.504 8      2156.834          50.000
C21  25010925.875 5 130238435.542 5      -974.445          33.000
C23  24391524.766 7 127013066.859 7     -2618.477          45.000
E01  24944640.398 8 131084981.866 8     -2333.707          51.000    24944644.570 8 100441723.690 8     -1788.225          51.000
E33  24095039.266 6 126620284.769 6      1066.109          39.000    24095039.914 7  97020720.530 7       816.835          42.000
> 2020 05 05 15 37  0.0000000  0 14        .000000000000
G10  22185178.094 8 116583904.374 8      2663.867          49.000    22185183.398 8  90844620.635 8      2075.741          49.000
G16  20481265.945 8 107629793.735 8      -403.500          49.000    20481265.688 8  83867356.670 8      -314.413          49.000
G20  21008487.078 8 110400430.488 8       557.059          51.000    21008486.531 8  86026299.048 8       434.072          49.000
G26  21347758.531 8 112183229.611 8     -2464.902          50.000    21347761.555 8  87415510.363 8     -1920.703          50.000
R14  20401384.398 8 108750858.384 8     -2168.770          51.000    20401387.328 8  84584017.535 8     -1686.821          48.000
R23  20845557.766 6 111509684.130 6     -2306.918          37.000    20845569.711 4  86729778.304 4     -1794.266          27.000
R24  19635178.242 5 104998214.136 5      -146.621          35.000    19635187.086 4  81665234.063 4      -114.036          29.000
C05  39611647.750 5 206268244.077 5        -1.809          34.000
C11  22997565.594 5 119754343.674 5     -1662.180          35.000
C14  24281824.742 7 126441876.287 7      2783.270          45.000    24281826.812 8  97772911.866 8      2152.050          51.000
C21  25016581.008 5 130267884.317 5      -989.328          32.000
C23  24406630.141 7 127091728.993 7     -2626.191          43.000
E01  24957987.273 8 131155119.161 8     -2342.691          51.000    24957990.602 8 100495465.236 8     -1795.079          51.000
E33  24088966.867 6 126588377.007 6      1060.367          40.000    24088969.664 7  96996271.708 7       812.546          43.000
> 2020 05 05 15 37 30.0000000  0 15        .000000000000
G10  22170003.578 8 116504161.946 8      2650.215          49.000    22170009.312 8  90782483.669 8      2065.102          49.000
G16  20483621.891 8 107642174.630 8      -424.023          49.000    20483621.711 8  83877004.116 8      -330.408          49.000
G20  21005360.258 8 110383998.613 8       536.438          51.000    21005359.570 8  86013494.989 8       418.003          49.000
G26  21361867.984 8 112257372.863 8     -2480.027          51.000    21361871.250 8  87473284.322 8     -1932.492          51.000
R14  20413654.570 8 108816262.285 8     -2193.578          51.000    20413657.148 8  84634887.202 8     -1706.116          48.000
R23  20858509.266 6 111578967.536 6     -2314.285          38.000    20858520.719 4  86783665.373 4     -1800.000          25.000
R24  19636029.781 5 105002762.105 5      -159.254          32.000    19636043.258 5  81668771.428 5      -123.858          31.000
C05  39611654.180 5 206268277.528 5        -2.840          35.000
C11  23007156.570 5 119804272.772 5     -1668.484          30.000
C14  24265809.977 8 126358480.454 8      2774.520          48.000    24265812.961 8  97708424.979 8      2145.401          51.000
C21  25022325.070 6 130297793.627 6     -1006.617          36.000
C23  24421781.617 7 127170630.260 7     -2635.922          42.000
C28  22981634.273 5 119671449.337 5      1832.715          31.000
E01  24971387.250 8 131225534.481 8     -2353.812          51.000    24971389.305 8 100549419.804 8     -1803.565          51.000
E33  24082929.547 7 126556649.585 7      1052.750          42.000    24082933.273 7  96971961.060 7       806.494          43.000
> 2020 05 05 15 38  0.0000000  0 15        .000000000000
G10  22154930.914 8 116424953.782 8      2642.520          49.000    22154936.539 8  90720763.057 8      2059.109          49.000
G16  20486118.289 8 107655293.944 8      -438.352          48.000    20486118.414 7  83887226.948 7      -341.573          47.000
G20  21002373.844 8 110368305.458 8       521.957          51.000    21002373.172 8  86001266.573 8       406.720          49.000
G26  21376086.836 8 112332090.558 8     -2489.043          51.000    21376089.570 8  87531505.870 8     -1939.514          51.000
R14  20426086.781 8 108882534.054 8     -2212.172          51.000    20426089.500 8  84686431.846 8     -1720.581          49.000
R17  21689837.922 5 116066767.202 5      2534.109          35.000
R23  20871523.047 6 111648590.259 6     -2314.891          36.000
R24  19636974.477 6 105007808.685 6      -165.383          36.000    19636982.734 5  81672696.553 5      -128.634          30.000
C05  39611691.445 5 206268471.054 5         2.039          34.000
C11                                                                  23016806.945 5  92679175.158 5     -1290.293          31.000
C14  24249868.906 8 126275465.623 8      2771.852          49.000    24249871.562 8  97644232.663 8      2143.396          51.000
C21  25028191.914 6 130328340.984 6     -1017.734          37.000
C23  24437014.188 7 127249946.716 7     -2639.844          44.000
E01  24984874.133 8 131296406.409 8     -2358.773          51.000    24984875.172 8 100603724.233 8     -1807.381          51.000
E33  24076961.297 7 126525282.201 7      1050.551          42.000    24076964.141 7  96947926.258 7       805.189          42.000
> 2020 05 05 15 38 30.0000000  0 15        .000000000000
G10  22139883.234 8 116345876.480 8      2631.535          50.000    22139888.180 8  90659144.422 8      2050.550          50.000
G16  20488677.961 8 107668745.739 8      -456.219          48.000    20488678.188 8  83897708.847 8      -355.495          49.000
G20  20999450.891 8 110352945.494 8       504.141          51.000    20999450.203 8  85989297.776 8       392.837          50.000
G26  21390337.055 8 112406974.760 8     -2501.098          51.000    21390339.078 8  87589857.142 8     -1948.910          51.000
R14  20438603.156 8 108949258.878 8     -2233.977          51.000    20438607.117 8  84738328.911 8     -1737.537          49.000
R17  21675659.352 5 115990853.635 5      2529.238          34.000
R24  19637935.281 4 105012939.787 4      -174.441          29.000    19637938.312 5  81676687.311 5      -135.677          31.000
C05  39611681.805 5 206268421.358 5         3.227          34.000
C11  23026429.750 5 119904663.396 5     -1671.984          35.000
C14  24233923.859 8 126192432.063 8      2765.930          49.000    24233925.977 8  97580025.871 8      2138.705          51.000
C21  25034104.352 5 130359123.327 5     -1032.184          31.000
C23  24452249.422 7 127329273.590 7     -2646.582          45.000
C28  22960552.273 5 119561677.540 5      1829.664          34.000
E01  24998370.281 8 131367327.485 8     -2367.043          51.000    24998370.883 8 100658066.317 8     -1813.756          51.000
E33  24070984.055 7 126493868.492 7      1045.695          43.000    24070986.125 7  96923856.058 7       801.106          42.000
> 2020 05 05 15 39  0.0000000  0 14        .000000000000
G10  22124958.656 8 116267445.748 8      2602.898          51.000    22124962.914 8  90598029.604 8      2028.233          51.000
G16  20491398.781 8 107683043.487 8      -491.094          49.000    20491398.719 8  83908849.955 8      -382.670          48.000
G20  20996688.969 8 110338432.318 8       469.008          51.000    20996688.500 8  85977988.808 8       365.461          49.000
G26  21404715.781 8 112482536.715 8     -2530.598          50.000    21404717.375 8  87648736.518 8     -1971.897          50.000
R14  20451302.281 8 109016953.935 8     -2273.148          51.000    20451306.344 8  84790980.630 8     -1768.004          49.000
R23  20897609.039 5 111788124.424 5     -2341.223          30.000
R24  19639007.391 5 105018677.208 5      -202.344          30.000    19639011.102 5  81681149.789 5      -157.382          32.000
C05  39611723.297 5 206268637.005 5       -12.098          34.000
C11  23036142.617 6 119955231.391 6     -1693.289          36.000    23036141.336 5  92756993.152 5     -1308.809          34.000
C14  24218072.547 7 126109890.711 7      2742.500          47.000    24218074.133 8  97516199.684 8      2120.772          49.000
C23  24467583.547 7 127409117.000 7     -2670.500          44.000
C28  22950089.680 6 119507192.825 6      1808.516          38.000
E01  25011972.914 8 131438809.365 8     -2392.699          51.000    25011973.812 8 100712838.117 8     -1833.319          51.000
E33  24065095.750 7 126462921.516 7      1023.332          45.000    24065097.117 6  96900143.472 6       783.938          41.000
> 2020 05 05 15 39 30.0000000  0 15        .000000000000
G10  22110029.609 8 116188991.635 8      2599.617          51.000    22110033.383 8  90536896.549 8      2025.679          51.000
G16  20494152.555 8 107697514.302 8      -501.078          50.000    20494152.445 8  83920125.897 8      -390.450          50.000
G18  22467780.438 5 118068980.638 5     -2878.562          35.000    22467773.297 5  92001774.173 5     -2243.036          30.000
G20  20993960.266 8 110324094.064 8       459.125          51.000    20993960.055 8  85966816.158 8       357.760          49.000
G26  21419094.703 8 112558102.026 8     -2534.711          48.000    21419096.719 8  87707618.514 8     -1975.099          49.000
R14  20464056.039 8 109084934.312 8     -2286.809          51.000    20464058.586 8  84843854.233 8     -1778.629          48.000
R23  20910652.523 5 111857879.610 5     -2336.992          30.000
R24  19640065.422 5 105024335.711 5      -203.582          35.000    19640068.586 5  81685550.840 5      -158.351          30.000
C05  39611687.727 5 206268451.552 5        -2.770          34.000
C11  23045805.773 5 120005550.376 5     -1688.816          35.000    23045806.844 5  92795902.818 5     -1305.824          34.000
C14  24202187.914 7 126027177.724 7      2744.246          47.000    24202187.961 7  97452240.773 7      2122.034          46.000
C23  24482887.086 6 127488808.161 6     -2669.254          41.000
C28  22939578.672 5 119452462.579 5      1813.480          30.000
E01  25025553.742 8 131510178.124 8     -2392.891          51.000    25025555.484 8 100767523.249 8     -1833.544          51.000
E33  24059168.078 7 126431768.529 7      1025.996          45.000    24059168.008 6  96876273.006 6       786.159          40.000
> 2020 05 05 15 40  0.0000000  0 16        .000000000000
G10  22095239.031 8 116111264.549 8      2587.035          51.000    22095242.352 8  90476329.997 8      2015.872          51.000
G16  20497081.734 8 107712906.083 8      -520.234          50.000    20497081.453 8  83932119.471 8      -405.377          50.000
G18  22484242.102 5 118155489.666 5     -2884.305          35.000
G20  20991407.398 8 110310679.411 8       439.961          50.000    20991407.211 8  85956363.168 8       342.827          49.000
G26  21433616.344 8 112634416.646 8     -2548.066          49.000    21433619.172 8  87767084.434 8     -1985.506          49.000
R01  21978178.242 5 117485935.960 5      3178.008          30.000    21978185.281 4  91377995.172 4      2471.781          27.000
R14  20477004.922 8 109153955.409 8     -2309.660          51.000    20477006.055 8  84897537.255 8     -1796.402          48.000
R23  20923792.484 5 111928157.264 5     -2342.840          32.000
R24  19641251.414 5 105030675.955 5      -214.352          32.000    19641254.953 5  81690482.143 5      -166.715          30.000
C05  39611717.461 5 206268606.221 5        -2.660          34.000
C11  23055564.430 6 120056361.037 6     -1693.523          38.000    23055563.469 4  92835192.807 4     -1309.815          29.000
C14  24186413.297 7 125945036.660 7      2736.621          47.000    24186410.758 7  97388724.108 7      2116.186          42.000
C21  25052450.242 4 130454680.101 4     -1086.492          29.000
C23  24498301.305 6 127569085.815 6     -2677.590          38.000
E01  25039254.945 8 131582180.216 8     -2402.430          51.000    25039257.836 8 100822693.664 8     -1840.817          51.000
E33  24053342.594 7 126401157.116 7      1019.355          43.000    24053341.727 6  96852817.541 6       781.202          39.000
> 2020 05 05 15 40 30.0000000  0 17        .000000000000
G10  22080504.102 8 116033830.332 8      2574.625          51.000    22080507.078 8  90415991.673 8      2006.204          51.000
G16  20500102.922 8 107728782.115 8      -538.934          50.000    20500102.242 8  83944490.390 8      -419.948          49.000
G18  22500719.469 6 118242076.247 6     -2889.207          37.000
G20  20988947.102 8 110297751.752 8       421.188          50.000    20988947.102 8  85946289.683 8       328.198          48.000
G26  21448197.523 8 112711041.999 8     -2561.168          49.000    21448200.734 8  87826792.506 8     -1995.715          50.000
R01  21960385.984 5 117390819.669 5      3162.781          35.000
R14  20490064.180 8 109223571.049 8     -2332.047          51.000    20490065.891 8  84951682.710 8     -1813.817          49.000
R23  20936941.656 5 111998510.935 5     -2348.105          32.000
R24  19642481.891 6 105037252.731 6      -224.652          36.000    19642484.133 4  81695597.370 4      -174.733          29.000
C05  39611729.477 5 206268669.255 5        -1.695          34.000
C11  23065334.078 5 120107230.644 5     -1697.879          34.000    23065331.320 5  92874532.435 5     -1313.189          35.000
C14  24170666.133 7 125863037.403 7      2729.098          46.000    24170661.727 7  97325317.142 7      2110.472          43.000
C21  25058747.953 5 130487479.915 5     -1100.680          31.000
C23  24513745.406 6 127649514.905 6     -2685.527          39.000
C28  22918754.859 5 119343969.539 5      1802.883          30.000
E01  25052993.273 8 131654377.519 8     -2411.504          51.000    25052997.367 8 100878013.665 8     -1847.791          51.000
E33  24047537.000 7 126370650.350 7      1013.383          43.000    24047536.242 6  96829442.291 6       776.389          40.000
> 2020 05 05 15 41  0.0000000  0 17        .000000000000
G10  22065842.422 8 115956781.666 8      2562.176          51.000    22065844.844 8  90355953.782 8      1996.501          51.000
G16  20503233.445 8 107745232.442 8      -557.586          50.000    20503232.469 8  83957308.825 8      -434.483          50.000
G18  22517229.180 6 118328828.707 6     -2894.789          36.000
G20  20986597.031 8 110285402.013 8       402.363          50.000    20986596.898 7  85936666.512 7       313.530          47.000
G26  21462854.953 8 112788066.281 8     -2573.824          50.000    21462858.148 8  87886811.448 8     -2005.574          50.000
R01  21942679.805 6 117296163.941 6      3147.480          36.000
R14  20503251.086 8 109293869.378 8     -2354.328          51.000    20503254.281 8  85006359.207 8     -1831.144          49.000
R17  21605406.719 5 115614864.658 5      2490.055          35.000    21605392.883 4  89922642.709 4      1936.709          28.000
R23  20950123.969 5 112069030.981 5     -2353.098          34.000
R24  19643772.672 5 105044157.134 5      -235.777          34.000    19643773.883 5  81700967.409 5      -183.388          31.000
C11  23075130.812 5 120158248.238 5     -1702.926          35.000    23075128.555 5  92913982.304 5     -1316.312          31.000
C14  24154963.562 7 125781271.743 7      2721.906          44.000    24154959.117 7  97262090.833 7      2104.926          45.000
C21  25065135.531 5 130520748.326 5     -1116.602          34.000
C23  24529237.094 6 127730182.323 6     -2692.582          39.000
C28  22908384.055 4 119289967.418 4      1797.742          29.000
E01  25066785.672 8 131726858.707 8     -2420.387          51.000    25066790.844 8 100933551.183 8     -1854.615          51.000
E33  24041768.805 6 126340338.235 6      1007.492          41.000    24041768.969 6  96806216.119 6       771.942          41.000
> 2020 05 05 15 41 30.0000000  0 16        .000000000000
G10  22051266.539 8 115880184.131 8      2548.441          51.000    22051268.602 8  90296267.419 8      1985.798          51.000
G16  20506485.266 8 107762320.277 8      -577.449          50.000    20506484.445 8  83970623.997 8      -449.960          50.000
G20  20984369.070 8 110273693.609 8       382.273          50.000    20984368.750 7  85927543.105 7       297.875          47.000
G26  21477600.180 8 112865550.698 8     -2587.684          51.000    21477603.117 8  87947188.927 8     -2016.380          51.000
R01  21925071.094 6 117202036.926 6      3131.270          36.000    21925074.703 4  91157180.409 4      2435.438          25.000
R14  20516578.219 8 109364911.328 8     -2377.590          51.000    20516582.109 8  85061614.036 8     -1849.240          50.000
R23  20963349.984 5 112139819.441 5     -2359.141          33.000
R24  19645137.328 6 105051452.710 6      -246.840          38.000    19645139.328 5  81706641.807 5      -191.987          34.000
C05  39611763.086 5 206268844.438 5        -2.035          34.000
C11  23084968.180 6 120209476.027 6     -1708.410          37.000
C14  24139317.977 7 125699804.778 7      2713.156          44.000    24139314.625 7  97199095.438 7      2098.000          46.000
C21  25071625.945 5 130554548.799 5     -1132.906          35.000
C23  24544786.398 6 127811148.282 6     -2701.180          41.000
C28  22898063.211 5 119236241.142 5      1792.422          30.000
E01  25080644.078 8 131799685.431 8     -2430.539          51.000    25080649.695 8 100989353.478 8     -1862.460          51.000
E33  24036048.602 6 126310283.535 6      1000.238          38.000    24036050.438 6  96783187.207 6       766.234          41.000
> 2020 05 05 15 42  0.0000000  0 14        .000000000000
G10  22036745.562 8 115803874.932 8      2533.664          51.000    22036747.352 8  90236805.745 8      1974.287          51.000
G16  20509826.836 8 107779880.248 8      -598.406          50.000    20509826.055 8  83984307.075 8      -466.291          50.000
G18  22550347.258 5 118502874.758 5     -2908.434          30.000
G20  20982231.750 8 110262461.407 8       361.305          50.000    20982231.375 7  85918790.767 7       281.536          46.000
G26  21492401.461 8 112943327.915 8     -2602.547          51.000    21492403.852 8  88007794.526 8     -2027.962          51.000
R01  21907529.766 5 117108275.310 5      3113.750          31.000
R14  20530012.719 8 109436525.603 8     -2401.855          51.000    20530017.023 8  85117314.006 8     -1868.110          49.000
R24  19646544.992 5 105058970.736 5      -259.367          34.000    19646545.734 5  81712489.132 5      -201.733          32.000
C11  23094815.195 6 120260749.965 6     -1715.086          38.000
C14  24123698.797 7 125618475.166 7      2703.508          44.000    24123697.227 8  97136206.214 8      2090.509          48.000
C21  25078186.828 5 130588716.508 5     -1149.949          35.000
C23  24560361.531 7 127892246.474 7     -2710.633          42.000
E01  25094536.695 8 131872690.857 8     -2441.742          51.000    25094542.023 8 101045292.693 8     -1870.915          51.000
E33  24030345.680 6 126280320.660 6       991.941          39.000    24030347.789 6  96760228.611 6       759.987          40.000
> 2020 05 05 15 42 30.0000000  0 16        .000000000000
G10  22022314.734 8 115728039.441 8      2519.348          51.000    22022316.312 8  90177713.173 8      1963.128          51.000
G16  20513292.984 8 107798095.058 8      -618.703          50.000    20513291.914 8  83998500.430 8      -482.109          50.000
G18  22566952.266 5 118590151.516 5     -2914.035          30.000
G20  20980220.117 8 110251888.712 8       340.781          51.000    20980219.508 7  85910552.314 7       265.544          47.000
G26  21507292.938 8 113021578.862 8     -2616.824          51.000    21507294.570 8  88068769.242 8     -2039.084          51.000
R01  21890093.336 5 117015069.412 5      3097.082          30.000
R14  20543588.828 8 109508894.679 8     -2425.434          51.000    20543593.062 8  85173601.071 8     -1886.448          49.000
R24  19648026.891 5 105066896.369 5      -271.328          32.000    19648026.117 5  81718653.521 5      -211.033          30.000
C05  39611783.039 5 206268948.299 5        -4.559          34.000
C11  23104706.086 6 120312251.094 6     -1721.309          39.000    23104697.703 4  93033048.877 4     -1330.759          29.000
C14  24108141.641 7 125537466.542 7      2694.414          44.000    24108141.500 8  97073565.218 8      2083.419          48.000
C21  25084853.031 5 130623431.862 5     -1166.887          34.000
C23  24575996.383 6 127973655.693 6     -2719.344          39.000
C28  22877456.430 5 119128910.402 5      1779.344          30.000
E01  25108497.984 8 131946056.359 8     -2452.023          51.000    25108502.289 8 101101507.815 8     -1878.811          51.000
E33  24024696.250 6 126250632.260 6       984.273          40.000    24024697.719 6  96737480.317 6       754.225          41.000
> 2020 05 05 15 43  0.0000000  0 15        .000000000000
G10  22007971.727 8 115652665.866 8      2508.977          51.000    22007973.438 8  90118980.530 8      1955.047          51.000
G16  20516881.133 8 107816950.500 8      -634.996          50.000    20516879.703 8  84013192.972 8      -494.802          50.000
G20  20978331.109 8 110241961.791 8       324.363          50.000    20978331.008 8  85902817.076 8       252.751          49.000
G26  21522271.125 8 113100287.277 8     -2626.918          51.000    21522272.219 8  88130100.426 8     -2046.952          51.000
R14  20557303.609 8 109582000.884 8     -2444.863          51.000    20557307.594 8  85230461.443 8     -1901.560          49.000
R17  21549880.172 5 115317773.244 5      2463.039          30.000
R23  21003194.898 5 112353009.331 5     -2375.727          32.000    21003218.141 4  87385694.136 4     -1847.790          25.000
R24  19649581.805 5 105075214.728 5      -279.098          34.000    19649581.383 4  81725123.364 4      -217.076          29.000
C05  39611812.453 5 206269101.666 5        -2.047          34.000
C11  23114637.344 6 120363965.104 6     -1723.176          37.000    23114635.727 5  93073060.447 5     -1332.556          31.000
C14  24092643.898 7 125456767.305 7      2688.812          45.000    24092644.391 7  97011163.502 7      2079.314          46.000
C21  25091621.945 6 130658679.755 6     -1179.602          36.000
C23  24591687.492 6 128055359.410 6     -2723.930          36.000
E01  25122524.719 8 132019766.237 8     -2458.473          51.000    25122527.312 8 101157986.787 8     -1883.798          48.000
E33  24019096.703 6 126221203.784 6       980.840          40.000    24019098.469 6  96714931.263 6       751.547          41.000
> 2020 05 05 15 43 30.0000000  0 14        .000000000000
G10  21993686.414 8 115577595.755 8      2496.074          51.000    21993688.648 8  90060484.357 8      1944.996          51.000
G16  20520560.352 8 107836284.958 8      -653.566          50.000    20520558.562 8  84028258.772 8      -509.273          49.000
G20  20976534.516 8 110232519.952 8       305.496          51.000    20976534.367 8  85895459.809 8       238.049          49.000
G26  21537304.906 8 113179290.313 8     -2639.477          51.000    21537306.344 8  88191661.174 8     -2056.735          51.000
R14  20571125.609 8 109655677.280 8     -2466.480          51.000    20571129.367 8  85287765.320 8     -1918.371          49.000
R23  21016537.148 6 112424364.245 6     -2380.613          37.000
R24  19651179.758 5 105083761.135 5      -289.461          34.000    19651178.703 4  81731770.574 4      -225.133          28.000
C05  39611823.398 5 206269158.410 5        -1.922          34.000
C11  23124578.008 6 120415732.386 6     -1727.637          38.000    23124582.250 5  93113090.097 5     -1335.785          35.000
C14  24077176.344 7 125376220.534 7      2681.223          46.000    24077174.984 7  96948879.725 7      2073.276          44.000
C21  25098462.484 6 130694299.914 6     -1194.703          36.000
C23  24607404.703 6 128137195.851 6     -2731.117          36.000
E01  25136585.875 8 132093658.053 8     -2467.238          51.000    25136585.781 8 101214605.131 8     -1890.451          48.000
E33  24013516.219 6 126191874.148 6       974.598          40.000    24013517.875 6  96692457.921 6       747.117          39.000
> 2020 05 05 15 44  0.0000000  0 16        .000000000000
G10  21979479.422 8 115502937.181 8      2480.379          51.000    21979481.875 8  90002308.855 8      1932.763          51.000
G16  20524350.773 8 107856204.054 8      -675.062          50.000    20524348.547 8  84043780.145 8      -526.023          49.000
G18  22616958.828 5 118852940.231 5     -2927.742          32.000
G20  20974850.266 8 110223669.379 8       283.777          51.000    20974849.914 8  85888563.261 8       221.125          49.000
G26  21552414.094 8 113258691.482 8     -2654.625          50.000    21552416.539 8  88253532.174 8     -2068.539          50.000
R14  20585074.344 8 109730027.740 8     -2490.906          51.000    20585077.461 8  85345593.434 8     -1937.372          49.000
R17  21522324.750 6 115170319.339 6      2448.160          38.000    21522334.445 4  89576945.467 4      1904.125          25.000
R23  21029907.922 5 112495891.646 5     -2388.719          32.000
R24  19652840.703 6 105092642.839 6      -303.117          39.000    19652839.461 4  81738661.535 4      -235.761          29.000
C05  39611835.852 5 206269223.640 5        -3.160          34.000
C11  23134549.531 6 120467657.209 6     -1734.711          38.000    23134560.625 6  93153241.592 6     -1341.503          40.000
C14  24061758.906 7 125295933.347 7      2670.578          47.000    24061755.297 7  96886796.719 7      2065.063          44.000
C21  25105394.188 5 130730395.879 5     -1212.332          34.000
C23  24623166.484 5 128219267.334 5     -2741.141          35.000
E01  25150701.297 8 132167835.950 8     -2478.746          51.000    25150699.016 8 101271442.695 8     -1899.293          48.000
E33  24007974.539 6 126162748.720 6       966.070          40.000    24007975.055 6  96670141.078 6       740.203          37.000
> 2020 05 05 15 44 30.0000000  0 14        .000000000000
G10  21965354.633 8 115428712.128 8      2468.285          51.000    21965357.266 8  89944471.175 8      1923.339          51.000
G16  20528256.281 8 107876727.362 8      -692.883          51.000    20528253.828 8  84059772.321 8      -539.909          49.000
G18  22633690.055 5 118940859.307 5     -2932.449          35.000    22633686.953 4  92681163.730 4     -2285.025          26.000
G20  20973282.266 8 110215429.694 8       265.840          51.000    20973282.156 8  85882142.739 8       207.148          49.000
G26  21567601.883 7 113338508.422 7     -2666.145          47.000    21567605.367 7  88315727.188 7     -2077.512          47.000
R14  20599152.234 8 109805068.919 8     -2511.469          51.000    20599154.805 8  85403958.764 8     -1953.368          48.000
R24  19654567.984 6 105101878.858 6      -312.219          36.000    19654567.977 5  81745845.099 5      -242.837          33.000
C05  39611853.531 5 206269315.413 5        -2.371          34.000
C11  23144554.758 5 120519758.948 5     -1738.461          35.000    23144570.625 6  93193529.858 6     -1344.134          41.000
C14  24046395.852 8 125215927.752 8      2663.547          48.000    24046391.844 8  96824931.383 8      2059.557          48.000
C21  25112421.297 5 130766986.201 5     -1226.164          34.000
C23  24638974.078 5 128301590.718 5     -2746.789          35.000
E01  25164874.570 8 132242318.003 8     -2486.410          51.000    25164872.148 8 101328513.331 8     -1905.186          49.000
E33  24002474.711 6 126133846.859 6       961.113          40.000    24002474.477 6  96647995.505 6       736.548          38.000
> 2020 05 05 15 45  0.0000000  0 18        .000000000000
G10  21951315.734 8 115354940.156 8      2453.844          51.000    21951318.508 8  89886986.534 8      1912.086          51.000
G16  20532280.094 8 107897871.575 8      -712.863          51.000    20532277.570 8  84076248.323 8      -555.478          48.000
G18  22650451.633 5 119028926.946 5     -2938.594          32.000
G20  20971833.945 8 110207818.345 8       245.648          50.000    20971833.461 8  85876211.812 8       191.414          48.000
G21  22793608.594 6 119781196.104 6     -2453.027          36.000
G26  21582871.570 7 113418756.103 7     -2679.617          47.000    21582875.930 7  88378257.881 7     -2088.013          47.000
R01  21804294.117 5 116556428.563 5      3017.066          30.000
R14  20613361.953 8 109880814.489 8     -2534.188          51.000    20613363.445 7  85462871.962 7     -1971.038          47.000
R17  21494963.984 5 115023859.687 5      2435.480          34.000
R23  21056776.383 6 112639566.850 6     -2398.832          36.000
R24  19656364.633 5 105111486.055 5      -324.188          35.000    19656366.195 5  81753317.351 5      -252.146          32.000
C05  39611879.805 5 206269451.651 5        -3.004          34.000
C11  23154597.586 6 120572054.150 6     -1744.164          39.000    23154614.891 6  93233967.837 6     -1348.529          39.000
C14  24031090.133 8 125136223.044 8      2654.219          48.000    24031087.344 8  96763298.678 8      2052.296          51.000
C21  25119546.406 6 130804086.624 6     -1242.590          36.000
C23  24654830.039 5 128384180.628 5     -2755.211          33.000
E01  25179108.906 8 132317119.763 8     -2496.270          51.000    25179107.641 8 101385828.940 8     -1912.768          51.000
E33  23997020.453 6 126105185.415 6       953.664          41.000    23997021.367 6  96626034.112 6       730.718          40.000
> 2020 05 05 15 45 30.0000000  0 14        .000000000000
G10  21937345.227 8 115281527.254 8      2440.402          51.000    21937347.953 8  89829781.715 8      1901.612          51.000
G16  20536403.719 8 107919540.072 8      -731.820          51.000    20536400.672 7  84093132.878 7      -570.250          47.000
G20  20970486.852 8 110200739.255 8       226.426          50.000    20970486.094 8  85870695.640 8       176.436          48.000
G26  21598205.164 8 113499336.140 8     -2692.445          49.000    21598209.586 8  88441047.524 8     -2098.009          49.000
R14  20627684.812 8 109957163.236 8     -2555.777          51.000    20627685.273 7  85522254.274 7     -1987.830          46.000
R17  21481320.438 5 114950889.299 5      2428.727          33.000
R24  19658211.523 5 105121365.499 5      -334.773          34.000    19658212.711 4  81761001.294 4      -260.379          29.000
C05  39611896.227 5 206269537.838 5        -3.074          33.000
C11  23164659.820 6 120624447.171 6     -1748.945          37.000    23164674.828 6  93274481.460 6     -1352.051          40.000
C14  24015823.570 7 125056726.141 7      2645.629          46.000    24015822.992 8  96701826.659 8      2045.786          51.000
C21  25126750.414 5 130841600.579 5     -1258.168          34.000
C23  24670721.773 5 128466938.932 5     -2762.555          34.000
E01  25193385.633 8 132392143.264 8     -2505.234          51.000    25193385.859 8 101443314.449 8     -1919.613          51.000
E33  23991593.797 6 126076667.572 6       947.340          40.000    23991595.867 6  96604182.786 6       725.821          41.000
> 2020 05 05 15 46  0.0000000  0 15        .000000000000
G10  21923453.258 8 115208527.142 8      2428.145          51.000    21923455.312 8  89772898.543 8      1892.061          51.000
G16  20540636.734 8 107941783.960 8      -749.336          51.000    20540633.383 8  84110465.762 8      -583.898          48.000
G18  22684058.703 5 119205497.662 5     -2946.676          34.000
G20  20969250.914 8 110194243.749 8       208.543          50.000    20969250.352 7  85865634.199 7       162.501          47.000
G26  21613612.031 8 113580297.713 8     -2703.203          50.000    21613615.836 8  88504134.456 8     -2106.392          50.000
R14  20642129.203 8 110034163.563 8     -2575.746          49.000    20642130.195 7  85582143.381 7     -2003.358          47.000
R17  21467735.594 5 114878164.687 5      2423.938          32.000
R24  19660119.250 5 105131568.873 5      -343.609          33.000    19660120.047 4  81768937.256 4      -267.252          28.000
C05  39611912.586 5 206269623.272 5        -1.086          33.000
C11  23174750.016 6 120676988.609 6     -1752.156          37.000    23174760.289 6  93315109.878 6     -1354.616          39.000
C14  24000607.086 7 124977490.343 7      2638.512          45.000    24000608.297 8  96640556.520 8      2040.313          51.000
C21  25134042.453 5 130879577.884 5     -1271.879          30.000
C23  24686658.695 5 128549914.132 5     -2767.465          35.000
E01  25207714.109 8 132467438.246 8     -2512.570          51.000    25207715.555 8 101501007.973 8     -1925.213          51.000
E33  23986204.211 6 126048344.409 6       942.543          37.000    23986206.531 6  96582480.639 6       722.241          41.000
> 2020 05 05 15 46 30.0000000  0 15        .000000000000
G10  21909639.469 8 115135937.734 8      2412.855          50.000    21909641.062 8  89716335.453 8      1880.150          50.000
G16  20544978.180 8 107964598.344 8      -769.910          51.000    20544975.070 8  84128243.163 8      -599.930          48.000
G18  22700904.602 5 119294013.056 5     -2952.902          32.000
G20  20968125.148 8 110188327.644 8       187.547          50.000    20968124.336 7  85861024.241 7       146.140          46.000
G26  21629090.328 8 113661634.508 8     -2717.383          50.000    21629093.578 8  88567513.729 8     -2117.441          50.000
R01  21753913.172 5 116287135.305 5      2966.395          31.000    21753924.797 4  90445581.867 4      2307.193          28.000
R14  20656694.133 8 110111807.798 8     -2598.832          50.000    20656697.438 8  85642533.327 8     -2021.314          48.000
R23  21097264.852 5 112856128.779 5     -2414.434          32.000
R24  19662086.430 5 105142091.032 5      -356.184          31.000    19662089.648 4  81777121.223 4      -277.035          28.000
C11  23184867.695 6 120729673.879 6     -1758.508          36.000    23184875.336 6  93355849.472 6     -1359.905          41.000
C14  23985439.836 7 124898513.844 7      2628.367          44.000    23985442.719 8  96579486.853 8      2032.360          51.000
C21  25141420.523 5 130918013.288 5     -1288.324          30.000
C23  24702636.508 6 128633099.516 6     -2776.035          37.000
E01  25222093.062 8 132542998.821 8     -2523.031          51.000    25222095.203 8 101558905.007 8     -1933.181          51.000
E33  23980850.195 6 126020211.228 6       934.973          38.000    23980851.906 6  96560924.093 6       716.354          39.000
> 2020 05 05 15 47  0.0000000  0 17        .000000000000
G10  21895905.883 8 115063768.428 8      2396.355          51.000    21895907.031 8  89660099.674 8      1867.293          51.000
G16  20549429.500 8 107987990.211 8      -791.418          51.000    20549426.508 8  84146470.581 8      -616.689          48.000
G20  20967111.102 8 110182998.168 8       165.746          50.000    20967110.102 7  85856871.392 7       129.153          47.000
G21  22849745.547 5 120076222.712 5     -2466.926          32.000
G26  21644640.836 8 113743351.410 8     -2732.410          51.000    21644643.633 8  88631189.195 8     -2129.154          51.000
R01  21737318.562 5 116198407.826 5      2946.340          33.000    21737325.188 4  90376571.595 4      2291.595          26.000
R14  20671381.828 8 110190099.254 8     -2622.680          51.000    20671386.391 8  85703426.685 8     -2039.862          48.000
R17  21440638.250 5 114733201.325 5      2406.406          33.000    21440637.609 4  89236922.439 4      1871.649          25.000
R24  19664115.117 5 105152938.723 5      -369.191          34.000    19664119.305 4  81785558.309 4      -287.149          27.000
C05  39611944.219 5 206269787.207 5        -4.977          34.000
C11  23195014.367 5 120782509.828 5     -1765.867          34.000    23195020.055 7  93396705.578 7     -1365.638          42.000
C14  23970324.258 7 124819806.128 7      2616.980          46.000    23970328.180 8  96518624.990 8      2023.549          51.000
C21  25148888.719 4 130956912.557 4     -1308.039          28.000
C23  24718655.352 6 128716499.600 6     -2785.480          40.000
C28  22786332.344 4 118654410.208 4      1730.629          29.000
E01  25236523.617 8 132618830.509 8     -2534.438          51.000    25236526.062 8 101617009.780 8     -1941.975          51.000
E33  23975533.930 6 125992275.000 6       925.758          38.000    23975533.125 6  96539518.383 6       709.329          38.000
> 2020 05 05 15 47 30.0000000  0 13        .000000000000
G10  21882254.555 8 114992030.250 8      2376.527          51.000    21882255.781 8  89604199.800 8      1851.839          51.000
G16  20553992.016 8 108011967.404 8      -816.699          51.000    20553989.328 8  84165154.102 8      -636.389          49.000
G20  20966210.305 8 110178264.177 8       140.188          50.000    20966209.500 7  85853182.602 7       109.237          46.000
G26  21660264.844 8 113825454.768 8     -2750.828          50.000    21660267.430 8  88695165.796 8     -2143.505          50.000
R14  20686192.156 8 110269043.094 8     -2650.105          50.000    20686196.820 8  85764827.430 8     -2061.193          48.000
R17  21427151.422 5 114661049.140 5      2394.078          35.000    21427148.602 4  89180780.027 4      1862.061          26.000
R24  19666206.594 6 105164119.680 6      -385.871          37.000    19666209.234 4  81794267.617 4      -300.122          26.000
C05  39611962.375 5 206269881.652 5       -11.094          34.000
C11  23205192.219 5 120835504.628 5     -1777.250          35.000    23205194.672 6  93437684.459 6     -1373.772          40.000
C14  23955263.422 7 124741377.835 7      2602.094          47.000    23955266.922 8  96457979.257 8      2012.068          51.000
C23  24734716.859 7 128800120.327 7     -2798.672          42.000
E01  25251007.008 8 132694940.153 8     -2549.215          51.000    25251009.469 8 101675327.535 8     -1953.312          51.000
E33  23970256.641 6 125964543.782 6       913.039          38.000    23970254.867 6  96518269.758 6       699.886          39.000
> 2020 05 05 15 48  0.0000000  0 14        .000000000000
G10  21868692.703 8 114920762.616 8      2376.891          51.000    21868694.477 8  89548666.599 8      1852.123          51.000
G16  20558672.922 8 108036566.907 8      -821.148          50.000    20558671.289 8  84184322.532 8      -639.856          50.000
G20  20965429.828 8 110174162.647 8       135.402          50.000    20965428.680 7  85849986.615 7       105.508          45.000
G21  22877939.172 5 120224381.616 5     -2464.824          33.000
G26  21675968.562 8 113907979.709 8     -2748.730          48.000    21675971.195 8  88759470.906 8     -2141.868          48.000
R14  20701130.469 8 110348673.494 8     -2656.473          50.000    20701135.039 7  85826762.145 7     -2066.148          47.000
R24  19668367.094 5 105175670.939 5      -381.590          33.000    19668363.531 4  81803222.830 4      -296.789          25.000
C05  39611989.766 5 206270024.875 5         3.902          34.000
C11  23215407.969 6 120888694.752 6     -1767.371          36.000    23215406.242 6  93478814.533 6     -1366.683          40.000
C14  23940263.672 8 124663268.299 8      2607.445          48.000    23940266.297 8  96397580.058 8      2016.161          51.000
C21  25164108.016 5 131036112.224 5     -1328.395          31.000
C23  24750826.727 7 128883996.070 7     -2791.039          44.000
E01  25265550.055 8 132771363.425 8     -2543.461          51.000    25265552.070 8 101733885.588 8     -1948.925          51.000
E33  23965025.180 6 125937054.487 6       921.527          39.000    23965025.281 7  96497206.547 7       705.968          42.000
> 2020 05 05 15 48 30.0000000  0 15        .000000000000
G10  21855198.859 8 114849853.246 8      2365.449          49.000    21855201.508 8  89493412.578 8      1843.207          49.000
G16  20563450.211 8 108061673.475 8      -837.492          50.000    20563449.469 8  84203886.052 8      -652.594          50.000
G20  20964747.812 8 110170578.931 8       118.613          51.000    20964746.945 7  85847194.143 7        92.429          44.000
G21  22892055.078 5 120298546.168 5     -2464.602          33.000
G26  21691729.977 7 113990809.478 7     -2758.141          47.000    21691732.984 7  88824013.566 7     -2149.200          47.000
R01  21688122.773 5 115935431.446 5      2905.285          33.000    21688126.102 4  90172027.046 4      2259.669          26.000
R14  20716174.602 8 110428870.572 8     -2674.695          49.000    20716178.648 7  85889137.587 7     -2080.325          45.000
R24  19670574.602 5 105187475.739 5      -389.855          34.000    19670573.586 4  81812417.332 4      -303.218          28.000
C05  39612004.484 5 206270101.451 5         6.234          34.000
C11  23225637.844 5 120941966.770 5     -1769.133          32.000    23225635.289 6  93520007.815 6     -1368.211          41.000
C14  23925303.547 8 124585366.461 8      2601.027          50.000    23925304.688 8  96337341.435 8      2011.186          51.000
C21  25171839.875 5 131076381.686 5     -1341.648          32.000
C23  24766962.539 7 128968010.856 7     -2794.930          44.000
E01  25280130.609 8 132847984.101 8     -2549.469          51.000    25280132.070 8 101792594.901 8     -1953.531          51.000
E33  23959817.875 6 125909692.287 6       917.785          41.000    23959820.352 7  96476240.715 7       703.259          42.000
> 2020 05 05 15 49  0.0000000  0 15        .000000000000
G10  21841801.055 8 114779449.201 8      2341.473          48.000    21841804.125 8  89438552.325 8      1824.527          48.000
G16  20568351.734 8 108087431.804 8      -866.145          50.000    20568351.391 8  84223957.471 8      -674.918          50.000
G20  20964191.852 8 110167658.073 8        89.664          51.000    20964191.219 7  85844918.194 7        69.868          44.000
G26  21707576.852 7 114074086.764 7     -2779.977          47.000    21707579.875 7  88888904.937 7     -2166.216          47.000
R14  20731351.875 8 110509777.186 8     -2705.281          50.000    20731355.141 7  85952064.901 7     -2104.108          44.000
R17  21386957.664 5 114445934.243 5      2381.168          30.000
R23  21165372.594 5 113220484.449 5     -2440.723          33.000
C05  39612034.086 5 206270256.270 5        -3.254          34.000
C11  23235910.469 5 120995463.769 5     -1783.656          34.000    23235907.734 6  93561374.911 6     -1379.121          41.000
C14  23910411.336 8 124507818.192 8      2582.406          50.000    23910410.430 8  96277376.165 8      1996.874          48.000
C21  25179677.617 5 131117185.644 5     -1365.910          33.000
C23  24783151.648 7 129052305.676 7     -2811.195          44.000
C28  22746664.422 5 118447841.426 5      1712.195          30.000
E01  25294775.555 8 132924945.370 8     -2567.637          50.000    25294776.852 8 101851565.195 8     -1967.371          51.000
E33  23954662.820 7 125882601.645 7       901.984          42.000    23954666.062 7  96455482.955 7       691.140          42.000
> 2020 05 05 15 49 30.0000000  0 12        .000000000000
G10  21828468.891 8 114709387.977 8      2330.504          51.000    21828471.906 8  89383959.202 8      1815.977          51.000
G16  20573345.891 8 108113676.365 8      -882.051          49.000    20573345.695 8  84244407.772 8      -687.312          49.000
G20  20963730.773 8 110165235.609 8        73.277          50.000    20963729.531 7  85843030.572 7        57.099          43.000
G26  21723477.617 8 114157644.648 8     -2789.188          49.000    21723479.969 8  88954014.947 8     -2173.393          48.000
R01  21655821.016 4 115762797.653 4      2863.336          28.000
R14  20746631.078 8 110591222.765 8     -2723.027          51.000    20746634.164 7  86015411.426 7     -2117.910          45.000
C11  23246195.531 5 121049022.090 5     -1785.449          34.000    23246191.984 6  93602789.628 6     -1380.683          39.000
C14  23895555.898 8 124430462.644 8      2576.039          49.000    23895553.406 7  96217559.906 7      1992.056          44.000
C21  25187587.688 5 131158359.763 5     -1377.664          34.000
C23  24799362.445 7 129136714.782 7     -2814.625          43.000
E01  25309453.125 8 133002080.877 8     -2573.270          49.000    25309454.633 8 101910668.995 8     -1971.645          51.000
E33  23949528.141 6 125855617.551 6       898.742          41.000    23949530.977 7  96434806.801 7       688.506          42.000
> 2020 05 05 15 50  0.0000000  0 15        .000000000000
G10  21815220.961 8 114639767.538 8      2313.129          51.000    21815223.672 8  89329709.501 8      1802.438          51.000
G16  20578450.531 8 108140502.235 8      -904.070          49.000    20578450.430 8  84265311.034 8      -704.470          48.000
G20  20963382.500 8 110163406.757 8        50.965          49.000    20963381.555 7  85841605.514 7        39.716          44.000
G26  21739449.578 8 114241576.522 8     -2804.207          49.000    21739451.000 8  89019416.359 8     -2185.099          49.000
R01  21639820.523 5 115677226.400 5      2842.301          33.000
R14  20762029.203 8 110673300.553 8     -2746.504          51.000    20762032.188 7  86079249.693 7     -2136.170          46.000
R24  19677567.719 5 105224795.100 5      -431.227          33.000    19677578.828 4  81841554.967 4      -335.398          24.000
C05  39612062.203 5 206270401.738 5        -2.598          34.000
C11  23256509.570 5 121102749.459 5     -1792.723          33.000    23256506.352 6  93644324.942 6     -1386.513          41.000
C14  23880755.609 7 124353396.902 7      2563.898          47.000    23880755.602 6  96157967.692 6      1982.575          40.000
C21  25195585.367 6 131199997.351 6     -1395.559          37.000
C23  24815612.469 7 129221330.432 7     -2824.066          42.000
C28  22726985.266 5 118345389.975 5      1700.543          31.000
E01  25324181.586 8 133079484.548 8     -2584.695          49.000    25324183.359 8 101969978.286 8     -1980.547          50.000
E33  23944431.227 6 125828835.263 6       889.215          39.000    23944434.703 7  96414285.243 7       681.287          42.000
> 2020 05 05 15 50 30.0000000  0 14        .000000000000
G10  21802060.117 8 114570604.277 8      2298.547          51.000    21802062.820 8  89275816.040 8      1791.075          51.000
G16  20583668.703 8 108167923.295 8      -923.191          49.000    20583668.367 8  84286678.087 8      -719.370          49.000
G20  20963150.023 8 110162185.670 8        31.402          49.000    20963149.289 7  85840654.029 7        24.469          44.000
G26  21755494.805 8 114325894.441 8     -2816.215          49.000    21755496.016 8  89085118.592 8     -2194.453          49.000
R01  21623921.562 5 115592243.578 5      2823.699          30.000
R14  20777547.969 8 110756021.128 8     -2767.273          51.000    20777551.133 7  86143587.913 7     -2152.324          46.000
C05  39612081.547 5 206270502.168 5        -3.238          34.000
C11  23266857.109 5 121156633.509 5     -1797.953          32.000    23266854.547 7  93685991.521 7     -1390.621          42.000
C14  23866013.594 7 124276637.422 7      2554.289          45.000    23866024.242 5  96098612.257 5      1975.613          31.000
C21  25203673.586 6 131242111.447 6     -1411.074          37.000
C23  24831903.820 6 129306164.230 6     -2830.750          41.000
C28  22717204.188 4 118294447.327 4      1694.848          29.000
E01  25338964.102 8 133157169.018 8     -2593.402          51.000    25338965.961 8 102029502.727 8     -1987.105          51.000
E33  23939375.281 6 125802268.646 6       882.848          40.000    23939380.117 7  96393929.008 7       676.501          42.000
> 2020 05 05 15 51  0.0000000  0 15        .000000000000
G10  21788982.250 8 114501877.919 8      2284.258          51.000    21788984.859 8  89222263.021 8      1779.941          51.000
G16  20588995.773 8 108195916.782 8      -942.043          50.000    20588995.188 8  84308491.194 8      -734.059          50.000
G20  20963028.875 8 110161549.926 8        12.152          48.000    20963028.367 7  85840158.666 7         9.472          44.000
G26  21771608.922 8 114410573.700 8     -2827.922          50.000    21771610.641 8  89151102.412 8     -2203.575          50.000
R01  21608123.336 5 115507794.903 5      2806.426          30.000
R14  20793181.844 8 110839357.930 8     -2787.379          50.000    20793185.188 7  86208405.395 7     -2167.964          45.000
R23  21220358.219 5 113514570.138 5     -2461.215          32.000    21220359.328 4  88289136.566 4     -1914.281          26.000
R24  19682535.023 5 105251344.703 5      -452.074          34.000
C05  39612101.234 5 206270605.062 5        -2.676          34.000
C11  23277232.820 5 121210665.012 5     -1802.930          32.000    23277231.797 7  93727772.026 7     -1394.094          42.000
C14  23851326.891 7 124200164.291 7      2545.176          45.000    23851322.633 6  96039371.006 6      1967.998          41.000
C21  25211848.391 6 131284678.468 6     -1425.805          37.000
C23  24848232.180 6 129391191.330 6     -2836.516          41.000
E01  25353796.102 8 133235110.142 8     -2601.645          51.000    25353798.289 8 102089223.822 8     -1993.438          51.000
E33  23934356.789 7 125775894.924 7       876.531          42.000    23934360.492 6  96373720.615 6       671.601          40.000
> 2020 05 05 15 51 30.0000000  0 13        .000000000000
G10  21775989.820 8 114433601.550 8      2272.160          51.000    21775992.547 8  89169060.671 8      1770.514          51.000
G16  20594433.688 8 108224492.197 8      -958.441          50.000    20594432.852 8  84330757.763 8      -746.837          50.000
G20  20963021.328 7 110161510.485 7        -4.820          47.000    20963021.164 7  85840127.949 7        -3.756          45.000
G26  21787793.672 8 114495623.016 8     -2837.371          50.000    21787796.078 8  89217374.602 8     -2210.939          50.000
R01  21592436.773 4 115423948.492 4      2790.105          29.000
R14  20808932.070 8 110923318.374 8     -2805.191          49.000    20808934.844 7  86273707.924 7     -2181.819          44.000
R24  19685110.516 5 105265098.931 5      -460.402          32.000
C11  23287639.281 5 121264854.378 5     -1804.855          31.000    23287639.328 7  93769674.613 7     -1395.816          44.000
C14  23836698.500 7 124123990.701 7      2537.836          47.000    23836699.484 7  95980468.779 7      1962.443          47.000
C21  25220112.594 6 131327707.982 6     -1438.016          37.000
C23  24864599.008 6 129476420.119 6     -2840.527          40.000
E01  25368679.094 8 133313317.155 8     -2607.516          51.000    25368681.836 8 102149148.643 8     -1997.919          51.000
E33  23929377.250 7 125749724.668 7       872.824          42.000    23929377.594 6  96353668.113 6       668.754          39.000
> 2020 05 05 15 52  0.0000000  0 14        .000000000000
G10  21763080.016 8 114365758.963 8      2252.781          51.000    21763082.797 8  89116196.323 8      1755.414          51.000
G16  20599978.781 8 108253631.048 8      -982.105          50.000    20599977.828 8  84353463.361 8      -765.277          50.000
G20  20963123.641 7 110162048.528 7       -29.039          46.000    20963123.617 7  85840547.199 7       -22.628          43.000
G21  22991325.445 4 120820230.641 4     -2495.469          29.000
G26  21804044.945 8 114581021.692 8     -2853.816          51.000    21804047.914 8  89283919.029 8     -2223.750          50.000
R14  20824794.984 8 111007879.745 8     -2830.090          49.000    20824797.891 7  86339477.835 7     -2201.181          46.000
C05  39612143.984 5 206270827.576 5        -5.238          35.000
C11  23298072.797 5 121319183.054 5     -1814.520          35.000    23298073.414 7  93811685.011 7     -1403.253          42.000
C14  23822125.234 8 124048100.646 8      2523.598          48.000    23822127.719 8  95921785.778 8      1951.370          49.000
C21  25228461.492 6 131371180.392 6     -1457.633          38.000
C23  24881000.727 6 129561829.777 6     -2851.258          38.000
C28  22688048.562 4 118142706.309 4      1677.098          29.000
E01  25383608.930 8 133391769.947 8     -2620.578          51.000    25383612.008 8 102209261.785 8     -2007.952          51.000
E33  23924432.719 6 125723739.067 6       861.941          41.000    23924430.867 6  96333757.060 6       660.227          40.000
> 2020 05 05 15 52 30.0000000  0 15        .000000000000
G10  21750255.062 8 114298362.145 8      2240.266          51.000    21750257.945 8  89063679.331 8      1745.662          51.000
G16  20605632.969 8 108283342.639 8      -998.852          51.000    20605631.680 8  84376615.238 8      -778.326          51.000
G18  22905178.922 6 120367540.719 6     -3006.840          36.000
G20  20963337.477 7 110163173.706 7       -46.293          43.000    20963337.633 7  85841423.920 7       -36.072          43.000
G26  21820363.984 8 114666777.327 8     -2863.293          51.000    21820367.148 8  89350741.592 8     -2231.137          51.000
R14  20840771.977 8 111093047.999 8     -2847.824          50.000    20840776.266 8  86405719.759 8     -2214.974          48.000
R23  21261905.188 5 113736820.524 5     -2476.109          32.000
R24  19690424.594 4 105293544.364 4      -483.031          29.000
C05  39612165.398 5 206270939.494 5        -1.961          34.000
C11                                                                  23308535.477 7  93853810.540 7     -1405.053          43.000
C14  23807608.891 8 123972506.360 8      2516.004          48.000    23807612.062 8  95863331.451 8      1945.573          51.000
C21  25236896.094 6 131415104.139 6     -1470.371          38.000
C23  24897438.414 6 129647427.487 6     -2855.445          36.000
E01  25398586.875 8 133470476.671 8     -2626.617          51.000    25398590.125 8 102269569.509 8     -2012.615          51.000
E33  23919524.734 7 125697947.648 7       857.695          42.000    23919523.836 7  96313994.800 7       657.198          43.000
> 2020 05 05 15 53  0.0000000  0 15        .000000000000
G10  21737515.125 8 114231413.604 8      2217.805          51.000    21737518.125 8  89011511.672 8      1728.163          51.000
G16  20611396.281 8 108313626.502 8     -1025.391          51.000    20611394.680 8  84400213.046 8      -799.006          51.000
G18  22922372.539 5 120457880.604 5     -3019.215          32.000
G20  20963663.367 7 110164886.419 7       -73.176          44.000    20963663.836 7  85842758.475 7       -57.023          44.000
G26  21836750.578 8 114752888.094 8     -2882.461          51.000    21836753.359 8  89417840.858 8     -2246.073          51.000
R01  21546002.125 5 115175734.095 5      2723.777          34.000
R14  20856863.047 8 111178819.874 8     -2875.617          50.000    20856867.750 8  86472431.222 8     -2236.588          48.000
R24  19693173.891 5 105308245.643 5      -501.367          32.000
C05  39612187.391 5 206271054.115 5       -10.195          34.000
C11  23319029.469 5 121428303.470 5     -1829.715          32.000    23319025.977 6  93896051.277 6     -1414.664          40.000
C14  23793149.367 7 123897210.418 7      2498.629          47.000    23793153.195 8  95805107.859 8      1932.159          51.000
C21  25245417.227 6 131459478.309 6     -1492.898          37.000
C28  22668773.750 4 118042223.144 4      1661.172          28.000
E01  25413612.609 8 133549436.037 8     -2642.477          51.000    25413615.641 8 102330070.812 8     -2024.680          51.000
E33  23914653.812 6 125672350.539 6       843.863          41.000    23914654.820 7  96294381.421 7       646.480          45.000
> 2020 05 05 15 53 30.0000000  0 15        .000000000000
G10  21724865.438 8 114164939.330 8      2213.691          51.000    21724868.195 8  88959713.564 8      1724.957          51.000
G16  20617272.680 8 108344505.748 8     -1033.484          51.000    20617270.930 8  84424274.783 8      -805.316          51.000
G20  20964105.641 7 110167210.312 7       -81.871          44.000    20964105.820 7  85844569.303 7       -63.796          44.000
G26  21853208.953 8 114839375.521 8     -2883.344          51.000    21853211.008 8  89485233.597 8     -2246.764          51.000
R01  21530738.727 5 115094148.758 5      2715.938          33.000
R14  20873071.438 8 111265215.664 8     -2884.320          48.000    20873075.547 8  86539627.919 8     -2243.360          48.000
R23  21289760.727 5 113885861.402 5     -2482.195          33.000
R24  19695983.180 5 105323289.071 5      -500.859          31.000
C05                                                                  39612220.891 5 159502004.786 5          .794          35.000
C11                                                                  23329549.750 6  93938425.344 6     -1410.194          40.000
C14  23778752.141 7 123822238.782 7      2499.422          47.000    23778755.797 8  95747135.012 8      1932.699          51.000
C21  25254029.922 6 131504325.160 6     -1497.094          36.000
C23  24930443.016 5 129819378.632 5     -2863.555          31.000
E01  25428690.250 8 133628670.158 8     -2639.879          51.000    25428692.852 8 102390782.634 8     -2022.716          51.000
E33  23909824.586 6 125646971.207 6       848.102          40.000    23909826.242 7  96274934.866 7       649.910          44.000
> 2020 05 05 15 54  0.0000000  0 15        .000000000000
G10  21712292.648 8 114098868.392 8      2195.027          51.000    21712295.188 8  88908229.731 8      1710.414          51.000
G16  20623248.117 8 108375906.722 8     -1055.973          51.000    20623246.195 8  84448743.065 8      -822.836          50.000
G20  20964650.367 8 110170071.743 8      -104.746          48.000    20964649.703 7  85846798.963 7       -81.620          43.000
G26  21869724.570 8 114926164.249 8     -2898.516          51.000    21869725.836 8  89552861.105 8     -2258.587          51.000
R01  21515576.164 6 115013090.406 6      2692.551          37.000
R14  20889380.086 6 111352157.142 6     -2907.707          41.000    20889385.312 8  86607249.018 8     -2261.550          48.000
R23  21303691.367 5 113960412.447 5     -2491.113          30.000
C05  39612233.062 5 206271291.216 5        -3.254          34.000    39612238.969 5 159502070.391 5        -2.401          35.000
C11  23340090.148 4 121537976.106 4     -1832.672          28.000    23340092.445 6  93980884.509 6     -1416.782          41.000
C14  23764403.328 8 123747521.283 8      2485.723          48.000    23764406.734 8  95689358.728 8      1922.115          51.000
C21  25262719.508 6 131549570.949 6     -1515.203          36.000
C23  24946976.297 5 129905501.474 5     -2873.520          34.000
C28  22649614.859 5 117942572.256 5      1657.887          32.000
E01  25443805.641 8 133708104.215 8     -2651.750          51.000    25443808.047 8 102451647.670 8     -2031.860          51.000
E33  23905022.688 6 125621736.083 6       838.266          41.000    23905023.695 7  96255598.874 7       642.167          44.000
> 2020 05 05 15 54 30.0000000  0 14        .000000000000
G10  21699813.828 8 114033291.628 8      2176.098          51.000    21699816.336 8  88857130.962 8      1695.661          51.000
G16  20629339.703 8 108407917.560 8     -1078.777          51.000    20629337.805 8  84473686.565 8      -840.606          50.000
G20  20965314.523 7 110173559.488 7      -128.094          47.000    20965313.625 7  85849516.673 7       -99.816          44.000
G26  21886313.547 8 115013340.825 8     -2913.766          49.000    21886314.742 8  89620790.827 8     -2270.470          49.000
R01  21500529.633 6 114932653.406 6      2669.297          36.000
R14  20905806.320 7 111439730.183 7     -2931.078          42.000    20905813.898 8  86675361.366 8     -2279.724          48.000
R23  21317704.641 6 114035270.665 6     -2500.195          38.000
C05  39612259.844 5 206271431.197 5        -6.453          34.000    39612266.008 5 159502179.881 5        -5.513          35.000
C11  23350703.133 4 121593256.686 4     -1841.285          28.000    23350671.438 6  94023480.664 6     -1423.478          39.000
C14  23750120.805 8 123673148.260 8      2471.789          49.000    23750123.398 8  95631848.822 8      1911.417          51.000
C21  25271502.305 6 131595302.246 6     -1533.754          36.000
C23  24963549.938 5 129991841.935 5     -2883.133          35.000
E01  25458975.594 8 133787825.309 8     -2663.582          50.000    25458978.234 8 102512732.630 8     -2040.915          51.000
E33  23900265.227 7 125596733.758 7       828.207          42.000    23900265.281 7  96236441.231 7       634.660          44.000
> 2020 05 05 15 55  0.0000000  0 14        .000000000000
G10  21687436.453 8 113968249.049 8      2162.805          51.000    21687439.234 8  88806448.450 8      1685.302          51.000
G16  20635554.133 8 108440575.096 8     -1095.668          51.000    20635552.375 8  84499133.974 8      -853.767          50.000
G20  20966104.617 8 110177710.979 8      -145.703          48.000    20966103.680 7  85852751.651 7      -113.532          43.000
G26  21902982.758 8 115100940.729 8     -2923.250          48.000    21902984.352 8  89689050.444 8     -2277.860          48.000
R01  21485605.930 5 114852880.111 5      2651.496          35.000
R14  20922361.062 7 111527969.569 7     -2948.637          47.000    20922367.398 7  86743991.964 7     -2293.384          47.000
R23  21331719.555 5 114110440.464 5     -2502.926          34.000
C05  39612301.883 5 206271649.398 5        -5.250          34.000    39612308.000 5 159502349.359 5        -3.854          35.000
C11  23361316.375 4 121648550.775 4     -1843.438          29.000    23361292.609 6  94066250.584 6     -1425.656          37.000
C14  23735911.984 8 123599159.527 8      2463.492          48.000    23735913.180 8  95574636.076 8      1905.001          49.000
C21  25280384.820 6 131641555.281 6     -1547.152          36.000
C23  24980172.039 6 130078434.906 6     -2886.777          36.000
E01  25474207.086 8 133867869.599 8     -2669.785          49.000    25474210.195 8 102574065.240 8     -2045.668          51.000
E33  23895559.188 7 125572001.711 7       823.605          42.000    23895558.984 7  96217490.701 7       631.173          43.000
> 2020 05 05 15 55 30.0000000  0 14        .000000000000
G10  21675119.281 8 113903523.364 8      2148.148          51.000    21675122.250 8  88756012.870 8      1673.885          51.000
G16  20641849.578 8 108473659.224 8     -1114.031          51.000    20641847.703 8  84524913.810 8      -868.076          49.000
G20  20966979.391 8 110182306.821 8      -164.648          49.000    20966977.859 7  85856332.808 7      -128.301          43.000
G26  21919689.961 7 115188742.352 7     -2934.219          46.000    21919692.453 7  89757467.285 7     -2286.404          46.000
R01  21470765.867 5 114773551.470 5      2632.738          32.000
R14  20938998.281 8 111616648.730 8     -2967.418          48.000    20939003.227 7  86812964.620 7     -2307.995          47.000
R23  21345763.312 5 114185531.981 5     -2507.469          35.000
C05  39612317.672 5 206271732.842 5        -4.285          34.000    39612324.000 5 159502413.775 5        -3.836          35.000
C11                                                                  23371915.906 6  94109026.157 6     -1428.949          37.000
C14  23721735.641 8 123525340.012 8      2453.758          48.000    23721735.445 8  95517554.201 8      1897.383          49.000
C21  25289325.594 5 131688111.304 5     -1560.781          35.000
C23  24996803.984 6 130165060.518 6     -2892.152          37.000
E01  25489457.828 7 133948016.039 7     -2677.355          47.000    25489461.523 8 102635476.130 8     -2051.447          51.000
E33  23890862.500 7 125547320.280 7       817.883          42.000    23890862.898 7  96198578.955 7       626.627          43.000
> 2020 05 05 15 56  0.0000000  0 17        .000000000000
G10  21662902.078 8 113839323.017 8      2137.000          51.000    21662904.617 8  88705986.637 8      1665.195          51.000
G16  20648265.320 8 108507375.683 8     -1128.641          51.000    20648263.328 8  84551186.381 8      -879.460          48.000
G20  20967977.812 8 110187552.875 8      -179.961          49.000    20967976.547 7  85860420.669 7      -140.229          43.000
G21  23105755.273 5 121421503.932 5     -2511.074          34.000
G26  21936474.297 7 115276949.736 7     -2941.176          46.000    21936477.859 7  89826200.338 7     -2291.825          46.000
G27  20785833.281 5 109230277.306 5      1444.977          30.000
R01  21456048.219 5 114694881.247 5      2617.262          34.000    21456053.133 4  89207138.712 4      2035.654          27.000
R14  20955755.523 8 111705973.107 8     -2982.270          49.000    20955759.820 7  86882439.136 7     -2319.543          46.000
R17  21203863.523 5 113466128.020 5      2288.590          33.000
C05  39612346.227 5 206271880.598 5          .801          34.000    39612352.664 5 159502529.162 5         -.163          35.000
C11  23382580.555 4 121759233.993 4     -1849.457          29.000    23382580.992 6  94151965.114 6     -1429.601          39.000
C14  23707631.648 8 123451896.524 8      2447.500          48.000    23707630.109 7  95460763.098 7      1892.595          47.000
C21  25298363.906 5 131735173.439 5     -1571.734          35.000
C23  25013483.133 5 130251920.772 5     -2893.508          34.000
C28  22611717.500 5 117745142.113 5      1638.379          32.000
E01  25504766.750 7 134028469.284 7     -2681.098          47.000    25504771.172 8 102697122.116 8     -2054.339          51.000
E33  23886214.133 7 125522895.511 7       815.668          43.000    23886215.391 7  96179863.903 7       624.944          42.000
> 2020 05 05 15 56 30.0000000  0 16        .000000000000
G10  21650759.359 8 113775514.033 8      2114.344          51.000    21650761.680 8  88656265.379 8      1647.541          51.000
G16  20654775.234 8 108541587.778 8     -1154.766          51.000    20654773.828 8  84577845.135 8      -899.817          48.000
G20  20969074.109 8 110193312.864 8      -206.844          49.000    20969072.727 6  85864908.997 6      -161.174          41.000
G21  23120111.125 5 121496940.297 5     -2520.727          31.000
G26  21953310.117 7 115365424.635 7     -2959.836          47.000    21953314.227 7  89895141.821 7     -2306.369          47.000
R01  21441422.875 5 114616692.118 5      2589.570          30.000
R14  20972607.625 8 111795800.780 8     -3008.797          51.000    20972611.266 7  86952305.088 7     -2340.175          47.000
R23  21373937.859 6 114336147.862 6     -2520.219          37.000
C05  39612361.922 5 206271962.284 5        -7.469          34.000    39612368.312 5 159502592.303 5        -5.778          35.000
C11  23393261.711 5 121814854.067 5     -1860.457          31.000    23393260.391 5  94194963.231 5     -1438.490          34.000
C14  23693574.695 8 123378696.538 8      2429.785          48.000    23693572.188 8  95404160.269 8      1878.921          48.000
C21  25307472.906 5 131782605.324 5     -1593.727          34.000
C23  25030185.406 5 130338878.391 5     -2905.957          33.000
C28  22602307.891 5 117696156.302 5      1625.113          31.000
E01  25520108.422 8 134109091.556 8     -2696.320          49.000    25520113.000 8 102758897.625 8     -2065.997          51.000
E33  23881588.891 7 125498591.013 7       801.906          43.000    23881589.703 6  96161240.993 6       614.457          41.000
> 2020 05 05 15 57  0.0000000  0 14        .000000000000
G10  21638726.695 8 113712283.253 8      2103.289          51.000    21638728.961 8  88606994.681 8      1638.927          51.000
G16  20661414.539 8 108576479.371 8     -1169.070          51.000    20661413.586 8  84605033.367 8      -910.964          48.000
G20  20970303.086 8 110199771.148 8      -221.633          48.000    20970300.828 6  85869941.423 6      -172.701          40.000
G26  21970232.047 8 115454349.501 8     -2966.477          48.000    21970236.297 8  89964433.917 8     -2311.540          48.000
R14  20989588.734 8 111886314.735 8     -3023.230          50.000    20989592.125 7  87022704.810 7     -2351.401          47.000
R23  21388082.484 6 114411789.341 6     -2520.734          37.000    21388090.711 4  88986976.751 4     -1960.577          26.000
C05  39612399.859 5 206272160.948 5        -3.043          34.000    39612406.211 5 159502744.795 5        -2.809          35.000
C11                                                                  23403988.898 6  94238161.983 6     -1439.406          36.000
C14  23679599.781 7 123305925.397 7      2423.621          47.000    23679597.297 8  95347889.064 8      1874.137          50.000
C21  25316687.836 5 131830588.757 5     -1603.340          32.000
C23  25046942.555 5 130426113.901 5     -2907.527          34.000
C28  22592954.320 5 117647452.924 5      1624.328          33.000
E01  25535518.281 8 134190065.959 8     -2699.863          51.000    25535522.016 8 102820942.925 8     -2068.699          51.000
E33  23877022.367 7 125474591.238 7       800.277          43.000    23877021.875 6  96142851.553 6       613.128          41.000
> 2020 05 05 15 57 30.0000000  0 14        .000000000000
G10  21626767.719 8 113649439.656 8      2080.488          50.000    21626770.062 8  88558025.683 8      1621.163          50.000
G16  20668146.320 8 108611856.398 8     -1195.133          49.000    20668145.742 8  84632599.886 8      -931.272          49.000
G20  20971628.164 7 110206734.319 7      -248.363          47.000    20971625.930 6  85875367.288 6      -193.527          40.000
G26  21987202.477 8 115543528.954 8     -2984.586          48.000    21987206.898 8  90033924.386 8     -2325.651          48.000
R14  21006659.961 8 111977315.259 8     -3049.379          49.000    21006663.586 7  87093482.998 7     -2371.736          46.000
R23  21402247.297 5 114487495.435 5     -2532.543          30.000
C05  39612423.344 5 206272281.847 5       -10.652          34.000    39612429.469 5 159502838.643 5        -8.285          35.000
C11  23414744.711 5 121926715.810 5     -1873.219          30.000    23414730.352 6  94281413.104 6     -1448.673          37.000
C14  23665670.586 7 123233394.202 7      2405.895          46.000    23665668.758 8  95291803.340 8      1860.423          51.000
C21  25325971.328 5 131878931.108 5     -1625.582          34.000
C23  25063714.070 6 130513433.485 6     -2920.059          37.000
C28  22583621.195 5 117598841.299 5      1610.938          33.000
E01  25550958.688 8 134271197.736 8     -2714.836          51.000    25550961.273 8 102883108.792 8     -2080.211          51.000
E33  23872477.242 7 125450702.776 7       786.656          42.000    23872475.797 7  96124547.401 7       602.801          42.000
> 2020 05 05 15 58  0.0000000  0 14        .000000000000
G10  21614898.680 8 113587067.656 8      2070.961          51.000    21614900.617 8  88509424.152 8      1613.736          51.000
G16  20674986.062 8 108647800.659 8     -1207.820          48.000    20674985.781 8  84660608.374 8      -941.162          48.000
G18  23095559.305 5 121367982.643 5     -3052.719          31.000
G20  20973064.695 7 110214284.371 7      -261.676          46.000    20973063.141 6  85881250.480 6      -203.900          37.000
G26  22004236.648 8 115633043.074 8     -2989.508          48.000    22004241.375 8  90103675.630 8     -2329.487          48.000
R14  21023837.766 8 112068881.997 8     -3061.855          51.000    21023840.945 7  87164701.541 7     -2381.446          45.000
R23  21416428.766 6 114563348.915 6     -2531.262          37.000    21416427.281 4  89104880.022 4     -1968.759          25.000
C05  39612447.883 5 206272410.055 5        -4.465          34.000    39612453.844 5 159502936.030 5        -3.736          35.000
C11                                                                  23425500.508 5  94324779.810 5     -1447.848          34.000
C14  23651802.734 7 123161186.881 7      2401.121          45.000    23651802.781 8  95235968.050 8      1856.902          51.000
C21  25335339.047 5 131927712.411 5     -1633.184          32.000
C23  25080515.828 6 130600916.214 6     -2919.023          37.000
E01  25566444.328 8 134352567.534 8     -2716.438          51.000    25566445.906 8 102945457.022 8     -2081.396          51.000
E33  23867968.453 7 125427007.690 7       786.363          43.000    23867966.836 7  96106391.469 7       602.628          43.000
> 2020 05 05 15 58 30.0000000  0 17        .000000000000
G10  21603122.258 8 113525180.951 8      2056.258          51.000    21603123.648 8  88461200.782 8      1602.279          51.000
G16  20681935.914 8 108684323.012 8     -1225.531          48.000    20681935.711 8  84689067.337 8      -954.959          48.000
G18  23113001.555 5 121459631.719 5     -3055.391          35.000
G20  20974615.250 7 110222432.837 7      -280.113          44.000    20974613.562 6  85887599.934 6      -218.270          36.000
G21  23177710.453 5 121799702.671 5     -2525.848          35.000
G26  22021336.531 8 115722901.327 8     -2999.500          50.000    22021341.062 8  90173695.032 8     -2337.273          50.000
R14  21041123.617 8 112161022.734 8     -3079.383          50.000    21041126.086 7  87236366.494 7     -2395.076          45.000
R23  21430641.148 5 114639361.935 5     -2535.172          35.000
R24  19727308.648 5 105490810.764 5      -609.469          30.000    19727311.930 4  82048427.123 4      -474.031          29.000
C05  39612475.586 5 206272554.727 5        -3.594          34.000    39612481.656 5 159503047.886 5        -2.948          35.000
C11                                                                  23436303.023 6  94368270.604 6     -1450.382          37.000
C14  23637999.914 7 123089317.171 7      2391.516          45.000    23638001.617 8  95180393.856 8      1849.226          51.000
C21  25344792.570 5 131976942.974 5     -1647.934          31.000
C23  25097350.133 6 130688571.361 6     -2923.277          36.000
C28  22565064.297 4 117502217.639 4      1607.512          28.000
E01  25581976.641 8 134434185.355 8     -2723.234          51.000    25581977.469 8 103007995.294 8     -2086.619          51.000
E33  23863498.961 7 125403517.509 7       780.996          43.000    23863497.070 7  96088392.496 7       598.530          43.000
> 2020 05 05 15 59  0.0000000  0 18        .000000000000
G10  21591433.141 8 113463752.339 8      2038.953          51.000    21591434.125 8  88413334.355 8      1588.798          51.000
G16  20688990.375 8 108721393.043 8     -1245.809          49.000    20688989.773 8  84717953.061 8      -970.760          48.000
G18  23130459.219 5 121551377.061 5     -3060.629          34.000
G20  20976273.625 7 110231149.840 7      -301.102          42.000    20976273.383 6  85894392.498 6      -234.622          37.000
G21  23192140.430 6 121875526.834 6     -2529.344          39.000    23192143.227 4  94967949.492 4     -1970.917          27.000
G26  22038496.070 8 115813072.070 8     -3011.859          50.000    22038500.062 8  90243957.921 8     -2346.903          50.000
R01  21370085.383 5 114235388.082 5      2491.008          32.000    21370090.344 5  88849736.785 5      1937.454          30.000
R14  21058510.055 8 112253703.765 8     -3099.250          49.000    21058513.203 7  87308451.700 7     -2410.531          46.000
R23  21444860.680 5 114715543.837 5     -2541.105          33.000
R24  19730761.227 5 105509261.742 5      -620.922          34.000    19730759.930 4  82062741.379 4      -482.936          26.000
C05  39612501.102 5 206272687.355 5        -5.117          34.000    39612507.281 5 159503151.818 5        -3.978          35.000
C11                                                                  23447130.742 5  94411863.141 5     -1455.602          31.000
C14  23624257.641 7 123017758.419 7      2379.230          47.000    23624260.062 8  95125060.128 8      1839.690          51.000
C21  25354326.508 5 132026592.207 5     -1662.422          30.000
C23  25114212.070 5 130776367.344 5     -2930.031          34.000
C28  22555824.234 5 117454103.147 5      1599.242          32.000
E01  25597549.594 8 134516020.180 8     -2732.348          51.000    25597550.023 8 103070699.855 8     -2093.641          51.000
E33  23859062.359 7 125380202.629 7       773.234          43.000    23859061.477 7  96070527.813 7       592.586          44.000
> 2020 05 05 15 59 30.0000000  0 18        .000000000000
G10  21579833.383 8 113402793.202 8      2020.902          51.000    21579834.430 8  88365833.746 8      1574.732          51.000
G16  20696150.727 8 108759019.168 8     -1266.582          49.000    20696149.914 8  84747272.130 8      -986.947          49.000
G20  20978042.070 7 110240444.325 7      -322.488          42.000    20978042.344 5  85901635.021 5      -251.287          35.000
G21  23206579.680 6 121951413.026 6     -2533.535          37.000
G26  22055716.320 8 115903562.380 8     -3024.883          50.000    22055719.633 8  90314469.809 8     -2357.052          50.000
R01  21356154.102 5 114160932.917 5      2468.734          35.000    21356160.523 5  88791827.288 5      1920.127          31.000
R14  21075999.195 8 112346930.406 8     -3119.793          50.000    21076002.648 7  87380961.289 7     -2426.509          45.000
R17  21115155.555 5 112991487.336 5      2232.883          30.000
R23  21459131.461 4 114791855.894 4     -2547.340          29.000
R24  19734270.102 6 105528017.495 6      -633.465          39.000    19734268.898 4  82077329.648 4      -492.698          27.000
C05  39612526.289 5 206272819.240 5        -6.914          33.000    39612532.477 5 159503253.045 5        -5.564          35.000
C11  23457989.453 5 122151910.557 5     -1889.309          33.000
C14  23610577.906 8 122946522.197 8      2366.129          48.000    23610579.961 8  95069975.776 8      1829.671          51.000
C21  25363943.328 5 132076668.195 5     -1679.254          33.000
C23  25131101.469 5 130864311.037 5     -2936.559          30.000
C28  22546612.961 5 117406174.504 5      1591.824          31.000
E01  25613164.773 8 134598079.694 8     -2742.062          51.000    25613165.273 8 103133576.590 8     -2101.067          51.000
E33  23854659.758 7 125357072.041 7       764.934          43.000    23854661.438 7  96052804.400 7       586.064          44.000
