     3.04           OBSERVATION DATA    M (MIXED)           RINEX VERSION / TYPE
Convert 2.6.2       NovAtel             20200515 155948 UTC PGM / RUN BY / DATE 
Rinex Version 3.04 Observation File                         COMMENT             
                                                            MARKER NAME         
                                                            MARKER NUMBER       
                                                            MARKER TYPE         
                                                            OBSERVER / AGENCY   
                    NovAtel GPSCard                         REC # / TYPE / VERS 
                                                            ANT # / TYPE        
        0.0000        0.0000        0.0000                  APPROX POSITION XYZ 
        0.0000        0.0000        0.0000                  ANTENNA: DELTA H/E/N
G    8 C1C L1C D1C S1C C2W L2W D2W S2W                      SYS / # / OBS TYPES 
R    8 C1C L1C D1C S1C C2P L2P D2P S2P                      SYS / # / OBS TYPES 
E    8 C1C L1C D1C S1C C7Q L7Q D7Q S7Q                      SYS / # / OBS TYPES 
C    8 C2I L2I D2I S2I C7I L7I D7I S7I                      SYS / # / OBS TYPES 
DBHZ                                                        SIGNAL STRENGTH UNIT
    30.000                                                  INTERVAL            
  2020    05    09    22    00    0.0000000     GPS         TIME OF FIRST OBS   
  2020    05    09    22    59   30.0000000     GPS         TIME OF LAST OBS    
G L1C  0.00000  08 G09 G03 G04 G01 G22 G19 G17 G31          SYS / PHASE SHIFT   
G L2W  0.00000  08 G09 G03 G04 G01 G22 G17 G31 G19          SYS / PHASE SHIFT   
R L1C  0.00000  09 R08 R23 R22 R07 R01 R09 R24 R02 R11      SYS / PHASE SHIFT   
R L2P  0.25000  09 R08 R23 R22 R07 R01 R09 R24 R02 R11      SYS / PHASE SHIFT   
E L1C  0.50000  05 E26 E33 E19 E07 E04                      SYS / PHASE SHIFT   
E L7Q -0.25000  05 E26 E33 E19 E07 E04                      SYS / PHASE SHIFT   
C L2I  0.00000  04 C22 C12 C19 C21                          SYS / PHASE SHIFT   
C L7I  0.00000  01 C12                                      SYS / PHASE SHIFT   
  9 R08  6 R23  3 R22 -3 R07  5 R01  1 R09 -2 R24  2 R02 -4 GLONASS SLOT / FRQ #
    R11  0                                                  GLONASS SLOT / FRQ #
 C1C  -71.950 C2C  -71.950 C2P  -71.950                     GLONASS COD/PHS/BIS 
    18    18  1929     7GPS                                 LEAP SECONDS        
                                                            END OF HEADER       
> 2020 05 09 22 00  0.0000000  0 15      -0.000000000000
G09  22433937.820 7 117891235.738 7      3093.086          47.000    22433939.562 7  91863277.317 7      2410.198          47.000  
G03  20612958.516 8 108321864.971 8     -1031.348          51.000    20612960.203 8  84406677.939 8      -803.648          51.000  
G04  20518086.594 8 107823296.440 8      1269.637          49.000    20518087.656 8  84018188.954 8       989.328          49.000  
G01  22359558.156 8 117500264.978 8     -3027.398          50.000    22359559.984 8  91558653.694 8     -2359.016          50.000  
R08  19744322.734 5 105729612.958 5     -1444.973          35.000    19744322.695 5  82234097.449 5     -1123.871          31.000  
R23  19446975.547 8 104027838.163 8     -1529.785          50.000    19446978.875 6  80910548.459 6     -1189.833          38.000  
R22  23332626.805 5 124550778.130 5     -4520.473          34.000    23332627.641 6  96872820.028 6     -3515.927          36.000  
R07  22862617.508 5 122384993.694 5     -3439.980          33.000    22862615.852 5  95188333.977 5     -2675.544          31.000  
E26  25728983.109 6 135206698.147 6     -3008.836          41.000    25728982.852 6 103599941.935 6     -2305.602          41.000  
E33  23765992.133 8 124891131.055 8     -1209.164          51.000    23765991.820 8  95695814.802 8      -926.572          51.000  
E19  24746333.867 8 130042865.471 8      1579.289          49.000    24746333.547 8  99643251.445 8      1210.045          49.000  
C22  22301991.188 8 116132301.039 8     -1220.133          51.000                                                                  
C12  22402342.641 7 116654909.035 7     -1109.668          46.000    22402340.828 8  90204965.038 8      -857.990          49.000  
C19  25645032.578 5 133540406.536 5     -2720.230          30.000                                                                  
C21  22572200.305 6 117539409.486 6      1428.832          37.000                                                                  
> 2020 05 09 22 00 30.0000000  0 15      -0.000000000000
G09  22416314.828 8 117798628.021 8      3081.094          48.000    22416317.070 8  91791115.448 8      2400.853          48.000  
G03  20618881.266 8 108352989.210 8     -1043.184          51.000    20618882.805 8  84430930.594 8      -812.871          51.000  
G04  20510894.914 8 107785504.357 8      1250.262          49.000    20510895.938 8  83988740.574 8       974.230          48.000  
G01  22376877.094 8 117591274.823 8     -3039.547          50.000    22376878.141 8  91629570.476 8     -2368.476          50.000  
R08  19752460.055 5 105773189.502 5     -1459.867          35.000    19752459.758 5  82267990.321 5     -1135.453          31.000  
R23  19455636.344 8 104074168.694 8     -1558.398          51.000    19455639.703 6  80946583.352 6     -1212.088          39.000  
R22  23358050.375 6 124686497.735 6     -4526.758          36.000    23358054.320 6  96978379.644 6     -3520.815          36.000  
R07  22881907.758 5 122488257.463 5     -3443.125          35.000    22881906.359 5  95268650.241 5     -2677.984          31.000  
E26  25746181.391 6 135297076.248 6     -3015.660          38.000    25746182.117 7 103669192.653 7     -2310.726          42.000  
E33  23772939.430 8 124927639.690 8     -1224.219          51.000    23772939.641 8  95723788.943 8      -937.963          51.000  
E19  24737350.883 8 129995656.878 8      1568.461          49.000    24737349.734 8  99607078.645 8      1201.823          49.000  
C22  22309049.086 8 116169053.722 8     -1229.613          51.000                                                                  
C12  22408791.391 7 116688491.311 7     -1128.629          46.000    22408789.477 8  90230932.979 8      -872.685          50.000  
C19  25660707.242 5 133622031.048 5     -2721.625          32.000                                                                  
C21  22563997.117 6 117496692.560 6      1419.059          36.000                                                                  
> 2020 05 09 22 01  0.0000000  0 18      -0.000000000000
G09  22398751.203 8 117706330.972 8      3071.867          49.000    22398753.680 8  91719195.686 8      2393.664          49.000  
G22  22190228.281 5 116610444.466 5     -2081.332          34.000                                                                  
G03  20624862.516 8 108384421.188 8     -1052.324          51.000    20624864.109 8  84455423.057 8      -819.993          51.000  
G04  20503803.695 8 107748240.972 8      1233.902          49.000    20503804.836 8  83959704.152 8       961.483          48.000  
G01  22394255.469 8 117682597.528 8     -3048.680          51.000    22394256.000 8  91700731.013 8     -2375.595          51.000  
G19  22159954.266 5 116451376.495 5       206.574          35.000                                                                  
R08  19760669.227 5 105817150.272 5     -1471.473          32.000    19760671.125 5  82302181.951 5     -1144.479          33.000  
R23  19464447.797 8 104121305.343 8     -1584.059          51.000    19464451.688 6  80983245.162 6     -1232.049          40.000  
R22  23383502.172 6 124822363.071 6     -4530.270          38.000    23383506.195 5  97084052.643 5     -3523.544          35.000  
R01  20002202.562 5 106922819.294 5      1469.605          30.000                                                                  
R07  22901205.500 6 122591561.252 6     -3443.539          36.000    22901204.867 5  95348997.631 5     -2678.312          32.000  
E26  25763408.664 6 135387603.905 6     -3019.316          38.000    25763410.398 7 103738557.938 7     -2313.617          43.000  
E33  23779962.930 8 124964548.062 8     -1236.355          51.000    23779963.828 8  95752069.368 8      -947.326          51.000  
E19  24728420.086 8 129948722.830 8      1560.582          49.000    24728418.805 8  99571116.233 8      1195.679          50.000  
C22  22316152.180 8 116206041.171 8     -1236.207          51.000                                                                  
C12  22415340.461 7 116722594.339 7     -1145.047          46.000    22415339.234 8  90257303.601 8      -885.251          51.000  
C19  25676385.797 5 133703679.743 5     -2721.504          32.000                                                                  
C21  22555843.078 5 117454230.318 5      1410.719          34.000                                                                  
> 2020 05 09 22 01 30.0000000  0 18      -0.000000000000
G09  22381239.219 8 117614303.159 8      3063.426          51.000    22381241.531 8  91647485.749 8      2387.086          51.000  
G22  22202119.953 5 116672938.364 5     -2086.617          35.000    22202119.633 5  90913967.867 5     -1625.936          31.000  
G17  22177627.930 5 116544242.630 5      -951.172          34.000    22177639.117 5  90813724.372 5      -741.173          31.000  
G03  20630894.023 8 108416117.422 8     -1060.664          51.000    20630895.719 8  84480121.433 8      -826.492          51.000  
G04  20496805.227 8 107711463.640 8      1218.117          50.000    20496806.328 8  83931046.512 8       949.186          49.000  
G01  22411684.648 8 117774188.490 8     -3057.430          49.000    22411684.703 8  91772100.586 8     -2382.417          50.000  
G19  22158837.141 5 116445474.31325       184.625          30.000                                                                  
R08  19768941.328 4 105861448.813 4     -1482.086          29.000    19768944.852 5  82336636.457 5     -1152.731          32.000  
R23  19473401.602 8 104169202.430 8     -1608.918          51.000    19473406.078 6  81020498.433 6     -1251.381          41.000  
R22  23408972.805 6 124958326.857 6     -4533.441          37.000    23408976.617 5  97189802.229 5     -3526.011          33.000  
R07  22920502.469 6 122694859.632 6     -3442.633          36.000    22920502.555 5  95429340.828 5     -2677.604          32.000  
E26  25780656.758 5 135478236.704 5     -3022.879          34.000    25780658.344 7 103808003.799 7     -2315.946          43.000  
E33  23787054.555 8 125001812.694 8     -1247.777          51.000    23787055.742 8  95780622.789 8      -956.096          51.000  
E19  24719532.930 8 129902020.249 8      1553.215          49.000    24719532.336 8  99535331.151 8      1190.090          50.000  
C22  22323291.984 8 116243219.916 8     -1242.207          51.000                                                                  
C12  22421981.367 7 116757174.373 7     -1160.289          47.000    22421981.117 8  90284043.102 8      -897.215          51.000  
C19  25692061.742 5 133785309.409 5     -2720.473          32.000                                                                  
C21  22547729.469 5 117411979.905 5      1404.949          34.000                                                                  
> 2020 05 09 22 02  0.0000000  0 17      -0.000000000000
G09  22363788.602 8 117522597.399 8      3051.824          50.000    22363790.773 8  91576026.760 8      2378.046          50.000  
G17  22183117.734 5 116573102.256 5      -970.602          35.000    22183121.484 4  90836212.456 4      -756.310          29.000  
G03  20636985.469 8 108448128.548 8     -1071.812          51.000    20636987.336 8  84505065.169 8      -835.179          51.000  
G04  20489909.125 8 107675223.922 8      1199.492          50.000    20489910.016 8  83902807.801 8       934.669          49.000  
G01  22429174.055 8 117866097.239 8     -3068.465          49.000    22429174.852 8  91843717.751 8     -2391.012          48.000  
G31  23493209.750 4 123457649.79124     -1208.742          28.000    23493210.500 4  96200753.08924      -941.877          24.000  
R08  19777285.938 5 105906135.545 5     -1495.402          32.000    19777287.672 4  82371392.845 4     -1163.094          28.000  
R23  19482507.211 8 104217910.495 8     -1636.672          51.000    19482511.812 6  81058382.487 6     -1272.967          41.000  
R22  23434471.070 6 125094437.491 6     -4539.148          37.000    23434474.922 5  97295666.052 5     -3530.449          33.000  
R07  22939807.523 6 122798203.232 6     -3445.188          36.000    22939807.875 5  95509719.167 5     -2679.591          32.000  
E26                                                                  25797934.734 6 103877568.429 6     -2320.448          41.000  
E33  23794223.539 8 125039484.414 8     -1262.117          51.000    23794224.609 8  95809488.125 8      -967.083          51.000  
E19  24710699.141 8 129855600.458 8      1543.027          48.000    24710699.500 8  99499762.753 8      1182.281          49.000  
C22  22330478.078 8 116280639.723 8     -1250.883          51.000                                                                  
C12  22428723.289 7 116792281.179 7     -1178.633          46.000    22428723.953 8  90311189.920 8      -911.394          51.000  
C19  25707743.562 5 133866970.194 5     -2721.867          33.000                                                                  
C21  22539666.289 6 117369992.067 6      1395.582          36.000                                                                  
> 2020 05 09 22 02 30.0000000  0 17      -0.000000000000
G09  22346394.156 8 117431188.015 8      3041.609          50.000    22346396.289 8  91504798.696 8      2370.086          49.000  
G17  22188717.391 6 116602496.61026      -989.102          36.000                                                                  
G03  20643131.570 8 108480426.891 8     -1081.750          51.000    20643133.688 8  84530232.700 8      -842.922          51.000  
G04  20483110.273 8 107639495.029 8      1182.195          50.000    20483110.688 8  83874967.111 8       921.191          49.000  
G01  22446718.477 8 117958294.991 8     -3078.387          49.000    22446720.164 8  91915560.137 8     -2398.744          49.000  
G31  23500162.656 6 123494180.999 6     -1227.797          37.000    23500167.336 6  96229259.133 6      -956.728          37.000  
R08  19785699.094 5 105951180.231 5     -1507.750          31.000    19785697.109 5  82406427.568 5     -1172.695          30.000  
R23  19491759.047 8 104267400.096 8     -1662.969          51.000    19491763.758 7  81096874.390 7     -1293.420          42.000  
R22  23459991.062 5 125230663.879 5     -4543.871          31.000    23459994.195 5  97401619.773 5     -3534.129          33.000  
R07  22959115.305 5 122901562.626 5     -3445.902          35.000    22959116.164 5  95590109.724 5     -2680.147          30.000  
E26                                                                  25815235.227 6 103947229.914 6     -2323.710          41.000  
E33  23801464.305 8 125077535.605 8     -1274.957          51.000    23801465.297 8  95838644.213 8      -976.901          51.000  
E19  24701913.555 7 129809436.113 7      1534.312          47.000    24701914.844 8  99464390.082 8      1175.634          49.000  
C22  22337705.188 8 116318272.787 8     -1258.262          51.000                                                                  
C12  22435560.688 7 116827886.672 7     -1195.363          45.000    22435561.727 8  90338722.369 8      -924.340          51.000  
C19  25723426.148 5 133948634.597 5     -2722.016          31.000                                                                  
C21  22531648.867 5 117328239.630 5      1387.676          34.000                                                                  
> 2020 05 09 22 03  0.0000000  0 20      -0.000000000000
G09  22329055.938 8 117340074.916 8      3031.320          49.000    22329057.711 8  91433801.519 8      2362.069          49.000  
G22  22238043.133 6 116861705.648 6     -2106.867          37.000                                                                  
G17  22194402.656 5 116632423.242 5     -1007.781          34.000    22194395.695 5  90882358.577 5      -785.281          33.000  
G03  20649332.000 8 108513010.220 8     -1091.859          51.000    20649333.977 8  84555622.313 8      -850.800          51.000  
G04  20476408.227 8 107604275.578 8      1164.582          50.000    20476408.414 8  83847523.399 8       907.467          49.000  
G01  22464317.531 8 118050778.401 8     -3088.305          49.000    22464319.859 8  91987625.132 8     -2406.472          50.000  
G31  23507226.125 6 123531298.325 6     -1247.734          39.000    23507231.297 6  96258181.761 6      -972.261          39.000  
R08  19794176.359 6 105996579.528 6     -1520.160          36.000    19794176.812 5  82441738.216 5     -1182.347          33.000  
R23  19501156.398 8 104317667.589 8     -1689.516          51.000    19501161.180 7  81135971.323 7     -1314.068          42.000  
R22  23485531.406 5 125367000.607 5     -4546.648          35.000    23485533.930 5  97507659.361 5     -3536.286          31.000  
R01  19969842.938 5 106749905.018 5      1411.797          34.000    19969847.117 4  83027693.551 4      1098.068          27.000  
R07  22978425.805 5 123004934.434 5     -3446.383          32.000    22978426.906 4  95670509.964 4     -2680.523          27.000  
E07  26874743.008 5 141227728.598 5     -2551.789          33.000                                                                  
E26                                                                  25832559.445 6 104016985.927 6     -2327.526          40.000  
E33  23808777.047 8 125115964.083 8     -1288.148          51.000    23808777.930 8  95868089.401 8      -987.035          51.000  
E19  24693176.531 8 129763525.750 8      1525.156          48.000    24693178.273 8  99429212.029 8      1168.693          49.000  
C22  22344972.820 8 116356116.556 8     -1265.891          51.000                                                                  
C12  22442493.375 7 116863988.160 7     -1212.609          46.000    22442493.961 8  90366638.308 8      -937.649          51.000  
C19  25739108.969 4 134030300.409 4     -2722.637          29.000                                                                  
C21  22523676.320 4 117286720.992 4      1378.246          29.000                                                                  
> 2020 05 09 22 03 30.0000000  0 17      -0.000000000000
G09  22311776.305 8 117249270.051 8      3022.031          49.000    22311777.242 8  91363044.547 8      2354.833          49.000  
G03  20655588.656 8 108545888.468 8     -1100.391          51.000    20655590.320 8  84581241.725 8      -857.448          51.000  
G04  20469805.219 8 107569576.304 8      1148.352          51.000    20469805.258 8  83820485.036 8       894.820          49.000  
G01  22481972.953 8 118143556.322 8     -3097.125          50.000    22481974.430 8  92059919.618 8     -2413.345          51.000  
G31  23514399.070 6 123568995.268 6     -1266.047          37.000    23514402.320 5  96287555.991 5      -986.536          35.000  
R08  19802722.812 6 106042342.047 6     -1531.152          38.000    19802725.438 5  82477331.272 5     -1190.896          31.000  
R23  19510700.609 8 104368721.804 8     -1714.492          51.000    19510705.266 7  81175680.153 7     -1333.494          42.000  
R22  23511094.000 6 125503454.983 6     -4550.312          37.000    23511096.109 5  97613790.493 5     -3539.133          30.000  
R01  19961956.188 5 106707742.839 5      1398.277          35.000    19961957.930 4  82994900.751 4      1087.549          26.000  
R07  22997740.328 5 123108328.093 5     -3446.598          30.000                                                                  
E07  26889310.688 5 141304280.203 5     -2552.273          35.000                                                                  
E26  25849905.602 6 135842167.624 6     -3040.656          38.000    25849908.117 6 104086843.391 6     -2329.669          37.000  
E33  23816163.617 8 125154779.825 8     -1299.906          51.000    23816164.320 8  95897831.329 8      -995.973          51.000  
E19  24684490.453 8 129717879.706 8      1517.590          49.000    24684491.945 8  99394236.528 8      1162.802          49.000  
C22  22352282.617 8 116394180.439 8     -1272.055          51.000                                                                  
C12  22449523.453 7 116900594.808 7     -1228.148          46.000    22449522.984 8  90394944.875 8      -949.619          51.000  
C19  25754794.055 4 134111970.322 4     -2722.211          28.000                                                                  
> 2020 05 09 22 04  0.0000000  0 17      -0.000000000000
G09  22294554.242 8 117158768.769 8      3011.422          48.000    22294554.711 8  91292524.116 8      2346.563          48.000  
G03  20661900.109 8 108579054.949 8     -1110.590          51.000    20661901.781 8  84607085.730 8      -865.395          51.000  
G04  20463300.047 8 107535391.357 8      1130.848          50.000    20463299.914 8  83793847.433 8       881.183          48.000  
G01  22499683.148 8 118236620.906 8     -3106.977          51.000    22499682.719 8  92132437.446 8     -2421.021          51.000  
G31  23521680.570 5 123607264.130 5     -1285.461          35.000    23521677.648 5  96317375.745 5     -1001.658          33.000  
R08  19811336.805 5 106088459.097 5     -1542.984          34.000    19811334.398 4  82513200.021 4     -1200.102          28.000  
R23  19520390.328 8 104420554.602 8     -1740.836          51.000    19520394.688 7  81215994.555 7     -1353.984          42.000  
R22  23536676.750 5 125640017.101 5     -4553.918          35.000    23536679.008 4  97720004.89524     -3541.940          28.000  
R01  19954145.719 5 106665982.248 5      1383.273          32.000                                                                  
R07  23017057.250 4 123211735.812 4     -3447.320          27.000                                                                  
E07  26903887.992 5 141380883.017 5     -2554.145          35.000                                                                  
E26  25867279.133 6 135933462.552 6     -3045.039          39.000    25867278.711 5 104156796.624 5     -2333.267          33.000  
E33  23823622.289 8 125193976.239 8     -1313.027          51.000    23823623.008 8  95927864.934 8     -1006.072          51.000  
E19  24675853.703 8 129672491.808 8      1508.562          49.000    24675854.969 8  99359458.823 8      1155.846          49.000  
C22  22359633.312 8 116432457.441 8     -1279.555          51.000                                                                  
C12  22456649.180 7 116937699.408 7     -1245.320          47.000    22456648.555 8  90423636.480 8      -962.837          51.000  
C21  22507864.391 4 117204361.07424      1363.746          28.000                                                                  
> 2020 05 09 22 04 30.0000000  0 18      -0.000000000000
G09  22277393.195 8 117068587.763 8      3002.613          48.000    22277394.102 8  91222253.203 8      2339.699          48.000  
G22  22274271.969 6 117052092.388 6     -2123.148          38.000                                                                  
G03  20668269.195 8 108612524.301 8     -1118.758          51.000    20668270.875 8  84633165.738 8      -871.760          51.000  
G04  20456895.406 8 107501736.139 8      1114.957          50.000    20456895.297 8  83767622.604 8       868.798          48.000  
G01  22517450.320 8 118329985.682 8     -3115.266          50.000    22517447.930 8  92205189.195 8     -2427.480          50.000  
G31  23529073.148 4 123646118.787 4     -1303.238          29.000    23529069.273 4  96347652.123 4     -1015.495          26.000  
R08  19820015.969 5 106134944.296 5     -1553.609          32.000    19820014.523 5  82549355.201 5     -1208.363          32.000  
R23  19530227.969 8 104473179.613 8     -1765.422          51.000    19530232.461 7  81256925.101 7     -1373.106          42.000  
R22  23562282.359 5 125776698.859 5     -4555.973          35.000    23562285.289 4  97826316.91524     -3543.538          27.000  
R01  19946428.875 5 106624685.133 5      1371.082          31.000                                                                  
E07  26918476.094 5 141457546.081 5     -2554.453          33.000                                                                  
E26  25884679.062 6 136024896.113 6     -3048.129          41.000    25884674.914 4 104226859.056 4     -2335.715          29.000  
E33  23831156.148 8 125233567.956 8     -1324.395          51.000    23831156.883 8  95958201.432 8     -1014.796          51.000  
E19  24667268.805 8 129627377.134 8      1501.184          48.000    24667270.094 8  99324890.452 8      1150.279          49.000  
C22  22367027.680 8 116470961.702 8     -1285.359          51.000                                                                  
C12  22463873.414 8 116975315.782 8     -1260.434          48.000    22463873.219 8  90452723.840 8      -974.705          51.000  
C19  25786167.906 4 134275343.146 4     -2722.121          28.000                                                                  
C21  22500036.648 5 117163578.280 5      1357.188          34.000                                                                  
> 2020 05 09 22 05  0.0000000  0 16      -0.000000000000
G09  22260290.633 8 116978713.131 8      2989.957          49.000    22260292.281 8  91152221.035 8      2329.837          49.000  
G22  22286424.531 6 117115945.378 6     -2132.254          41.000    22286415.477 5  91259138.020 5     -1661.485          32.000  
G17  22218200.195 5 116757437.515 5     -1078.961          34.000    22218194.031 5  90979803.468 5      -840.749          33.000  
G03  20674692.812 8 108646280.550 8     -1130.758          51.000    20674694.492 8  84659469.307 8      -881.110          51.000  
G04  20450588.977 8 107468595.525 8      1095.355          51.000    20450589.016 8  83741798.754 8       853.524          49.000  
G01  22535270.914 8 118423633.506 8     -3127.238          48.000    22535268.680 8  92278161.497 8     -2436.813          49.000  
R08  19828761.125 6 106181779.833 6     -1567.555          37.000    19828763.078 5  82585782.914 5     -1219.209          32.000  
R23  19540210.266 8 104526579.173 8     -1793.773          51.000    19540214.633 6  81298458.086 6     -1395.157          41.000  
R22  23587906.742 5 125913481.014 5     -4561.926          34.000                                                                  
E26  25902102.148 6 136116451.565 6     -3054.672          40.000                                                                  
E33  23838762.516 8 125273539.057 8     -1339.629          51.000    23838763.086 8  95988828.633 8     -1026.448          51.000  
E19  24658733.055 8 129582520.426 8      1490.039          49.000    24658734.266 8  99290519.726 8      1141.788          48.000  
C22  22374462.656 8 116509677.047 8     -1294.887          51.000                                                                  
C12  22471192.516 7 117013427.474 7     -1279.492          46.000    22471192.992 8  90482194.233 8      -989.385          51.000  
C19  25801862.422 4 134357064.646 4     -2724.070          29.000                                                                  
C21  22492250.461 5 117123031.469 5      1347.047          32.000                                                                  
> 2020 05 09 22 05 30.0000000  0 17      -0.000000000000
G09  22243248.539 8 116889154.364 8      2981.059          50.000    22243249.977 8  91082434.988 8      2322.906          50.000  
G22  22298612.250 6 117179988.880 6     -2136.941          38.000    22298606.820 5  91309042.041 5     -1665.147          34.000  
G17  22224405.531 6 116790054.402 6     -1095.352          36.000    22224403.531 5  91005219.081 5      -853.524          35.000  
G03  20681172.406 8 108680331.189 8     -1138.707          51.000    20681174.008 8  84686002.268 8      -887.301          51.000  
G04  20444382.203 8 107435977.723 8      1079.605          51.000    20444382.672 8  83716382.315 8       841.254          50.000  
G01  22553145.469 7 118517570.737 7     -3135.180          46.000    22553145.211 7  92351359.335 7     -2442.995          46.000  
R08  19837574.508 6 106228971.719 6     -1577.984          36.000    19837576.586 4  82622487.694 4     -1227.324          28.000  
R23  19550338.539 8 104580759.121 8     -1817.898          51.000    19550342.773 6  81340598.056 6     -1413.921          40.000  
R22  23613549.992 5 126050368.180 5     -4563.914          34.000                                                                  
R01  19931211.062 4 106543364.033 4      1341.184          29.000                                                                  
E26  25919549.766 6 136208135.481 6     -3057.262          40.000                                                                  
E33  23846442.477 8 125313896.970 8     -1350.707          51.000    23846443.039 8  96019752.239 8     -1034.970          51.000  
E19  24650248.367 8 129537929.582 8      1482.938          50.000    24650248.859 8  99256352.708 8      1136.271          48.000  
C22  22381939.500 8 116548610.500 8     -1300.348          51.000                                                                  
C12  22478607.094 7 117052041.196 7     -1294.410          45.000    22478608.484 8  90512052.842 8     -1001.002          51.000  
C19  25817553.898 4 134438778.12424     -2722.109          29.000                                                                  
C21  22484508.008 5 117082729.861 5      1340.461          33.000                                                                  
> 2020 05 09 22 06  0.0000000  0 16      -0.000000000000
G09  22226257.570 8 116799863.690 8      2971.191          50.000    22226258.023 8  91012857.864 8      2315.215          50.000  
G22  22310825.656 6 117244172.644 6     -2142.270          40.000    22310820.867 5  91359055.270 5     -1669.307          34.000  
G17  22230704.211 6 116823157.399 6     -1112.355          36.000    22230710.727 5  91031013.505 5      -866.765          35.000  
G03  20687698.555 8 108714626.425 8     -1147.848          51.000    20687699.844 8  84712725.835 8      -894.427          51.000  
G04  20438265.688 8 107403833.640 8      1062.988          51.000    20438266.320 8  83691334.994 8       828.303          51.000  
G01  22571065.164 7 118611746.348 7     -3143.715          45.000    22571067.422 7  92424742.997 7     -2449.649          45.000  
R08  19846445.016 5 106276467.547 5     -1588.887          31.000    19846443.438 4  82659428.879 4     -1235.798          29.000  
R23  19560603.219 8 104635667.739 8     -1843.027          51.000    19560607.297 6  81383304.743 6     -1433.466          40.000  
R22  23639201.406 5 126187307.052 5     -4565.590          32.000                                                                  
E26  25937012.078 6 136299897.238 6     -3060.691          38.000                                                                  
E33  23854186.469 8 125354591.993 8     -1362.711          51.000    23854186.797 8  96050934.143 8     -1044.156          51.000  
E19  24641804.914 8 129493555.172 8      1474.977          50.000    24641804.461 7  99222351.550 7      1130.156          47.000  
C22  22389448.633 8 116587712.377 8     -1306.785          51.000                                                                  
C12  22486108.844 7 117091107.039 7     -1310.398          47.000    22486109.875 8  90542261.037 8     -1013.241          50.000  
C19  25833238.539 5 134520452.807 5     -2722.586          31.000                                                                  
C21  22476805.898 6 117042624.495 6      1333.016          37.000                                                                  
> 2020 05 09 22 06 30.0000000  0 16      -0.000000000000
G09  22209319.992 8 116710855.747 8      2960.543          49.000    22209320.188 8  90943501.045 8      2306.917          49.000  
G22  22323068.828 6 117308509.299 6     -2148.191          41.000    22323065.219 6  91409187.732 6     -1673.916          38.000  
G03  20694273.703 8 108749178.922 8     -1157.570          51.000    20694274.750 8  84739649.861 8      -902.003          51.000  
G04  20432241.711 8 107372176.696 8      1045.465          51.000    20432242.508 8  83666667.238 8       814.648          51.000  
G01  22589033.453 8 118706171.987 8     -3153.328          48.000    22589037.336 8  92498321.432 8     -2457.140          48.000  
R08  19855373.336 6 106324278.880 6     -1600.633          36.000    19855372.633 5  82696615.494 5     -1244.937          31.000  
R23  19571006.742 8 104691315.928 8     -1868.934          51.000    19571010.195 6  81426586.669 6     -1453.615          40.000  
R22  23664864.141 5 126324307.183 5     -4569.398          31.000                                                                  
R01  19916293.422 5 106463631.488 5      1313.469          31.000                                                                  
E26  25954491.086 6 136391748.512 6     -3064.691          38.000    25954493.547 5 104507987.490 5     -2348.176          33.000  
E33  23861997.008 8 125395636.732 8     -1375.605          51.000    23861996.859 8  96082384.028 8     -1054.027          51.000  
E19  24633404.656 8 129449410.462 8      1466.004          49.000    24633403.516 7  99188526.404 7      1123.353          47.000  
C22  22396992.391 8 116626994.833 8     -1314.043          51.000                                                                  
C12  22493700.523 8 117130636.719 8     -1326.852          48.000    22493699.750 8  90572827.882 8     -1026.036          50.000  
C19  25848917.312 4 134602097.617 4     -2723.570          28.000                                                                  
C21  22469144.695 6 117002728.240 6      1324.672          36.000                                                                  
> 2020 05 09 22 07  0.0000000  0 15      -0.000000000000
G09  22192456.875 8 116622242.460 8      2940.461          48.000    22192457.750 8  90874451.725 8      2291.269          48.000  
G22  22335361.992 6 117373108.875 6     -2164.504          40.000    22335359.125 6  91459525.083 6     -1686.624          38.000  
G17  22243608.320 5 116890952.03025     -1156.816          34.000                                                                  
G03  20700918.664 8 108784098.576 8     -1176.805          51.000    20700919.867 8  84766859.995 8      -916.991          51.000  
G04  20426331.469 8 107341117.463 8      1018.633          51.000    20426332.414 8  83642465.252 8       793.740          51.000  
G01  22607070.633 8 118800956.320 8     -3172.109          49.000    22607075.281 8  92572179.362 8     -2471.774          49.000  
R08  19864381.734 5 106372516.060 5     -1621.855          32.000    19864382.172 5  82734133.304 5     -1261.443          31.000  
R23  19581569.023 8 104747814.514 8     -1904.270          51.000    19581572.453 6  81470530.024 6     -1481.099          41.000  
R01  19908973.461 5 106424473.967 5      1289.648          31.000                                                                  
E26  25972007.547 6 136483798.443 6     -3078.312          38.000    25972009.547 5 104578519.277 5     -2358.496          35.000  
E33  23869895.031 8 125437141.069 8     -1397.930          51.000    23869894.820 8  96114186.072 8     -1071.127          51.000  
E19  24625068.680 8 129405605.785 8      1447.777          49.000    24625067.477 8  99154961.797 8      1109.316          48.000  
C22  22404591.586 8 116666566.415 8     -1330.508          51.000                                                                  
C12  22501401.953 8 117170738.469 8     -1352.898          48.000    22501400.297 8  90603837.061 8     -1046.138          51.000  
C21  22461544.070 5 116963150.305 5      1307.527          35.000                                                                  
> 2020 05 09 22 07 30.0000000  0 16      -0.000000000000
G09  22175656.305 8 116533959.344 8      2940.762          48.000    22175658.008 8  90805659.647 8      2291.500          48.000  
G22  22347692.578 7 117437904.730 7     -2159.566          42.000    22347689.586 6  91510015.313 6     -1682.783          36.000  
G17  22250221.562 5 116925697.944 5     -1163.453          35.000    22250227.203 6  91110956.501 6      -906.590          36.000  
G03  20707620.789 8 108819318.879 8     -1175.504          51.000    20707622.266 8  84794304.388 8      -915.977          51.000  
G04  20420522.320 8 107310590.113 8      1012.270          51.000    20420522.938 8  83618677.704 8       788.782          51.000  
G01  22625163.344 8 118896031.661 8     -3170.582          49.000    22625167.930 8  92646264.041 8     -2470.584          49.000  
G31  23575689.859 5 123891070.72725     -1415.504          31.000                                                                  
R08  19873455.977 5 106421109.951 5     -1622.555          35.000    19873457.594 5  82771928.618 5     -1261.987          30.000  
R23  19592276.969 8 104805093.740 8     -1918.785          51.000    19592280.547 6  81515080.533 6     -1492.389          41.000  
R01  19901726.844 5 106385755.305 5      1287.590          30.000                                                                  
E26  25989549.039 6 136575979.648 6     -3071.578          39.000    25989551.156 6 104649151.666 6     -2353.482          36.000  
E33  23877867.719 8 125479038.435 8     -1399.656          51.000    23877867.898 8  96146289.253 8     -1072.482          51.000  
E19  24616784.930 8 129362075.172 8      1449.891          50.000    24616784.078 8  99121607.166 8      1111.001          49.000  
C22  22412233.539 8 116706360.853 8     -1326.789          51.000                                                                  
C12  22509200.508 8 117211345.637 8     -1358.516          50.000    22509198.828 8  90635237.103 8     -1050.497          51.000  
C21  22453993.633 6 116923825.461 6      1309.734          38.000                                                                  
> 2020 05 09 22 08  0.0000000  0 15      -0.000000000000
G09  22158879.867 8 116445799.840 8      2928.645          49.000    22158881.695 8  90736963.919 8      2282.061          49.000  
G22  22360020.906 6 117502688.658 6     -2166.863          40.000    22360017.406 5  91560496.316 5     -1688.462          35.000  
G17  22256897.078 5 116960773.520 5     -1182.762          33.000    22256900.617 5  91138288.230 5      -921.630          34.000  
G03  20714340.523 8 108854631.383 8     -1186.598          51.000    20714342.242 8  84821820.633 8      -924.622          51.000  
G04  20414774.586 8 107280386.897 8       993.477          51.000    20414775.078 8  83595142.734 8       774.138          51.000  
G01  22643271.492 8 118991188.327 8     -3181.059          49.000    22643275.672 8  92720412.085 8     -2478.748          49.000  
G31  23583815.016 5 123933773.573 5     -1436.051          33.000    23583813.406 5  96571773.163 5     -1118.989          32.000  
R08  19882557.305 5 106469846.378 5     -1635.297          34.000    19882559.078 5  82809834.738 5     -1271.895          30.000  
R23  19603090.516 8 104862940.022 8     -1945.715          51.000    19603094.227 6  81560072.104 6     -1513.334          41.000  
E26  26007075.805 6 136668082.684 6     -3076.887          40.000    26007078.633 6 104719724.132 6     -2357.496          37.000  
E33  23885875.430 8 125521120.364 8     -1413.918          51.000    23885876.125 8  96178533.844 8     -1083.368          51.000  
E19  24608513.812 8 129318610.528 8      1439.645          50.000    24608513.734 8  99088303.106 8      1103.102          50.000  
C22  22419878.531 8 116746171.262 8     -1335.141          51.000                                                                  
C12  22517056.539 8 117252250.863 8     -1376.348          50.000    22517054.977 8  90666867.639 8     -1064.349          51.000  
C21  22446451.867 5 116884547.424 5      1300.707          35.000                                                                  
> 2020 05 09 22 08 30.0000000  0 16      -0.000000000000
G09  22142191.234 8 116358099.311 8      2918.551          50.000    22142192.289 8  90668625.874 8      2274.196          50.000  
G22  22372410.375 6 117567793.986 6     -2173.172          38.000    22372405.305 6  91611227.756 6     -1693.381          36.000  
G17  22263697.148 5 116996510.358 5     -1199.859          34.000                                                                  
G03  20721141.266 8 108890369.475 8     -1195.641          51.000    20721143.109 8  84849668.510 8      -931.668          51.000  
G04  20409152.141 8 107250841.830 8       976.625          51.000    20409152.820 8  83572120.599 8       761.010          51.000  
G01  22661458.219 8 119086758.565 8     -3189.750          49.000    22661461.641 8  92794882.384 8     -2485.520          50.000  
G31  23592066.492 5 123977132.183 5     -1453.906          34.000    23592067.211 5  96605559.111 5     -1132.908          34.000  
R08  19891747.945 5 106519063.457 5     -1645.129          30.000    19891750.070 5  82848114.701 5     -1279.542          31.000  
R23  19614072.289 8 104921690.762 8     -1970.566          50.000    19614077.203 7  81605767.116 7     -1532.663          42.000  
E07  27035431.828 5 142072160.119 5     -2566.125          35.000                                                                  
E26  26024650.805 6 136760440.084 6     -3079.891          40.000    26024654.258 6 104790491.490 6     -2359.924          37.000  
E33  23893981.898 8 125563720.166 8     -1425.875          51.000    23893982.664 8  96211175.248 8     -1092.497          51.000  
E19  24600318.547 8 129275545.674 8      1431.699          50.000    24600319.336 8  99055305.386 8      1096.966          49.000  
C22  22427590.094 8 116786327.623 8     -1341.590          51.000                                                                  
C12  22525033.188 8 117293783.703 8     -1392.270          51.000    22525031.477 8  90698983.444 8     -1076.416          51.000  
C21  22438979.906 4 116845646.969 4      1293.660          29.000                                                                  
> 2020 05 09 22 09  0.0000000  0 13      -0.000000000000
G09  22125584.320 8 116270826.643 8      2901.145          50.000    22125584.445 8  90600621.236 8      2260.636          50.000  
G17  22270616.297 5 117032874.885 5     -1223.531          33.000                                                                  
G03  20728016.648 8 108926500.023 8     -1211.664          51.000    20728018.523 8  84877822.195 8      -944.154          51.000  
G04  20403648.758 8 107221922.384 8       952.879          51.000    20403649.523 8  83549585.976 8       742.503          51.000  
G01  22679717.039 8 119182708.035 8     -3205.176          48.000    22679719.555 8  92869648.183 8     -2497.540          48.000  
R08  19901020.945 5 106568726.415 5     -1663.594          35.000    19901026.281 5  82886741.497 5     -1293.906          31.000  
R23  19625216.445 8 104981310.645 8     -2002.469          49.000    19625222.500 7  81652138.140 7     -1557.476          42.000  
E26  26042267.344 6 136853017.874 6     -3090.258          38.000    26042271.500 5 104861427.771 5     -2367.598          35.000  
E33  23902180.547 8 125606804.649 8     -1444.926          51.000    23902181.539 8  96244188.036 8     -1107.176          51.000  
E19  24592193.023 8 129232848.082 8      1416.449          49.000    24592194.500 8  99022589.059 8      1085.338          49.000  
C22  22435361.820 8 116826796.720 8     -1354.871          51.000                                                                  
C12  22533123.688 8 117335910.576 8     -1414.840          51.000    22533121.461 8  90731558.595 8     -1094.017          51.000  
C21  22431571.102 5 116807095.706 5      1279.164          33.000                                                                  
> 2020 05 09 22 09 30.0000000  0 17      -0.000000000000
G09  22108990.391 8 116183622.636 8      2900.938          51.000    22108990.383 8  90532670.104 8      2260.475          51.000  
G22  22397307.141 5 117698633.67125     -2181.176          33.000                                                                  
G17  22277589.102 6 117069545.52126     -1230.219          37.000                                                                  
G03  20734898.062 8 108962661.957 8     -1210.656          51.000    20734899.938 8  84906000.323 8      -943.369          51.000  
G04  20398196.125 8 107193268.087 8       945.941          51.000    20398196.586 8  83527257.954 8       737.100          51.000  
G01  22697978.805 8 119278674.433 8     -3203.949          48.000    22697980.938 8  92944427.167 8     -2496.584          48.000  
G31  23608877.562 5 124065485.79525     -1487.715          31.000                                                                  
R08  19910310.484 5 106618465.500 5     -1664.027          32.000    19910313.734 4  82925455.395 4     -1294.244          27.000  
R23  19636454.586 8 105041430.452 8     -2017.160          50.000    19636461.750 7  81698897.952 7     -1568.906          42.000  
R07  23229624.125 4 124349586.568 4     -3444.754          28.000                                                                  
E07  27064738.695 5 142226162.428 5     -2564.656          33.000                                                                  
E26  26059856.742 6 136945454.071 6     -3083.676          37.000    26059861.883 6 104932255.549 6     -2362.779          36.000  
E33  23910402.602 8 125650012.615 8     -1447.062          51.000    23910404.031 8  96277295.419 8     -1108.780          51.000  
E19  24584068.945 8 129190157.010 8      1418.164          50.000    24584070.781 8  98989877.738 8      1086.664          50.000  
C22  22443124.914 8 116867220.423 8     -1351.461          51.000                                                                  
C12  22541258.789 8 117378272.784 8     -1420.676          50.000    22541256.016 8  90764315.720 8     -1098.515          51.000  
C21  22424164.477 6 116768528.091 6      1281.043          38.000                                                                  
> 2020 05 09 22 10  0.0000000  0 16      -0.000000000000
G09  22092485.555 8 116096887.735 8      2886.375          49.000    22092485.672 8  90465084.510 8      2249.127          49.000  
G17  22284680.539 5 117106837.421 5     -1249.969          34.000                                                                  
G03  20741861.273 8 108999253.718 8     -1223.945          51.000    20741863.148 8  84934513.382 8      -953.724          51.000  
G04  20392869.742 8 107165277.970 8       924.980          51.000    20392870.445 8  83505447.499 8       720.767          51.000  
G01  22716318.930 7 119375054.978 7     -3216.363          46.000    22716321.289 7  93019528.878 7     -2506.258          46.000  
G31  23617449.508 6 124110541.671 6     -1509.723          36.000    23617449.969 5  96709501.724 5     -1176.414          35.000  
R08  19919689.648 4 106668684.777 4     -1679.051          29.000    19919690.789 4  82964510.832 4     -1305.923          27.000  
R23  19647862.820 8 105102453.779 8     -2046.016          51.000    19647869.344 6  81746360.531 6     -1591.346          41.000  
R01  19866623.094 5 106198100.12225      1215.504          30.000                                                                  
R07  23248952.328 5 124453054.878 5     -3448.461          31.000                                                                  
E26  26077495.555 5 137038146.090 5     -3090.949          35.000    26077501.258 6 105003279.337 6     -2368.382          36.000  
E33  23918724.016 8 125693742.385 8     -1463.320          51.000    23918725.656 8  96310802.647 8     -1121.249          51.000  
E19  24576022.266 8 129147871.461 8      1405.770          50.000    24576024.352 8  98957477.147 8      1077.182          50.000  
C22  22450954.992 8 116907993.196 8     -1361.910          51.000                                                                  
C12  22549514.250 8 117421264.416 8     -1440.492          50.000    22549511.773 8  90797559.581 8     -1113.871          51.000  
C21  22416832.961 6 116730343.396 6      1269.293          38.000                                                                  
> 2020 05 09 22 10 30.0000000  0 18      -0.000000000000
G09  22076054.164 8 116010539.594 8      2884.766          50.000    22076054.195 8  90397800.272 8      2247.870          50.000  
G22  22422312.555 5 117830065.203 5     -2187.754          35.000    22422306.273 5  91815601.363 5     -1704.744          33.000  
G17  22291885.820 5 117144706.351 5     -1259.160          33.000    22291885.820 5  91281546.335 5      -981.176          32.000  
G03  20748890.234 8 109036191.011 8     -1223.965          51.000    20748892.047 8  84963295.692 8      -953.739          51.000  
G04  20387653.961 8 107137868.328 8       916.926          51.000    20387654.992 8  83484089.366 8       714.491          50.000  
G01  22734721.266 7 119471764.168 7     -3215.848          45.000    22734723.977 7  93094886.671 7     -2505.856          45.000  
G31  23626138.414 6 124156195.059 6     -1519.195          38.000    23626137.781 6  96745075.790 6     -1183.792          37.000  
G19  22160180.984 5 116452496.61125      -199.527          33.000                                                                  
R08  19929141.500 5 106719297.556 5     -1680.270          33.000    19929144.477 4  83003876.394 4     -1306.877          26.000  
R23  19659423.594 8 105164293.096 8     -2061.594          51.000    19659429.086 6  81794457.798 6     -1603.462          41.000  
R07  23268291.867 5 124556583.802 5     -3438.293          30.000                                                                  
R09  22865908.727 5 122102282.221 5      1314.594          32.000    22865911.117 6  94968461.643 6      1022.465          39.000  
E26  26095167.656 5 137131029.914 5     -3085.355          34.000    26095172.625 5 105074433.953 5     -2364.174          35.000  
E33  23927128.711 8 125737909.635 8     -1466.516          51.000    23927130.312 8  96344645.081 8     -1123.602          51.000  
E19  24568036.977 8 129105907.283 8      1406.504          51.000    24568038.984 8  98925322.796 8      1077.735          51.000  
C22  22458835.914 8 116949031.181 8     -1359.457          51.000                                                                  
C12  22557874.422 8 117464801.007 8     -1447.402          49.000    22557872.930 8  90831224.841 8     -1119.190          51.000  
C21  22409559.000 6 116692458.424 6      1270.707          38.000                                                                  
> 2020 05 09 22 11  0.0000000  0 17      -0.000000000000
G09  22059653.445 8 115924355.354 8      2850.520          48.000    22059654.266 8  90330643.740 8      2221.185          48.000  
G22  22434853.828 6 117895969.703 6     -2216.113          36.000                                                                  
G17  22299159.086 6 117182926.209 6     -1299.570          36.000    22299153.062 5  91311328.108 5     -1012.653          32.000  
G03  20755942.094 8 109073249.074 8     -1256.695          51.000    20755943.969 8  84992172.103 8      -979.243          51.000  
G04  20382505.812 8 107110814.923 8       876.559          50.000    20382506.672 8  83463008.793 8       683.033          50.000  
G01  22753143.484 7 119568575.978 7     -3248.117          45.000    22753146.125 7  93170324.430 7     -2531.001          45.000  
G31  23634901.078 6 124202240.762 6     -1560.801          39.000    23634900.062 6  96780955.577 6     -1216.206          38.000  
R08  19938624.312 6 106770073.170 6     -1714.590          36.000    19938619.367 4  83043348.37624     -1333.573          24.000  
R23  19671093.562 8 105226717.787 8     -2110.285          51.000    19671098.289 6  81843010.331 6     -1641.336          41.000  
R07  23287599.703 5 124659943.507 5     -3462.547          32.000                                                                  
R09  22858631.461 5 122063401.581 5      1267.785          33.000    22858630.539 6  94938221.140 6       986.055          36.000  
E26                                                                  26112833.297 5 105145558.447 5     -2384.646          31.000  
E33  23935573.945 8 125782289.407 8     -1502.250          51.000    23935575.352 8  96378650.375 8     -1151.036          51.000  
E19  24560070.266 8 129064040.500 8      1374.535          51.000    24560071.727 8  98893243.079 8      1053.267          50.000  
C22  22466724.906 8 116990111.282 8     -1389.238          51.000                                                                  
C12  22566296.664 8 117508659.020 8     -1486.523          49.000    22566296.227 8  90865138.640 8     -1149.396          51.000  
C21  22402300.000 5 116654651.026 5      1239.461          34.000                                                                  
> 2020 05 09 22 11 30.0000000  0 16      -0.000000000000
G09  22043344.570 7 115838656.680 7      2855.516          46.000    22043347.000 7  90263865.532 7      2225.078          45.000  
G22  22447459.219 6 117962210.788 6     -2206.406          39.000    22447453.242 5  91918567.914 5     -1719.278          31.000  
G17  22306560.117 6 117221815.401 6     -1300.535          38.000    22306552.797 5  91341631.390 5     -1013.413          31.000  
G03  20763077.719 8 109110747.617 8     -1250.238          51.000    20763079.609 8  85021391.733 8      -974.212          51.000  
G04  20377486.352 8 107084437.999 8       875.055          50.000    20377487.305 8  83442455.360 8       681.864          50.000  
G01  22771645.898 7 119665808.978 7     -3241.094          43.000    22771648.805 7  93246090.352 7     -2525.531          43.000  
G31  23643798.430 6 124248997.353 6     -1563.293          38.000    23643797.352 6  96817389.332 6     -1218.148          39.000  
R08  19948198.172 6 106821335.562 6     -1709.508          36.000    19948198.367 5  83083219.166 5     -1329.614          31.000  
R23  19682933.562 8 105290051.191 8     -2119.051          51.000    19682938.000 7  81892269.627 7     -1648.151          42.000  
R01  19846525.906 5 106090657.316 5      1175.102          32.000                                                                  
R07  23306937.625 5 124763458.824 5     -3446.285          30.000                                                                  
R09  22851506.766 5 122025361.738 5      1260.855          33.000    22851506.859 6  94908634.682 6       980.666          36.000  
E33  23944120.461 8 125827201.293 8     -1498.801          51.000    23944121.883 8  96413063.385 8     -1148.423          51.000  
E19  24552182.852 8 129022591.100 8      1381.723          51.000    24552183.336 8  98861483.174 8      1058.717          49.000  
C22  22474682.789 8 117031549.960 8     -1380.266          51.000                                                                  
C12  22574841.531 8 117553154.309 8     -1486.707          49.000    22574841.789 8  90899545.216 8     -1149.680          51.000  
> 2020 05 09 22 12  0.0000000  0 17      -0.000000000000
G09  22027079.453 8 115753183.895 8      2841.996          49.000    22027082.633 8  90197263.370 8      2214.543          49.000  
G22  22460078.891 6 118028526.785 6     -2215.008          39.000                                                                  
G17  22314038.352 6 117261111.432 6     -1319.910          37.000    22314032.523 5  91372251.699 5     -1028.499          35.000  
G03  20770247.461 8 109148425.118 8     -1262.219          51.000    20770249.141 8  85050750.814 8      -983.547          51.000  
G04  20372546.008 8 107058476.633 8       854.965          49.000    20372547.438 8  83422225.736 8       666.207          49.000  
G01  22790178.633 7 119763200.258 7     -3252.500          43.000    22790182.250 7  93321979.681 7     -2534.416          43.000  
G31  23652781.516 6 124296202.136 6     -1584.398          36.000    23652779.711 5  96854172.340 5     -1234.597          35.000  
R08  19957811.445 6 106872817.011 6     -1722.992          38.000    19957812.844 5  83123260.277 5     -1340.108          30.000  
R23  19694892.555 8 105354025.394 8     -2146.613          51.000    19694897.453 6  81942027.320 6     -1669.588          41.000  
R01  19839975.984 5 106055643.622 5      1158.184          31.000                                                                  
R07  23326254.727 4 124866862.546 4     -3448.219          29.000                                                                  
R09  22844491.625 6 121987899.954 6      1235.496          36.000    22844491.500 5  94879497.719 5       960.939          34.000  
E26  26148246.445 5 137409970.615 5     -3105.598          33.000                                                                  
E33  23952718.461 8 125872383.657 8     -1513.961          51.000    23952719.742 8  96447683.644 8     -1160.058          51.000  
E19  24544325.039 8 128981297.950 8      1370.391          50.000    24544324.594 8  98829842.990 8      1050.034          48.000  
C22  22482659.672 8 117073087.727 8     -1389.594          51.000                                                                  
C12  22583458.859 8 117598026.914 8     -1505.434          50.000    22583459.555 8  90934243.545 8     -1164.064          51.000  
> 2020 05 09 22 12 30.0000000  0 18      -0.000000000000
G09  22010883.039 8 115668069.622 8      2835.094          50.000    22010885.984 8  90130940.607 8      2209.168          50.000  
G22  22472737.773 7 118095048.383 7     -2216.984          42.000    22472732.914 4  92022084.376 4     -1727.521          26.000  
G17  22321618.906 5 117300943.423 5     -1332.672          35.000    22321615.273 5  91403289.594 5     -1038.443          35.000  
G03  20777476.164 8 109186412.314 8     -1267.371          51.000    20777477.516 8  85080351.231 8      -987.562          51.000  
G04  20367709.578 8 107033061.970 8       842.082          50.000    20367710.891 8  83402422.102 8       656.168          49.000  
G01  22808766.148 7 119860879.451 7     -3256.691          44.000    22808770.688 7  93398093.342 7     -2537.682          43.000  
G31  23661874.688 6 124343985.044 6     -1598.172          36.000    23661872.414 6  96891405.781 6     -1245.329          36.000  
G19  22165939.438 5 116482824.73725      -293.887          30.000                                                                  
R08  19967490.055 5 106924648.829 5     -1729.613          35.000    19967491.953 5  83163573.901 5     -1345.252          31.000  
R23  19706995.367 8 105418771.527 8     -2166.898          51.000    19707000.672 6  81992385.409 6     -1685.366          41.000  
R01  19833508.016 5 106021079.483 5      1148.578          34.000                                                                  
R09  22837608.852 5 121951151.613 5      1217.145          34.000    22837611.336 5  94850915.745 5       946.668          30.000  
R24  19980628.523 5 106844985.30825      1299.633          30.000                                                                  
E33  23961392.938 8 125917967.092 8     -1522.203          51.000    23961393.438 8  96482611.211 8     -1166.307          51.000  
E19  24536521.945 8 128940292.205 8      1366.035          51.000    24536521.047 8  98798423.025 8      1046.715          48.000  
C22  22490680.172 8 117114853.834 8     -1392.008          51.000                                                                  
C12  22592173.477 8 117643405.379 8     -1516.988          50.000    22592173.938 8  90969333.051 8     -1173.110          51.000  
C21  22380847.008 5 116542939.765 5      1233.105          32.000                                                                  
> 2020 05 09 22 13  0.0000000  0 16      -0.000000000000
G09  21994728.016 8 115583172.656 8      2819.395          50.000    21994729.508 8  90064787.189 8      2196.931          50.000  
G22  22485408.508 7 118161632.366 7     -2227.262          42.000    22485403.438 4  92073998.907 4     -1735.523          26.000  
G17  22329274.234 5 117341127.93025     -1353.527          31.000    22329269.578 5  91434625.57025     -1054.694          31.000  
G03  20784736.523 8 109224566.073 8     -1281.391          51.000    20784737.805 8  85110081.431 8      -998.487          51.000  
G04  20362950.375 8 107008051.337 8       820.102          51.000    20362951.305 8  83382933.305 8       639.040          49.000  
G01  22827381.414 7 119958702.065 7     -3269.891          46.000    22827385.859 7  93474318.810 7     -2547.964          46.000  
R08  19977204.828 6 106976684.079 6     -1744.879          36.000    19977209.062 5  83204045.858 5     -1357.128          30.000  
R23  19719214.992 8 105484141.420 8     -2196.324          51.000    19719220.664 6  82043228.636 6     -1708.253          41.000  
R01  19827096.609 5 105986819.423 5      1129.762          30.000                                                                  
R09  22830833.922 5 121914974.620 5      1189.555          31.000    22830836.711 5  94822778.010 5       925.206          33.000  
E07  27167513.875 5 142766245.837 5     -2576.773          35.000    27167519.086 5 109392336.789 5     -1974.490          35.000  
E33  23970116.359 8 125963808.244 8     -1539.168          51.000    23970116.000 8  96517736.236 8     -1179.381          50.000  
E19  24528746.281 8 128899431.151 8      1352.785          50.000    24528745.766 8  98767113.928 8      1036.556          49.000  
C22  22498717.094 8 117156706.067 8     -1403.258          51.000                                                                  
C12  22600957.875 8 117689146.946 8     -1537.594          50.000    22600957.773 8  91004703.318 8     -1188.899          51.000  
C21  22373766.227 6 116506053.278 6      1220.605          36.000                                                                  
> 2020 05 09 22 13 30.0000000  0 15      -0.000000000000
G09  21978664.000 8 115498756.932 8      2811.582          48.000    21978664.109 8  89999008.722 8      2190.844          48.000  
G22  22498141.023 6 118228541.038 6     -2229.660          38.000    22498133.344 5  92126135.530 5     -1737.389          34.000  
G03  20792078.461 8 109263148.400 8     -1287.531          51.000    20792079.703 8  85140145.574 8     -1003.271          51.000  
G04  20358317.961 8 106983707.247 8       806.043          50.000    20358318.609 8  83363963.918 8       628.086          49.000  
G01  22846074.156 8 120056928.926 8     -3275.180          48.000    22846078.258 8  93550859.257 8     -2552.089          48.000  
R08  19987009.523 6 107029188.052 6     -1752.211          36.000                                                                  
R23  19731601.766 8 105550400.208 8     -2217.574          51.000    19731606.742 6  82094763.238 6     -1724.780          41.000  
R01  19820790.766 5 105953106.645 5      1119.270          31.000                                                                  
R24  19966372.258 5 106768777.52225      1246.004          31.000                                                                  
E07  27182228.469 5 142843566.962 5     -2574.168          33.000    27182232.016 5 109451582.844 5     -1972.733          35.000  
E33  23978938.500 8 126010168.976 8     -1548.227          51.000    23978937.156 8  96553259.360 8     -1186.304          50.000  
E19  24521047.781 8 128858977.175 8      1347.539          48.000    24521048.320 8  98736116.739 8      1032.477          49.000  
C22  22506820.492 8 117198903.733 8     -1406.629          51.000                                                                  
C12  22609861.914 8 117735510.285 8     -1550.113          51.000    22609861.180 8  91040554.383 8     -1198.577          51.000  
C21  22366753.523 5 116469551.075 5      1216.848          32.000                                                                  
> 2020 05 09 22 14  0.0000000  0 13      -0.000000000000
G09  21962652.227 8 115414617.553 8      2798.684          49.000    21962653.203 8  89933445.577 8      2180.793          49.000  
G22  22510895.969 6 118295567.655 6     -2237.590          38.000    22510888.781 4  92178364.019 4     -1743.583          26.000  
G03  20799462.719 8 109301952.629 8     -1298.445          51.000    20799463.742 8  85170382.625 8     -1011.776          51.000  
G04  20353772.906 8 106959823.449 8       787.180          49.000    20353773.156 8  83345353.187 8       613.387          49.000  
G01  22864804.375 8 120155352.099 8     -3285.281          48.000    22864808.195 8  93627552.639 8     -2559.960          48.000  
R23  19744115.430 8 105617335.221 8     -2243.797          51.000    19744119.391 7  82146823.806 7     -1745.176          42.000  
R01  19814557.555 4 105919777.205 4      1102.922          29.000                                                                  
E07  27196937.484 5 142920869.041 5     -2577.645          32.000    27196938.828 5 109510805.824 5     -1974.747          33.000  
E33  23987820.109 8 126056842.412 8     -1562.422          51.000    23987817.734 8  96589022.095 8     -1197.142          50.000  
E19  24513387.375 8 128818723.980 8      1337.016          48.000    24513388.859 8  98705273.376 8      1024.524          49.000  
C22  22514951.008 8 117241241.683 8     -1414.855          51.000                                                                  
C12  22618845.938 8 117782289.579 8     -1567.500          50.000    22618844.445 8  91076727.124 8     -1212.166          51.000  
C21  22359778.219 5 116433228.843 5      1205.855          34.000                                                                  
> 2020 05 09 22 14 30.0000000  0 14      -0.000000000000
G09  21946705.328 8 115330817.062 8      2787.648          50.000    21946707.555 8  89868146.486 8      2172.194          50.000  
G22  22523685.039 5 118362772.921 5     -2242.668          33.000    22523677.734 5  92230694.749 5     -1747.522          31.000  
G03  20806900.766 8 109341039.393 8     -1307.473          51.000    20806901.609 8  85200839.836 8     -1018.813          51.000  
G04  20349327.117 8 106936460.983 8       770.055          50.000    20349327.180 8  83327148.686 8       600.043          49.000  
G01  22883582.961 8 120254030.917 8     -3293.387          48.000    22883586.602 8  93704445.204 8     -2566.276          48.000  
R23  19756766.695 8 105685005.996 8     -2267.926          51.000    19756769.852 7  82199456.619 7     -1763.943          43.000  
R01  19808400.781 5 105886867.33325      1089.914          30.000                                                                  
E07                                                                  27211651.820 5 109570051.956 5     -1974.948          31.000  
E26  26237098.680 5 137876876.898 5     -3120.621          34.000                                                                  
E33  23996772.695 8 126103888.985 8     -1574.379          51.000    23996770.070 8  96625070.732 8     -1206.328          51.000  
E19  24505776.891 8 128778732.534 8      1328.848          49.000    24505778.867 8  98674630.601 8      1018.170          49.000  
C22  22523120.195 8 117283779.700 8     -1421.270          50.000                                                                  
C12  22627920.883 8 117829543.978 8     -1582.984          49.000    22627918.734 8  91113267.229 8     -1224.052          51.000  
C21  22352850.672 5 116397147.074 5      1199.562          31.000                                                                  
> 2020 05 09 22 15  0.0000000  0 15      -0.000000000000
G09  21930844.945 8 115247469.290 8      2773.941          49.000    21930847.320 8  89803200.146 8      2161.513          49.000  
G17  22360949.250 6 117507580.150 6     -1421.516          36.000    22360949.875 6  91564345.657 6     -1107.675          37.000  
G03  20814413.859 8 109380520.687 8     -1319.344          51.000    20814414.625 8  85231604.473 8     -1028.060          51.000  
G04  20345001.930 8 106913732.277 8       750.285          50.000    20345002.188 8  83309438.020 8       584.638          50.000  
G01  22902431.047 8 120353076.080 8     -3304.230          48.000    22902434.562 7  93781623.227 7     -2574.726          47.000  
R08  20016763.430 5 107188471.749 5     -1787.441          34.000                                                                  
R23  19769575.898 8 105753524.723 8     -2294.699          51.000    19769579.047 7  82252748.970 7     -1784.766          43.000  
R01  19802347.453 5 105854527.250 5      1073.742          34.000                                                                  
R09  22805133.477 4 121777746.35524      1095.207          29.000    22805135.273 5  94716039.46525       851.828          31.000  
E26  26254948.891 6 137970668.964 6     -3126.695          38.000                                                                  
E33  24005817.547 8 126151420.447 8     -1589.289          51.000    24005815.641 8  96661490.940 8     -1217.768          51.000  
E19  24498237.773 8 128739115.317 8      1317.473          48.000    24498240.039 8  98644274.575 8      1009.406          49.000  
C22  22531349.070 8 117326628.399 8     -1430.211          51.000                                                                  
C12  22637107.539 8 117877383.456 8     -1601.184          48.000    22637105.242 8  91150259.758 8     -1238.203          51.000  
C21  22345988.398 4 116361425.350 4      1188.113          29.000                                                                  
> 2020 05 09 22 15 30.0000000  0 15      -0.000000000000
G09  21915013.836 8 115164274.388 8      2765.777          51.000    21915015.680 8  89738372.972 8      2155.152          51.000  
G17  22369085.547 6 117550328.821 6     -1435.000          40.000    22369084.961 6  91597656.296 6     -1118.182          39.000  
G03  20821944.594 8 109420094.902 8     -1325.453          51.000    20821945.328 8  85262441.505 8     -1032.821          51.000  
G04  20340739.945 8 106891336.029 8       736.234          50.000    20340740.383 8  83291986.404 8       573.689          50.000  
G01  22921290.875 8 120452184.664 8     -3309.473          48.000    22921293.672 8  93858850.675 8     -2578.811          48.000  
R08  20026784.891 5 107242100.006 5     -1794.559          31.000                                                                  
R23  19782484.469 8 105822581.720 8     -2315.770          49.000    19782488.914 7  82306460.002 7     -1801.151          43.000  
R01  19796332.836 5 105822384.603 5      1062.875          32.000                                                                  
R09  22799010.609 5 121745061.709 5      1075.758          35.000                                                                  
E26  26272779.977 6 138064369.879 6     -3126.668          40.000                                                                  
E33  24014897.289 8 126199134.973 8     -1598.340          51.000    24014896.578 8  96698051.409 8     -1224.691          51.000  
E19  24490712.633 8 128699571.080 8      1312.074          49.000    24490715.133 8  98613974.450 8      1005.326          49.000  
C22  22539580.094 8 117369488.613 8     -1433.656          50.000                                                                  
C12  22646348.656 8 117925508.057 8     -1613.711          48.000    22646346.773 8  91187472.741 8     -1247.803          51.000  
C21  22339139.477 5 116325748.628 5      1183.781          33.000                                                                  
> 2020 05 09 22 16  0.0000000  0 15      -0.000000000000
G09  21899261.609 8 115081494.499 8      2753.859          50.000    21899263.203 8  89673869.218 8      2145.868          50.000  
G17  22377329.172 6 117593647.508 6     -1451.969          40.000    22377325.641 6  91631411.071 6     -1131.405          39.000  
G03  20829542.547 8 109460022.320 8     -1335.246          51.000    20829543.219 8  85293553.777 8     -1040.452          51.000  
G04  20336590.977 8 106869532.954 8       718.355          51.000    20336591.617 8  83274996.999 8       559.758          51.000  
G01  22940212.062 7 120551615.644 7     -3318.223          47.000    22940212.734 7  93936329.365 7     -2585.629          47.000  
R08  20036869.445 5 107296112.499 5     -1804.969          30.000                                                                  
R23  19795541.547 7 105892440.053 7     -2340.414          47.000    19795548.297 7  82360794.308 7     -1820.322          43.000  
R09  22793036.922 6 121713154.148 6      1052.039          36.000    22793043.664 4  94665800.229 4       818.253          27.000  
R24  19933279.703 5 106591814.142 5      1114.641          34.000                                                                  
E26  26290642.109 6 138158238.992 6     -3130.141          39.000                                                                  
E33  24024061.414 8 126247292.621 8     -1611.082          51.000    24024061.852 8  96734951.433 8     -1234.463          51.000  
E19  24483251.203 8 128660360.484 8      1303.016          48.000    24483253.711 8  98583929.963 8       998.388          49.000  
C22  22547862.680 8 117412617.917 8     -1440.660          50.000                                                                  
C12  22655694.250 7 117974174.718 7     -1629.648          47.000    22655692.641 8  91225104.901 8     -1260.136          51.000  
C21  22332350.055 5 116290383.442 5      1175.539          32.000                                                                  
> 2020 05 09 22 16 30.0000000  0 13      -0.000000000000
G09  21883577.539 8 114999073.850 8      2741.137          50.000    21883579.523 8  89609645.394 8      2135.954          50.000  
G17  22385669.797 6 117637477.123 6     -1469.699          41.000    22385662.906 6  91665563.988 6     -1145.220          39.000  
G03  20837196.742 8 109500245.319 8     -1345.945          51.000    20837197.391 8  85324896.376 8     -1048.789          51.000  
G04  20332544.188 8 106848265.782 8       699.723          51.000    20332544.945 8  83258425.178 8       545.239          51.000  
G01  22959183.242 8 120651310.112 8     -3327.664          48.000    22959181.531 8  94014013.360 8     -2592.986          48.000  
R08  20047017.492 5 107350449.610 5     -1816.961          31.000    20047013.867 4  83494797.426 4     -1413.192          29.000  
R23  19808738.000 7 105963038.649 7     -2365.836          47.000    19808745.766 6  82415704.323 6     -1840.098          41.000  
E26  26308524.906 6 138252217.796 6     -3134.605          40.000                                                                  
E33  24033299.117 8 126295835.483 8     -1624.605          51.000    24033300.141 8  96772146.628 8     -1244.891          51.000  
E19  24475842.672 8 128621426.160 8      1293.043          50.000    24475844.734 8  98554097.165 8       990.825          50.000  
C22  22556185.953 8 117455958.877 8     -1448.336          49.000                                                                  
C12  22665132.945 7 118023325.241 7     -1646.656          46.000    22665131.773 8  91263111.178 8     -1273.239          51.000  
C21  22325607.906 4 116255272.908 4      1165.520          28.000                                                                  
> 2020 05 09 22 17  0.0000000  0 15      -0.000000000000
G09  21867944.664 8 114916923.328 8      2731.703          49.000    21867947.055 8  89545632.018 8      2128.604          49.000  
G17  22394089.305 6 117681724.992 6     -1484.082          39.000    22394080.828 6  91700042.825 6     -1156.425          39.000  
G03  20844889.859 8 109540672.935 8     -1353.184          51.000    20844890.742 8  85356398.410 8     -1054.429          51.000  
G04  20328581.883 8 106827443.810 8       684.324          51.000    20328582.602 8  83242200.265 8       533.240          51.000  
G01  22978186.898 7 120751175.842 7     -3333.871          46.000    22978184.812 7  94091830.795 7     -2597.823          46.000  
G19  22186126.891 5 116588884.647 5      -488.754          32.000                                                                  
R08  20057209.461 5 107405016.948 5     -1825.070          34.000    20057210.508 5  83537238.660 5     -1419.499          33.000  
R23  19822057.055 8 106034282.776 8     -2387.711          51.000    19822063.234 6  82471116.373 6     -1857.109          39.000  
R09  22781473.141 5 121651409.807 5      1005.430          33.000                                                                  
E26  26326410.797 6 138346214.292 6     -3135.691          38.000                                                                  
E33  24042592.742 8 126344672.367 8     -1634.973          51.000    24042594.109 8  96809567.102 8     -1252.769          51.000  
E19  24468469.695 8 128582677.435 8      1286.332          51.000    24468470.906 8  98524406.596 8       985.680          50.000  
C22  22564532.469 8 117499421.079 8     -1452.926          49.000                                                                  
C12  22674646.758 7 118072868.402 7     -1660.250          45.000    22674646.453 8  91301421.083 8     -1283.711          51.000  
C21  22318898.969 5 116220327.746 5      1159.820          31.000                                                                  
> 2020 05 09 22 17 30.0000000  0 16      -0.000000000000
G09  21852390.297 8 114835186.067 8      2719.199          50.000    21852392.711 8  89481940.630 8      2118.857          50.000  
G22  22601123.273 4 118769704.09324     -2278.523          29.000                                                                  
G17  22402615.008 6 117726531.161 6     -1501.328          38.000    22402606.531 6  91734956.699 6     -1169.866          39.000  
G03  20852648.852 8 109581446.465 8     -1363.520          51.000    20852650.016 8  85388169.988 8     -1062.483          51.000  
G04  20324731.320 8 106807208.734 8       666.086          51.000    20324732.133 8  83226432.675 8       519.028          51.000  
G01  22997249.312 7 120851352.803 7     -3342.812          44.000    22997248.570 7  94169890.772 7     -2604.790          45.000  
G19  22188988.773 5 116603924.530 5      -510.789          33.000                                                                  
R08  20067469.422 4 107459956.975 4     -1835.918          28.000    20067472.828 5  83579969.804 5     -1427.933          35.000  
R23  19835523.852 8 106106313.884 8     -2412.605          51.000    19835527.680 6  82527140.560 6     -1876.471          38.000  
R01  19773113.734 5 105698239.52025      1006.477          30.000                                                                  
E26  26344326.945 6 138440368.840 6     -3139.645          37.000                                                                  
E33  24051968.844 8 126393944.329 8     -1648.195          51.000    24051970.594 8  96847320.927 8     -1262.883          51.000  
E19  24461158.992 8 128544256.159 8      1276.691          51.000    24461159.375 8  98494966.946 8       978.257          50.000  
C22  22572928.836 8 117543144.214 8     -1460.402          48.000                                                                  
C12  22684262.141 7 118122943.126 7     -1676.406          45.000    22684263.031 8  91340142.069 8     -1296.428          51.000  
C21  22312241.984 5 116185688.075 5      1151.121          32.000                                                                  
> 2020 05 09 22 18  0.0000000  0 15      -0.000000000000
G09  21836907.586 8 114753823.736 8      2707.098          51.000    21836909.141 8  89418541.437 8      2109.427          51.000  
G22  22614155.945 5 118838195.980 5     -2284.461          35.000                                                                  
G17  22411239.633 6 117771854.084 6     -1517.926          40.000    22411231.961 6  91770273.329 6     -1182.797          40.000  
G03  20860466.078 8 109622525.935 8     -1373.094          51.000    20860467.289 8  85420179.954 8     -1069.943          51.000  
G04  20320984.898 8 106787520.777 8       648.492          51.000    20320985.797 8  83211091.434 8       505.319          51.000  
G01  23016362.656 7 120951799.748 7     -3351.246          43.000    23016364.383 7  94248161.086 7     -2611.361          44.000  
R23  19849129.398 8 106179088.788 8     -2436.871          51.000    19849132.062 6  82583743.267 6     -1895.345          38.000  
R01  19767513.102 4 105668300.641 4       992.008          28.000                                                                  
R24  19909478.289 5 106464526.626 5      1007.586          32.000                                                                  
E26  26362265.922 6 138534640.555 6     -3142.691          36.000                                                                  
E33  24061419.891 8 126443611.039 8     -1660.809          51.000    24061421.820 8  96885377.226 8     -1272.526          51.000  
E19  24453902.664 8 128506122.579 8      1267.664          50.000    24453902.406 8  98465747.727 8       971.325          50.000  
C22  22581367.227 7 117587088.302 7     -1467.156          46.000                                                                  
C12  22693972.266 7 118173508.619 7     -1692.305          46.000    22693973.367 8  91379242.534 8     -1308.595          51.000  
C21  22305638.977 5 116151314.460 5      1142.688          35.000                                                                  
> 2020 05 09 22 18 30.0000000  0 16      -0.000000000000
G09  21821482.883 8 114672764.991 8      2695.988          51.000    21821483.422 8  89355378.800 8      2100.774          51.000  
G22  22627206.156 5 118906788.367 5     -2289.621          30.000                                                                  
G17  22419948.562 6 117817619.077 6     -1533.691          41.000    22419942.031 6  91805934.330 6     -1195.085          41.000  
G03  20868327.586 8 109663838.142 8     -1381.812          51.000    20868328.758 8  85452371.281 8     -1076.737          51.000  
G04  20317328.688 8 106768307.068 8       631.664          51.000    20317329.219 8  83196119.720 8       492.206          51.000  
G01  23035513.898 7 121052442.132 7     -3358.898          45.000    23035517.008 7  94326583.689 7     -2617.324          45.000  
R08  20088154.062 5 107570768.693 5     -1855.816          34.000    20088154.922 4  83666170.362 4     -1443.419          29.000  
R23  19862858.922 8 106252530.501 8     -2459.910          51.000    19862861.633 6  82640864.585 6     -1913.264          38.000  
R01  19761982.242 5 105638741.616 5       978.805          33.000                                                                  
R24  19903892.195 5 106434676.307 5       981.352          32.000                                                                  
E26  26380213.719 5 138628957.221 5     -3145.676          35.000                                                                  
E33  24070932.117 8 126493599.051 8     -1672.418          51.000    24070933.922 8  96923679.723 8     -1281.410          51.000  
E19  24446686.758 8 128468203.836 8      1259.547          50.000    24446686.352 8  98436693.102 8       965.111          49.000  
C22  22589834.258 7 117631180.537 7     -1472.957          46.000                                                                  
C12  22703763.766 8 118224491.336 8     -1707.086          48.000    22703763.445 8  91418665.603 8     -1320.088          51.000  
C21  22299075.211 6 116117134.852 6      1135.527          37.000                                                                  
> 2020 05 09 22 19  0.0000000  0 14      -0.000000000000
G09  21806106.781 8 114591961.457 8      2688.594          51.000    21806106.758 8  89292415.031 8      2095.009          51.000  
G17  22428732.031 7 117863774.590 7     -1545.430          42.000    22428726.391 7  91841899.627 7     -1204.231          43.000  
G03  20876223.797 8 109705333.008 8     -1386.934          50.000    20876224.898 8  85484704.929 8     -1080.728          50.000  
G04  20313753.273 8 106749517.774 8       618.613          51.000    20313753.719 8  83181478.719 8       482.036          51.000  
G01  23054693.250 7 121153228.436 7     -3362.652          47.000    23054696.727 7  94405118.448 7     -2620.249          47.000  
G19  22198293.336 5 116652801.566 5      -571.355          34.000                                                                  
R08  20098567.109 5 107626495.723 5     -1861.762          30.000    20098556.352 4  83709476.502 4     -1448.040          26.000  
R23  19876702.461 8 106326585.902 8     -2479.391          51.000    19876706.164 6  82698463.234 6     -1928.415          39.000  
E26  26398159.875 5 138723263.770 5     -3144.629          34.000                                                                  
E33  24080495.930 8 126543857.941 8     -1680.395          51.000    24080497.352 8  96962189.791 8     -1287.603          51.000  
E19  24439502.297 8 128430450.337 8      1255.016          51.000    24439501.930 8  98407765.098 8       961.684          49.000  
C22  22598320.594 7 117675370.955 7     -1475.219          45.000                                                                  
C12  22713625.859 7 118275840.484 7     -1718.375          47.000    22713624.086 8  91458372.003 8     -1328.733          51.000  
C21  22292539.156 5 116083099.989 5      1131.703          33.000                                                                  
> 2020 05 09 22 19 30.0000000  0 14      -0.000000000000
G09  21790810.539 8 114511577.645 8      2673.113          51.000    21790810.633 8  89229778.313 8      2082.949          51.000  
G17  22437620.305 7 117910481.499 7     -1565.570          42.000    22437615.656 7  91878294.615 7     -1219.925          42.000  
G03  20884185.672 8 109747173.231 8     -1399.793          49.000    20884186.648 8  85517307.694 8     -1090.748          49.000  
G04  20310289.750 8 106731315.832 8       597.555          51.000    20310290.109 8  83167295.406 8       465.630          51.000  
G01  23073930.859 8 121254320.085 8     -3374.309          48.000    23073933.969 8  94483891.157 8     -2629.332          48.000  
G19  22201636.805 5 116670370.977 5      -597.254          35.000                                                                  
R08  20109040.430 5 107682589.359 5     -1874.848          30.000    20109036.727 4  83753105.003 4     -1458.212          29.000  
R23  19890690.750 8 106401418.084 8     -2506.676          50.000    19890695.891 6  82756666.022 6     -1949.637          39.000  
E26  26416136.180 5 138817723.951 5     -3151.293          35.000                                                                  
E33  24090142.047 8 126594550.127 8     -1696.438          51.000    24090143.023 8  97001031.838 8     -1299.850          51.000  
E19  24432380.469 8 128393024.888 8      1242.645          51.000    24432379.758 8  98379088.471 8       952.193          49.000  
C22  22606856.820 7 117719820.505 7     -1485.344          45.000                                                                  
C12  22723588.391 7 118327716.000 7     -1737.359          46.000    22723586.117 8  91498485.457 8     -1343.467          51.000  
C21  22286059.969 4 116049371.459 4      1119.039          29.000                                                                  
> 2020 05 09 22 20  0.0000000  0 15      -0.000000000000
G09  21775592.727 8 114431608.340 8      2661.949          49.000    21775593.008 8  89167464.586 8      2074.244          49.000  
G17  22446611.500 6 117957731.394 6     -1580.617          39.000    22446607.578 6  91915112.715 6     -1231.653          40.000  
G03  20892211.977 8 109789351.844 8     -1408.430          48.000    20892212.891 8  85550174.140 8     -1097.478          48.000  
G04  20306936.602 8 106713694.497 8       581.078          51.000    20306936.453 8  83153564.509 8       452.788          51.000  
G01  23093224.812 8 121355708.794 8     -3381.340          48.000    23093227.602 8  94562895.328 8     -2634.814          48.000  
G19  22205115.266 5 116688667.98625      -618.027          31.000                                                                  
R23  19904822.906 8 106477017.485 8     -2529.352          51.000    19904828.367 6  82815465.511 6     -1967.277          39.000  
R01  19745838.188 5 105552437.471 5       938.285          30.000    19745847.172 4  82096349.866 4       729.787          28.000  
R24  19888017.547 5 106349787.69425       902.586          31.000    19888021.008 4  82716511.64524       702.011          27.000  
E26  26434140.570 5 138912329.815 5     -3152.656          35.000                                                                  
E33  24099869.641 8 126645668.292 8     -1707.836          51.000    24099870.078 8  97040200.281 8     -1308.578          51.000  
E19  24425319.750 8 128355920.992 8      1234.695          50.000    24425318.266 8  98350658.246 8       946.141          48.000  
C22  22615441.281 7 117764521.980 7     -1491.082          42.000                                                                  
C12  22733649.633 7 118380109.931 7     -1751.605          45.000    22733648.188 8  91538999.799 8     -1354.670          51.000  
C21  22279638.453 5 116015942.617 5      1112.879          33.000                                                                  
> 2020 05 09 22 20 30.0000000  0 16      -0.000000000000
G09  21760429.547 7 114351931.207 7      2651.066          46.000    21760431.203 7  89105378.501 7      2065.767          46.000  
G22  22679736.328 5 119182829.850 5     -2310.055          35.000    22679739.547 4  92869742.043 4     -1800.043          29.000  
G17  22455682.500 6 118005398.502 6     -1595.582          39.000    22455678.984 6  91952255.907 6     -1243.311          39.000  
G03  20900279.070 8 109831744.767 8     -1416.605          48.000    20900280.180 7  85583207.592 7     -1103.846          47.000  
G04  20303670.383 8 106696529.889 8       564.652          51.000    20303669.812 8  83140189.500 8       439.989          51.000  
G01  23112551.430 8 121457269.113 8     -3388.141          49.000    23112554.188 8  94642033.219 8     -2640.110          49.000  
R08  20130159.836 5 107795716.351 5     -1893.012          31.000    20130169.320 4  83841135.397 4     -1472.346          26.000  
R23  19919075.523 8 106553255.317 8     -2551.699          51.000    19919079.625 6  82874761.548 6     -1984.655          38.000  
R01  19740614.906 5 105524505.949 5       925.270          33.000    19740619.711 4  82074641.83224       719.654          24.000  
R24  19883031.023 5 106323123.115 5       876.590          34.000    19883034.906 4  82695772.463 4       681.789          28.000  
E26  26452148.594 5 139006956.385 5     -3154.488          35.000                                                                  
E33  24109654.711 8 126697087.965 8     -1718.938          51.000    24109654.922 8  97079599.764 8     -1317.109          51.000  
E19  24418296.438 8 128319014.888 8      1226.875          49.000    24418294.633 8  98322379.591 8       940.172          48.000  
C22  22624049.969 6 117809352.088 6     -1496.250          40.000                                                                  
C12  22743786.828 7 118432898.104 7     -1766.125          45.000    22743785.961 8  91579818.993 8     -1365.656          51.000  
C21  22273253.992 5 115982690.989 5      1105.285          35.000                                                                  
> 2020 05 09 22 21  0.0000000  0 18      -0.000000000000
G09  21745316.578 8 114272515.351 8      2642.648          48.000    21745319.164 8  89043496.011 8      2059.207          48.000  
G22  22692934.430 6 119252174.729 6     -2312.781          37.000    22692939.867 5  92923794.496 5     -1802.168          32.000  
G17  22464827.188 6 118053448.876 6     -1607.910          38.000    22464822.672 6  91989697.703 6     -1252.914          37.000  
G03  20908380.836 7 109874319.394 7     -1422.145          47.000    20908382.211 7  85616382.642 7     -1108.162          47.000  
G04  20300484.797 8 106679789.591 8       550.785          51.000    20300484.219 8  83127145.120 8       429.183          51.000  
G01  23131903.891 7 121558967.103 7     -3392.293          47.000    23131906.992 7  94721278.419 7     -2643.346          47.000  
G31  23832056.297 5 125238292.908 5     -1898.625          34.000    23832052.891 5  97588269.701 5     -1479.442          34.000  
R08  20140783.211 5 107852593.089 5     -1899.234          34.000    20140788.406 4  83885372.832 4     -1477.186          24.000  
R23  19933440.844 8 106630095.528 8     -2571.516          51.000    19933443.844 6  82934526.159 6     -2000.068          39.000  
R01  19735451.758 5 105496893.393 5       915.238          33.000                                                                  
R09  22740549.609 5 121432862.94525       819.879          30.000    22740546.531 4  94447783.53524       637.684          26.000  
R24  19878179.383 6 106297171.160 6       852.922          36.000    19878179.078 4  82675579.638 4       663.387          26.000  
E26  26470153.836 5 139101569.973 5     -3153.441          34.000                                                                  
E33  24119490.516 8 126748776.222 8     -1727.477          51.000    24119491.047 8  97119205.052 8     -1323.652          51.000  
E19  24411304.211 8 128282274.359 8      1221.965          48.000    24411303.367 8  98294227.780 8       936.260          49.000  
C22  22632677.266 6 117854278.289 6     -1499.223          38.000                                                                  
C12  22753993.594 7 118486047.050 7     -1777.660          45.000    22753993.227 8  91620917.125 8     -1374.591          51.000  
C21  22266897.078 5 115949584.542 5      1100.859          35.000                                                                  
> 2020 05 09 22 21 30.0000000  0 18      -0.000000000000
G09  21730276.359 8 114193476.695 8      2627.500          51.000    21730278.883 8  88981907.496 8      2047.406          51.000  
G22  22706165.195 5 119321677.056 5     -2322.430          32.000                                                                  
G17  22474076.969 5 118102083.131 5     -1627.637          35.000    22474060.477 6  92027540.875 6     -1268.286          36.000  
G03  20916538.898 7 109917190.068 7     -1434.859          45.000    20916540.328 7  85649788.374 7     -1118.073          45.000  
G04  20297401.570 8 106663588.070 8       530.062          51.000    20297401.312 8  83114520.558 8       413.036          51.000  
G01  23151303.672 7 121660915.745 7     -3403.469          46.000    23151307.594 7  94800718.914 7     -2652.054          46.000  
G31  23842960.508 5 125295576.661 5     -1919.383          32.000    23842955.695 5  97632906.242 5     -1495.626          34.000  
R08  20151462.141 5 107909780.419 5     -1912.504          35.000    20151464.602 4  83929838.82424     -1487.503          26.000  
R23  19947939.602 8 106707652.382 8     -2598.223          51.000    19947942.453 6  82994848.183 6     -2020.840          41.000  
R01  19730368.555 5 105469715.873 5       897.879          33.000                                                                  
R09  22736023.602 4 121408703.176 4       791.371          27.000                                                                  
R24  19873480.383 5 106272049.733 5       822.801          35.000    19873480.156 4  82656036.780 4       639.959          26.000  
E26  26488177.305 6 139196283.979 6     -3159.855          36.000                                                                  
E33  24129398.742 8 126800846.970 8     -1742.934          50.000    24129400.031 8  97159103.459 8     -1335.543          51.000  
E19  24404365.289 8 128245813.740 8      1209.816          49.000    24404365.836 8  98266290.417 8       926.991          49.000  
C22  22641344.977 6 117899413.512 6     -1508.902          39.000                                                                  
C12  22764291.320 7 118539668.751 7     -1796.199          47.000    22764291.086 8  91662380.822 8     -1388.902          51.000  
C21  22260589.406 6 115916736.993 6      1089.574          36.000                                                                  
> 2020 05 09 22 22  0.0000000  0 16      -0.000000000000
G09  21715344.695 8 114115007.040 8      2609.016          51.000    21715346.703 8  88920762.355 8      2033.003          51.000  
G22  22719470.914 6 119391596.932 6     -2333.988          36.000                                                                  
G17  22483427.969 5 118151216.966 5     -1649.688          32.000    22483429.109 5  92065886.859 5     -1285.471          32.000  
G03  20924789.266 7 109960546.705 7     -1450.375          44.000    20924790.672 7  85683572.778 7     -1130.163          44.000  
G04  20294457.234 8 106648115.432 8       506.406          51.000    20294456.766 8  83102463.939 8       394.602          51.000  
G01  23170787.031 7 121763303.599 7     -3417.336          45.000    23170790.969 7  94880501.675 7     -2662.860          45.000  
R08  20162235.695 6 107967470.062 6     -1928.430          38.000    20162237.703 5  83974708.471 5     -1499.893          30.000  
R23  19962607.336 8 106786116.315 8     -2627.742          51.000    19962610.984 7  83055875.717 7     -2043.797          42.000  
R09  22731675.016 5 121385496.389 5       760.676          31.000                                                                  
R24  19868974.688 5 106247954.123 5       788.301          31.000    19868975.602 4  82637292.790 4       613.123          29.000  
E26  26506255.438 5 139291312.315 5     -3168.488          35.000                                                                  
E33  24139415.938 8 126853489.821 8     -1761.527          51.000    24139417.852 8  97199440.222 8     -1349.722          51.000  
E19  24397516.266 8 128209823.295 8      1194.625          49.000    24397517.609 8  98238713.309 8       915.395          50.000  
C22  22650089.445 6 117944945.675 6     -1521.445          39.000                                                                  
C12  22774716.016 8 118593950.225 8     -1817.566          48.000    22774715.258 8  91704354.701 8     -1405.437          51.000  
C21  22254368.328 6 115884336.801 6      1075.289          38.000                                                                  
> 2020 05 09 22 22 30.0000000  0 14      -0.000000000000
G09  21700450.555 8 114036734.713 8      2599.668          51.000    21700452.211 8  88859770.951 8      2025.716          51.000  
G17  22492856.211 6 118200765.030 6     -1662.695          36.000    22492858.281 5  92104496.752 5     -1295.604          35.000  
G03  20933060.945 7 110004015.999 7     -1456.840          44.000    20933062.383 7  85717444.966 7     -1135.200          44.000  
G04  20291580.570 8 106632998.452 8       491.910          51.000    20291580.141 8  83090684.484 8       383.310          51.000  
G01  23190282.977 7 121865755.960 7     -3422.207          45.000    23190286.625 7  94960334.692 7     -2666.656          45.000  
R08  20173033.477 6 108025280.677 6     -1935.328          37.000    20173033.781 5  84019672.276 5     -1505.252          31.000  
R23  19977372.836 8 106865104.902 8     -2647.914          51.000    19977377.469 7  83117311.303 7     -2059.489          43.000  
R09  22727434.344 5 121362839.287 5       739.637          32.000                                                                  
R24  19864589.094 4 106224499.560 4       764.777          29.000    19864591.273 4  82619055.674 4       594.827          28.000  
E33  24149471.461 8 126906331.107 8     -1770.820          51.000    24149473.523 8  97239929.008 8     -1356.821          51.000  
E19  24390686.055 8 128173930.294 8      1188.699          49.000    24390687.711 8  98211210.876 8       910.870          50.000  
C22  22658838.602 6 117990504.614 6     -1524.902          37.000                                                                  
C12  22785195.945 8 118648520.294 8     -1829.848          48.000    22785194.648 8  91746551.718 8     -1414.979          51.000  
C21  22248162.430 6 115852014.556 6      1069.590          36.000                                                                  
> 2020 05 09 22 23  0.0000000  0 15      -0.000000000000
G09  21685629.508 8 113958848.514 8      2592.340          51.000    21685631.078 8  88799080.402 8      2020.006          51.000  
G22  22746121.625 5 119531670.236 5     -2338.254          33.000                                                                  
G17  22502376.773 5 118250798.715 5     -1673.262          35.000    22502377.383 5  92143484.021 5     -1303.838          35.000  
G03  20941389.664 7 110047784.971 7     -1461.418          43.000    20941391.172 7  85751550.706 7     -1138.765          42.000  
G04  20288807.273 8 106618424.358 8       479.227          51.000    20288806.805 8  83079328.063 8       373.426          51.000  
G01  23209826.930 7 121968458.500 7     -3425.203          46.000    23209829.438 7  95040362.655 7     -2668.990          46.000  
R08  20183887.094 6 108083401.011 6     -1940.082          38.000    20183886.609 5  84064877.003 5     -1508.953          30.000  
R23  19992271.953 8 106944805.862 8     -2666.039          51.000    19992277.062 7  83179300.938 7     -2073.586          42.000  
R09  22723332.602 5 121340937.149 5       719.324          32.000                                                                  
R24  19860360.867 5 106201892.134 5       742.145          30.000    19860363.078 5  82601472.208 5       577.224          30.000  
E33  24159600.500 8 126959557.498 8     -1778.133          51.000    24159602.531 8  97280712.858 8     -1362.430          51.000  
E19  24383910.125 8 128138321.879 8      1184.719          49.000    24383911.781 8  98183926.524 8       907.832          50.000  
C22  22667628.336 5 118036275.416 5     -1527.059          35.000                                                                  
C12  22795766.359 8 118703563.010 8     -1840.195          48.000    22795765.180 8  91789114.211 8     -1422.917          51.000  
C21  22242004.969 5 115819955.752 5      1066.758          35.000                                                                  
> 2020 05 09 22 23 30.0000000  0 13      -0.000000000000
G09  21670866.602 8 113881270.650 8      2587.672          50.000    21670868.422 8  88738630.127 8      2016.368          50.000  
G03  20949760.469 7 110091774.291 7     -1463.098          44.000    20949761.844 7  85785828.112 7     -1140.076          44.000  
G04  20286122.242 8 106604313.787 8       469.543          51.000    20286121.469 8  83068332.821 8       365.878          50.000  
G01  23229403.031 7 122071330.464 7     -3425.090          46.000    23229403.891 7  95120522.559 7     -2668.905          46.000  
R08  20194783.594 6 108141749.161 6     -1941.512          36.000    20194781.070 5  84110258.843 5     -1510.065          31.000  
R23  20007288.930 8 107025135.604 8     -2681.125          51.000    20007293.680 7  83241779.606 7     -2085.320          42.000  
R09  22719356.922 5 121319711.201 5       703.625          30.000                                                                  
R24  19856276.148 5 106180069.329 5       722.441          33.000    19856276.109 4  82584484.894 4       561.896          29.000  
E33  24169787.531 8 127013089.157 8     -1782.566          51.000    24169789.500 8  97321730.604 8     -1365.863          51.000  
E19  24377173.633 8 128102918.974 8      1183.613          51.000    24377174.945 8  98156799.650 8       906.901          50.000  
C22  22676443.438 6 118082178.980 6     -1525.617          37.000                                                                  
C12  22806412.016 8 118758998.397 8     -1847.543          48.000    22806411.383 8  91831980.360 8     -1428.644          51.000  
C21  22235883.336 6 115788082.155 6      1065.965          37.000                                                                  
> 2020 05 09 22 24  0.0000000  0 11      -0.000000000000
G09  21656204.273 8 113804222.957 8      2566.109          49.000    21656206.297 8  88678592.967 8      1999.566          49.000  
G03  20958215.383 7 110136204.027 7     -1481.617          46.000    20958216.445 7  85820448.728 7     -1154.504          46.000  
G04  20283567.250 8 106590886.995 8       442.867          51.000    20283566.547 8  83057870.405 8       345.091          51.000  
G01  23249052.672 7 122174590.584 7     -3441.914          44.000    23249052.039 7  95200984.909 7     -2682.015          44.000  
R08  20205764.672 6 108200547.846 6     -1960.445          36.000    20205761.523 5  84155991.127 5     -1524.791          33.000  
R23  20022465.289 8 107106315.312 8     -2713.285          51.000    20022469.000 6  83304919.355 6     -2110.333          41.000  
E33  24180074.320 8 127067145.820 8     -1803.945          51.000    24180076.195 8  97363150.626 8     -1382.230          51.000  
E19  24370518.422 8 128067941.925 8      1165.539          51.000    24370519.406 8  98129999.070 8       893.040          50.000  
C22  22685326.359 6 118128433.256 6     -1541.020          36.000                                                                  
C12  22817174.609 7 118815043.318 7     -1871.652          47.000    22817174.562 8  91875317.841 8     -1447.260          51.000  
C21  22229839.672 6 115756612.253 6      1048.742          37.000                                                                  
> 2020 05 09 22 24 30.0000000  0 13      -0.000000000000
G09  21641576.555 8 113727354.448 8      2550.859          50.000    21641577.781 8  88618695.466 8      1987.686          50.000  
G17  22531470.000 6 118403669.49026     -1725.395          36.000    22531469.859 6  92262590.13226     -1344.467          37.000  
G03  20966687.312 7 110180721.706 7     -1493.812          47.000    20966688.047 7  85855137.847 7     -1164.010          47.000  
G04  20281075.047 8 106577791.467 8       422.559          51.000    20281074.625 8  83047666.110 8       329.267          51.000  
G01  23268708.414 7 122277884.914 7     -3452.410          43.000    23268709.289 7  95281473.985 7     -2690.190          43.000  
G19  22241725.133 5 116881054.23425      -811.730          30.000                                                                  
R08  20216762.781 5 108259436.172 5     -1972.891          33.000    20216759.461 5  84201793.199 5     -1534.468          35.000  
R23  20037733.023 8 107187983.695 8     -2739.031          51.000    20037735.586 6  83368439.174 6     -2130.358          41.000  
E33  24190393.695 8 127121374.438 8     -1818.977          51.000    24190395.500 8  97404702.402 8     -1393.738          51.000  
E19  24363877.078 8 128033038.601 8      1153.742          51.000    24363878.023 8  98103254.972 8       884.043          50.000  
C22  22694209.734 5 118174688.603 5     -1549.898          35.000                                                                  
C12  22827987.117 8 118871347.151 8     -1889.395          48.000    22827987.070 8  91918855.514 8     -1461.121          51.000  
C21  22223806.711 6 115725196.978 6      1038.062          38.000                                                                  
> 2020 05 09 22 25  0.0000000  0 13      -0.000000000000
G09  21627029.867 8 113650909.624 8      2542.504          51.000    21627029.922 8  88559128.111 8      1981.172          51.000  
G17  22541340.734 6 118455543.334 6     -1736.348          38.000    22541344.312 6  92303011.208 6     -1353.002          38.000  
G03  20975222.102 7 110225570.078 7     -1498.984          47.000    20975222.562 7  85890084.620 7     -1168.040          47.000  
G04  20278692.070 8 106565270.062 8       409.289          50.000    20278692.148 8  83037909.169 8       318.927          50.000  
G01  23288416.680 7 122381454.807 7     -3455.500          42.000    23288419.984 6  95362177.817 6     -2692.595          41.000  
R08  20227821.836 5 108318660.250 5     -1977.957          35.000    20227820.898 6  84247856.474 6     -1538.408          37.000  
R23  20053137.242 8 107270384.920 8     -2757.500          51.000    20053139.391 7  83432528.983 7     -2144.723          42.000  
R24  19844974.391 5 106119634.848 5       631.488          33.000    19844975.453 5  82537481.526 5       491.161          30.000  
E33  24200791.766 8 127176017.400 8     -1826.777          51.000    24200793.562 8  97446571.675 8     -1399.739          51.000  
E19  24357295.547 8 127998451.889 8      1149.098          50.000    24357296.789 8  98076753.472 8       880.535          51.000  
C22  22703138.961 5 118221185.406 5     -1552.328          35.000                                                                  
C12  22838895.492 8 118928149.108 8     -1900.301          48.000    22838895.109 8  91962778.344 8     -1469.325          51.000  
C21  22217830.344 6 115694077.455 6      1034.012          37.000                                                                  
> 2020 05 09 22 25 30.0000000  0 14      -0.000000000000
G09  21612520.617 8 113574661.864 8      2543.160          51.000    21612520.773 8  88499714.284 8      1981.684          51.000  
G17  22551267.430 6 118507706.101 6     -1738.969          36.000    22551270.258 5  92343657.515 5     -1355.041          35.000  
G03  20983776.156 8 110270520.907 8     -1495.352          48.000    20983776.359 8  85925111.220 8     -1165.209          48.000  
G04  20276375.008 8 106553094.545 8       404.785          51.000    20276375.602 8  83028421.767 8       315.417          51.000  
G01  23308133.992 7 122485070.740 7     -3449.672          43.000    23308138.695 7  95442917.510 7     -2688.057          44.000  
G19  22251170.508 6 116930680.390 6      -836.410          38.000    22251159.789 5  91114790.950 5      -651.748          31.000  
R08  20238899.594 6 108377986.636 6     -1974.246          37.000    20238900.516 6  84293999.272 6     -1535.525          37.000  
R23  20068633.828 8 107353283.778 8     -2766.707          51.000    20068636.484 6  83497005.897 6     -2151.884          41.000  
R09  22704841.906 6 121242177.952 6       609.211          38.000    22704842.570 5  94299489.967 5       473.831          33.000  
E33  24211224.859 8 127230845.987 8     -1825.898          50.000    24211226.852 8  97488583.194 8     -1399.081          51.000  
E19  24350730.664 8 127963953.990 8      1153.223          50.000    24350732.320 8  98050320.022 8       883.654          51.000  
C22  22712070.141 5 118267697.040 5     -1545.797          32.000                                                                  
C12  22849855.758 8 118985221.673 8     -1902.105          48.000    22849854.812 8  92006910.449 8     -1470.856          51.000  
C21  22211867.938 6 115663027.699 6      1038.703          38.000                                                                  
> 2020 05 09 22 26  0.0000000  0 15      -0.000000000000
G09  21598098.891 8 113498877.099 8      2516.117          49.000    21598100.492 8  88440661.214 8      1960.608          49.000  
G17  22561298.484 6 118560419.739 6     -1768.445          36.000    22561300.062 6  92384733.073 6     -1378.007          36.000  
G03  20992399.789 7 110315838.432 7     -1518.789          46.000    20992400.148 7  85960423.555 7     -1183.475          46.000  
G04  20274174.273 8 106541529.130 8       373.188          51.000    20274175.016 8  83019409.766 8       290.799          51.000  
G01  23327910.438 7 122588995.494 7     -3471.543          45.000    23327915.312 7  95523897.879 7     -2705.099          45.000  
G19  22256063.445 6 116956401.695 6      -871.680          39.000    22256060.602 5  91134822.560 5      -679.243          31.000  
R08  20250046.852 6 108437682.982 6     -1998.305          38.000    20250047.094 6  84340429.710 6     -1554.237          36.000  
R23  20084272.641 8 107436946.561 8     -2803.711          51.000    20084276.727 7  83562076.982 7     -2180.665          42.000  
R09  22701550.633 6 121224592.705 6       569.992          36.000    22701550.391 5  94285812.482 5       443.324          34.000  
R24  19838153.625 5 106083163.820 5       575.312          33.000    19838151.164 4  82509124.210 4       447.468          29.000  
E33  24221743.336 8 127286123.970 8     -1852.219          49.000    24221745.508 8  97530939.064 8     -1419.239          51.000  
E19  24344233.016 8 127929809.254 8      1130.129          50.000    24344234.547 8  98024157.190 8       865.922          51.000  
C22  22721055.828 5 118314485.195 5     -1566.348          32.000                                                                  
C12  22860917.586 8 119042825.376 8     -1931.188          48.000    22860916.492 8  92051453.283 8     -1493.248          51.000  
C21  22205968.906 6 115632309.760 6      1016.461          37.000                                                                  
> 2020 05 09 22 26 30.0000000  0 16      -0.000000000000
G09  21583765.766 8 113423557.799 8      2500.789          50.000    21583768.414 8  88381970.825 8      1948.667          50.000  
G22  22840383.312 5 120027039.01325     -2384.562          31.000                                                                  
G17  22571434.188 6 118613683.001 6     -1786.613          37.000    22571434.188 6  92426236.909 6     -1392.164          38.000  
G03  21001093.070 7 110361523.555 7     -1531.070          46.000    21001094.180 7  85996022.338 7     -1193.042          46.000  
G04  20272089.852 8 106530574.747 8       352.758          51.000    20272090.680 8  83010873.901 8       274.876          51.000  
G01  23347745.477 7 122693228.545 7     -3481.809          46.000    23347750.336 7  95605118.467 7     -2713.098          46.000  
G31  23957436.797 5 125897179.38525     -2094.816          30.000                                                                  
G19  22261091.789 6 116982844.007 6      -895.230          36.000    22261091.852 5  91155427.187 5      -697.570          34.000  
R08  20261263.375 6 108497748.833 6     -2010.570          39.000    20261263.133 6  84387147.534 6     -1563.777          37.000  
R23  20100054.711 8 107521371.432 8     -2829.062          51.000    20100059.750 7  83627740.765 7     -2200.382          43.000  
R24  19834995.320 4 106066251.702 4       544.613          29.000    19835000.555 5  82496012.287 5       423.582          30.000  
E33  24232347.648 8 127341851.791 8     -1867.207          50.000    24232349.789 8  97573639.613 8     -1430.763          51.000  
E19  24337802.727 8 127896018.842 8      1118.262          50.000    24337803.742 8  97998265.841 8       856.889          50.000  
C22  22730096.031 5 118361550.569 5     -1575.539          33.000                                                                  
C12  22872081.328 8 119100959.666 8     -1948.832          48.000    22872080.453 8  92096406.393 8     -1506.913          51.000  
C21  22200134.289 6 115601925.035 6      1005.344          39.000                                                                  
> 2020 05 09 22 27  0.0000000  0 15      -0.000000000000
G09  21569485.711 8 113348513.997 8      2494.414          51.000    21569488.117 8  88323495.176 8      1943.703          51.000  
G22  22853966.891 5 120098429.868 5     -2382.539          31.000                                                                  
G17  22581637.438 5 118667302.693 5     -1795.520          35.000    22581636.281 6  92468018.563 6     -1399.110          36.000  
G03  21009819.781 7 110407384.767 7     -1534.117          46.000    21009821.664 7  86031758.336 7     -1195.416          45.000  
G04  20270085.258 8 106520039.895 8       341.805          51.000    20270085.984 8  83002664.939 8       266.341          51.000  
G01  23367602.688 7 122797576.956 7     -3482.473          46.000    23367606.906 7  95686428.945 7     -2713.613          47.000  
G31  23969403.891 5 125960048.584 5     -2104.648          34.000    23969403.141 5  98150695.458 5     -1639.983          35.000  
G19  22266221.289 6 117009814.638 6      -909.840          36.000    22266223.742 5  91176443.269 5      -708.954          31.000  
R08  20272512.172 6 108557987.457 6     -2013.344          37.000    20272512.922 6  84433999.809 6     -1565.934          38.000  
R23  20115943.188 8 107606360.327 8     -2844.773          51.000    20115947.797 7  83693843.217 7     -2212.602          42.000  
E33  24243001.430 8 127397837.497 8     -1872.820          51.000    24243003.125 8  97616537.743 8     -1434.962          51.000  
E19  24331403.156 8 127862391.580 8      1115.879          49.000    24331403.984 8  97972499.516 8       855.004          50.000  
C22  22739152.039 6 118408703.154 6     -1575.695          36.000                                                                  
C12  22883310.703 8 119159433.470 8     -1957.164          48.000    22883309.609 8  92141622.062 8     -1513.304          51.000  
C21  22194328.008 6 115571684.225 6      1003.250          41.000                                                                  
> 2020 05 09 22 27 30.0000000  0 16      -0.000000000000
G09  21555311.203 8 113274022.678 8      2481.555          51.000    21555312.312 8  88265450.049 8      1933.683          51.000  
G22  22867615.820 5 120170169.190 5     -2390.160          31.000                                                                  
G17  22591960.930 6 118721552.944 6     -1810.738          38.000    22591959.234 6  92510291.460 6     -1410.965          38.000  
G03  21018632.641 8 110453697.413 8     -1543.477          48.000    21018634.609 6  86067846.089 6     -1202.709          41.000  
G04  20268212.844 8 106510199.856 8       324.258          51.000    20268213.453 8  82994997.400 8       252.669          51.000  
G01  23387534.250 8 122902314.752 8     -3490.031          48.000    23387537.523 8  95768042.806 8     -2719.506          48.000  
G31  23981497.047 5 126023595.173 5     -2121.680          35.000    23981495.477 5  98200212.272 5     -1653.257          35.000  
G19  22271503.164 5 117037588.139 5      -931.508          30.000    22271506.078 4  91198085.816 4      -725.850          29.000  
R08  20283845.367 6 108618678.520 6     -2022.746          38.000    20283846.906 6  84481203.977 6     -1573.247          36.000  
R23  20131988.930 8 107692190.861 8     -2867.078          51.000    20131992.867 7  83760600.281 7     -2229.950          42.000  
R24  19829157.609 5 106035012.067 5       494.828          34.000                                                                  
E33  24253756.938 8 127454355.947 8     -1885.230          51.000    24253757.570 8  97659844.084 8     -1444.456          51.000  
E19  24325087.062 8 127829203.026 8      1106.699          49.000    24325088.141 8  97947069.325 8       847.979          50.000  
C22  22748276.070 6 118456215.431 6     -1581.945          38.000                                                                  
C12  22894657.508 8 119218518.202 8     -1971.938          48.000    22894656.359 8  92187310.114 8     -1524.915          51.000  
C21  22188600.375 6 115541860.349 6       995.012          37.000                                                                  
> 2020 05 09 22 28  0.0000000  0 15      -0.000000000000
G09  21541182.703 8 113199773.728 8      2470.414          51.000    21541182.930 8  88207593.788 8      1925.002          51.000  
G22  22881274.828 5 120241945.125 5     -2393.391          34.000                                                                  
G17  22602344.453 6 118776119.673 6     -1824.328          39.000    22602343.242 6  92552810.959 6     -1421.555          39.000  
G03  21027472.242 7 110500149.853 7     -1551.344          47.000    21027473.781 6  86104042.762 6     -1208.843          39.000  
G04  20266413.289 8 106500742.904 8       308.352          51.000    20266413.906 8  82987628.359 8       240.277          51.000  
G01  23407480.320 8 123007128.754 8     -3495.516          49.000    23407482.344 8  95849716.054 8     -2723.776          49.000  
G31  23993659.164 5 126087506.503 5     -2137.973          32.000    23993656.938 5  98250013.313 5     -1665.947          31.000  
R08  20295204.633 6 108679502.649 6     -2030.152          38.000    20295204.867 6  84528511.554 6     -1579.011          36.000  
R23  20148131.195 8 107778542.785 8     -2887.602          50.000    20148135.492 7  83827762.860 7     -2245.913          43.000  
R24  19826459.656 6 106020588.557 6       468.445          38.000                                                                  
E33  24264554.477 8 127511094.909 8     -1895.512          51.000    24264554.164 8  97703319.400 8     -1452.352          51.000  
E19  24318795.570 8 127796141.702 8      1099.375          50.000    24318796.680 8  97921736.624 8       842.412          51.000  
C22  22757410.531 6 118503778.236 6     -1586.902          37.000                                                                  
C12  22906061.930 8 119277903.620 8     -1984.945          48.000    22906060.711 8  92233230.693 8     -1535.007          51.000  
C21  22182891.859 5 115512144.888 5       988.133          35.000                                                                  
> 2020 05 09 22 28 30.0000000  0 15      -0.000000000000
G09  21527111.133 8 113125827.355 8      2458.180          51.000    21527111.555 8  88149973.250 8      1915.465          51.000  
G22  22894951.242 6 120313816.157 6     -2398.715          36.000                                                                  
G17  22612799.594 6 118831059.916 6     -1839.078          40.000    22612798.812 6  92595621.496 6     -1433.051          40.000  
G03  21036349.672 8 110546800.656 8     -1559.973          48.000    21036350.312 5  86140393.987 5     -1215.567          34.000  
G04  20264697.492 8 106491727.524 8       291.586          51.000    20264698.289 8  82980603.391 8       227.210          51.000  
G01  23427451.656 8 123112076.139 8     -3502.148          49.000    23427452.938 8  95931493.231 8     -2728.948          49.000  
R08  20306599.305 5 108740518.401 5     -2038.324          34.000    20306599.570 6  84575968.243 6     -1585.364          36.000  
R23  20164380.586 8 107865472.433 8     -2908.895          48.000    20164386.477 7  83895374.820 7     -2262.474          43.000  
R09  22687225.383 5 121148101.628 5       449.883          34.000    22687225.672 4  94226315.393 4       349.909          29.000  
R24  19823903.086 6 106006921.531 6       441.203          36.000    19823908.117 4  82449839.287 4       343.155          27.000  
E33  24275405.016 8 127568112.526 8     -1906.887          51.000    24275404.547 8  97747008.220 8     -1461.119          51.000  
E19  24312539.875 8 127763266.487 8      1091.109          51.000    24312540.586 8  97896546.550 8       836.009          51.000  
C22  22766564.883 6 118551449.554 6     -1592.699          39.000                                                                  
C12  22917534.906 7 119337646.374 7     -1999.039          47.000    22917533.969 8  92279427.572 8     -1545.736          51.000  
C21  22177216.914 6 115482596.318 6       980.566          39.000                                                                  
> 2020 05 09 22 29  0.0000000  0 16      -0.000000000000
G09  21513116.703 8 113052291.627 8      2444.914          50.000    21513118.141 8  88092672.679 8      1905.125          50.000  
G22  22908666.797 5 120385888.912 5     -2405.203          33.000                                                                  
G17  22623345.648 7 118886477.650 7     -1854.359          42.000    22623344.586 6  92638804.140 6     -1444.956          41.000  
G03  21045285.148 8 110593756.332 8     -1569.480          48.000    21045282.336 5  86176982.768 5     -1222.975          31.000  
G04  20263086.023 8 106483260.178 8       273.730          51.000    20263087.117 8  82974005.456 8       213.300          51.000  
G01  23447468.195 8 123217261.986 8     -3509.555          48.000    23447468.969 8  96013456.213 8     -2734.719          48.000  
G19  22287966.203 5 117124081.27625      -992.102          31.000                                                                  
R08  20318048.398 6 108801833.156 6     -2048.047          36.000    20318049.820 6  84623657.467 6     -1592.926          37.000  
R23  20180758.688 8 107953085.798 8     -2931.141          50.000    20180765.125 7  83963518.573 7     -2279.777          43.000  
R09  22684769.273 5 121134989.771 5       424.711          32.000    22684768.359 4  94216116.83124       330.340          27.000  
R24  19821509.844 6 105994120.675 6       412.551          36.000    19821511.969 4  82439899.094 4       320.876          26.000  
E33  24286328.727 8 127625514.772 8     -1919.227          51.000    24286328.461 8  97790991.741 8     -1470.613          51.000  
E19  24306339.891 8 127730684.013 8      1081.711          51.000    24306340.219 8  97871580.777 8       828.868          51.000  
C22  22775760.422 6 118599334.491 6     -1599.113          37.000                                                                  
C12  22929096.227 7 119397850.444 7     -2013.820          46.000    22929095.789 8  92325981.183 8     -1557.280          51.000  
C21  22171595.461 6 115453320.503 6       971.848          40.000                                                                  
> 2020 05 09 22 29 30.0000000  0 14      -0.000000000000
G09  21499198.234 8 112979152.174 8      2432.652          51.000    21499199.859 8  88035680.863 8      1895.574          51.000  
G17  22633979.234 7 118942355.366 7     -1868.793          43.000    22633977.289 7  92682345.193 7     -1456.203          43.000  
G03  21054275.531 8 110641001.010 8     -1578.203          48.000    21054271.391 5  86213796.705 5     -1229.772          33.000  
G04  20261575.969 8 106475324.849 8       257.031          51.000    20261577.172 8  82967822.076 8       200.284          51.000  
G01  23467526.555 8 123322668.952 8     -3515.887          48.000    23467526.438 8  96095591.491 8     -2739.656          48.000  
R08  20329550.461 6 108863429.128 6     -2056.547          38.000    20329552.695 6  84671565.455 6     -1599.537          38.000  
R23  20197261.844 8 108041363.489 8     -2952.258          51.000    20197267.656 7  84032178.999 7     -2296.198          42.000  
R09  22682455.922 5 121122645.410 5       400.266          33.000    22682459.539 5  94206529.115 5       311.318          30.000  
R24  19819274.727 6 105982171.358 6       385.191          36.000    19819275.703 4  82430590.200 4       299.593          27.000  
E33  24297322.289 8 127683285.176 8     -1930.457          51.000    24297322.508 8  97835257.352 8     -1479.149          51.000  
E19  24300192.461 8 127698378.556 8      1073.672          51.000    24300192.812 8  97846827.270 8       822.672          51.000  
C22  22784993.547 6 118647417.191 6     -1604.707          36.000                                                                  
C12  22940743.016 7 119458498.742 7     -2027.742          46.000    22940743.109 8  92372878.297 8     -1567.901          51.000  
C21  22166023.242 6 115424302.006 6       964.277          39.000                                                                  
> 2020 05 09 22 30  0.0000000  0 15      -0.000000000000
G09  21485336.758 8 112906307.173 8      2413.273          51.000    21485337.711 8  87978918.530 8      1880.473          51.000  
G22  22936184.688 5 120530470.982 5     -2423.289          35.000                                                                  
G17  22644680.312 7 118998587.994 7     -1890.359          44.000    22644678.008 7  92726162.830 7     -1473.008          43.000  
G03  21063301.242 7 110688431.390 7     -1594.145          47.000    21063297.219 6  86250755.426 6     -1242.194          39.000  
G04  20260147.508 8 106467818.108 8       232.996          51.000    20260148.531 8  82961972.668 8       181.555          51.000  
G01  23487606.914 7 123428192.302 7     -3529.559          47.000    23487606.469 7  96177817.446 7     -2750.306          47.000  
R08  20341085.477 6 108925199.771 6     -2072.117          36.000    20341087.836 6  84719609.267 6     -1611.650          38.000  
R23  20213868.781 8 108130197.191 8     -2980.602          51.000    20213874.102 7  84101271.889 7     -2318.246          42.000  
R09  22680267.297 5 121110965.184 5       368.219          35.000    22680271.094 5  94197444.510 5       286.389          30.000  
R24  19817180.664 5 105970969.610 5       350.312          35.000                                                                  
E33  24308365.867 8 127741319.886 8     -1948.812          51.000    24308366.789 8  97879725.495 8     -1493.319          51.000  
E19  24294078.258 8 127666247.053 8      1058.195          51.000    24294078.641 8  97822207.030 8       810.837          51.000  
C22  22794245.125 5 118695594.856 5     -1617.758          34.000                                                                  
C12  22952455.508 7 119519487.395 7     -2048.672          47.000    22952455.531 8  92420038.610 8     -1584.040          51.000  
C21  22160480.508 6 115395438.746 6       949.762          40.000                                                                  
> 2020 05 09 22 30 30.0000000  0 14      -0.000000000000
G09  21471574.016 8 112833979.682 8      2407.500          51.000    21471574.211 8  87922559.479 8      1875.978          51.000  
G17  22655490.773 7 119055395.102 7     -1898.012          45.000    22655489.062 7  92770428.114 7     -1478.971          45.000  
G03  21072404.406 7 110736268.912 7     -1596.137          47.000    21072404.141 7  86288031.381 7     -1243.743          43.000  
G04  20258842.844 8 106460961.257 8       222.910          51.000    20258843.586 8  82956629.662 8       173.696          51.000  
G01  23507750.844 7 123534052.041 7     -3529.074          46.000    23507751.234 7  96260305.514 7     -2749.929          46.000  
R08  20352696.117 5 108987369.607 5     -2073.523          32.000    20352697.766 6  84767963.539 6     -1612.744          38.000  
R23  20230621.047 8 108219809.200 8     -2994.699          51.000    20230625.852 6  84170970.126 6     -2329.211          41.000  
R09  22678246.289 5 121100175.436 5       350.652          33.000    22678251.766 5  94189052.566 5       272.733          31.000  
R24  19815269.008 6 105960742.287 6       329.836          37.000    19815272.156 4  82413931.299 4       256.536          28.000  
E33  24319501.469 8 127799839.833 8     -1953.477          51.000    24319503.156 8  97924565.446 8     -1496.844          51.000  
E19  24288039.445 8 127634511.519 8      1056.461          51.000    24288039.812 8  97797890.187 8       809.580          51.000  
C22  22803557.016 5 118744086.831 5     -1616.398          35.000                                                                  
C12  22964274.594 7 119581034.478 7     -2055.746          45.000    22964274.734 8  92467630.703 8     -1589.579          51.000  
C21  22155010.719 6 115366950.701 6       948.473          41.000                                                                  
> 2020 05 09 22 31  0.0000000  0 16      -0.000000000000
G09  21457864.125 8 112761931.606 8      2394.055          51.000    21457863.750 8  87866418.155 8      1865.498          51.000  
G22  22963842.547 5 120675815.95725     -2427.285          32.000                                                                  
G17  22666364.148 7 119112534.963 7     -1913.133          45.000    22666363.195 7  92814952.687 7     -1490.753          46.000  
G03  21081539.344 7 110784273.992 7     -1605.828          46.000    21081541.594 7  86325437.943 7     -1251.295          45.000  
G04  20257616.156 8 106454514.547 8       205.250          51.000    20257616.672 8  82951606.258 8       159.935          51.000  
G01  23527912.836 7 123640007.137 7     -3536.180          46.000    23527914.570 7  96342867.907 7     -2755.466          46.000  
G31  24068541.055 5 126481004.791 5     -2235.305          33.000                                                                  
R08  20364335.031 4 109049692.872 4     -2082.535          29.000    20364335.633 6  84816437.248 6     -1619.747          37.000  
R23  20247472.719 8 108309952.944 8     -3016.492          51.000    20247476.602 6  84241081.905 6     -2346.161          40.000  
R09  22676346.742 6 121090034.483 6       324.418          36.000    22676351.828 5  94181165.252 5       252.328          31.000  
R24  19813493.797 5 105951246.791 5       301.281          35.000                                                                  
E33  24330683.773 8 127858604.834 8     -1965.848          51.000    24330685.844 8  97969593.180 8     -1506.279          51.000  
E19  24282030.195 8 127602932.253 8      1047.188          51.000    24282030.773 8  97773693.099 8       802.316          51.000  
C22  22812886.000 6 118792655.520 6     -1622.906          37.000                                                                  
C12  22976154.508 7 119642900.956 7     -2070.227          45.000    22976154.750 8  92515469.768 8     -1601.027          51.000  
C21  22149567.406 6 115338600.643 6       939.797          39.000                                                                  
> 2020 05 09 22 31 30.0000000  0 16      -0.000000000000
G09  21444224.359 8 112690257.125 8      2380.234          49.000    21444224.086 8  87810567.890 8      1854.729          49.000  
G17  22677318.461 7 119170098.190 7     -1928.531          46.000    22677316.992 7  92859807.174 7     -1502.752          46.000  
G03  21090723.781 7 110832539.232 7     -1615.812          45.000    21090726.312 7  86363047.239 7     -1259.075          45.000  
G04  20256485.031 8 106448570.440 8       187.250          51.000    20256485.148 8  82946974.497 8       145.912          51.000  
G01  23548110.547 7 123746148.721 7     -3543.762          46.000    23548113.500 7  96425575.660 7     -2761.374          46.000  
G31  24081340.688 5 126548280.838 5     -2252.434          32.000                                                                  
G19  22317759.062 5 117280616.28425     -1095.590          32.000                                                                  
R08  20376017.164 5 109112262.925 5     -2092.113          32.000    20376018.922 5  84865102.902 5     -1627.197          35.000  
R23  20264440.461 8 108400719.522 8     -3038.426          50.000    20264443.234 6  84311678.109 6     -2363.220          39.000  
R09  22674587.703 6 121080637.933 6       298.270          37.000    22674592.742 5  94173856.781 5       231.987          31.000  
R24  19811872.352 5 105942578.793 5       272.285          33.000                                                                  
E33  24341930.508 8 127917706.932 8     -1978.367          51.000    24341932.414 8  98014879.199 8     -1515.806          51.000  
E19  24276068.297 8 127571602.296 8      1037.559          51.000    24276069.281 8  97749687.030 8       794.992          51.000  
C22  22822246.547 6 118841392.473 6     -1629.703          39.000                                                                  
C12  22988113.195 7 119705177.079 7     -2085.332          45.000    22988113.742 8  92563625.593 8     -1612.463          51.000  
C21  22144165.742 5 115310480.698 5       930.699          31.000                                                                  
> 2020 05 09 22 32  0.0000000  0 16      -0.000000000000
G09  21430669.102 8 112619024.961 8      2367.273          51.000    21430669.047 8  87755062.297 8      1844.629          51.000  
G22  22991614.984 5 120821738.667 5     -2440.379          32.000                                                                  
G17  22688365.758 7 119228150.544 7     -1942.957          47.000    22688363.266 8  92905042.765 8     -1513.993          48.000  
G03  21099970.578 7 110881131.988 7     -1625.074          45.000    21099972.930 7  86400911.724 7     -1266.292          44.000  
G04  20255462.234 8 106443196.027 8       170.004          51.000    20255461.992 8  82942786.648 8       132.471          51.000  
G01  23568356.469 7 123852542.700 7     -3550.398          47.000    23568360.211 7  96508480.074 7     -2766.542          47.000  
R08  20387760.594 5 109175147.323 5     -2100.816          33.000    20387760.922 5  84914012.953 5     -1633.969          35.000  
R23  20281536.656 8 108492173.861 8     -3059.562          50.000    20281539.312 6  84382809.266 6     -2379.660          40.000  
R02  23512246.188 6 125465469.607 6      3172.387          38.000    23512252.594 5  97584272.647 5      2467.412          33.000  
R09  22672980.969 5 121072055.188 5       272.906          35.000    22672986.359 4  94167181.341 4       212.260          28.000  
R24  19810418.812 5 105934808.004 5       243.816          33.000    19810415.133 4  82393738.11824       189.635          24.000  
E33  24353254.305 8 127977212.878 8     -1990.043          51.000    24353255.539 8  98060474.645 8     -1524.779          51.000  
E19  24270166.648 8 127540588.942 8      1028.773          51.000    24270167.836 8  97725923.545 8       788.254          51.000  
C22  22831651.336 6 118890364.091 6     -1636.000          41.000                                                                  
C12  23000164.008 7 119767928.087 7     -2099.328          45.000    23000164.508 8  92612148.677 8     -1623.316          51.000  
C21  22138818.750 5 115282657.738 5       922.609          32.000                                                                  
> 2020 05 09 22 32 30.0000000  0 17      -0.000000000000
G09  21417166.828 8 112548069.103 8      2357.352          51.000    21417167.367 8  87699772.033 8      1836.898          51.000  
G22  23005536.039 5 120894887.683 5     -2442.617          34.000                                                                  
G17  22699473.664 7 119286522.126 7     -1954.148          46.000    22699470.773 7  92950527.086 7     -1522.717          47.000  
G03  21109247.859 6 110929884.777 6     -1631.328          41.000    21109250.266 6  86438900.912 6     -1271.165          41.000  
G04  20254515.828 8 106438223.683 8       155.824          51.000    20254515.797 8  82938912.113 8       121.425          51.000  
G01  23588618.258 7 123959020.121 7     -3553.770          47.000    23588622.438 7  96591449.493 7     -2769.169          47.000  
G19  22330475.977 5 117347435.997 5     -1133.133          35.000                                                                  
R08  20399531.172 5 109238173.784 5     -2106.297          35.000    20399530.938 5  84963033.471 5     -1638.234          35.000  
R23  20298729.734 8 108584142.564 8     -3077.375          51.000    20298732.570 6  84454340.471 6     -2393.514          41.000  
R02  23494398.625 5 125370235.870 5      3170.438          34.000    23494404.242 4  97510201.990 4      2465.896          28.000  
R09  22671494.594 5 121064117.697 5       250.902          34.000                                                                  
R24  19809102.797 6 105927765.222 6       219.227          36.000    19809097.609 4  82388255.39724       170.510          24.000  
E33  24364623.164 8 128036954.610 8     -1998.504          51.000    24364623.344 8  98106250.758 8     -1531.340          50.000  
E19  24264293.273 8 127509724.944 8      1023.105          51.000    24264294.375 8  97702274.509 8       783.953          51.000  
C22  22841068.852 6 118939404.176 6     -1639.094          41.000                                                                  
C12  23012274.266 7 119830986.537 7     -2110.199          46.000    23012274.883 8  92660909.463 8     -1631.728          51.000  
C21  22133501.305 5 115254966.503 5       917.512          35.000                                                                  
> 2020 05 09 22 33  0.0000000  0 16      -0.000000000000
G09  21403756.516 8 112477597.240 8      2342.090          51.000    21403757.711 8  87644858.917 8      1825.006          51.000  
G22  23019507.961 5 120968300.184 5     -2449.949          35.000                                                                  
G17  22710680.844 7 119345417.320 7     -1970.742          46.000    22710678.648 7  92996419.455 7     -1535.644          46.000  
G03  21118594.930 6 110979003.819 6     -1642.500          41.000    21118596.875 6  86477175.475 6     -1279.867          41.000  
G04  20253685.227 8 106433859.407 8       136.406          51.000    20253685.281 8  82935511.384 8       106.291          51.000  
G01  23608934.945 7 124065785.756 7     -3562.562          46.000    23608939.172 7  96674643.488 7     -2776.024          46.000  
R08  20411367.906 5 109301551.102 5     -2116.848          32.000    20411367.445 5  85012326.893 5     -1646.437          34.000  
R23  20316057.867 8 108676832.545 8     -3100.527          51.000    20316060.727 6  84526432.655 6     -2411.525          41.000  
R02  23476599.445 5 125275256.404 5      3162.652          32.000    23476603.250 4  97436329.052 4      2459.844          26.000  
R09  22670169.070 6 121057036.123 6       222.898          36.000    22670171.711 4  94155489.826 4       173.365          26.000  
R24  19807962.812 5 105921661.200 5       188.742          34.000    19807956.977 4  82383511.37724       146.800          27.000  
E33  24376076.109 8 128097137.727 8     -2012.363          51.000    24376075.281 8  98152365.072 8     -1541.945          50.000  
E19  24258487.680 8 127479216.799 8      1012.168          51.000    24258488.422 8  97678898.151 8       775.540          51.000  
C22  22850538.344 6 118988716.880 6     -1647.066          39.000                                                                  
C12  23024482.953 7 119894555.233 7     -2126.277          47.000    23024483.344 8  92710064.815 8     -1644.266          51.000  
C21  22128248.406 5 115227611.338 5       908.020          34.000                                                                  
> 2020 05 09 22 33 30.0000000  0 16      -0.000000000000
G09  21390410.695 8 112407465.875 8      2331.867          51.000    21390411.891 8  87590211.105 8      1817.043          51.000  
G22  23033502.164 5 121041830.953 5     -2453.496          32.000                                                                  
G17  22721959.359 8 119404689.088 8     -1982.020          48.000    22721958.594 8  93042605.237 8     -1544.431          48.000  
G03  21127984.109 6 111028344.040 6     -1648.359          37.000    21127985.758 6  86515622.388 6     -1284.436          38.000  
G04  20252942.602 8 106429957.848 8       122.223          50.000    20252942.625 8  82932471.210 8        95.238          50.000  
G01  23629278.445 7 124172693.024 7     -3566.074          45.000    23629282.227 7  96757947.871 7     -2778.757          45.000  
R08  20423239.391 5 109365130.371 5     -2122.402          31.000    20423241.055 5  85061777.478 5     -1650.752          34.000  
R23  20333492.219 8 108770092.906 8     -3118.270          51.000    20333495.070 6  84598968.479 6     -2425.321          41.000  
R02  23458820.703 5 125180385.082 5      3160.258          31.000    23458842.656 4  97362550.192 4      2457.979          27.000  
R09  22668975.445 5 121050664.514 5       200.316          35.000    22668982.070 5  94150534.108 5       155.802          30.000  
R24  19806968.461 5 105916349.728 5       164.230          31.000    19806966.078 4  82379388.713 4       127.735          27.000  
E33  24387585.195 8 128157616.545 8     -2020.973          51.000    24387583.625 8  98198705.974 8     -1548.580          51.000  
E19  24252722.273 8 127448919.603 8      1006.219          51.000    24252722.828 8  97655683.420 8       771.005          51.000  
C22  22860032.289 6 119038158.263 6     -1650.273          41.000                                                                  
C12  23036761.898 8 119958488.821 8     -2137.500          48.000    23036761.539 8  92759502.323 8     -1652.700          51.000  
C21  22123032.148 5 115200449.082 5       902.148          35.000                                                                  
> 2020 05 09 22 34  0.0000000  0 16      -0.000000000000
G09  21377139.852 8 112337730.499 8      2318.223          50.000    21377140.266 8  87535871.876 8      1806.408          50.000  
G22  23047528.602 5 121115534.016 5     -2459.438          34.000                                                                  
G17  22733319.648 8 119464389.257 8     -1996.676          48.000    22733319.586 8  93089124.815 8     -1555.855          48.000  
G03  21137425.461 5 111077959.580 5     -1657.668          34.000    21137427.172 5  86554283.824 5     -1291.690          34.000  
G04  20252298.266 8 106426572.892 8       104.688          51.000    20252298.641 8  82929833.584 8        81.575          51.000  
G01  23649659.008 7 124279794.622 7     -3572.922          45.000    23649662.297 7  96841403.671 7     -2784.096          45.000  
R08  20435158.148 5 109428965.728 5     -2131.664          33.000    20435162.438 5  85111427.176 5     -1657.964          35.000  
R23  20351042.250 8 108863975.445 8     -3139.422          51.000    20351045.430 6  84671988.237 6     -2441.773          40.000  
R02  23441072.195 6 125085677.725 6      3154.285          38.000    23441083.570 5  97288951.104 5      2453.339          32.000  
R09  22667922.719 4 121045057.74424       174.934          29.000    22667924.406 5  94146163.22625       136.059          32.000  
R24  19806131.133 4 105911898.66324       135.293          29.000                                                                  
E33  24399160.281 8 128218444.571 8     -2033.082          51.000    24399158.359 8  98245314.442 8     -1557.784          51.000  
E19  24247007.148 8 127418887.437 8       996.965          51.000    24247007.922 8  97632671.772 8       763.918          51.000  
C22  22869561.203 6 119087781.681 6     -1656.629          39.000                                                                  
C12  23049120.297 8 120022839.341 8     -2151.711          48.000    23049119.328 8  92809262.231 8     -1663.746          51.000  
C21  22117864.398 6 115173533.643 6       893.289          37.000                                                                  
> 2020 05 09 22 34 30.0000000  0 16      -0.000000000000
G09  21363933.453 8 112268332.706 8      2306.426          50.000    21363933.586 8  87481795.703 8      1797.215          50.000  
G22  23061577.305 5 121189349.949 5     -2463.746          35.000                                                                  
G17  22744750.008 8 119524456.142 8     -2009.609          48.000    22744749.664 8  93135930.150 8     -1565.933          48.000  
G03  21146908.102 5 111127750.741 5     -1665.625          34.000    21146909.461 5  86593113.204 5     -1297.890          33.000  
G04  20251741.031 8 106423644.457 8        88.730          51.000    20251741.664 8  82927551.701 8        69.141          51.000  
G01  23670065.180 7 124387029.179 7     -3577.898          46.000    23670068.148 7  96924963.058 7     -2787.974          46.000  
R08  20447114.844 5 109492994.682 5     -2138.809          34.000    20447119.633 5  85161227.460 5     -1663.524          34.000  
R23  20368695.867 8 108958415.745 8     -3158.562          50.000    20368700.070 6  84745441.859 6     -2456.660          39.000  
R02  23423342.906 6 124991074.466 6      3150.449          38.000    23423348.797 4  97215370.888 4      2450.350          29.000  
R09  22667006.734 5 121040158.348 5       149.961          35.000    22667011.922 5  94142352.978 5       116.633          34.000  
R24  19805444.336 5 105908224.138 5       107.824          35.000    19805449.609 4  82373063.509 4        83.866          29.000  
E33  24410789.875 8 128279561.311 8     -2043.266          51.000    24410788.102 8  98292144.128 8     -1565.584          51.000  
E19  24241331.109 8 127389060.821 8       989.492          51.000    24241332.047 8  97609817.619 8       758.219          51.000  
C22  22879113.773 6 119137527.595 6     -1661.422          39.000                                                                  
C12  23061546.492 7 120087545.905 7     -2164.121          47.000    23061545.070 8  92859297.443 8     -1673.358          51.000  
C21  22112733.406 5 115146805.909 5       886.957          35.000                                                                  
> 2020 05 09 22 35  0.0000000  0 16      -0.000000000000
G09  21350798.562 8 112199306.455 8      2301.145          51.000    21350798.984 8  87428009.035 8      1793.100          51.000  
G22  23075654.312 5 121263310.635 5     -2460.789          31.000                                                                  
G17  22756256.094 8 119584920.206 8     -2015.730          49.000    22756254.953 8  93183044.951 8     -1570.700          48.000  
G04  20251276.852 8 106421204.719 8        79.598          51.000    20251277.453 8  82925650.611 8        62.024          51.000  
G01  23690502.750 7 124494427.760 7     -3576.090          46.000    23690504.898 7  97008650.236 7     -2786.564          46.000  
G19  22364268.359 5 117525016.283 5     -1225.496          34.000                                                                  
R08  20459116.688 5 109557249.120 5     -2139.074          33.000    20459117.719 5  85211203.038 5     -1663.731          33.000  
R23  20386459.898 8 109053444.095 8     -3170.816          51.000    20386465.031 6  84819352.822 6     -2466.191          39.000  
R02  23405640.805 5 124896609.043 5      3153.246          35.000    23405653.266 5  97141831.678 5      2452.522          30.000  
R09  22666229.898 6 121035999.914 6       132.914          38.000    22666233.914 5  94139118.697 5       103.378          33.000  
R24  19804909.281 5 105905372.472 5        87.512          35.000    19804917.758 4  82370845.512 4        68.068          29.000  
E33  24422480.477 8 128340998.603 8     -2046.793          50.000    24422479.359 8  98339219.452 8     -1568.320          51.000  
E19  24235700.570 8 127359472.569 8       988.762          51.000    24235701.336 8  97587146.114 8       757.656          51.000  
C22  22888696.648 6 119187428.018 6     -1659.629          38.000                                                                  
C12  23074046.250 7 120152639.127 7     -2169.766          47.000    23074045.062 8  92909631.607 8     -1677.837          51.000  
C21  22107641.617 5 115120298.464 5       886.578          31.000                                                                  
> 2020 05 09 22 35 30.0000000  0 14      -0.000000000000
G09  21337751.844 8 112130742.199 8      2272.340          51.000    21337752.516 8  87374582.357 8      1770.658          51.000  
G17  22767854.094 7 119645868.648 7     -2045.035          47.000    22767852.750 7  93230537.242 7     -1593.534          47.000  
G04  20250922.531 8 106419342.471 8        46.984          51.000    20250923.172 8  82924199.522 8        36.611          51.000  
G01  23710988.148 7 124602077.947 7     -3597.855          46.000    23710987.406 7  97092533.449 7     -2803.528          46.000  
R08  20471177.547 5 109621818.530 5     -2162.906          34.000    20471175.422 5  85261423.686 5     -1682.264          33.000  
R23  20404350.938 8 109149147.823 8     -3206.863          51.000    20404355.703 6  84893789.020 6     -2494.230          38.000  
R02  23387981.219 5 124802372.908 5      3132.172          33.000    23387993.023 4  97068537.017 4      2436.137          29.000  
R09  22665607.078 6 121032673.916 6        91.906          38.000    22665612.906 5  94136531.846 5        71.486          31.000  
R24  19804546.164 5 105903435.056 5        43.551          32.000    19804554.328 5  82369338.584 5        33.870          33.000  
E33  24434248.938 8 128402844.894 8     -2073.758          50.000    24434249.211 8  98386608.181 8     -1588.990          51.000  
E19  24230132.430 8 127330211.639 8       964.512          50.000    24230132.859 8  97564725.422 8       739.024          51.000  
C22  22898326.758 6 119237571.125 6     -1681.137          38.000                                                                  
C12  23086636.484 7 120218205.731 7     -2198.719          46.000    23086636.508 8  92960331.861 8     -1700.204          51.000  
C21  22102608.906 5 115094100.058 5       862.629          30.000                                                                  
> 2020 05 09 22 36  0.0000000  0 15      -0.000000000000
G09  21324761.320 8 112062474.757 8      2264.293          51.000    21324762.234 8  87321386.969 8      1764.385          51.000  
G17  22779512.086 8 119707132.103 8     -2053.605          49.000    22779511.109 8  93278275.005 8     -1600.213          50.000  
G03  21175660.531 6 111278842.028 6     -1695.234          37.000    21175659.008 6  86710782.169 6     -1320.965          36.000  
G04  20250646.398 8 106417890.827 8        35.273          51.000    20250647.172 8  82923068.369 8        27.486          51.000  
G01  23731489.617 7 124709811.657 7     -3598.785          47.000    23731484.828 7  97176481.703 7     -2804.252          46.000  
G19  22378571.125 5 117600196.796 5     -1275.508          35.000    22378566.211 5  91636487.216 5      -993.902          34.000  
R08  20483263.844 5 109686531.835 5     -2165.832          32.000    20483261.359 5  85311756.275 5     -1684.536          32.000  
R23  20422336.148 8 109245353.834 8     -3221.699          51.000    20422339.438 6  84968615.841 6     -2505.773          37.000  
R09  22665107.867 6 121030011.956 6        71.246          37.000    22665113.945 4  94134461.391 4        55.408          29.000  
R24  19804322.734 5 105902243.167 5        21.316          32.000    19804331.977 5  82368411.553 5        16.579          33.000  
E33  24446063.562 8 128464932.920 8     -2079.961          50.000    24446065.445 8  98434182.133 8     -1593.701          51.000  
E19  24224594.953 8 127301111.957 8       960.914          51.000    24224595.250 8  97542428.275 8       736.321          51.000  
C22  22907971.805 5 119287791.502 5     -1681.383          35.000                                                                  
C12  23099286.117 7 120284079.004 7     -2207.211          47.000    23099287.477 8  93011269.288 8     -1706.705          51.000  
C21  22097605.594 5 115068045.945 5       859.539          33.000                                                                  
> 2020 05 09 22 36 30.0000000  0 15      -0.000000000000
G09  21311854.828 8 111994652.748 8      2252.293          50.000    21311856.141 8  87268538.655 8      1755.034          50.000  
G17  22791257.688 8 119768856.023 8     -2066.047          49.000    22791257.500 8  93326371.508 8     -1609.910          49.000  
G03  21185345.750 5 111329746.396 5     -1703.145          35.000    21185345.164 5  86750447.813 5     -1327.129          35.000  
G04  20250476.250 8 106416996.611 8        19.371          51.000    20250477.008 8  82922371.579 8        15.094          51.000  
G01  23752034.711 7 124817774.554 7     -3603.633          47.000    23752031.109 8  97260608.569 8     -2808.026          48.000  
G19  22385893.344 5 117638673.886 5     -1294.336          32.000                                                                  
R08  20495402.938 5 109751537.854 5     -2172.715          30.000    20495401.812 5  85362316.520 5     -1689.890          30.000  
R23  20440442.305 8 109342208.785 8     -3240.320          51.000    20440444.719 6  85043947.390 6     -2520.250          37.000  
R09  22664762.055 6 121028164.500 6        47.008          37.000    22664768.133 5  94133024.389 5        36.556          30.000  
R24  19804267.070 6 105901947.554 6        -5.980          37.000    19804273.781 5  82368181.721 5        -4.648          30.000  
E33  24457952.148 8 128527409.213 8     -2090.129          50.000    24457955.297 8  98482053.586 8     -1601.492          51.000  
E19  24219116.047 8 127272320.572 8       953.543          50.000    24219116.734 8  97520367.348 8       730.643          51.000  
C22  22917659.586 5 119338234.863 5     -1686.113          35.000                                                                  
C12  23112023.227 8 120350403.097 8     -2219.316          48.000    23112025.016 8  93062555.305 8     -1716.189          51.000  
C21  22092660.391 6 115042282.066 6       853.070          36.000                                                                  
> 2020 05 09 22 37  0.0000000  0 15      -0.000000000000
G09  21299034.508 8 111927284.384 8      2249.145          51.000    21299036.125 8  87216043.826 8      1752.581          51.000  
G17  22803091.992 8 119831045.093 8     -2069.598          49.000    22803091.727 8  93374830.487 8     -1612.674          49.000  
G03  21195094.109 6 111380975.123 6     -1702.105          39.000    21195093.977 6  86790366.292 6     -1326.319          39.000  
G04  20250413.477 8 106416666.316 8        12.637          51.000    20250413.898 8  82922114.195 8         9.847          51.000  
G01  23772624.406 7 124925972.014 7     -3599.391          47.000    23772623.852 7  97344918.260 7     -2804.721          47.000  
G31  24228010.195 5 127319045.976 5     -2411.910          33.000    24228009.172 5  99209646.777 5     -1879.411          32.000  
R08  20507597.516 5 109816842.626 5     -2170.688          33.000                                                                  
R23  20458669.930 8 109439716.197 8     -3249.832          50.000    20458673.062 6  85119786.476 6     -2527.648          39.000  
R09  22664570.453 6 121027139.781 6        31.305          36.000    22664576.320 5  94132227.409 5        24.351          32.000  
R24  19804382.531 6 105902555.729 6       -24.324          39.000    19804385.797 4  82368654.744 4       -18.916          27.000  
E33  24469915.750 8 128590279.862 8     -2091.266          50.000    24469919.516 8  98530227.241 8     -1602.351          51.000  
E19  24213697.242 8 127243844.492 8       954.918          50.000    24213698.305 8  97498548.014 8       731.715          51.000  
C22  22927391.320 5 119388907.809 5     -1682.020          35.000                                                                  
C12  23124848.523 8 120417183.204 8     -2222.531          49.000    23124849.617 8  93114193.922 8     -1718.745          51.000  
C21  22087772.352 6 115016815.667 6       854.605          38.000                                                                  
> 2020 05 09 22 37 30.0000000  0 15      -0.000000000000
G09  21286253.297 8 111860119.001 8      2226.613          51.000    21286254.891 8  87163707.178 8      1735.024          51.000  
G17  22814966.328 8 119893445.373 8     -2092.293          49.000    22814965.680 8  93423454.064 8     -1630.359          49.000  
G03  21204856.305 6 111432276.359 6     -1720.012          41.000    21204855.922 6  86830341.284 6     -1340.269          40.000  
G04  20250410.023 8 106416647.585 8       -13.266          51.000    20250410.273 8  82922099.605 8       -10.337          51.000  
G01  23793210.172 7 125034150.573 7     -3614.438          47.000    23793212.008 7  97429213.235 7     -2816.446          47.000  
G31  24241841.562 5 127391735.638 5     -2436.555          33.000    24241839.672 5  99266285.109 5     -1898.615          32.000  
R08  20519799.695 5 109882187.762 5     -2187.934          32.000                                                                  
R23  20476970.711 8 109537616.140 8     -3278.809          51.000    20476975.211 6  85195930.898 6     -2550.182          40.000  
R09  22664484.812 5 121026682.571 5        -3.328          34.000    22664489.148 5  94131871.891 5        -2.586          35.000  
R24  19804619.406 6 105903812.359 6       -61.520          39.000    19804621.812 4  82369626.130 4       -47.849          29.000  
E33  24481906.586 8 128653292.259 8     -2111.535          51.000    24481910.133 8  98578509.497 8     -1617.951          51.000  
E19  24208290.688 8 127215432.014 8       937.238          51.000    24208291.859 8  97476777.427 8       718.123          51.000  
C22  22937117.430 5 119439560.323 5     -1696.703          35.000                                                                  
C12  23137713.109 8 120484168.021 8     -2244.836          49.000    23137712.391 8  93165990.791 8     -1735.874          50.000  
C21  22082892.641 6 114991397.415 6       837.645          37.000                                                                  
> 2020 05 09 22 38  0.0000000  0 17      -0.000000000000
G09  21273574.086 8 111793488.412 8      2215.059          51.000    21273575.414 8  87111787.263 8      1726.020          51.000  
G17  22826943.094 8 119956384.774 8     -2103.824          49.000    22826942.102 8  93472497.763 8     -1639.344          49.000  
G03  21214695.016 6 111483980.525 6     -1727.137          40.000    21214694.914 6  86870630.297 6     -1345.821          40.000  
G04  20250528.688 8 106417270.525 8       -28.348          51.000    20250528.914 8  82922585.020 8       -22.089          51.000  
G01  23813854.695 7 125142639.136 7     -3618.469          46.000    23813857.969 7  97513749.784 7     -2819.584          46.000  
G31  24255785.656 5 127465016.428 5     -2449.754          34.000    24255785.828 5  99323386.985 5     -1908.903          33.000  
G19  22408521.484 5 117757581.090 5     -1350.820          35.000                                                                  
R08  20532072.617 5 109947908.994 5     -2193.906          31.000                                                                  
R23  20495407.703 8 109636241.686 8     -3296.598          51.000    20495412.734 6  85272639.677 6     -2564.021          40.000  
R02  23300063.766 5 124333242.615 5      3113.543          35.000                                                                  
R09  22664568.484 5 121027129.367 5       -26.883          31.000    22664571.719 6  94132219.407 6       -20.912          38.000  
R24  19805039.148 6 105906054.115 6       -88.012          38.000    19805047.422 5  82371369.605 5       -68.457          31.000  
E33  24493987.523 8 128716776.154 8     -2120.980          51.000    24493990.234 8  98627153.008 8     -1625.174          51.000  
E19  24202959.234 8 127187413.704 8       930.250          51.000    24202960.203 8  97455308.862 8       712.873          51.000  
C22  22946902.797 5 119490519.697 5     -1700.723          34.000                                                                  
C12  23150679.203 8 120551683.265 8     -2256.457          48.000    23150676.055 8  93218197.813 8     -1744.733          49.000  
C21  22078082.273 5 114966355.113 5       831.578          30.000                                                                  
> 2020 05 09 22 38 30.0000000  0 18      -0.000000000000
G09  21260963.258 8 111727217.152 8      2202.078          51.000    21260964.328 8  87060147.354 8      1715.906          51.000  
G22  23175054.578 5 121785756.533 5     -2505.852          35.000    23175050.969 4  94897958.833 4     -1952.612          29.000  
G17  22838988.477 8 120019684.547 8     -2116.754          49.000    22838987.539 8  93521822.265 8     -1649.419          49.000  
G03  21224576.797 6 111535910.873 6     -1735.645          40.000    21224577.180 6  86911095.519 6     -1352.448          40.000  
G04  20250735.664 8 106418357.922 8       -44.926          51.000    20250735.688 8  82923432.339 8       -35.007          51.000  
G01  23834523.883 7 125251259.410 7     -3623.875          44.000    23834528.016 7  97598388.983 7     -2823.800          44.000  
G31  24269809.672 5 127538709.630 5     -2463.883          35.000    24269808.867 5  99380810.224 5     -1919.909          34.000  
G19  22416285.055 5 117798379.648 5     -1369.824          35.000    22416282.938 5  91790936.447 5     -1067.396          34.000  
R08  20544380.984 5 110013825.253 5     -2201.332          32.000                                                                  
R23  20513946.688 8 109735409.868 8     -3315.512          51.000    20513951.234 6  85349770.481 6     -2578.735          39.000  
R02  23282569.211 5 124239886.276 5      3109.398          34.000                                                                  
R09  22664787.312 4 121028301.594 4       -51.715          29.000    22664790.570 6  94133131.164 6       -40.226          37.000  
R24  19805610.094 6 105909101.919 6      -115.922          41.000    19805612.500 5  82373740.096 5       -90.158          30.000  
E33  24506124.727 8 128780553.968 8     -2131.711          51.000    24506126.352 8  98676021.708 8     -1633.363          51.000  
E19  24197669.094 8 127159612.786 8       922.172          51.000    24197669.742 8  97434006.880 8       706.591          51.000  
C22  22956714.648 5 119541610.554 5     -1706.078          35.000                                                                  
C12  23163712.789 8 120619552.013 8     -2269.059          48.000    23163708.148 8  93270678.203 8     -1754.538          49.000  
C21  22073307.195 4 114941507.811 4       823.551          29.000                                                                  
> 2020 05 09 22 39  0.0000000  0 16      -0.000000000000
G09  21248428.664 8 111661346.655 8      2188.961          51.000    21248429.602 8  87008819.726 8      1705.687          51.000  
G17  22851109.852 8 120083382.846 8     -2129.988          50.000    22851109.258 8  93571457.272 8     -1659.735          49.000  
G03  21234509.250 6 111588107.444 6     -1744.500          40.000    21234509.805 6  86951768.237 6     -1359.348          40.000  
G04  20251038.539 8 106419949.438 8       -61.488          51.000    20251038.367 8  82924672.483 8       -47.913          51.000  
G01  23855225.406 7 125360049.947 7     -3629.254          43.000    23855230.039 7  97683160.848 7     -2827.988          44.000  
G31  24283919.094 5 127612853.328 5     -2479.457          34.000    24283917.727 5  99438584.400 5     -1932.051          31.000  
G19  22424159.945 5 117839764.136 5     -1389.145          35.000    22424160.375 5  91823193.093 5     -1082.457          32.000  
R08  20556733.531 5 110079975.805 5     -2209.160          34.000                                                                  
R23  20532594.203 8 109835157.554 8     -3334.660          51.000    20532597.000 6  85427351.976 6     -2593.628          38.000  
R02  23265109.781 6 124146693.251 6      3103.738          36.000                                                                  
R24  19806338.141 6 105912996.922 6      -144.395          39.000    19806342.086 5  82376769.502 5      -112.310          33.000  
E33  24518325.359 8 128844665.114 8     -2142.598          51.000    24518326.039 8  98725145.811 8     -1641.738          51.000  
E19  24192428.000 8 127132069.654 8       913.812          51.000    24192428.156 8  97412902.420 8       700.215          51.000  
C22  22966559.531 5 119592872.589 5     -1711.500          34.000                                                                  
C12  23176821.430 8 120687812.351 8     -2281.898          48.000    23176816.695 8  93323461.390 8     -1764.464          51.000  
C21  22068583.281 5 114916907.498 5       816.066          35.000                                                                  
> 2020 05 09 22 39 30.0000000  0 16      -0.000000000000
G09  21235965.938 8 111595853.782 8      2177.371          51.000    21235966.906 8  86957786.336 8      1696.653          51.000  
G22  23203727.023 5 121936413.535 5     -2514.875          33.000                                                                  
G17  22863302.070 8 120147452.583 8     -2141.090          49.000    22863301.688 8  93621381.716 8     -1668.382          49.000  
G03  21244487.977 6 111640545.842 6     -1751.535          41.000    21244489.094 6  86992629.337 6     -1364.830          41.000  
G04  20251432.586 8 106422020.274 8       -76.219          51.000    20251432.430 8  82926286.131 8       -59.391          51.000  
G01  23875954.484 7 125468984.749 7     -3633.152          43.000    23875959.734 7  97768045.119 7     -2831.029          43.000  
G31  24298109.273 5 127687420.686 5     -2492.184          30.000    24298108.547 5  99496688.884 5     -1941.959          30.000  
R08  20569125.250 5 110146334.659 5     -2215.059          32.000                                                                  
R23  20551344.492 8 109935456.606 8     -3351.734          51.000    20551345.664 6  85505362.287 6     -2606.905          38.000  
R02  23247677.922 5 124053640.492 5      3099.965          34.000                                                                  
R24  19807219.961 6 105917714.957 6      -170.488          38.000    19807223.859 5  82380439.073 5      -132.602          33.000  
E33  24530584.109 8 128909084.359 8     -2151.887          51.000    24530584.422 8  98774505.990 8     -1648.840          51.000  
E19  24187231.156 8 127104759.663 8       907.000          51.000    24187231.039 8  97391976.612 8       694.980          51.000  
C22  22976431.898 6 119644281.257 6     -1715.711          36.000                                                                  
C12  23190000.219 7 120756438.323 7     -2292.898          47.000    23189995.906 8  93376527.343 8     -1773.072          51.000  
C21  22063903.516 6 114892524.441 6       810.016          36.000                                                                  
> 2020 05 09 22 40  0.0000000  0 13      -0.000000000000
G09  21223598.703 8 111530863.368 8      2141.680          51.000    21223599.852 8  86907144.453 8      1668.842          51.000  
G17  22875587.969 8 120212015.356 8     -2176.277          49.000    22875587.750 8  93671690.330 8     -1695.801          50.000  
G03  21254536.305 6 111693349.534 6     -1782.480          37.000    21254537.984 6  87033775.051 6     -1388.949          36.000  
G04  20251941.320 8 106424693.347 8      -115.414          51.000    20251940.969 8  82928369.042 8       -89.933          51.000  
G01  23896734.617 7 125578185.892 7     -3660.879          43.000    23896740.188 7  97853136.907 7     -2852.634          43.000  
R08  20581579.469 5 110213026.821 5     -2244.945          33.000    20581590.438 4  85721299.679 4     -1746.072          25.000  
R23  20570219.555 8 110036428.945 8     -3393.488          48.000    20570221.727 6  85583896.330 6     -2639.380          41.000  
R24  19808279.719 6 105923381.945 6      -221.418          39.000    19808282.328 5  82384846.739 5      -172.208          33.000  
E33  24542924.445 8 128973934.493 8     -2185.133          51.000    24542924.711 8  98824196.325 8     -1674.300          51.000  
E19  24182102.125 8 127077806.758 8       876.113          50.000    24182102.242 8  97371324.396 8       671.368          51.000  
C22  22986356.297 6 119695958.691 6     -1743.258          38.000                                                                  
C12  23203272.391 7 120825550.661 7     -2328.055          47.000    23203268.750 8  93429969.401 8     -1800.125          51.000  
C21  22059287.797 5 114868481.259 5       778.969          33.000                                                                  
> 2020 05 09 22 40 30.0000000  0 15      -0.000000000000
G09  21211305.680 8 111466263.935 8      2156.910          51.000    21211307.211 8  86856807.219 8      1680.710          51.000  
G17  22887945.695 8 120276956.193 8     -2160.773          48.000    22887945.406 8  93722293.580 8     -1683.720          48.000  
G03  21264632.945 6 111746405.783 6     -1762.727          38.000    21264634.258 6  87075117.573 6     -1373.551          38.000  
G04  20252543.094 8 106427855.518 8      -103.414          51.000    20252542.617 8  82930833.069 8       -80.582          51.000  
G01  23917544.188 7 125687539.044 7     -3637.535          43.000    23917549.562 7  97938347.127 7     -2834.447          43.000  
R08  20594075.266 5 110279935.844 5     -2223.777          33.000    20594080.922 4  85773312.52224     -1729.605          26.000  
R23  20589198.242 8 110137956.801 8     -3383.117          50.000    20589202.688 7  85662862.485 7     -2631.311          43.000  
R02  23212922.500 5 123868197.247 5      3096.059          33.000    23212931.477 4  96341960.047 4      2408.046          29.000  
R09  22667125.484 5 121040767.571 5      -145.719          31.000    22667125.344 6  94142820.945 6      -113.334          36.000  
R24  19809494.227 6 105929883.640 6      -220.180          37.000    19809496.883 5  82389903.630 5      -171.251          31.000  
E33  24555324.953 8 129039101.960 8     -2167.430          50.000    24555325.289 8  98874129.840 8     -1660.741          51.000  
E19  24177019.469 8 127051098.225 8       896.430          50.000    24177020.219 8  97350859.418 8       686.821          51.000  
C22  22996311.305 6 119747793.001 6     -1720.520          39.000                                                                  
C12  23216615.812 7 120895035.814 7     -2312.309          46.000    23216613.414 8  93483699.729 8     -1788.021          51.000  
C21  22054714.539 5 114844666.590 5       799.797          32.000                                                                  
> 2020 05 09 22 41  0.0000000  0 16      -0.000000000000
G09  21199027.477 8 111401742.427 8      2138.129          51.000    21199029.062 8  86806530.733 8      1666.075          51.000  
G17  22900314.984 8 120341958.306 8     -2178.852          48.000    22900314.578 8  93772944.549 8     -1697.807          48.000  
G03  21274717.398 5 111799400.129 5     -1776.578          35.000    21274718.703 5  87116411.932 5     -1384.344          35.000  
G04  20253177.945 8 106431192.027 8      -125.328          51.000    20253177.500 8  82933432.952 8       -97.658          51.000  
G01  23938322.930 7 125796728.361 7     -3648.121          44.000    23938327.844 7  98023429.691 7     -2842.693          44.000  
G31  24341177.812 5 127913744.191 5     -2535.082          30.000    24341174.078 4  99673037.665 4     -1975.389          28.000  
R08  20606551.445 5 110346740.338 5     -2236.527          33.000    20606553.523 4  85825271.091 4     -1739.525          26.000  
R23  20608220.797 8 110239716.572 8     -3407.199          50.000    20608226.859 7  85742009.000 7     -2650.044          44.000  
R02  23195532.336 5 123775397.058 5      3085.133          35.000                                                                  
R09  22668014.172 5 121045510.370 5      -177.098          34.000    22668012.039 5  94146509.693 5      -137.746          35.000  
R24  19810805.945 6 105936900.974 6      -254.109          40.000    19810808.734 5  82395361.614 5      -197.638          34.000  
E33  24567725.727 8 129104271.672 8     -2183.535          50.000    24567726.219 8  98924065.099 8     -1673.081          51.000  
E19  24171923.445 8 127024319.999 8       882.590          49.000    24171924.750 8  97330341.031 8       676.324          51.000  
C22  23006236.336 5 119799472.564 5     -1731.211          35.000                                                                  
C12  23229970.359 7 120964580.611 7     -2330.156          45.000    23229969.391 8  93537476.203 8     -1801.816          51.000  
C21  22050125.031 6 114820769.265 6       786.844          36.000                                                                  
> 2020 05 09 22 41 30.0000000  0 15      -0.000000000000
G09  21186888.242 8 111337950.569 8      2120.012          51.000    21186889.461 8  86756822.800 8      1651.958          51.000  
G17  22912819.672 8 120407670.272 8     -2196.785          50.000    22912818.852 8  93824148.706 8     -1711.778          50.000  
G03  21284913.453 5 111852983.201 5     -1790.406          31.000    21284914.930 5  87158164.973 5     -1395.122          32.000  
G04  20253969.711 8 106435352.817 8      -146.820          51.000    20253969.234 8  82936675.130 8      -114.405          50.000  
G01  23959193.867 7 125906402.724 7     -3658.258          43.000    23959198.328 7  98108890.224 7     -2850.591          43.000  
G19  22465176.844 5 118055304.911 5     -1487.230          33.000                                                                  
R08  20619130.352 4 110414102.048 4     -2249.234          29.000    20619131.609 4  85877649.561 4     -1749.408          26.000  
R23  20627410.211 8 110342366.773 8     -3430.793          51.000    20627416.727 7  85821848.060 7     -2668.395          43.000  
R02  23178233.078 6 123683092.457 6      3074.480          38.000    23178236.906 4  96197989.26224      2391.263          25.000  
R24  19812338.289 7 105945095.875 7      -286.945          42.000    19812342.055 6  82401735.385 6      -223.180          36.000  
E33  24580250.891 8 129170093.328 8     -2199.223          51.000    24580251.578 8  98974499.911 8     -1685.123          51.000  
E19  24166938.008 8 126998122.451 8       869.270          49.000    24166939.453 8  97310267.595 8       666.058          51.000  
C22  23016254.531 5 119851641.825 5     -1741.039          34.000                                                                  
C12  23243459.500 7 121034827.868 7     -2347.711          44.000    23243459.977 8  93591795.881 8     -1815.375          51.000  
C21  22045644.133 6 114797434.075 6       774.172          38.000                                                                  
> 2020 05 09 22 42  0.0000000  0 12      -0.000000000000
G09  21174815.594 8 111274507.801 8      2106.648          51.000    21174816.258 8  86707386.896 8      1641.545          51.000  
G17  22925386.484 8 120473707.957 8     -2208.879          51.000    22925385.375 8  93875606.627 8     -1721.205          51.000  
G04  20254845.484 8 106439955.507 8      -162.898          51.000    20254844.969 8  82940261.652 8      -126.934          51.000  
G01  23980083.836 6 126016178.791 6     -3663.168          40.000    23980087.961 6  98194430.008 6     -2854.417          40.000  
R23  20646693.297 8 110445515.464 8     -3448.785          51.000    20646699.219 7  85902074.820 7     -2682.392          42.000  
R02  23160954.305 6 123590896.404 6      3069.277          37.000                                                                  
R24  19814018.703 7 105954080.449 7      -314.750          44.000    19814022.938 6  82408723.373 6      -244.803          36.000  
E33  24592827.930 8 129236184.344 8     -2209.785          51.000    24592828.602 8  99025141.077 8     -1693.192          51.000  
E19  24161990.586 8 126972123.666 8       861.039          50.000    24161991.703 8  97290346.456 8       659.791          51.000  
C22  23026294.133 5 119903922.040 5     -1746.738          33.000                                                                  
C12  23257011.031 7 121105397.428 7     -2360.016          44.000    23257012.508 8  93646364.765 8     -1824.778          51.000  
C21  22041198.719 6 114774283.087 6       766.465          37.000                                                                  
> 2020 05 09 22 42 30.0000000  0 12      -0.000000000000
G09  21162801.664 8 111211373.405 8      2097.598          51.000    21162801.891 8  86658191.289 8      1634.495          51.000  
G17  22938006.766 8 120540026.961 8     -2217.219          50.000    22938005.453 8  93927283.741 8     -1727.707          50.000  
G04  20255797.359 8 106444957.736 8      -175.312          51.000    20255797.000 8  82944159.491 8      -136.607          51.000  
G01  24000984.016 6 126126013.017 6     -3663.906          36.000    24000988.602 5  98280015.160 5     -2854.990          35.000  
R23  20666061.062 8 110549116.082 8     -3462.695          51.000    20666065.820 6  85982653.060 6     -2693.211          41.000  
R09  22671687.430 6 121065114.040 6      -253.676          37.000                                                                  
R24  19815839.172 7 105963812.081 7      -338.727          43.000    19815842.891 6  82416292.460 6      -263.451          36.000  
E33  24605448.367 8 129302501.983 8     -2216.164          51.000    24605448.977 8  99075955.872 8     -1698.101          51.000  
E19  24157073.094 8 126946282.116 8       856.895          49.000    24157073.766 8  97270545.786 8       656.645          51.000  
C22  23036346.281 6 119956271.649 6     -1747.805          36.000                                                                  
C12  23270616.531 7 121176246.093 7     -2368.145          44.000    23270618.508 8  93701149.420 8     -1831.152          51.000  
C21  22036780.289 6 114751275.060 6       762.516          36.000                                                                  
> 2020 05 09 22 43  0.0000000  0 14      -0.000000000000
G09  21150870.391 8 111148674.032 8      2083.219          51.000    21150870.594 8  86609334.677 8      1623.288          51.000  
G17  22950703.898 8 120606750.396 8     -2230.266          50.000    22950702.398 8  93979275.993 8     -1737.870          50.000  
G04  20256848.969 8 106450484.314 8      -192.387          51.000    20256849.039 8  82948465.931 8      -149.909          51.000  
G01  24021919.102 5 126236029.296 5     -3669.711          35.000    24021924.172 5  98365742.205 5     -2859.516          34.000  
R08  20657051.875 5 110617200.190 5     -2266.609          33.000    20657059.734 5  86035603.140 5     -1762.919          32.000  
R23  20685535.883 8 110653292.675 8     -3481.566          48.000    20685539.953 6  86063679.290 6     -2707.885          40.000  
R02  23126456.047 4 123406802.879 4      3061.266          29.000    23126463.906 4  95983111.09824      2380.985          28.000  
R09  22673188.547 6 121073130.525 6      -279.848          37.000    22673196.906 4  94168061.17624      -217.659          25.000  
R24  19817822.930 7 105974418.718 7      -367.508          44.000    19817826.516 6  82424542.051 6      -285.839          36.000  
E33  24618135.586 8 129369170.804 8     -2227.656          51.000    24618136.047 8  99127039.752 8     -1706.921          51.000  
E19  24152209.289 8 126920723.115 8       847.715          49.000    24152209.750 8  97250961.634 8       649.536          51.000  
C22  23046436.172 6 120008814.704 6     -1753.746          36.000                                                                  
C12  23284299.453 7 121247496.221 7     -2381.070          45.000    23284301.047 8  93756244.520 8     -1841.310          51.000  
C21  22032413.047 6 114728534.490 6       754.453          39.000                                                                  
> 2020 05 09 22 43 30.0000000  0 15      -0.000000000000
G09  21139015.117 8 111086375.076 8      2070.883          51.000    21139015.742 8  86560790.030 8      1613.672          51.000  
G22  23319584.398 5 122545246.346 5     -2555.633          32.000                                                                  
G17  22963470.469 8 120673840.104 8     -2241.344          48.000    22963468.992 8  94031553.689 8     -1746.502          48.000  
G04  20257993.344 8 106456498.880 8      -207.789          51.000    20257993.414 8  82953152.614 8      -161.914          51.000  
G01  24042882.883 6 126346190.366 6     -3673.578          38.000    24042887.570 6  98451581.995 6     -2862.529          39.000  
R08  20669774.875 5 110685314.256 5     -2273.414          34.000    20669778.898 5  86088580.746 5     -1768.214          32.000  
R23  20705110.195 7 110758005.245 7     -3498.453          47.000    20705114.367 6  86145122.419 6     -2721.017          41.000  
R02  23109258.141 5 123315036.486 5      3057.824          30.000                                                                  
R09  22674832.125 5 121081907.422 5      -304.180          34.000    22674835.656 4  94174887.298 4      -236.578          27.000  
R24  19819963.594 7 105985863.949 7      -394.570          42.000    19819966.641 6  82433443.865 6      -306.891          37.000  
E33  24630882.359 8 129436154.178 8     -2237.074          51.000    24630882.719 8  99178364.637 8     -1714.102          51.000  
E19  24147392.609 8 126895410.974 8       840.594          50.000    24147392.992 8  97231566.633 8       644.098          51.000  
C22  23056556.609 5 120061515.609 5     -1758.219          35.000                                                                  
C12  23298052.617 7 121319110.498 7     -2392.242          46.000    23298053.117 8  93811621.201 8     -1849.828          51.000  
C21  22028091.234 6 114706026.289 6       747.285          41.000                                                                  
> 2020 05 09 22 44  0.0000000  0 16      -0.000000000000
G09  21127235.273 8 111024473.391 8      2055.023          51.000    21127236.664 8  86512554.942 8      1601.318          51.000  
G17  22976305.352 7 120741289.567 7     -2256.059          47.000    22976304.141 7  94084111.730 7     -1757.968          47.000  
G03  21336531.625 5 112124218.45425     -1831.512          31.000                                                                  
G04  20259229.656 8 106462996.508 8      -226.348          51.000    20259229.445 8  82958215.706 8      -176.375          50.000  
G01  24063873.391 6 126456490.297 6     -3680.656          39.000    24063877.453 6  98537529.981 6     -2868.048          38.000  
R08  20682534.758 5 110753634.636 5     -2282.711          34.000    20682537.039 5  86141718.795 5     -1775.442          32.000  
R23  20724783.414 8 110863246.006 8     -3518.652          49.000    20724788.172 7  86226976.358 7     -2736.730          42.000  
R02  23092090.391 5 123223418.330 5      3050.844          30.000    23092119.055 4  95840566.66424      2372.879          26.000  
R09  22676618.055 5 121091461.55225      -332.891          31.000    22676619.469 4  94182276.42924      -258.915          25.000  
R24  19822259.836 7 105998143.649 7      -425.059          43.000    19822262.438 6  82442994.687 6      -330.601          36.000  
E04  27750373.531 6 145829197.768 6      2499.980          41.000    27750380.328 6 111739277.300 6      1915.502          39.000  
E33  24643687.656 8 129503446.901 8     -2250.062          51.000    24643687.844 8  99229926.576 8     -1724.054          51.000  
E19  24142622.320 8 126870341.555 8       829.836          50.000    24142622.562 8  97212357.615 8       635.771          51.000  
C22  23066706.211 6 120114369.872 6     -1766.008          37.000                                                                  
C12  23311874.859 7 121391082.841 7     -2406.711          47.000    23311874.078 8  93867274.778 8     -1861.085          51.000  
C21  22023813.320 6 114683746.409 6       736.852          40.000                                                                  
> 2020 05 09 22 44 30.0000000  0 16      -0.000000000000
G09  21115534.555 8 110962986.509 8      2044.047          51.000    21115536.586 8  86464643.117 8      1592.767          51.000  
G17  22989211.500 8 120809112.964 8     -2265.562          48.000    22989210.680 8  94136961.128 8     -1765.374          48.000  
G03  21346999.656 6 112179234.332 6     -1836.910          40.000    21347000.328 6  87412397.278 6     -1431.353          40.000  
G04  20260561.008 8 106469993.028 8      -239.980          51.000    20260560.844 8  82963667.554 8      -186.998          50.000  
G01  24084892.922 6 126566943.907 6     -3682.934          40.000    24084896.578 6  98623597.691 6     -2869.819          40.000  
G19  22517925.094 5 118332498.38725     -1594.438          33.000                                                                  
R08  20695333.586 5 110822177.346 5     -2287.070          32.000    20695335.352 5  86195029.808 5     -1778.833          31.000  
R23  20744558.664 8 110969027.971 8     -3533.500          51.000    20744563.641 7  86309251.222 7     -2748.278          43.000  
R02  23074955.023 5 123131973.615 5      3047.098          34.000    23074983.875 4  95769444.630 4      2369.971          26.000  
R24  19824714.688 6 106011274.418 6      -450.117          39.000    19824716.547 6  82453207.498 6      -350.094          36.000  
E04  27736102.523 6 145754206.601 6      2499.324          41.000    27736110.492 6 111681816.575 6      1914.999          39.000  
E33  24656554.602 8 129571064.541 8     -2257.793          51.000    24656554.680 8  99281737.483 8     -1729.998          51.000  
E19  24137901.016 8 126845531.268 8       824.176          49.000    24137901.430 8  97193347.143 8       631.527          51.000  
C22  23076888.711 6 120167393.477 6     -1768.680          40.000                                                                  
C12  23325768.836 8 121463427.694 8     -2416.254          48.000    23325767.055 8  93923216.381 8     -1868.374          51.000  
C21  22019582.086 6 114661711.438 6       732.238          38.000                                                                  
> 2020 05 09 22 45  0.0000000  0 15      -0.000000000000
G09  21103901.383 8 110901853.383 8      2031.473          51.000    21103903.469 8  86417006.953 8      1582.966          51.000  
G17  23002176.797 8 120877245.536 8     -2276.688          50.000    23002176.109 8  94190051.439 8     -1774.043          50.000  
G03  21357508.711 6 112234454.316 6     -1844.312          41.000    21357508.156 6  87455425.914 6     -1437.124          41.000  
G04  20261975.328 8 106477425.580 8      -255.477          51.000    20261975.102 8  82969459.190 8      -199.070          50.000  
G01  24105929.320 6 126677487.270 6     -3686.625          39.000    24105932.688 6  98709735.391 6     -2872.696          39.000  
G19  22527084.484 5 118380607.531 5     -1611.973          33.000                                                                  
R23  20764422.648 8 111075284.148 8     -3550.316          51.000    20764427.625 7  86391894.913 7     -2761.358          42.000  
R02  23057839.055 5 123040639.851 5      3042.117          33.000                                                                  
R24  19827316.977 6 106025192.925 6      -477.566          39.000    19827319.133 6  82464032.973 6      -371.441          38.000  
E04  27721841.234 6 145679264.435 6      2496.664          39.000    27721849.773 6 111624393.378 6      1913.044          37.000  
E33  24669471.359 8 129638943.993 8     -2267.430          51.000    24669471.531 8  99333749.017 8     -1737.433          51.000  
E19  24133216.820 8 126820917.865 8       816.730          49.000    24133217.734 8  97174487.538 8       625.759          51.000  
C22  23087092.219 6 120220524.572 6     -1773.336          40.000                                                                  
C12  23339721.969 8 121536081.532 8     -2427.355          48.000    23339719.875 8  93979396.896 8     -1876.992          51.000  
C21  22015385.328 6 114639860.115 6       724.863          38.000                                                                  
> 2020 05 09 22 45 30.0000000  0 15      -0.000000000000
G09  21092355.023 8 110841176.514 8      2017.559          51.000    21092357.016 8  86369726.281 8      1572.124          51.000  
G22  23378213.625 5 122853329.28225     -2575.898          30.000                                                                  
G17  23015219.750 8 120945786.047 8     -2288.789          50.000    23015218.977 8  94243459.608 8     -1783.473          50.000  
G03  21368074.633 6 112289979.755 6     -1853.137          40.000    21368075.828 6  87498692.499 6     -1444.006          40.000  
G04  20263491.812 8 106485394.831 8      -272.074          51.000    20263491.078 8  82975669.002 8      -212.006          49.000  
G01  24127000.656 6 126788220.171 6     -3691.527          37.000    24127004.820 6  98796020.787 6     -2876.516          36.000  
R23  20784393.633 8 111182113.844 8     -3567.855          51.000    20784398.117 7  86474984.660 7     -2774.999          42.000  
R02  23040762.367 5 122949520.899 5      3036.629          32.000                                                                  
R24  19830085.523 6 106040002.247 6      -505.676          38.000    19830088.727 6  82475551.373 6      -393.300          38.000  
E04  27707608.727 6 145604473.207 6      2493.270          39.000    27707617.992 6 111567085.810 6      1910.602          37.000  
E33  24682457.211 8 129707185.676 8     -2278.148          51.000    24682457.305 8  99386038.109 8     -1745.574          51.000  
E19  24128589.609 8 126796602.736 8       808.141          50.000    24128590.719 8  97155856.466 8       619.219          51.000  
C22  23097336.047 6 120273863.423 6     -1778.902          41.000                                                                  
C12  23353752.844 8 121609142.894 8     -2439.641          48.000    23353750.938 8  94035892.553 8     -1886.392          51.000  
C21  22011243.328 6 114618292.877 6       716.504          38.000                                                                  
> 2020 05 09 22 46  0.0000000  0 15      -0.000000000000
G09  21080880.148 8 110780875.423 8      2001.410          51.000    21080881.961 8  86322738.412 8      1559.541          51.000  
G22  23392926.391 4 122930671.37524     -2583.570          29.000                                                                  
G17  23028324.414 8 121014650.983 8     -2303.340          50.000    23028323.430 8  94297120.585 8     -1794.811          51.000  
G03  21378682.688 6 112345729.046 6     -1864.312          41.000    21378684.164 6  87542133.487 6     -1452.711          41.000  
G04  20265094.797 8 106493818.612 8      -290.797          51.000    20265094.055 8  82982232.995 8      -226.592          50.000  
G01  24148092.148 6 126899059.487 6     -3698.703          38.000    24148097.016 6  98882389.073 6     -2882.107          39.000  
R23  20804455.305 8 111289430.316 8     -3587.711          50.000    20804459.484 6  86558453.019 6     -2790.442          41.000  
R02  23023695.711 5 122858496.343 5      3027.867          33.000    23023735.039 4  95556751.717 4      2355.008          27.000  
R24  19833005.023 6 106055619.385 6      -536.512          41.000    19833009.516 6  82487698.068 6      -417.281          38.000  
E04  27693390.086 6 145529752.079 6      2487.203          41.000    27693399.219 6 111509831.988 6      1906.091          37.000  
E33  24695496.469 8 129775707.138 8     -2291.039          51.000    24695496.469 8  99438541.588 8     -1755.467          51.000  
E19  24124004.047 8 126772504.277 8       797.273          50.000    24124005.000 8  97137391.405 8       610.943          51.000  
C22  23107604.211 6 120327328.946 6     -1786.617          41.000                                                                  
C12  23367845.414 7 121682529.090 7     -2454.008          46.000    23367844.539 8  94092639.395 8     -1897.541          51.000  
C21  22007140.195 6 114596929.293 6       706.152          38.000                                                                  
> 2020 05 09 22 46 30.0000000  0 15      -0.000000000000
G09  21069482.000 8 110720976.541 8      1991.047          51.000    21069483.555 8  86276063.944 8      1551.466          51.000  
G17  23041495.016 8 121083863.038 8     -2311.695          49.000    23041494.070 8  94351052.069 8     -1801.318          49.000  
G03  21389338.289 7 112401727.330 7     -1869.535          42.000    21389339.812 7  87585768.546 7     -1456.781          42.000  
G04  20266789.070 8 106502721.538 8      -303.566          51.000    20266788.688 8  82989170.347 8      -236.545          50.000  
G01  24169208.938 6 127010028.863 6     -3699.840          40.000    24169213.641 6  98968858.734 6     -2882.993          40.000  
R23  20824611.234 8 111397255.815 8     -3601.441          48.000    20824616.117 6  86642317.300 6     -2801.122          39.000  
R02  23006676.484 5 122767669.184 5      3025.352          32.000    23006717.375 4  95486108.372 4      2353.052          29.000  
R09  22687676.328 5 121150524.120 5      -455.355          34.000    22687677.039 5  94228189.08825      -354.168          32.000  
R24  19836082.023 6 106072070.056 6      -561.168          40.000    19836086.523 6  82500493.038 6      -436.464          37.000  
E04  27679189.906 7 145455127.037 7      2486.910          42.000    27679197.078 6 111452651.836 6      1905.705          37.000  
E33  24708593.750 8 129844532.825 8     -2298.121          51.000    24708593.305 8  99491278.157 8     -1760.875          51.000  
E19  24119464.734 8 126748648.210 8       792.344          50.000    24119465.688 8  97119112.081 8       607.148          51.000  
C22  23117900.891 6 120380946.093 6     -1788.547          39.000                                                                  
C12  23382004.539 7 121756263.211 7     -2462.414          46.000    23382005.133 8  94149655.307 8     -1904.083          51.000  
C21  22003081.297 6 114575794.843 6       701.746          39.000                                                                  
> 2020 05 09 22 47  0.0000000  0 16      -0.000000000000
G09  21058154.242 8 110661447.655 8      1975.020          51.000    21058155.539 8  86229677.812 8      1538.977          51.000  
G22  23422453.906 5 123085840.595 5     -2592.762          31.000                                                                  
G17  23054724.891 8 121153386.526 8     -2325.840          50.000    23054724.125 8  94405226.215 8     -1812.343          50.000  
G03  21400035.039 7 112457941.453 7     -1880.727          43.000    21400036.305 7  87629571.778 7     -1465.499          43.000  
G04  20268568.109 8 106512069.686 8      -322.230          51.000    20268567.594 8  82996454.631 8      -251.089          51.000  
G01  24190343.586 6 127121093.506 6     -3706.812          39.000    24190348.305 6  99055402.598 6     -2888.426          40.000  
G19  22564763.766 5 118578618.025 5     -1687.562          34.000                                                                  
R23  20844855.266 8 111505552.433 8     -3620.992          50.000    20844860.336 6  86726548.009 6     -2816.328          39.000  
R02  22989678.430 5 122676968.192 5      3018.152          33.000    22989720.859 4  95415563.162 4      2347.452          28.000  
R24  19839308.578 7 106089320.154 7      -591.602          42.000    19839311.531 5  82513909.758 5      -460.135          35.000  
E04  27665001.914 7 145380565.496 7      2481.141          43.000    27665006.180 6 111395520.346 6      1901.072          39.000  
E33  24721742.484 8 129913628.553 8     -2310.965          51.000    24721741.359 8  99544221.630 8     -1770.725          51.000  
E19  24114964.992 8 126725000.686 8       781.590          50.000    24114966.141 8  97100992.552 8       598.908          51.000  
C22  23128219.234 6 120434681.815 6     -1796.297          36.000                                                                  
C12  23396224.148 7 121830310.488 7     -2476.637          46.000    23396225.633 8  94206913.397 8     -1915.105          51.000  
C21  21999059.586 6 114554856.776 6       691.930          37.000                                                                  
> 2020 05 09 22 47 30.0000000  0 15      -0.000000000000
G09  21046923.625 8 110602431.328 8      1962.023          51.000    21046924.867 8  86183691.092 8      1528.850          51.000  
G17  23068040.641 8 121223360.595 8     -2336.754          50.000    23068039.430 8  94459751.450 8     -1820.848          50.000  
G03  21410799.898 6 112514512.612 6     -1888.406          41.000    21410801.992 6  87673653.188 6     -1471.489          41.000  
G04  20270458.570 8 106522003.769 8      -337.613          51.000    20270458.156 8  83004195.479 8      -263.075          51.000  
G01  24211522.711 6 127232393.174 6     -3710.465          38.000    24211528.008 6  99142129.596 6     -2891.272          39.000  
G19  22574445.492 6 118629540.930 6     -1704.980          37.000                                                                  
R23  20865214.703 8 111614460.765 8     -3637.113          51.000    20865219.352 6  86811254.464 6     -2828.869          39.000  
R02  22972732.570 5 122586537.879 5      3012.770          33.000    22972770.797 4  95345242.333 4      2343.260          29.000  
R24  19842711.352 7 106107513.099 7      -618.570          42.000    19842713.031 5  82528059.817 5      -481.110          35.000  
E04  27650852.930 7 145306209.611 7      2478.359          43.000    27650854.938 6 111338546.407 6      1899.073          41.000  
E33  24734969.109 8 129983134.762 8     -2320.434          51.000    24734967.539 8  99597479.625 8     -1778.002          50.000  
E19  24110531.750 8 126701703.580 8       774.059          50.000    24110532.922 8  97083141.528 8       593.101          51.000  
C22  23138587.805 6 120488675.911 6     -1800.914          39.000                                                                  
C12  23410530.953 7 121904809.121 7     -2487.512          47.000    23410532.750 8  94264520.502 8     -1923.514          51.000  
C21  21995101.836 6 114534255.572 6       684.570          38.000                                                                  
> 2020 05 09 22 48  0.0000000  0 16      -0.000000000000
G09  21035751.859 8 110543725.390 8      1953.652          51.000    21035753.141 8  86137946.219 8      1522.327          51.000  
G17  23081402.969 8 121293579.595 8     -2342.738          51.000    23081400.953 8  94514467.536 8     -1825.511          50.000  
G03  21421593.570 6 112571237.523 6     -1891.090          37.000    21421596.023 6  87717854.465 6     -1473.577          38.000  
G04  20272421.688 8 106532319.866 8      -348.195          51.000    20272421.539 8  83012234.013 8      -271.318          51.000  
G01  24232707.648 6 127343723.038 6     -3709.387          38.000    24232713.727 6  99228880.133 6     -2890.432          38.000  
G19  22584227.906 6 118680938.00426     -1717.176          36.000                                                                  
R23  20885649.508 8 111723770.297 8     -3648.258          51.000    20885654.227 6  86896272.956 6     -2837.534          40.000  
R02  22955808.438 5 122496161.514 5      3011.953          32.000    22955824.258 5  95274852.073 5      2342.631          31.000  
R09  22696016.562 5 121195001.605 5      -528.543          34.000                                                                  
R24  19846251.062 6 106126442.253 6      -641.117          38.000    19846252.406 5  82542782.493 5      -498.647          35.000  
E04  27636704.398 7 145231856.822 7      2480.422          43.000    27636704.930 7 111281574.864 7      1900.411          42.000  
E33  24748234.727 8 130052847.327 8     -2325.262          51.000    24748233.477 8  99650895.723 8     -1781.656          51.000  
E19  24106126.508 8 126678553.532 8       771.207          50.000    24106127.336 8  97065403.177 8       590.919          51.000  
C22  23148967.812 6 120542726.868 6     -1800.484          38.000                                                                  
C12  23424886.180 8 121979555.831 8     -2493.719          48.000    23424887.492 8  94322319.423 8     -1928.281          51.000  
C21  21991170.266 6 114513790.026 6       681.680          37.000                                                                  
> 2020 05 09 22 48 30.0000000  0 15      -0.000000000000
G09  21024666.078 8 110485470.114 8      1934.039          51.000    21024667.438 8  86092552.501 8      1507.044          51.000  
G17  23094837.984 8 121364180.255 8     -2359.762          50.000    23094835.625 8  94569481.023 8     -1838.776          50.000  
G03  21432443.117 6 112628255.577 6     -1905.547          36.000    21432445.289 6  87762284.091 6     -1484.842          36.000  
G04  20274483.859 8 106543156.467 8      -370.023          51.000    20274483.734 8  83020678.126 8      -288.330          51.000  
G01  24253924.914 6 127455220.749 6     -3719.434          40.000    24253931.445 6  99315761.467 6     -2898.258          40.000  
R23  20906184.641 8 111833618.661 8     -3670.805          50.000    20906190.094 6  86981710.552 6     -2855.071          40.000  
R02  22938907.859 5 122406023.24025      3001.492          32.000    22938913.242 4  95204707.09024      2334.494          29.000  
R09  22699077.812 5 121211369.063 5      -559.609          30.000    22699073.367 4  94275530.497 4      -435.249          29.000  
R24  19849954.789 6 106146248.738 6      -675.250          39.000    19849956.211 6  82558187.606 6      -525.195          36.000  
E04  27622583.055 7 145157647.028 7      2471.008          42.000    27622582.391 7 111224712.854 7      1893.454          42.000  
E33  24761565.703 8 130122904.496 8     -2341.281          50.000    24761565.352 8  99704575.886 8     -1793.913          51.000  
E19  24101775.742 8 126655689.758 8       757.215          50.000    24101776.164 8  97047884.186 8       580.156          51.000  
C22  23159385.141 6 120596972.543 6     -1811.719          39.000                                                                  
C12  23439315.578 8 122054686.658 8     -2511.000          49.000    23439315.359 8  94380415.346 8     -1941.644          50.000  
C21  21987292.781 6 114493598.409 6       668.238          40.000                                                                  
> 2020 05 09 22 49  0.0000000  0 15      -0.000000000000
G09  21013653.164 8 110427597.409 8      1921.895          51.000    21013654.586 8  86047456.891 8      1497.581          51.000  
G17  23108331.820 8 121435091.165 8     -2369.797          49.000    23108329.875 8  94624736.251 8     -1846.596          49.000  
G03  21443335.930 5 112685497.380 5     -1913.051          35.000    21443338.375 5  87806888.137 5     -1490.686          35.000  
G04  20276631.742 8 106554443.739 8      -384.523          51.000    20276631.844 8  83029473.412 8      -299.629          51.000  
G01  24275161.203 6 127566815.536 6     -3722.270          41.000    24275167.984 6  99402718.439 6     -2900.471          41.000  
G19  22604078.969 5 118785240.882 5     -1757.352          34.000    22604075.875 5  92559911.593 5     -1369.365          33.000  
R23  20926805.992 8 111943931.719 8     -3685.750          50.000    20926812.156 6  87067509.625 6     -2866.692          39.000  
R09  22702282.711 6 121228473.754 6      -583.387          36.000    22702281.656 6  94288834.209 6      -453.748          37.000  
R24  19853809.320 6 106166861.881 6      -701.441          41.000    19853812.250 6  82574220.008 6      -545.569          38.000  
E04  27608475.844 7 145083511.689 7      2469.051          42.000    27608474.086 6 111167907.889 6      1891.955          41.000  
E33  24774949.008 8 130193236.225 8     -2349.746          50.000    24774949.641 8  99758466.432 8     -1800.495          51.000  
E19  24097466.094 8 126633043.052 8       750.410          50.000    24097466.445 8  97030531.525 8       574.999          51.000  
C22  23169827.234 6 120651344.204 6     -1815.215          41.000                                                                  
C12  23453805.016 8 122130131.129 8     -2520.734          50.000    23453802.367 8  94438753.795 8     -1949.334          48.000  
C21  21983453.859 6 114473612.564 6       661.875          36.000                                                                  
> 2020 05 09 22 49 30.0000000  0 15      -0.000000000000
G09  21002719.695 8 110370140.581 8      1908.797          51.000    21002720.938 8  86002685.332 8      1487.372          51.000  
G17  23121890.242 8 121506341.751 8     -2380.090          48.000    23121888.914 8  94680256.186 8     -1854.616          48.000  
G03  21454277.664 6 112742995.168 6     -1920.332          36.000    21454279.109 6  87851691.622 6     -1496.363          36.000  
G04  20278871.398 8 106566213.153 8      -399.746          51.000    20278871.656 8  83038644.389 8      -311.491          51.000  
G01  24296422.039 6 127678538.026 6     -3725.645          40.000    24296428.336 6  99489774.865 6     -2903.107          37.000  
G19  22614162.891 6 118838224.031 6     -1774.234          36.000                                                                  
R23  20947519.594 8 112054738.634 8     -3701.078          51.000    20947525.742 6  87153692.783 6     -2878.617          38.000  
R09  22705627.742 6 121246342.952 6      -607.734          37.000    22705630.375 6  94302732.452 6      -472.679          39.000  
R24  19857821.672 6 106188314.182 6      -728.391          39.000    19857824.461 6  82590905.141 6      -566.526          37.000  
E04  27594388.883 7 145009483.863 7      2466.352          42.000    27594386.609 6 111111185.270 6      1890.036          41.000  
E33  24788390.938 8 130263873.819 8     -2358.941          51.000    24788392.078 8  99812591.338 8     -1807.564          51.000  
E19  24093203.797 8 126610646.026 8       743.066          50.000    24093204.328 8  97013370.171 8       569.351          51.000  
C22  23180300.039 7 120705873.580 7     -1819.512          43.000                                                                  
C12  23468359.805 8 122205919.312 8     -2531.281          49.000    23468354.812 7  94497357.956 7     -1957.384          47.000  
C21  21979659.312 5 114453864.708 5       654.914          34.000                                                                  
> 2020 05 09 22 50  0.0000000  0 15      -0.000000000000
G09  20991863.242 8 110313086.676 8      1895.277          51.000    20991864.023 8  85958227.748 8      1476.840          51.000  
G17  23135510.273 8 121577915.944 8     -2391.047          49.000    23135509.359 8  94736028.297 8     -1863.151          49.000  
G04  20281199.984 8 106578449.963 8      -415.422          51.000    20281200.461 8  83048179.570 8      -323.702          51.000  
G01  24317703.914 6 127790372.642 6     -3729.414          39.000    24317709.070 6  99576918.540 6     -2906.047          38.000  
G19  22624344.883 5 118891726.971 5     -1791.902          31.000                                                                  
R23  20968323.008 8 112166021.367 8     -3717.160          51.000    20968327.602 6  87240245.988 6     -2891.125          37.000  
R02  22888396.227 5 122136493.856 5      2987.523          31.000    22888386.414 4  94995017.98724      2323.630          28.000  
R09  22709114.406 6 121264962.641 6      -633.066          37.000    22709117.508 5  94317214.455 5      -492.385          35.000  
R24  19861987.680 7 106210590.795 7      -755.984          42.000    19861991.211 6  82608231.393 6      -587.988          39.000  
E04  27580319.812 7 144935550.095 7      2463.086          43.000    27580317.680 6 111054534.771 6      1887.325          40.000  
E33  24801888.477 8 130334802.316 8     -2368.953          51.000    24801889.742 8  99866939.145 8     -1815.131          51.000  
E19  24088986.445 8 126588484.451 8       734.961          50.000    24088987.062 8  96996389.226 8       563.122          51.000  
C22  23190799.633 6 120760546.820 6     -1824.453          40.000                                                                  
C12  23482976.430 8 122282035.395 8     -2542.371          48.000    23482971.000 8  94556215.685 8     -1965.971          48.000  
C21  21975909.812 6 114434341.283 6       646.828          36.000                                                                  
> 2020 05 09 22 50 30.0000000  0 13      -0.000000000000
G09  20981086.055 8 110256449.775 8      1881.594          51.000    20981086.430 8  85914095.120 8      1466.177          51.000  
G17  23149194.211 8 121649824.315 8     -2401.871          50.000    23149193.117 8  94792060.802 8     -1871.588          50.000  
G04  20283619.836 8 106591166.528 8      -431.230          51.000    20283620.289 8  83058088.587 8      -336.024          51.000  
G01  24339009.477 6 127902330.845 6     -3733.645          38.000    24339014.500 6  99664158.662 6     -2909.334          38.000  
R23  20989217.711 8 112277789.470 8     -3733.020          51.000    20989220.688 6  87327176.670 6     -2903.460          37.000  
R09  22712744.805 6 121284345.450 6      -658.305          38.000    22712745.430 5  94332289.905 5      -512.018          34.000  
R24  19866310.727 6 106233704.761 6      -783.852          41.000    19866314.898 6  82626208.894 6      -609.669          40.000  
E04  27566271.289 7 144861724.218 7      2459.773          43.000    27566269.438 6 110997966.946 6      1884.679          40.000  
E33  24815443.672 8 130406033.824 8     -2378.805          51.000    24815445.055 8  99921519.136 8     -1822.695          51.000  
E19  24084816.641 8 126566571.461 8       726.922          50.000    24084817.281 8  96979598.769 8       556.974          51.000  
C22  23201328.742 6 120815376.624 6     -1830.016          40.000                                                                  
C12  23497657.594 7 122358490.293 7     -2553.473          47.000    23497653.789 8  94615335.454 8     -1974.520          49.000  
C21  21972207.812 6 114415055.520 6       639.281          38.000                                                                  
> 2020 05 09 22 51  0.0000000  0 16      -0.000000000000
G09  20970386.141 8 110200221.703 8      1867.602          51.000    20970386.672 8  85870281.056 8      1455.274          51.000  
G22  23541712.688 5 123712532.888 5     -2630.023          32.000                                                                  
G17  23162939.594 8 121722054.865 8     -2412.973          51.000    23162938.109 8  94848344.323 8     -1880.242          51.000  
G04  20286129.148 8 106604352.890 8      -447.133          51.000    20286129.406 8  83068363.664 8      -348.415          51.000  
G01  24360336.375 6 128014401.750 6     -3737.609          37.000    24360341.109 6  99751486.612 6     -2912.427          37.000  
G19  22645009.758 6 119000308.928 6     -1826.836          37.000                                                                  
R23  21010200.266 8 112390029.860 8     -3748.969          50.000    21010202.891 6  87414474.727 6     -2915.865          39.000  
R02  22854884.977 5 121957639.693 5      2975.828          31.000    22854867.547 4  94855903.113 4      2314.536          26.000  
R09  22716516.234 6 121304482.137 6      -683.473          39.000    22716515.938 6  94347951.773 6      -531.587          37.000  
R24  19870788.883 7 106257646.041 7      -811.660          44.000    19870792.094 6  82644829.872 6      -631.288          39.000  
E04  27552241.586 7 144787997.674 7      2455.996          44.000    27552239.477 6 110941475.224 6      1881.886          40.000  
E33  24829054.586 8 130477558.177 8     -2388.855          51.000    24829056.023 8  99976323.518 8     -1830.438          51.000  
E19  24080692.344 8 126544897.791 8       718.637          50.000    24080693.195 8  96962991.681 8       550.605          51.000  
C22  23211885.562 6 120870353.700 6     -1834.781          38.000                                                                  
C12  23512401.992 7 122435273.056 7     -2564.746          47.000    23512400.266 8  94674708.782 8     -1983.195          51.000  
C21  21968549.289 6 114395998.590 6       631.828          36.000                                                                  
> 2020 05 09 22 51 30.0000000  0 15      -0.000000000000
G09  20959766.055 8 110144413.678 8      1853.086          51.000    20959766.648 8  85826794.279 8      1443.964          51.000  
G17  23176747.750 8 121794615.648 8     -2424.699          49.000    23176746.039 8  94904885.165 8     -1889.380          49.000  
G04  20288729.586 8 106618018.422 8      -463.762          51.000    20288730.070 8  83079012.137 8      -361.373          51.000  
G01  24381686.086 6 128126594.063 6     -3742.102          38.000    24381690.672 6  99838909.176 6     -2915.924          38.000  
G19  22655491.383 6 119055390.581 6     -1845.184          41.000    22655495.070 3  92770468.293 3     -1437.806          22.000  
R23  21031271.500 8 112502748.767 8     -3765.566          48.000    21031275.375 6  87502145.002 6     -2928.774          39.000  
R02  22838157.930 5 121868400.393 5      2969.289          32.000                                                                  
R09  22720431.180 5 121325383.023 5      -709.887          32.000    22720430.641 6  94364208.012 6      -552.137          37.000  
R24  19875422.688 7 106282424.453 7      -840.184          43.000    19875426.125 6  82664101.980 6      -653.476          40.000  
E04  27538232.641 7 144714381.378 7      2451.691          44.000    27538229.617 6 110885067.966 6      1878.752          40.000  
E33  24842722.773 8 130549384.579 8     -2399.480          51.000    24842724.297 8 100031359.354 8     -1838.567          51.000  
E19  24076615.383 8 126523473.735 8       709.711          50.000    24076616.609 8  96946575.852 8       543.814          51.000  
C22  23222472.938 6 120925488.129 6     -1840.848          41.000                                                                  
C12  23527210.914 7 122512391.765 7     -2576.570          46.000    23527211.273 8  94734341.847 8     -1992.265          51.000  
C21  21964936.484 5 114377180.856 5       623.121          34.000                                                                  
> 2020 05 09 22 52  0.0000000  0 17      -0.000000000000
G09  20949224.422 8 110089018.525 8      1840.359          51.000    20949225.031 8  85783629.237 8      1434.047          51.000  
G22  23571807.211 5 123870683.527 5     -2639.406          34.000                                                                  
G17  23190616.336 7 121867495.818 7     -2433.973          47.000    23190614.570 7  94961674.914 7     -1896.603          46.000  
G03  21509697.719 6 113034210.030 6     -1961.512          38.000    21509696.961 6  88078607.864 6     -1528.451          39.000  
G04  20291419.500 8 106632154.211 8      -478.297          51.000    20291419.961 8  83090027.044 8      -372.699          51.000  
G01  24403057.016 6 128238897.948 6     -3744.758          38.000    24403061.133 6  99926418.718 6     -2917.991          39.000  
G19  22666071.781 7 119110989.485 7     -1860.988          42.000    22666072.461 4  92813792.130 4     -1450.121          29.000  
R23  21052429.773 8 112615934.369 8     -3779.789          49.000    21052434.797 6  87590178.259 6     -2939.836          39.000  
R02  22821471.570 5 121779383.579 5      2965.297          35.000                                                                  
R09  22724487.891 5 121347092.125 5      -733.711          34.000    22724483.242 5  94381071.740 5      -570.661          31.000  
R24  19880211.203 7 106308031.276 7      -866.695          45.000    19880215.250 6  82684018.396 6      -674.096          40.000  
E04  27524243.016 7 144640867.799 7      2449.492          43.000    27524239.234 6 110828739.431 6      1876.998          40.000  
E33  24856446.445 8 130621503.929 8     -2408.203          51.000    24856448.000 8 100086619.639 8     -1845.197          51.000  
E19  24072584.266 8 126502291.085 8       702.777          49.000    24072585.836 8  96930344.982 8       538.477          51.000  
C22  23233090.078 7 120980771.513 7     -1844.555          42.000                                                                  
C12  23542082.570 7 122589836.384 7     -2586.293          46.000    23542084.625 8  94794226.945 8     -1999.814          51.000  
C21  21961369.039 6 114358594.837 6       616.621          36.000                                                                  
> 2020 05 09 22 52 30.0000000  0 16      -0.000000000000
G09  20938764.859 8 110034055.904 8      1823.672          51.000    20938765.758 8  85740801.256 8      1421.047          51.000  
G17  23204548.617 7 121940711.800 7     -2447.383          46.000    23204546.664 7  95018726.335 7     -1907.052          46.000  
G03  21520925.625 6 113093220.576 6     -1972.711          36.000    21520925.344 5  88124590.061 5     -1537.178          35.000  
G04  20294202.312 8 106646778.156 8      -496.785          51.000    20294202.609 8  83101422.320 8      -387.105          51.000  
G01  24424452.430 6 128351330.469 6     -3750.980          39.000    24424456.164 6 100014028.527 6     -2922.843          39.000  
G19  22676753.102 6 119167122.103 6     -1881.211          41.000    22676753.977 5  92857531.799 5     -1465.879          34.000  
R23  21073678.570 8 112729601.754 8     -3798.152          49.000    21073683.820 6  87678586.218 6     -2954.119          38.000  
R02  22804820.516 5 121690553.206 5      2956.660          35.000                                                                  
R09  22728682.500 4 121369540.31724      -761.441          29.000    22728686.578 5  94398520.47125      -592.232          30.000  
R24  19885157.703 7 106334484.560 7      -896.902          43.000    19885161.695 6  82704593.182 6      -697.591          40.000  
E04  27510276.484 7 144567476.279 7      2443.059          43.000    27510272.984 6 110772504.411 6      1872.087          41.000  
E33  24870229.141 8 130693933.903 8     -2420.766          51.000    24870230.281 8 100142117.921 8     -1854.855          49.000  
E19  24068602.664 8 126481368.523 8       691.797          49.000    24068604.367 8  96914313.415 8       530.096          51.000  
C22  23243739.453 6 121036222.339 6     -1852.320          39.000                                                                  
C12  23557020.367 7 122667623.446 7     -2599.668          45.000    23557023.367 8  94854376.859 8     -2010.325          51.000  
C21  21957848.266 5 114340259.140 5       605.477          35.000                                                                  
> 2020 05 09 22 53  0.0000000  0 16      -0.000000000000
G09  20928380.469 8 109979486.923 8      1813.352          51.000    20928381.852 8  85698279.998 8      1413.002          51.000  
G17  23218536.969 7 122014221.266 7     -2454.363          47.000    23218534.805 7  95076006.410 7     -1912.491          47.000  
G03  21532196.305 6 113152457.535 6     -1976.879          38.000    21532197.500 6  88170748.668 6     -1540.429          38.000  
G04  20297070.250 8 106661849.552 8      -508.930          51.000    20297070.602 8  83113166.274 8      -396.569          51.000  
G01  24445864.188 6 128463850.200 6     -3750.848          38.000    24445867.945 6 100101706.266 6     -2922.739          38.000  
G19  22687527.578 7 119223746.285 7     -1894.633          42.000    22687527.859 5  92901654.440 5     -1476.341          32.000  
R23  21095009.250 8 112843706.387 8     -3809.836          49.000    21095014.391 6  87767334.229 6     -2963.206          37.000  
R02  22788198.742 5 121601869.487 5      2954.180          35.000    22788202.156 4  94579198.31424      2297.690          26.000  
R09  22733022.148 5 121392633.959 5      -783.406          35.000    22733026.727 4  94416517.54824      -609.319          29.000  
R24  19890255.141 7 106361743.283 7      -920.992          44.000    19890259.227 6  82725794.364 6      -716.327          41.000  
E04  27496326.055 7 144494167.621 7      2442.934          43.000    27496323.828 7 110716332.893 7      1871.949          42.000  
E33  24884063.328 8 130766633.642 8     -2426.918          51.000    24884063.328 8 100197822.890 8     -1859.597          48.000  
E19  24064663.328 8 126460666.318 8       687.328          50.000    24064664.703 8  96898450.700 8       526.624          51.000  
C22  23254412.734 6 121091801.050 6     -1853.914          38.000                                                                  
C12  23572016.711 7 122745711.477 7     -2607.016          46.000    23572019.641 8  94914759.478 8     -2015.919          51.000  
C21  21954367.570 6 114322134.485 6       601.523          37.000                                                                  
> 2020 05 09 22 53 30.0000000  0 18      -0.000000000000
G09  20918072.305 8 109925316.711 8      1799.965          51.000    20918073.953 8  85656069.462 8      1402.570          51.000  
G22  23617148.352 4 124108963.37724     -2652.895          29.000                                                                  
G17  23232581.516 7 122088025.935 7     -2464.070          47.000    23232579.797 7  95133516.497 7     -1920.058          47.000  
G03  21543512.273 6 113211924.966 6     -1984.805          38.000    21543513.734 6  88217086.960 6     -1546.602          38.000  
G04  20300024.055 8 106677371.725 8      -523.805          51.000    20300024.250 8  83125261.479 8      -408.160          51.000  
G01  24467292.930 6 128576459.670 6     -3754.113          38.000    24467296.523 6 100189453.862 6     -2925.287          38.000  
G19  22698395.891 6 119280864.223 6     -1910.949          40.000    22698396.039 5  92946161.884 5     -1489.055          33.000  
R08  20932010.938 5 112089537.828 5     -2402.203          32.000    20932004.578 4  87180759.031 4     -1868.387          28.000  
R23  21116422.023 8 112958249.200 8     -3824.359          49.000    21116426.742 6  87856423.033 6     -2974.505          37.000  
R02  22771606.703 5 121513337.035 5      2949.582          35.000                                                                  
R09  22737498.500 6 121416583.919 6      -807.852          38.000    22737502.188 5  94435125.17025      -628.326          35.000  
R24  19895504.086 7 106389811.123 7      -947.988          46.000    19895507.625 6  82747624.904 6      -737.324          40.000  
E04  27482392.656 7 144420946.623 7      2440.359          42.000    27482392.203 7 110660228.549 7      1869.893          43.000  
E33  24897949.477 8 130839606.309 8     -2435.984          51.000    24897948.555 8 100253736.982 8     -1866.514          49.000  
E19  24060766.945 8 126440188.605 8       679.820          50.000    24060767.797 8  96882759.983 8       520.949          51.000  
C22  23265110.641 5 121147511.478 5     -1857.898          34.000                                                                  
C12  23587071.961 7 122824102.633 7     -2616.961          46.000    23587073.750 8  94975376.479 8     -2023.664          51.000  
C21  21950928.727 6 114304225.388 6       594.285          39.000                                                                  
> 2020 05 09 22 54  0.0000000  0 16      -0.000000000000
G09  20907848.062 8 109871587.063 8      1784.859          51.000    20907849.375 8  85614202.211 8      1390.800          51.000  
G17  23246689.383 7 122162163.850 7     -2475.465          45.000    23246688.789 7  95191286.283 7     -1928.934          45.000  
G03  21554880.016 5 113271663.865 5     -1994.520          33.000    21554883.422 5  88263636.690 5     -1554.175          33.000  
G04  20303071.188 8 106693384.714 8      -540.684          50.000    20303071.258 8  83137739.140 8      -421.312          50.000  
G01  24488746.477 6 128689198.171 6     -3758.688          38.000    24488749.617 6 100277301.989 6     -2928.848          38.000  
G19  22709365.211 5 119338514.043 5     -1929.613          35.000    22709366.766 5  92991084.040 5     -1503.583          30.000  
R23  21137923.984 8 113073267.110 8     -3840.516          49.000    21137928.109 6  87945881.358 6     -2987.068          39.000  
R02  22755052.172 6 121424998.574 6      2942.348          37.000    22755062.008 4  94441636.755 4      2288.493          26.000  
R09  22742121.055 6 121441274.82026      -834.453          36.000    22742123.969 6  94454322.20526      -649.019          37.000  
R24  19900911.766 7 106418728.596 7      -976.750          45.000    19900914.906 6  82770116.269 6      -759.695          41.000  
E04  27468483.992 6 144347854.848 6      2435.133          41.000    27468485.102 7 110604223.192 7      1866.178          44.000  
E33  24911895.117 8 130912891.722 8     -2446.816          51.000    24911894.258 8 100309890.705 8     -1874.873          50.000  
E19  24056920.703 8 126419976.232 8       670.574          49.000    24056921.539 8  96867272.576 8       513.772          51.000  
C22  23275841.258 5 121203394.133 5     -1864.320          35.000                                                                  
C12  23602192.469 7 122902835.314 7     -2628.828          45.000    23602192.891 8  95036257.561 8     -2032.838          51.000  
C21  21947538.117 6 114286572.687 6       585.668          38.000                                                                  
> 2020 05 09 22 54 30.0000000  0 15      -0.000000000000
G09  20897701.781 8 109818266.679 8      1769.660          51.000    20897702.430 8  85572653.854 8      1378.956          51.000  
G17  23260853.812 7 122236600.442 7     -2487.043          43.000    23260854.695 7  95249288.872 7     -1937.953          43.000  
G03  21566293.562 6 113331641.843 6     -2004.109          39.000    21566296.391 6  88310372.617 6     -1561.644          40.000  
G04  20306205.336 8 106709855.412 8      -557.457          51.000    20306205.531 8  83150573.454 8      -434.382          51.000  
G01  24510218.164 6 128802031.711 6     -3763.355          39.000    24510221.000 6 100365224.186 6     -2932.486          39.000  
G19  22720429.062 5 119396661.567 5     -1947.703          35.000    22720443.617 5  93036409.699 5     -1517.691          33.000  
R23  21159507.781 8 113188723.981 8     -3856.707          49.000    21159511.750 6  88035681.161 6     -2999.662          40.000  
R02  22738528.500 6 121336821.918 6      2936.172          36.000    22738543.102 4  94373054.807 4      2283.687          28.000  
R24  19906471.625 7 106448462.063 7     -1005.629          44.000    19906475.164 6  82793242.274 6      -782.156          40.000  
E04  27454593.633 6 144274860.601 6      2430.801          41.000    27454595.844 7 110548292.595 7      1862.395          44.000  
E33  24925894.070 8 130986456.620 8     -2457.660          51.000    24925893.844 8 100366258.592 8     -1883.137          51.000  
E19  24053118.398 8 126399996.688 8       661.230          49.000    24053119.656 8  96851963.575 8       506.675          51.000  
C22  23286598.625 5 121259416.900 5     -1870.398          35.000                                                                  
C12  23617371.039 7 122981875.626 7     -2640.629          44.000    23617370.516 8  95097376.547 8     -2041.917          51.000  
C21  21944189.852 6 114269144.750 6       576.344          36.000                                                                  
> 2020 05 09 22 55  0.0000000  0 16      -0.000000000000
G09  20887633.695 8 109765357.375 8      1758.344          51.000    20887634.070 8  85531425.814 8      1370.138          51.000  
G17  23275074.859 7 122311333.964 7     -2494.562          47.000    23275076.625 7  95307522.822 7     -1943.812          46.000  
G03  21577753.062 6 113391859.633 6     -2009.699          41.000    21577753.961 6  88357295.554 6     -1566.003          41.000  
G04  20309426.703 8 106726783.903 8      -570.293          50.000    20309426.820 8  83163764.480 8      -444.384          50.000  
G01  24531707.992 6 128914959.621 6     -3764.574          40.000    24531710.547 6 100453219.980 6     -2933.435          41.000  
G19  22731588.789 6 119455305.174 6     -1962.109          39.000    22731596.484 5  93082074.139 5     -1528.911          34.000  
R08  20972569.859 5 112306753.288 5     -2421.164          30.000    20972568.711 5  87349706.056 5     -1883.131          30.000  
R23  21181173.008 8 113304616.788 8     -3868.801          51.000    21181177.117 6  88125820.023 6     -3009.068          41.000  
R02  22722035.352 5 121248808.462 5      2932.703          34.000    22722057.500 4  94304599.785 4      2280.986          25.000  
R24  19912182.906 7 106479011.642 7     -1030.449          42.000    19912186.594 6  82817003.055 6      -801.461          39.000  
E04  27440722.219 7 144201965.543 7      2429.594          42.000    27440724.727 7 110492437.956 7      1861.608          44.000  
E33  24939946.523 8 131060300.886 8     -2464.652          51.000    24939946.953 8 100422840.551 8     -1888.450          51.000  
E19  24049360.984 8 126380251.089 8       655.801          50.000    24049362.188 8  96836833.836 8       502.449          51.000  
C22  23297383.758 6 121315580.490 6     -1873.254          37.000                                                                  
C12  23632608.320 7 123061222.373 7     -2648.496          44.000    23632606.758 8  95158732.487 8     -2048.013          50.000  
C21  21940885.234 6 114251942.709 6       570.965          37.000                                                                  
> 2020 05 09 22 55 30.0000000  0 16      -0.000000000000
G09  20877641.453 8 109712845.951 8      1743.090          51.000    20877641.852 8  85490507.825 8      1358.252          51.000  
G22  23677988.484 4 124428668.56824     -2673.805          28.000                                                                  
G17  23289349.641 8 122386347.925 8     -2505.887          49.000    23289351.273 8  95365975.269 8     -1952.640          48.000  
G03  21589255.430 6 113452303.316 6     -2019.500          40.000    21589255.922 6  88404394.471 6     -1573.640          40.000  
G04  20312732.312 8 106744155.210 8      -587.199          50.000    20312732.367 8  83177300.566 8      -457.558          50.000  
G01  24553212.742 6 129027966.152 6     -3769.008          41.000    24553215.570 6 100541277.031 6     -2936.890          41.000  
G19  22742840.156 6 119514428.364 6     -1979.438          41.000    22742848.492 4  93128144.165 4     -1542.419          29.000  
R08  20986150.109 5 112379488.332 5     -2428.348          32.000    20986153.453 5  87406277.811 5     -1888.715          31.000  
R23  21202916.531 8 113420927.192 8     -3884.730          51.000    21202920.078 6  88216283.661 6     -3021.461          40.000  
R24  19918045.094 7 106510361.797 7     -1059.027          42.000    19918048.359 6  82841386.490 6      -823.691          40.000  
E04  27426867.328 7 144129156.165 7      2424.828          43.000    27426869.664 7 110436648.971 7      1857.887          44.000  
E33  24954049.375 8 131134409.380 8     -2475.438          51.000    24954050.344 8 100479624.969 8     -1896.759          51.000  
E19  24045645.648 8 126360725.492 8       646.441          50.000    24045646.375 8  96821872.664 8       495.335          50.000  
C22  23308194.000 6 121371870.885 6     -1879.242          38.000                                                                  
C12  23647901.812 7 123140859.758 7     -2660.102          45.000    23647899.359 8  95220313.114 8     -2056.978          49.000  
C21  21937620.461 5 114234952.812 5       562.160          35.000                                                                  
> 2020 05 09 22 56  0.0000000  0 17      -0.000000000000
G09  20867729.023 8 109660754.596 8      1731.414          51.000    20867729.719 8  85449917.182 8      1349.154          51.000  
G17  23303681.398 8 122461661.156 8     -2513.434          48.000    23303682.336 8  95424660.883 8     -1958.520          48.000  
G03  21600804.844 6 113512993.982 6     -2024.730          41.000    21600805.117 7  88451685.840 7     -1577.713          42.000  
G04  20316126.180 8 106761989.761 8      -600.152          51.000    20316126.258 8  83191197.619 8      -467.651          50.000  
G01  24574736.156 6 129141071.086 6     -3769.699          40.000    24574739.328 6 100629410.718 6     -2937.429          40.000  
G19  22754186.453 6 119574050.129 6     -1993.680          41.000    22754195.086 4  93174602.677 4     -1553.514          26.000  
R08  20999771.266 5 112452403.608 5     -2431.508          32.000    20999772.164 5  87462989.561 5     -1891.173          30.000  
R23  21224741.148 8 113537673.143 8     -3896.586          49.000    21224743.680 6  88307086.025 6     -3030.682          40.000  
R02  22689136.828 5 121073207.599 5      2922.285          33.000    22689171.531 4  94168160.63024      2272.889          27.000  
R09  22761998.312 5 121547357.55525      -932.324          34.000    22762002.727 4  94536859.04324      -725.141          28.000  
R24  19924061.430 7 106542533.614 7     -1084.070          43.000    19924063.969 6  82866408.955 6      -843.166          40.000  
E04  27413033.180 7 144056454.486 7      2423.590          43.000    27413034.953 7 110380942.490 7      1857.115          45.000  
E33  24968206.203 8 131208802.362 8     -2482.379          51.000    24968207.562 8 100536627.386 8     -1902.087          51.000  
E19  24041975.797 8 126341440.926 8       640.934          48.000    24041976.156 8  96807096.192 8       491.123          50.000  
C22  23319033.180 6 121428309.151 6     -1881.480          38.000                                                                  
C12  23663254.805 7 123220806.700 7     -2667.918          47.000    23663252.430 8  95282133.092 8     -2062.958          50.000  
C21  21934403.523 6 114218196.676 6       556.637          37.000                                                                  
> 2020 05 09 22 56 30.0000000  0 17      -0.000000000000
G09  20857895.055 8 109609077.532 8      1715.754          51.000    20857896.109 8  85409649.346 8      1336.952          51.000  
G17  23318068.281 7 122537264.376 7     -2524.855          47.000    23318067.578 7  95483572.448 7     -1967.420          47.000  
G03  21612399.914 7 113573924.910 7     -2035.141          43.000    21612401.734 7  88499164.479 7     -1585.824          43.000  
G04  20319606.734 8 106780279.959 8      -617.281          51.000    20319606.906 8  83205449.720 8      -480.999          51.000  
G01  24596276.695 6 129254266.020 6     -3774.434          41.000    24596279.930 6 100717614.557 6     -2941.115          41.000  
G19  22765625.594 6 119634161.625 6     -2011.863          41.000                                                                  
R08  21013421.102 5 112525491.197 5     -2439.066          32.000    21013416.711 4  87519835.482 4     -1897.049          28.000  
R23  21246644.359 7 113654844.016 7     -3912.660          46.000    21246646.328 6  88398218.913 6     -3043.181          39.000  
R02  22672736.750 6 120985681.925 6      2914.879          37.000    22672767.680 4  94100114.986 4      2267.125          26.000  
R09  22767316.742 5 121575765.135 5      -958.887          32.000    22767322.461 4  94558948.30424      -745.798          29.000  
R24  19930230.477 7 106575519.100 7     -1112.934          43.000    19930232.812 7  82892064.375 7      -865.615          42.000  
E04  27399218.195 7 143983854.342 7      2418.293          43.000    27399219.141 7 110325313.818 7      1853.042          44.000  
E33  24982415.148 8 131283472.064 8     -2493.535          50.000    24982416.820 8 100593841.842 8     -1910.620          51.000  
E19  24038350.227 8 126322390.834 8       631.137          48.000    24038350.688 8  96792499.381 8       483.628          50.000  
C22  23329899.344 6 121484888.437 6     -1888.523          40.000                                                                  
C12  23678665.766 7 123301054.555 7     -2679.918          47.000    23678664.117 8  95344185.802 8     -2072.265          51.000  
C21  21931230.609 6 114201668.026 6       547.074          37.000                                                                  
> 2020 05 09 22 57  0.0000000  0 17      -0.000000000000
G09  20848144.211 8 109557838.570 8      1701.262          51.000    20848145.625 8  85369722.906 8      1325.659          51.000  
G17  23332514.211 7 122613177.949 7     -2535.078          46.000    23332511.477 7  95542725.881 7     -1975.386          46.000  
G03  21624044.672 7 113635119.069 7     -2043.762          42.000    21624049.203 7  88546848.159 7     -1592.545          42.000  
G04  20323178.141 8 106799047.869 8      -632.910          51.000    20323178.281 8  83220074.066 8      -493.177          51.000  
G01  24617838.297 6 129367572.355 6     -3778.121          41.000    24617841.945 6 100805905.191 6     -2943.991          40.000  
G19  22777161.594 7 119694783.260 7     -2028.582          43.000    22777183.297 5  93268756.914 5     -1580.714          31.000  
R08  21027097.750 5 112598774.546 5     -2444.863          33.000    21027105.484 5  87576842.956 5     -1901.561          30.000  
R23  21268629.297 7 113772458.705 7     -3927.289          46.000    21268633.281 6  88489697.070 6     -3054.556          41.000  
R02  22656374.828 6 120898346.566 6      2908.562          38.000    22656388.328 4  94032174.440 4      2262.222          29.000  
R24  19936555.711 7 106609340.587 7     -1140.520          44.000    19936558.719 7  82918369.980 7      -887.071          43.000  
R11  23631405.781 7 126278679.363 7      3992.375          45.000    23631411.391 7  98216772.814 7      3105.181          45.000  
E04  27385426.711 7 143911379.335 7      2414.359          44.000    27385426.414 7 110269781.007 7      1850.052          44.000  
E33  24996680.828 8 131358440.438 8     -2503.234          51.000    24996682.273 8 100651285.154 8     -1918.106          51.000  
E19  24034774.047 8 126303598.040 8       622.785          49.000    24034774.602 8  96778099.719 8       477.202          50.000  
C22  23340796.352 6 121541631.446 6     -1893.555          37.000                                                                  
C12  23694138.328 7 123381624.126 7     -2690.352          47.000    23694137.766 8  95406487.305 8     -2080.393          51.000  
C21  21928104.758 5 114185389.893 5       539.102          35.000                                                                  
> 2020 05 09 22 57 30.0000000  0 16      -0.000000000000
G09  20838470.727 8 109507006.350 8      1687.621          51.000    20838472.617 8  85330113.414 8      1315.030          51.000  
G17  23347012.469 7 122689366.972 7     -2544.188          47.000    23347009.008 7  95602093.917 7     -1982.484          47.000  
G03  21635733.398 7 113696544.126 7     -2051.242          42.000    21635738.188 5  88594712.028 5     -1598.359          34.000  
G04  20326834.141 8 106818260.348 8      -647.711          51.000    20326834.305 8  83235044.837 8      -504.710          51.000  
G01  24639414.492 6 129480956.165 6     -3780.543          39.000    24639419.289 6 100894256.182 6     -2945.882          39.000  
G19  22788788.039 6 119755880.445 6     -2044.348          41.000    22788783.938 5  93316272.262 5     -1592.990          32.000  
R23  21290691.867 8 113890480.781 8     -3940.820          49.000    21290697.281 7  88581492.026 7     -3065.086          42.000  
R02  22640040.664 5 120811169.144 5      2903.391          33.000    22640040.602 4  93964303.812 4      2258.196          28.000  
R24  19943031.523 7 106643964.272 7     -1167.391          44.000    19943034.273 7  82945299.499 7      -907.971          44.000  
R11  23609000.047 7 126158945.650 7      3989.949          47.000    23609005.031 7  98123646.582 7      3103.292          44.000  
E04  27371652.891 7 143838997.960 7      2411.207          44.000    27371651.461 7 110214319.973 7      1847.519          43.000  
E33  25010997.250 8 131433674.192 8     -2512.109          51.000    25010997.805 8 100708931.779 8     -1924.873          51.000  
E19  24031241.078 8 126285030.350 8       615.289          49.000    24031241.547 8  96763872.532 8       471.393          50.000  
C22  23351717.727 5 121598506.245 5     -1897.766          35.000                                                                  
C12  23709666.391 8 123462481.376 8     -2699.953          49.000    23709666.414 8  95469011.246 8     -2087.727          51.000  
C21  21925020.172 5 114169330.436 5       532.172          34.000                                                                  
> 2020 05 09 22 58  0.0000000  0 16      -0.000000000000
G09  20828877.898 8 109456597.238 8      1674.215          51.000    20828880.305 8  85290833.591 8      1304.583          51.000  
G17  23361565.742 8 122765844.663 8     -2552.969          48.000    23361562.742 8  95661686.849 8     -1989.330          48.000  
G03  21647469.188 6 113758215.519 6     -2058.742          39.000    21647480.547 6  88642767.609 6     -1604.221          38.000  
G04  20330577.555 8 106837931.988 8      -662.422          51.000    20330577.727 8  83250373.383 8      -516.173          51.000  
G01  24661007.805 6 129594431.335 6     -3783.160          36.000    24661014.672 5 100982678.448 5     -2947.909          34.000  
G19  22800507.188 6 119817466.110 6     -2059.953          39.000    22800502.727 5  93364261.092 5     -1605.153          31.000  
R08  21054565.953 4 112745848.178 4     -2455.750          29.000    21054576.531 5  87691244.677 5     -1910.034          30.000  
R23  21312833.992 8 114008922.424 8     -3953.984          50.000    21312839.461 6  88673613.282 6     -3075.325          41.000  
R24  19949660.039 7 106679404.765 7     -1193.996          46.000    19949661.875 7  82972864.329 7      -928.664          43.000  
R11  23586610.312 7 126039299.621 7      3987.723          47.000    23586614.805 7  98030588.573 7      3101.563          43.000  
E04  27357899.727 7 143766726.283 7      2408.227          45.000    27357897.852 7 110158942.974 7      1845.242          44.000  
E33  25025367.148 8 131509187.730 8     -2520.754          51.000    25025366.469 8 100766792.780 8     -1931.470          51.000  
E19  24027753.688 8 126266703.183 8       607.863          49.000    24027754.055 8  96749829.643 8       465.834          50.000  
C22  23362668.320 5 121655527.820 5     -1902.539          33.000                                                                  
C12  23725252.602 8 123543639.591 8     -2709.340          50.000    23725252.516 8  95531767.929 8     -2095.004          51.000  
C21  21921981.742 6 114153505.492 6       524.719          39.000                                                                  
> 2020 05 09 22 58 30.0000000  0 18      -0.000000000000
G09  20819360.297 8 109406582.207 8      1659.895          51.000    20819362.906 8  85251860.833 8      1293.425          51.000  
G22  23770060.633 5 124912510.94625     -2700.523          33.000                                                                  
G17  23376167.844 8 122842578.424 8     -2562.770          48.000    23376165.734 8  95721479.322 8     -1996.964          48.000  
G03  21659246.102 6 113820103.435 6     -2067.172          39.000    21659257.578 6  88690992.271 6     -1610.784          38.000  
G04  20334402.344 8 106858031.962 8      -677.711          50.000    20334402.586 8  83266035.699 8      -528.087          50.000  
G01  24682613.344 5 129707966.364 5     -3785.371          31.000    24682619.242 5 101071201.302 5     -2949.653          31.000  
G19  22812313.023 6 119879507.805 6     -2076.297          39.000    22812307.758 5  93412605.254 5     -1617.894          32.000  
R08  21068345.391 5 112819612.479 5     -2461.707          30.000    21068339.945 4  87748616.892 4     -1914.661          26.000  
R23  21335048.312 8 114127749.067 8     -3967.852          51.000    21335053.102 6  88766033.982 6     -3086.107          41.000  
R09  22789991.867 5 121696788.674 5     -1057.699          34.000    22789989.109 4  94653123.29724      -822.655          29.000  
R24  19956434.078 7 106715630.528 7     -1221.250          42.000    19956435.805 7  83001039.920 7      -949.864          42.000  
R11  23564231.742 7 125919715.883 7      3984.289          46.000    23564235.789 7  97937579.009 7      3098.892          42.000  
E04  27344161.578 7 143694535.087 7      2404.328          45.000    27344160.328 7 110103627.648 7      1842.347          45.000  
E33  25039784.586 8 131584950.133 8     -2530.254          51.000    25039783.312 8 100824844.466 8     -1938.806          51.000  
E19  24024306.258 8 126248586.735 8       599.707          49.000    24024306.508 8  96735948.225 8       459.549          50.000  
C22  23373641.328 5 121712666.721 5     -1907.203          34.000                                                                  
C12  23740890.289 8 123625067.079 8     -2719.312          49.000    23740889.953 8  95594732.837 8     -2102.836          51.000  
C21  21918983.875 6 114137885.886 6       516.355          40.000                                                                  
> 2020 05 09 22 59  0.0000000  0 18      -0.000000000000
G09  20809930.297 8 109357026.650 8      1645.531          51.000    20809932.234 8  85213246.136 8      1282.233          51.000  
G22  23785504.648 5 124993646.959 5     -2703.941          34.000                                                                  
G17  23390830.602 8 122919630.371 8     -2572.434          48.000    23390829.242 8  95781519.784 8     -2004.494          48.000  
G03  21671076.875 6 113882272.291 6     -2075.621          37.000    21671082.922 6  88739435.529 6     -1617.371          37.000  
G04  20338320.906 8 106878623.965 8      -693.340          51.000    20338321.164 8  83282081.416 8      -540.265          51.000  
G01  24704243.008 5 129821669.356 5     -3789.180          30.000                                                                  
G19  22824217.758 6 119942067.984 6     -2092.785          39.000    22824215.078 5  93461353.407 5     -1630.748          30.000  
R08  21082160.852 5 112893586.551 5     -2468.254          33.000    21082154.227 4  87806152.353 4     -1919.750          28.000  
R23  21357345.789 8 114247022.669 8     -3981.816          49.000    21357350.000 6  88858802.318 6     -3096.972          41.000  
R02  22591216.500 5 120550663.000 5      2886.016          33.000    22591217.211 5  93761640.308 5      2244.676          30.000  
R24  19963366.344 7 106752705.925 7     -1248.793          44.000    19963368.594 7  83029876.340 7      -971.284          43.000  
R11  23541877.617 7 125800264.758 7      3980.852          44.000    23541881.242 7  97844672.599 7      3096.219          42.000  
E04  27330450.922 7 143622489.560 7      2400.453          45.000    27330451.406 7 110048423.949 7      1839.309          46.000  
E33  25054261.469 8 131661024.844 8     -2539.727          51.000    25054260.484 8 100883135.467 8     -1945.965          51.000  
E19  24020911.375 8 126230745.592 8       591.441          49.000    24020911.508 8  96722277.737 8       453.186          50.000  
C22  23384649.703 5 121769986.758 5     -1912.125          30.000                                                                  
C12  23756591.109 8 123706825.788 8     -2729.543          48.000    23756590.812 8  95657953.843 8     -2110.635          51.000  
C21  21916037.000 6 114122535.777 6       508.285          39.000                                                                  
> 2020 05 09 22 59 30.0000000  0 14      -0.000000000000
G09  20800577.539 8 109307876.686 8      1631.824          51.000    20800577.945 8  85174947.480 8      1271.552          51.000  
G17  23405542.742 7 122996943.264 7     -2581.105          46.000    23405542.281 7  95841763.585 7     -2011.252          46.000  
G03  21682951.391 5 113944667.431 5     -2083.023          33.000    21682953.781 5  88788055.063 5     -1623.139          33.000  
G04  20342322.625 8 106899652.313 8      -708.074          51.000    20342322.789 8  83298467.133 8      -551.746          51.000  
G19  22836210.391 6 120005089.299 6     -2107.648          36.000    22836209.242 6  93510460.970 6     -1642.324          36.000  
R23  21379714.852 7 114366683.378 7     -3994.793          47.000    21379719.344 6  88951871.745 6     -3107.062          40.000  
R24  19970447.398 7 106790574.133 7     -1275.211          45.000    19970450.156 7  83059329.356 7      -991.831          44.000  
R11  23519538.688 7 125680895.322 7      3977.746          43.000    23519542.133 6  97751829.755 6      3093.803          41.000  
E04  27316757.672 7 143550535.592 7      2397.434          45.000    27316760.305 7 109993290.425 7      1836.864          47.000  
E33  25068786.953 8 131737356.108 8     -2548.277          51.000    25068786.758 8 100941623.066 8     -1952.544          51.000  
E19  24017558.406 8 126213124.896 8       584.004          49.000    24017558.547 8  96708776.167 8       447.496          50.000  
C22  23395680.867 5 121827433.778 5     -1917.562          33.000                                                                  
C12  23772344.695 8 123788859.482 8     -2738.723          48.000    23772344.398 8  95721387.505 8     -2117.712          51.000  
C21  21913130.188 6 114107401.290 6       501.211          38.000                                                                  
