     3.02           OBSERVATION DATA    M (MIXED)           RINEX VERSION / TYPE
SAVERINEX           SC600               20200502 165930 LCL PGM / RUN BY / DATE
       G = GPS       R = GLONASS       C = COMPASS          COMMENT
       S = SBAS      J = QZSS          E = GALILEO          COMMENT
BEAN                                                        MARKER NAME
1                                                           MARKER NUMBER
GEODETIC                                                    MARKER TYPE
Unige DICCA         GTER                                    OBSERVER / AGENCY
SC60291900056       SC600               2.12(191226)        REC # / TYPE / VERS
                    HEMA45          NONE                    ANT # / TYPE
  4509407.8091   693652.4678  4442337.6214                  APPROX POSITION XYZ
        0.0000        0.0000        0.0000                  ANTENNA: DELTA H/E/N
G    8 C1C L1C D1C S1C C2Y L2Y D2Y S2Y                      SYS / # / OBS TYPES
R    8 C1C L1C D1C S1C C2P L2P D2P S2P                      SYS / # / OBS TYPES
C    4 C1I L1I D1I S1I                                      SYS / # / OBS TYPES
E    8 C1C L1C D1C S1C C7Q L7Q D7Q S7Q                      SYS / # / OBS TYPES
DBHZ                                                        COMMENT
     30.000                                                 INTERVAL
  2020    05    02    14    00    0.0000000     GPS         TIME OF FIRST OBS
  2020    05    02    14    59   30.0000000     GPS         TIME OF LAST OBS
     0                                                      RCV CLOCK OFFS APPL
G L1C  0.00000                                              SYS / PHASE SHIFT
G L2Y  0.00000                                              SYS / PHASE SHIFT
R L1C  0.00000                                              SYS / PHASE SHIFT
R L2P  0.25000                                              SYS / PHASE SHIFT
C L1I  0.00000                                              SYS / PHASE SHIFT
E L1C  0.50000                                              SYS / PHASE SHIFT
E L7Q -0.25000                                              SYS / PHASE SHIFT
 13 R04  6 R05  1 R06 -4 R07  5 R09 -2 R10 -7 R11  0 R15  0 GLONASS SLOT / FRQ #
    R16 -1 R18 -3 R19  3 R20  2 R21  4                      GLONASS SLOT / FRQ #
 C1C   71.950 C2C   71.950 C2P   71.950                     GLONASS COD/PHS/BIS
    18                                                      LEAP SECONDS
*** Above antenna height is from mark to ANTENNA BOTTOM.    COMMENT
    17     4        0.0000        ANT MEASURE TYPE/HEIGT    COMMENT
    0.0000    0.0000    0.0458    0.0405    0.0000          COMMENT
                    BASE STATION                            COMMENT
                                                            END OF HEADER
> 2020 05 02 14 00  0.0000000  0 17        .000000000000
G18  20348036.672 8 106929742.382 8       -11.133          51.000    20348037.688 8  83321868.177 8        -8.675          50.000
G20  23803959.023 6 125090654.046 6      3292.129          39.000    23803959.539 4  97473238.225 4      2565.304          29.000
G21  20673149.367 8 108638155.092 8      -184.277          51.000    20673147.648 8  84653154.557 8      -143.593          50.000
G25  24493527.859 5 128714326.855 5     -3524.352          31.000    24493534.227 5 100296881.686 5     -2746.248          31.000
G29  22166949.898 6 116488120.668 6     -2439.078          37.000    22166956.547 6  90769936.819 6     -1900.580          38.000
G31  22526201.328 8 118375970.096 8     -2718.227          49.000    22526200.078 8  92241003.904 8     -2118.099          49.000
R09  21065215.773 8 112487079.453 8     -3715.316          51.000    21065218.812 8  87489954.620 8     -2889.691          50.000
R10  19404113.000 8 103434850.394 8     -1054.547          51.000
R20  19512795.766 5 104343686.979 5      -938.430          31.000    19512800.461 6  81156236.428 6      -729.890          38.000
R21  21359170.680 7 114297260.556 7      2756.742          43.000    21359176.062 6  88897881.617 6      2144.130          41.000
C27  23569249.508 5 122731212.320 5     -2392.629          33.000
C29  24148811.305 7 125749214.592 7      2413.328          44.000
C30  21512502.047 8 112021315.926 8        65.785          51.000
E13  23116144.727 8 121476177.685 8       -57.117          51.000    23116146.289 8  93079228.291 8       -43.741          51.000
E21  23505134.039 8 123520317.859 8      -150.668          51.000    23505136.680 8  94645441.042 8      -115.471          51.000
E26  24483779.156 8 128663114.315 8      2341.062          49.000    24483780.133 8  98586105.428 8      1793.753          50.000
E27  25363801.977 8 133287651.482 8     -2573.855          51.000    25363803.789 7 102129511.061 7     -1972.097          46.000
> 2020 05 02 14 00 30.0000000  0 16        .000000000000
G18  20348157.531 8 106930377.979 8       -31.570          51.000    20348158.648 8  83322363.440 8       -24.600          51.000
G20  23785176.344 6 124991950.080 6      3287.449          40.000    23785177.016 4  97396320.093 4      2561.643          29.000
G21  20674249.703 8 108643936.553 8      -201.523          51.000    20674247.945 8  84657659.589 8      -157.031          51.000
G25  24513661.789 5 128820138.929 5     -3530.316          31.000    24513669.570 5 100379332.643 5     -2750.899          32.000
G29  22180891.078 6 116561384.179 6     -2445.289          38.000    22180896.547 6  90827025.185 6     -1905.420          38.000
G31  22541753.844 8 118457700.351 8     -2730.879          49.000    22541753.500 8  92304689.782 8     -2127.958          50.000
R09  21086133.250 8 112598775.397 8     -3731.383          51.000    21086136.305 8  87576829.219 8     -2902.187          50.000
R10  19410124.375 8 103466892.899 8     -1081.984          51.000
R20  19518111.961 5 104372111.313 5      -956.488          32.000    19518117.031 6  81178344.259 6      -743.935          40.000
R21  21343755.320 7 114214767.354 7      2742.613          45.000    21343760.188 6  88833720.262 6      2133.147          39.000
C29  24134930.297 7 125676923.806 7      2406.012          44.000
C30  21512154.844 8 112019506.451 8        54.520          51.000
E13  23116504.586 8 121478068.279 8       -69.336          51.000    23116506.086 8  93080676.932 8       -53.107          51.000
E21  23506033.844 8 123525044.954 8      -164.797          51.000    23506036.562 8  94649063.095 8      -126.267          51.000
E26  24470437.461 8 128593007.744 8      2332.383          49.000    24470438.711 8  98532387.428 8      1787.144          49.000
E27  25378520.359 8 133364994.930 8     -2582.648          51.000    25378519.641 7 102188774.116 7     -1978.897          44.000
> 2020 05 02 14 01  0.0000000  0 17        .000000000000
G18  20348384.633 8 106931571.806 8       -48.273          51.000    20348385.984 8  83323293.715 8       -37.616          51.000
G20  23766409.266 6 124893328.214 6      3286.801          41.000    23766411.016 4  97319471.997 4      2561.150          29.000
G21  20675438.375 8 108650182.401 8      -215.137          51.000    20675436.742 8  84662526.500 8      -167.636          51.000
G25  24533817.188 5 128926080.136 5     -3531.012          34.000    24533825.227 5 100461866.969 5     -2751.441          34.000
G29  22194861.172 6 116634797.704 6     -2448.613          36.000    22194863.219 6  90884230.507 6     -1908.013          36.000
G31  22557367.109 8 118539751.197 8     -2739.531          49.000    22557367.633 8  92368625.474 8     -2134.703          49.000
R09  21107130.867 8 112710898.768 8     -3743.695          51.000    21107133.484 8  87664036.231 8     -2911.766          48.000
R10  19416279.289 8 103499703.137 8     -1105.605          51.000
R20  19523517.844 5 104401016.042 5      -970.883          32.000    19523522.023 6  81200825.723 6      -755.131          38.000
R21  21328408.906 7 114132640.348 7      2732.398          46.000    21328411.812 6  88769843.793 6      2125.205          39.000
C27  23596864.391 4 122875056.626 4     -2400.109          29.000
C29  24121080.844 7 125604799.229 7      2402.207          44.000
C30  21511862.359 8 112017982.772 8        46.824          51.000
E13  23116924.242 8 121480273.852 8       -77.828          51.000    23116925.594 8  93082366.926 8       -59.644          51.000
E21  23507004.375 8 123530144.673 8      -175.328          51.000    23507007.297 8  94652970.660 8      -134.366          51.000
E26  24457135.320 8 128523107.233 8      2327.410          49.000    24457137.125 8  98478827.311 8      1783.346          49.000
E27  25393278.859 8 133442550.576 8     -2587.863          51.000    25393275.773 7 102248199.782 7     -1982.938          44.000
> 2020 05 02 14 01 30.0000000  0 17        .000000000000
G18  20348719.148 8 106933330.067 8       -68.230          51.000    20348720.305 8  83324663.784 8       -53.167          51.000
G20  23747659.617 6 124794798.259 6      3282.172          41.000    23747661.453 4  97242702.567 4      2557.533          25.000
G21  20676716.492 8 108656898.657 8      -231.953          51.000    20676714.766 8  84667759.952 8      -180.743          50.000
G25  24553995.516 6 129032111.975 6     -3536.168          39.000    24554002.242 6 100544489.051 6     -2755.459          39.000
G26  20498865.656 6 107722258.851 6      1114.844          37.000    20498865.344 6  83939419.526 6       868.700          37.000
G29  22208861.000 5 116708367.926 5     -2455.320          35.000    22208859.602 5  90941557.923 5     -1913.234          35.000
G31  22573042.039 8 118622126.488 8     -2751.465          50.000    22573042.742 8  92432813.950 8     -2143.999          49.000
R09  21128208.930 8 112823453.122 8     -3759.090          51.000    21128210.641 7  87751578.434 7     -2923.740          46.000
R10  19422579.328 8 103533286.929 8     -1132.590          50.000
R20  19529014.586 5 104430405.979 5      -987.371          32.000    19529017.812 6  81223684.543 6      -767.955          40.000
R21  21313131.109 7 114050887.169 7      2718.457          44.000    21313133.422 6  88706258.087 6      2114.359          40.000
C29  24107264.125 7 125532847.871 7      2395.328          45.000
C30  21511625.938 8 112016751.039 8        35.965          51.000
E13  23117404.945 8 121482800.470 8       -89.812          51.000    23117406.023 8  93084302.906 8       -68.805          51.000
E21  23508047.109 8 123535624.300 8      -189.250          51.000    23508050.125 8  94657169.325 8      -144.998          51.000
E26  24443874.000 8 128453420.130 8      2319.129          49.000    24443876.922 8  98425430.718 8      1777.025          50.000
E27  25408078.656 8 133520324.249 8     -2596.332          51.000    25408074.758 7 102307792.516 7     -1989.376          45.000
> 2020 05 02 14 02  0.0000000  0 19        .000000000000
G18  20349158.141 8 106935637.207 8       -86.363          51.000    20349159.070 8  83326461.556 8       -67.296          51.000
G20  23728924.859 6 124696347.892 6      3279.957          40.000    23728926.000 4  97165988.226 4      2555.798          28.000
G21  20678081.031 8 108664069.135 8      -246.895          51.000    20678079.203 8  84673347.343 8      -192.385          51.000
G25  24574192.469 7 129138240.167 7     -3539.391          43.000    24574197.062 7 100627186.162 7     -2757.976          43.000
G26  20492539.664 6 107689016.928 6      1100.387          39.000    20492539.242 6  83913516.691 6       857.444          39.000
G29  22222887.320 5 116782078.315 5     -2459.125          35.000    22222885.914 5  90998994.524 5     -1916.201          35.000
G31  22588775.516 8 118704808.690 8     -2761.516          49.000    22588775.852 8  92497241.596 8     -2151.830          49.000
R09  21149363.680 8 112936419.801 8     -3772.680          50.000    21149364.953 7  87839441.338 7     -2934.309          45.000
R10  19429021.375 8 103567628.749 8     -1157.641          49.000
R20  19534598.344 5 104460263.998 5     -1003.270          32.000    19534601.844 6  81246907.483 6      -780.321          39.000
R21  21297919.547 7 113969493.385 7      2706.828          42.000    21297923.828 7  88642951.833 7      2105.311          42.000
C27  23624558.180 5 123019253.587 5     -2407.969          35.000
C29  24093477.688 7 125461055.237 7      2390.152          42.000
C30  21511442.609 8 112015795.865 8        26.914          51.000
E13  23117943.914 8 121485632.451 8       -99.734          51.000    23117944.750 8  93086472.854 8       -76.408          51.000
E15  25417149.625 5 133568022.843 5     -2373.863          33.000
E21  23509159.438 8 123541469.416 8      -201.238          51.000    23509162.312 8  94661648.049 8      -154.139          51.000
E26  24430650.469 8 128383932.070 8      2312.609          49.000    24430654.680 8  98372186.648 8      1771.984          50.000
E27  25422916.703 8 133598300.061 8     -2602.832          51.000    25422914.070 7 102367540.167 7     -1994.420          47.000
> 2020 05 02 14 02 30.0000000  0 19        .000000000000
G18  20349698.047 8 106938474.452 8      -102.906          51.000    20349698.898 8  83328672.390 8       -80.187          51.000
G20  23710202.094 6 124597962.020 6      3279.051          40.000    23710203.688 4  97089320.149 4      2555.105          26.000
G21  20679528.320 8 108671674.739 8      -260.227          51.000    20679526.727 8  84679273.798 8      -202.774          51.000
G25  24594403.992 7 129244445.085 7     -3540.938          45.000    24594405.594 7 100709943.063 7     -2759.178          45.000
G26  20486293.133 6 107656187.333 6      1087.891          40.000    20486290.469 6  83887935.229 6       847.707          40.000
G29  22236937.031 6 116855909.721 6     -2462.121          39.000    22236935.445 5  91056525.497 5     -1918.533          32.000
G31  22604563.664 8 118787777.278 8     -2769.770          49.000    22604563.672 8  92561892.380 8     -2158.265          49.000
R09  21170591.492 8 113049777.398 8     -3784.586          50.000    21170593.391 7  87927608.299 7     -2943.567          44.000
R10  19435602.133 8 103602709.099 8     -1181.184          49.000
R20  19540265.797 5 104490569.336 5     -1016.543          32.000    19540268.516 6  81270478.285 6      -790.645          39.000
R21  21282772.398 6 113888441.420 6      2696.781          40.000    21282777.656 6  88579911.433 6      2097.500          41.000
C27  23638437.359 5 123091503.545 5     -2409.352          33.000
C29  24079716.914 6 125389403.730 6      2386.352          37.000
C30  21511308.359 8 112015098.651 8        19.496          51.000
E13  23118537.320 8 121488750.848 8      -108.176          51.000    23118538.320 8  93088862.281 8       -82.900          51.000
E15  25430700.742 5 133639234.327 5     -2374.770          32.000
E21  23510337.969 8 123547662.380 8      -211.809          51.000    23510340.570 8  94666393.313 8      -162.256          51.000
E26  24417461.695 8 128314625.547 8      2307.637          49.000    24417467.008 8  98319081.650 8      1768.228          50.000
E27  25437789.125 8 133676458.832 8     -2607.836          48.000    25437788.992 8 102427428.049 8     -1998.194          49.000
> 2020 05 02 14 03  0.0000000  0 17        .000000000000
G18  20350365.133 8 106941979.655 8      -123.875          51.000    20350365.773 8  83331403.717 8       -96.526          51.000
G20  23691518.945 7 124499782.028 7      3273.480          42.000    23691520.461 4  97012816.379 4      2550.770          28.000
G21  20681084.523 8 108679852.867 8      -278.004          51.000    20681083.164 8  84685646.380 8      -216.626          50.000
G25  24614655.867 7 129350863.939 7     -3546.711          45.000    24614654.484 7 100792866.655 7     -2763.680          43.000
G26  20480150.398 6 107623910.325 6      1070.391          38.000    20480149.508 6  83862784.337 6       834.068          38.000
G31  22620432.492 8 118871168.076 8     -2782.562          50.000    22620432.305 8  92626872.153 8     -2168.234          50.000
R09  21191918.586 8 113163663.090 8     -3800.750          50.000    21191920.797 7  88016186.015 7     -2956.139          44.000
R10  19442347.672 7 103638667.620 7     -1209.023          46.000
R20  19546042.578 5 104521460.922 5     -1035.480          33.000    19546045.453 6  81294505.082 6      -805.371          40.000
R21  21267715.883 6 113807873.184 6      2681.586          40.000    21267720.773 6  88517247.258 6      2085.678          39.000
C27  23652350.016 5 123163969.258 5     -2414.883          31.000
C29  24066004.484 5 125318031.047 5      2378.746          34.000
C30  21511249.797 8 112014796.108 8         7.605          51.000
E13  23119211.312 8 121492293.471 8      -121.023          51.000    23119212.539 8  93091576.769 8       -92.783          51.000
E21  23511609.000 8 123554342.228 8      -226.648          51.000    23511611.523 8  94671511.640 8      -173.612          51.000
E26  24404334.352 8 128245639.597 8      2298.414          50.000    24404340.523 8  98266222.307 8      1761.069          50.000
E27  25452722.117 8 133754938.194 8     -2617.199          48.000    25452724.930 8 102487561.596 8     -2005.345          51.000
> 2020 05 02 14 03 30.0000000  0 16        .000000000000
G18  20351128.898 8 106945992.788 8      -143.586          51.000    20351129.336 8  83334530.838 8      -111.885          51.000
G20  23672845.641 7 124401651.679 7      3268.879          43.000    23672846.797 5  96936351.288 5      2547.181          33.000
G21  20682719.219 8 108688443.447 8      -294.520          51.000    20682717.742 8  84692340.328 8      -229.496          51.000
G25  24634917.305 7 129457336.097 7     -3551.516          44.000    24634915.406 7 100875831.765 7     -2767.421          43.000
G26  20474082.203 5 107592027.938 5      1054.512          35.000    20474083.867 5  83837940.953 5       821.700          35.000
G31  22636350.977 8 118954818.891 8     -2794.047          50.000    22636350.555 8  92692054.548 8     -2177.182          50.000
R09  21213313.570 8 113277911.527 8     -3815.680          50.000    21213315.953 7  88105045.842 7     -2967.754          44.000
R10  19449227.469 7 103675341.907 7     -1235.801          47.000
R20  19551898.258 5 104552774.358 5     -1051.664          32.000    19551901.469 6  81318859.983 6      -817.961          39.000
R21  21252719.164 6 113727627.124 6      2668.262          39.000    21252723.812 6  88454833.639 6      2075.315          39.000
C29  24052319.883 6 125246779.531 6      2371.828          38.000
C30  21511236.797 8 112014729.784 8        -3.082          51.000
E13  23119935.906 8 121496100.256 8      -132.648          51.000    23119936.750 8  93094493.651 8      -101.697          51.000
E21  23512942.375 8 123561350.139 8      -240.570          51.000    23512944.922 8  94676881.336 8      -184.345          51.000
E26  24391238.062 8 128176815.473 8      2290.012          51.000    24391244.352 8  98213486.982 8      1754.660          50.000
E27  25467686.070 7 133833577.862 7     -2625.379          47.000    25467691.406 8 102547817.979 8     -2011.678          51.000
> 2020 05 02 14 04  0.0000000  0 16        .000000000000
G18  20352002.359 8 106950582.685 8      -161.777          51.000    20352002.688 8  83338107.392 8      -126.057          51.000
G20  23654195.969 7 124303643.312 7      3265.711          43.000    23654196.039 6  96859981.240 6      2544.713          37.000
G21  20684445.289 8 108697514.813 8      -309.523          51.000    20684444.102 8  84699408.931 8      -241.187          51.000
G25  24655201.094 7 129563929.575 7     -3554.230          42.000    24655201.055 7 100958891.444 7     -2769.536          42.000
G26  20468102.039 5 107560611.329 5      1040.156          33.000    20468106.102 5  83813460.416 5       810.508          33.000
G31  22652331.656 8 119038796.646 8     -2803.805          49.000    22652330.773 8  92757491.702 8     -2184.783          49.000
R09  21234789.094 8 113392589.940 8     -3828.953          49.000    21234791.477 7  88194240.092 7     -2978.078          44.000
R10  19456255.328 7 103712801.715 7     -1260.902          47.000
R20  19557844.844 5 104584577.969 5     -1067.902          31.000    19557848.883 6  81343596.121 6      -830.594          40.000
R21  21237797.758 6 113647774.745 6      2655.969          41.000    21237801.797 6  88392726.199 6      2065.753          39.000
C29  24038674.227 7 125175718.322 7      2366.398          42.000
C30  21511282.414 8 112014967.925 8       -12.246          51.000
E13  23120723.555 8 121500239.916 8      -142.711          51.000    23120724.406 8  93097665.598 8      -109.392          51.000
E21  23514351.656 8 123568756.080 8      -252.754          51.000    23514353.844 8  94682556.004 8      -193.696          51.000
E26  24378186.031 8 128108223.214 8      2283.270          51.000    24378191.211 8  98160929.311 8      1749.503          49.000
E27  25482694.180 7 133912446.384 7     -2632.031          47.000    25482701.102 8 102608249.689 8     -2016.706          51.000
> 2020 05 02 14 04 30.0000000  0 17        .000000000000
G18  20352979.250 8 106955715.831 8      -180.621          51.000    20352979.602 8  83342107.252 8      -140.744          51.000
G20  23635563.812 7 124205726.721 7      3261.836          43.000    23635563.023 6  96783682.722 6      2541.693          38.000
G21  20686256.453 8 108707032.853 8      -325.145          51.000    20686255.648 8  84706825.597 8      -253.359          51.000
G25  24675500.711 6 129670610.341 6     -3558.145          40.000    24675503.602 6 101042019.174 6     -2772.583          40.000
G26  20462205.375 6 107529629.265 6      1025.605          37.000    20462210.117 6  83789318.498 6       799.173          38.000
G29  22293506.078 5 117153116.227 5     -2486.281          34.000
G31  22668367.484 8 119123065.602 8     -2814.324          48.000    22668366.328 8  92823155.803 8     -2192.980          48.000
R09  21256338.344 8 113507661.764 8     -3842.789          49.000    21256340.688 7  88283740.355 7     -2988.839          45.000
R10  19463424.312 8 103751012.584 8     -1286.789          48.000
R20  19563877.094 4 104616836.254 4     -1082.469          29.000    19563881.898 6  81368685.894 6      -841.920          39.000
R21  21222944.156 6 113568283.350 6      2643.430          40.000    21222947.219 6  88330899.609 6      2056.001          37.000
C29  24025059.891 7 125104815.395 7      2360.121          44.000
C30  21511380.289 8 112015477.487 8       -22.020          51.000
E13  23121568.008 8 121504678.896 8      -153.496          51.000    23121569.336 8  93101066.905 8      -117.644          51.000
E21  23515830.711 8 123576527.725 8      -265.723          51.000    23515832.117 8  94688510.905 8      -203.597          51.000
E26  24365171.859 8 128039830.605 8      2275.895          51.000    24365175.992 8  98108524.622 8      1743.882          49.000
E27  25497739.578 7 133991510.022 7     -2639.312          46.000    25497747.430 8 102668830.891 8     -2022.294          51.000
> 2020 05 02 14 05  0.0000000  0 18        .000000000000
G18  20354064.398 8 106961417.654 8      -199.074          51.000    20354064.672 8  83346550.226 8      -155.123          51.000
G20  23616954.523 7 124107931.176 7      3258.039          43.000    23616953.016 6  96707478.518 6      2538.738          41.000
G21  20688157.375 8 108717022.968 8      -340.453          50.000    20688156.570 8  84714610.104 8      -265.288          50.000
G25  24695821.961 6 129777403.138 6     -3561.172          41.000    24695826.938 6 101125234.185 6     -2774.942          41.000
G26  20456397.234 6 107499109.294 6      1010.133          39.000    20456401.250 6  83765536.744 6       787.116          39.000
G29  22307710.836 5 117227764.827 5     -2490.844          34.000    22307712.398 5  91346365.317 5     -1940.926          33.000
G31  22684462.977 8 119207649.237 8     -2824.387          49.000    22684462.039 8  92889065.135 8     -2200.821          49.000
R09  21277965.570 8 113623150.127 8     -3856.117          48.000    21277967.789 7  88373564.615 7     -2999.205          47.000
R10  19470738.805 8 103789999.794 8     -1312.051          48.000
R20  19569998.055 5 104649576.872 5     -1099.559          30.000    19570004.031 6  81394148.453 6      -855.212          39.000
R21  21208162.156 6 113489180.356 6      2630.910          40.000    21208162.914 5  88269375.081 5      2046.263          35.000
C27  23708182.305 5 123454714.370 5     -2429.707          31.000
C29  24011481.109 7 125034096.927 7      2354.723          44.000
C30  21511534.906 8 112016283.753 8       -31.410          51.000
E13  23122474.555 8 121509442.604 8      -163.668          51.000    23122475.992 8  93104717.009 8      -125.405          51.000
E21  23517384.602 8 123584691.708 8      -278.238          51.000    23517385.219 8  94694766.424 8      -213.121          51.000
E26  24352200.266 8 127971664.359 8      2268.949          50.000    24352204.172 8  98056293.389 8      1738.531          49.000
E27  25512826.656 7 134070793.894 7     -2645.883          46.000    25512835.438 8 102729580.832 8     -2027.389          51.000
> 2020 05 02 14 05 30.0000000  0 17        .000000000000
G18  20355253.180 8 106967664.062 8      -216.246          51.000    20355253.344 8  83351417.558 8      -168.503          51.000
G20  23598364.203 6 124010236.420 6      3255.734          41.000    23598362.367 6  96631352.853 6      2536.939          40.000
G21  20690143.422 8 108727460.376 8      -354.340          50.000    20690142.562 8  84722743.158 8      -276.109          50.000
G25  24716160.445 6 129884283.252 6     -3563.125          41.000    24716166.656 6 101208517.271 6     -2776.467          41.000
G26  20450673.336 6 107469029.686 6       996.039          37.000    20450676.641 6  83742098.097 6       776.134          37.000
G31  22700613.648 8 119292521.637 8     -2832.828          50.000    22700613.219 8  92955199.436 8     -2207.399          51.000
R09  21299665.383 7 113739028.066 7     -3868.168          46.000    21299668.219 8  88463691.876 8     -3008.572          48.000
R10  19478193.461 8 103829738.718 8     -1336.188          49.000
R20  19576205.367 5 104682767.743 5     -1113.180          31.000    19576210.883 6  81419963.569 6      -865.806          39.000
R21  21193449.859 7 113410442.845 7      2619.594          42.000    21193448.281 6  88208134.835 6      2037.465          37.000
C27  23722190.305 5 123527660.361 5     -2432.039          31.000
C29  23997932.891 7 124963540.161 7      2350.090          42.000
C30  21511742.219 8 112017363.035 8       -39.605          51.000
E13  23123438.172 8 121514506.888 8      -172.797          51.000    23123439.578 8  93108597.426 8      -132.382          51.000
E21  23519008.828 8 123593225.159 8      -289.621          51.000    23519009.039 8  94701305.033 8      -221.888          51.000
E26  24339267.039 8 127903701.670 8      2262.969          50.000    24339270.445 8  98004218.118 8      1734.011          48.000
E27  25527951.125 7 134150273.701 7     -2651.539          47.000    25527960.391 8 102790480.906 8     -2031.738          51.000
> 2020 05 02 14 06  0.0000000  0 16        .000000000000
G18  20356537.641 8 106974413.013 8      -239.891          51.000    20356537.680 8  83356676.483 8      -186.928          51.000
G20  23579785.555 6 123912604.117 6      3246.684          40.000    23579783.039 6  96555275.825 6      2529.886          40.000
G21  20692206.578 8 108738303.033 8      -374.695          50.000    20692206.070 8  84731191.996 8      -291.970          50.000
G25  24736507.820 6 129991208.052 6     -3571.488          40.000    24736514.594 6 101291835.154 6     -2782.981          40.000
G26  20445026.008 6 107439350.534 6       976.246          36.000    20445029.547 5  83718971.447 5       760.711          35.000
G31  22716811.055 8 119377638.449 8     -2847.867          51.000    22716811.359 8  93021524.163 8     -2219.120          51.000
R09  21321429.188 7 113855249.827 7     -3886.484          46.000    21321433.297 8  88554086.595 8     -3022.821          48.000
R10  19485781.328 8 103870186.806 8     -1366.766          50.000
R20  19582489.234 5 104716367.562 5     -1133.938          31.000    19582493.797 6  81446096.780 6      -881.948          39.000
R21  21178797.586 6 113332029.229 6      2601.730          40.000    21178795.922 6  88147146.498 6      2023.568          39.000
C29  23984406.984 6 124893104.495 6      2339.328          41.000
C30  21511994.039 8 112018673.815 8       -54.090          51.000
E13  23124450.844 8 121519829.682 8      -188.254          51.000    23124452.453 8  93112675.935 8      -144.291          51.000
E21  23520695.383 8 123602087.207 8      -307.457          51.000    23520695.477 8  94708095.427 8      -235.587          51.000
E26  24326364.805 8 127835901.795 8      2250.695          50.000    24326367.531 8  97952267.596 8      1724.616          49.000
E27  25543105.305 8 134229907.128 8     -2663.609          49.000    25543114.102 8 102851498.672 8     -2040.870          51.000
> 2020 05 02 14 06 30.0000000  0 16        .000000000000
G18  20357946.906 8 106981818.672 8      -255.445          51.000    20357946.852 8  83362447.137 8      -199.048          51.000
G20  23561248.484 7 123815192.233 7      3245.559          42.000    23561245.484 6  96479370.529 6      2529.010          41.000
G21  20694375.992 8 108749704.441 8      -387.086          49.000    20694375.773 8  84740076.213 8      -301.625          49.000
G25  24756893.320 6 130098331.170 6     -3571.938          41.000    24756899.930 6 101375307.564 6     -2783.334          41.000
G26  20439484.695 6 107410228.413 6       963.586          38.000    20439488.422 6  83696278.893 6       750.849          39.000
G31  22733084.016 8 119463152.158 8     -2854.754          51.000    22733085.156 8  93088158.159 8     -2224.487          51.000
R09  21343287.211 8 113971969.894 8     -3896.660          50.000    21343291.742 7  88644868.820 7     -3030.739          47.000
R10  19493531.195 8 103911500.049 8     -1389.242          50.000
R20  19588878.984 5 104750532.016 5     -1145.785          31.000    19588882.805 6  81472669.109 6      -891.169          38.000
R21  21164234.336 6 113254098.138 6      2592.039          40.000    21164233.922 6  88086533.526 6      2016.033          38.000
C29  23970932.852 6 124822943.939 6      2336.176          37.000
C30  21512319.273 8 112020369.102 8       -60.629          51.000
E13  23125542.273 8 121525565.230 8      -195.781          51.000    23125544.117 8  93117070.699 8      -150.026          51.000
E21  23522473.820 8 123611433.316 8      -317.312          51.000    23522473.906 8  94715256.716 8      -243.165          51.000
E26  24313523.320 8 127768420.281 8      2246.371          50.000    24313525.742 8  97900561.038 8      1721.183          49.000
E27  25558318.172 8 134309848.209 8     -2667.547          50.000    25558325.547 8 102912752.174 8     -2044.018          49.000
> 2020 05 02 14 07  0.0000000  0 17        .000000000000
G18  20359453.039 8 106989732.961 8      -271.812          50.000    20359452.820 8  83368614.099 8      -211.805          50.000
G20  23542725.727 6 123717855.874 6      3243.871          41.000    23542722.336 6  96403524.108 6      2527.695          41.000
G21  20696623.445 8 108761515.936 8      -400.086          49.000    20696623.102 8  84749279.972 8      -311.755          49.000
G25  24777288.070 7 130205503.920 7     -3572.973          42.000    24777294.422 7 101458818.624 7     -2784.141          42.000
G26  20434021.719 6 107381517.445 6       950.598          41.000    20434025.516 6  83673906.692 6       740.725          41.000
G31  22749403.898 8 119548912.633 8     -2862.270          51.000    22749405.688 8  93154984.433 8     -2230.340          51.000
R09  21365210.562 8 114089034.944 8     -3907.340          50.000    21365214.062 7  88735919.318 7     -3039.048          46.000
R10  19501415.172 8 103953527.632 8     -1412.383          50.000
R20  19595347.180 4 104785099.078 4     -1159.359          29.000    19595350.438 6  81499549.017 6      -901.724          39.000
R21  21149733.242 6 113176500.426 6      2581.699          39.000    21149732.680 6  88026179.838 6      2007.991          36.000
C27  23764339.609 6 123747146.653 6     -2442.488          36.000
C29  23957482.289 6 124752912.804 6      2332.598          37.000
C30  21512690.680 8 112022302.288 8       -67.910          51.000
E13  23126684.133 8 121531565.395 8      -204.000          51.000    23126686.078 8  93121668.226 8      -156.321          51.000
E21  23524316.391 8 123621116.568 8      -328.078          51.000    23524316.633 8  94722676.351 8      -251.295          51.000
E26  24300714.180 8 127701110.317 8      2241.199          50.000    24300716.805 8  97848985.905 8      1717.253          49.000
E27  25573561.133 8 134389948.600 8     -2672.277          50.000    25573566.547 7 102974127.733 7     -2047.538          47.000
> 2020 05 02 14 07 30.0000000  0 17        .000000000000
G18  20361057.602 8 106998165.473 8      -282.719          50.000    20361057.391 8  83375184.902 8      -220.300          50.000
G20  23524219.453 6 123620608.703 6      3247.270          38.000    23524216.477 6  96327747.187 6      2530.343          37.000
G21  20698950.875 8 108773747.606 8      -407.699          49.000    20698950.688 8  84758811.139 8      -317.688          49.000
G25  24797694.047 7 130312735.406 7     -3568.270          43.000    24797699.867 7 101542375.444 7     -2780.476          42.000
G26  20428639.109 6 107353229.563 6       943.008          40.000    20428642.672 6  83651864.187 6       734.814          41.000
G29  22379131.281 6 117603084.666 6     -2506.219          36.000    22379105.922 6  91638725.053 6     -1952.889          36.000
G31  22765772.180 8 119634927.649 8     -2864.383          51.000    22765774.195 8  93222009.062 8     -2231.987          51.000
R09  21387199.516 8 114206452.190 8     -3912.582          50.000    21387202.148 7  88827243.750 7     -3043.122          46.000
R10  19509434.969 8 103996279.445 8     -1429.977          49.000
R21  21135295.766 6 113099247.443 6      2576.312          37.000    21135295.844 6  87966094.229 6      2003.802          37.000
C27  23778427.656 6 123820466.105 6     -2438.105          39.000
C29  23944059.172 6 124683021.751 6      2334.117          39.000
C30  21513109.805 8 112024483.201 8       -69.898          51.000
E13  23127878.164 8 121537839.871 8      -206.832          51.000    23127880.086 8  93126475.936 8      -158.485          51.000
E21  23526225.172 8 123631147.869 8      -333.289          51.000    23526225.750 8  94730362.666 8      -255.326          51.000
E26  24287939.945 8 127633982.938 8      2241.488          50.000    24287943.094 8  97797550.652 8      1717.459          50.000
E27  25588836.219 8 134470217.763 8     -2671.551          50.000    25588839.195 7 103035632.600 7     -2047.089          46.000
> 2020 05 02 14 08  0.0000000  0 16        .000000000000
G18  20362771.812 8 107007174.298 8      -314.254          50.000    20362771.422 8  83382204.763 8      -244.873          49.000
G20  23505738.727 5 123523512.921 5      3230.004          33.000    23505739.531 4  96252088.156 4      2516.880          29.000
G21  20701369.141 8 108786456.666 8      -435.949          49.000    20701369.188 8  84768714.306 8      -339.701          49.000
G25  24818121.852 7 130420083.133 7     -3584.496          42.000    24818127.062 7 101626022.833 7     -2793.123          42.000
G26  20423348.188 6 107325425.191 6       914.062          38.000    20423351.500 6  83630198.464 6       712.253          39.000
G31  22782199.656 8 119721253.279 8     -2887.039          51.000    22782201.164 8  93289275.739 8     -2249.641          51.000
R09  21409264.797 8 114324278.095 8     -3938.844          49.000    21409267.211 7  88918886.050 7     -3063.548          47.000
R10  19517601.422 8 104039813.794 8     -1468.672          49.000
R21  21120934.266 6 113022399.630 6      2550.152          38.000    21120936.164 6  87906323.761 6      1983.452          39.000
C27  23792537.305 4 123893985.554 4     -2454.293          29.000
C29  23930675.719 6 124613329.396 6      2315.281          38.000
C30  21513587.336 8 112026969.574 8       -92.402          51.000
E13  23129135.609 8 121544446.749 8      -230.195          51.000    23129137.328 8  93131538.343 8      -176.434          51.000
E21  23528211.531 8 123641586.545 8      -359.184          51.000    23528212.469 8  94738361.130 8      -275.237          51.000
E26  24275212.039 8 127567097.491 8      2220.957          51.000    24275216.133 8  97746300.809 8      1701.787          50.000
E27  25604154.484 8 134550713.639 8     -2691.395          51.000    25604155.688 7 103097311.178 7     -2062.267          46.000
> 2020 05 02 14 08 30.0000000  0 17        .000000000000
G18  20364606.016 8 107016814.419 8      -328.660          50.000    20364605.719 8  83389716.542 8      -256.099          50.000
G20  23487298.328 6 123426627.187 6      3229.242          38.000    23487302.367 6  96176592.777 6      2516.293          36.000
G21  20703888.750 8 108799698.005 8      -446.859          48.000    20703888.641 8  84779032.225 8      -348.202          48.000
G25  24838581.750 6 130527601.520 6     -3583.754          40.000    24838586.664 6 101709803.191 6     -2792.542          40.000
G26  20418159.539 6 107298161.626 6       903.230          38.000    20418163.602 6  83608954.078 6       703.813          38.000
G29  22407885.609 6 117754273.125 6     -2524.785          37.000    22407889.039 6  91756536.822 6     -1967.365          36.000
G31  22798696.477 8 119807942.769 8     -2892.402          51.000    22798696.961 8  93356825.941 8     -2253.823          51.000
R09  21431416.352 8 114442565.945 8     -3947.266          49.000    21431419.164 8  89010887.642 8     -3070.095          48.000
R10  19525925.320 8 104084186.044 8     -1489.688          48.000
R20  19615253.648 4 104891611.343 4     -1205.840          29.000    19615260.469 5  81582364.544 5      -937.875          35.000
R21  21106657.836 5 112946014.634 5      2541.727          32.000    21106662.516 6  87846913.204 6      1976.898          37.000
C29  23917341.430 5 124543891.503 5      2313.492          35.000
C30  21514134.383 8 112029816.167 8       -97.613          51.000
E13  23130466.844 8 121551441.119 8      -236.320          51.000    23130468.375 8  93136897.656 8      -181.032          51.000
E21  23530286.078 8 123652488.804 8      -367.871          51.000    23530287.562 8  94746714.788 8      -281.854          51.000
E26  24262541.219 8 127500510.357 8      2217.875          51.000    24262545.289 8  97695279.545 8      1699.390          49.000
E27  25619526.242 8 134631491.055 8     -2693.949          51.000    25619526.875 7 103159205.504 7     -2064.189          47.000
> 2020 05 02 14 09  0.0000000  0 16        .000000000000
G18  20366541.938 8 107026989.479 8      -347.941          50.000    20366542.156 8  83397645.170 8      -271.123          50.000
G20  23468883.648 7 123329858.760 7      3223.828          43.000    23468887.672 6  96101188.934 6      2512.080          40.000
G21  20706491.297 8 108813374.887 8      -463.008          48.000    20706491.000 8  84789689.536 8      -360.785          48.000
G25  24859054.602 5 130635193.709 5     -3587.434          35.000    24859060.773 5 101793641.120 5     -2795.406          35.000
G26  20413056.078 6 107271344.800 6       886.645          40.000    20413060.758 6  83588057.828 6       690.892          41.000
G31  22815243.891 8 119894897.882 8     -2902.844          50.000    22815242.984 8  93424583.116 8     -2261.959          50.000
R09  21453635.711 8 114561215.224 8     -3960.887          49.000    21453638.664 7  89103170.337 7     -3080.690          47.000
R10  19534387.914 7 104129297.540 7     -1515.926          47.000
R21  21092454.758 5 112869953.302 5      2528.023          35.000    21092452.078 5  87787742.656 5      1966.240          34.000
C27  23820809.594 5 124041204.347 5     -2457.508          32.000
C29  23904037.703 5 124474613.725 5      2306.516          34.000
C30  21514732.164 8 112032927.809 8      -108.016          51.000
E13  23131853.320 8 121558726.664 8      -247.543          51.000    23131854.852 8  93142480.102 8      -189.664          51.000
E21  23532430.883 8 123663759.610 8      -381.695          51.000    23532432.750 8  94755350.845 8      -292.456          51.000
E26  24249909.000 8 127434126.606 8      2209.535          51.000    24249912.406 8  97644414.131 8      1693.107          49.000
E27  25634933.305 8 134712453.519 8     -2701.609          51.000    25634934.344 8 103221241.626 8     -2070.052          48.000
> 2020 05 02 14 09 30.0000000  0 16        .000000000000
G18  20368574.766 8 107037672.484 8      -364.801          51.000    20368575.164 8  83405969.597 8      -284.260          50.000
G20  23450487.781 7 123233184.500 7      3220.738          45.000    23450491.039 6  96025858.442 6      2509.672          37.000
G21  20709171.578 8 108827460.176 8      -476.637          48.000    20709171.445 8  84800665.101 8      -371.405          48.000
G25  24879536.414 6 130742832.218 6     -3588.570          37.000    24879544.422 6 101877515.191 6     -2796.295          37.000
G26  20408033.180 6 107244950.053 6       872.543          41.000    20408037.734 6  83567490.488 6       679.904          41.000
G31  22831836.023 8 119982089.484 8     -2910.664          49.000    22831833.562 8  93492524.572 8     -2268.053          48.000
R09  21475916.992 8 114680196.174 8     -3971.773          48.000    21475920.070 7  89195710.993 7     -3089.160          46.000
R10  19542984.414 8 104175121.040 8     -1539.641          48.000
R21  21078314.875 6 112794274.911 6      2516.773          38.000    21078311.312 5  87728881.793 5      1957.490          34.000
C27  23834973.828 5 124114958.992 5     -2459.438          34.000
C29  23890759.266 5 124405470.573 5      2302.051          35.000
C30  21515375.391 8 112036278.019 8      -115.906          51.000
E13  23133290.031 8 121566276.487 8      -256.301          51.000    23133291.398 8  93148265.045 8      -196.365          51.000
E21  23534641.078 8 123675373.241 8      -393.090          51.000    23534642.891 8  94764249.593 8      -301.220          51.000
E26  24237310.625 8 127367920.705 8      2203.723          51.000    24237313.500 8  97593684.990 8      1688.513          49.000
E27  25650370.453 8 134793573.903 8     -2706.816          51.000    25650372.141 8 103283398.764 8     -2074.060          50.000
> 2020 05 02 14 10  0.0000000  0 16        .000000000000
G18  20370696.758 8 107048823.800 8      -383.586          51.000    20370697.289 8  83414658.949 8      -298.895          50.000
G20  23432103.352 7 123136568.599 7      3215.480          45.000    23432105.430 6  95950573.450 6      2505.572          37.000
G21  20711921.945 8 108841913.242 8      -491.910          49.000    20711921.523 8  84811927.235 8      -383.307          49.000
G26  20403083.852 7 107218940.124 7       856.258          42.000    20403087.359 7  83547222.999 7       667.214          42.000
G29  22451238.961 5 117982096.579 5     -2538.766          35.000    22451229.555 5  91934035.811 5     -1978.250          35.000
G31  22848464.672 7 120069476.206 7     -2920.125          47.000    22848461.227 7  93560618.073 7     -2275.425          47.000
R09  21498251.273 7 114799465.898 7     -3984.445          45.000    21498255.203 7  89288476.303 7     -3099.016          45.000
R10  19551707.086 7 104221615.697 7     -1565.160          47.000
R21  21064226.656 5 112718898.305 5      2503.043          33.000    21064229.516 6  87670255.611 6      1946.811          38.000
C27  23849141.703 4 124188728.964 4     -2464.617          29.000
C29  23877499.617 5 124336424.094 5      2296.004          33.000
C30  21516057.211 8 112039827.843 8      -125.664          51.000
E13  23134769.617 8 121574051.079 8      -266.852          51.000    23134770.578 8  93154222.200 8      -204.498          51.000
E21  23536909.016 8 123687291.349 8      -406.355          51.000    23536911.023 8  94773381.641 8      -311.390          51.000
E26  24224738.367 8 127301854.430 8      2195.801          50.000    24224741.352 8  97543062.822 8      1682.545          49.000
E27  25665830.078 8 134874812.466 8     -2713.980          50.000    25665832.445 8 103345646.479 8     -2079.526          51.000
> 2020 05 02 14 10 30.0000000  0 15        .000000000000
G18  20372959.922 8 107060716.312 8      -401.477          51.000    20372960.508 8  83423925.849 8      -312.839          51.000
G20  23413782.508 7 123040287.951 7      3211.004          45.000    23413781.914 5  95875549.727 5      2502.087          34.000
G21  20714794.484 8 108857007.511 8      -506.586          49.000    20714793.453 8  84823689.019 8      -394.742          49.000
G26  20398260.367 7 107193590.228 7       841.152          44.000    20398262.859 7  83527469.854 7       655.446          44.000
G31  22865181.367 7 120157329.257 7     -2928.922          45.000    22865178.070 7  93629074.941 7     -2282.280          45.000
R09  21520690.836 7 114919298.989 7     -3996.496          47.000    21520695.336 7  89381679.729 7     -3108.389          44.000
R10  19560607.742 8 104269058.174 8     -1589.859          49.000
R21  21050244.430 4 112644111.223 4      2491.270          28.000    21050252.859 6  87612081.016 6      1937.666          36.000
C27  23863362.594 5 124262792.473 5     -2465.895          30.000
C29  23864311.086 5 124267745.861 5      2290.184          34.000
C30  21516829.062 8 112043848.046 8      -134.691          51.000
E13  23136343.703 8 121582323.449 8      -276.793          51.000    23136344.781 8  93160560.771 8      -212.055          51.000
E21  23539286.859 8 123699788.154 8      -418.973          51.000    23539289.586 8  94782957.096 8      -321.007          51.000
E26  24212244.781 8 127236202.056 8      2188.754          50.000    24212248.602 8  97492757.801 8      1677.151          50.000
E27  25681363.523 8 134956442.044 8     -2720.250          49.000    25681366.836 8 103408193.791 8     -2084.320          51.000
> 2020 05 02 14 11  0.0000000  0 16        .000000000000
G18  20375302.586 8 107073026.523 8      -417.719          51.000    20375303.055 8  83433518.235 8      -325.495          51.000
G20  23395464.406 7 122944023.053 7      3208.355          45.000    23395460.875 5  95800538.223 5      2500.023          34.000
G21  20717727.422 8 108872419.090 8      -519.336          50.000    20717726.211 8  84835698.054 8      -404.677          49.000
G26  20393501.234 7 107168579.199 7       827.562          44.000    20393503.367 7  83507980.749 7       644.854          44.000
G29  22480288.141 5 118134721.386 5     -2544.969          30.000    22480283.055 4  92053000.242 4     -1983.093          29.000
G31  22881925.109 7 120245323.164 7     -2935.617          44.000    22881922.992 7  93697641.551 7     -2287.497          44.000
R09  21543175.859 8 115039364.196 8     -4006.469          50.000    21543178.820 7  89475063.677 7     -3116.142          44.000
R10  19569624.789 8 104317119.514 8     -1612.773          49.000
R21  21036317.320 6 112569549.476 6      2480.184          37.000    21036316.875 5  87554115.414 5      1929.035          33.000
C27  23877577.555 4 124336813.245 4     -2467.344          28.000
C29  23851132.250 5 124199103.318 5      2286.074          34.000
C30  21517629.406 8 112048018.404 8      -141.938          51.000
E13  23137950.977 8 121590770.192 8      -284.828          51.000    23137952.367 8  93167032.959 8      -218.314          51.000
E21  23541713.570 8 123712541.417 8      -429.848          51.000    23541716.883 8  94792729.059 8      -329.340          51.000
E26  24199768.922 8 127170641.519 8      2183.395          50.000    24199773.414 8  97442523.159 8      1673.015          50.000
E27  25696909.641 8 135038138.994 8     -2724.730          49.000    25696913.961 8 103470792.721 8     -2087.757          51.000
> 2020 05 02 14 11 30.0000000  0 15        .000000000000
G18  20377754.680 8 107085912.072 8      -439.379          51.000    20377755.055 8  83443558.933 8      -342.373          51.000
G20  23377180.156 7 122847935.704 7      3199.609          46.000    23377175.727 6  95725665.063 6      2493.205          37.000
G21  20720750.766 8 108888305.776 8      -537.801          50.000    20720749.414 8  84848077.293 8      -419.066          50.000
G26  20388836.898 7 107144067.051 7       808.355          45.000    20388839.078 7  83488880.377 7       629.890          46.000
G31  22898725.898 7 120333614.072 7     -2948.312          44.000    22898725.570 7  93766439.613 7     -2297.389          44.000
R09  21565734.508 8 115159819.476 8     -4021.961          51.000    21565736.539 7  89568751.014 7     -3128.195          46.000
R10  19578787.203 8 104365959.108 8     -1641.379          49.000
R21  21022469.352 6 112495422.034 6      2463.664          38.000    21022465.836 5  87496460.802 5      1916.183          32.000
C27  23891816.281 4 124410954.322 4     -2474.012          29.000
C29  23837993.375 6 124130680.137 6      2277.062          37.000
C30  21518488.922 8 112052495.450 8      -154.738          51.000
E13  23139621.664 8 121599549.099 8      -298.527          51.000    23139622.953 8  93173759.647 8      -228.730          51.000
E21  23544219.273 8 123725710.064 8      -446.246          51.000    23544222.945 8  94802819.319 8      -341.941          51.000
E26  24187340.914 8 127105331.905 8      2172.398          50.000    24187345.289 8  97392480.769 8      1664.583          50.000
E27  25712498.867 8 135120060.886 8     -2734.863          49.000    25712503.555 8 103533564.015 8     -2095.461          51.000
> 2020 05 02 14 12  0.0000000  0 15        .000000000000
G18  20380310.531 8 107099342.568 8      -457.039          51.000    20380310.844 8  83454024.270 8      -356.134          51.000
G20  23358924.383 7 122751999.022 7      3195.105          46.000    23358921.078 6  95650909.285 6      2489.693          40.000
G21  20723858.484 8 108904636.063 8      -552.086          51.000    20723856.984 8  84860802.198 8      -430.197          50.000
G26  20384262.172 7 107120025.764 7       793.203          46.000    20384264.453 7  83470146.901 7       618.080          46.000
G31  22915577.578 7 120422169.733 7     -2956.609          44.000    22915578.969 7  93835443.983 7     -2303.855          44.000
R09  21588359.961 8 115280631.417 8     -4033.262          51.000    21588361.711 7  89662715.772 7     -3136.981          47.000
R10  19588089.797 8 104415545.840 8     -1665.637          50.000
R21  21008687.492 6 112421680.634 6      2451.156          38.000    21008685.203 5  87439106.286 5      1906.449          33.000
C27  23906073.492 6 124485187.605 6     -2476.207          36.000
C29  23824889.742 6 124062434.584 6      2271.449          39.000
C30  21519401.867 8 112057249.449 8      -163.395          51.000
E13  23141349.852 8 121608629.946 8      -308.016          51.000    23141350.906 8  93180717.690 8      -236.036          51.000
E21  23546798.414 8 123739265.076 8      -458.574          51.000    23546802.320 8  94813205.627 8      -351.342          51.000
E26  24174954.766 8 127040244.357 8      2165.500          49.000    24174959.109 8  97342608.521 8      1659.345          50.000
E27  25728125.141 8 135202177.325 8     -2740.797          49.000    25728129.836 8 103596484.366 8     -2100.043          51.000
> 2020 05 02 14 12 30.0000000  0 15        .000000000000
G18  20382969.344 8 107113314.314 8      -474.289          51.000    20382969.570 8  83464911.359 8      -369.576          51.000
G20  23340697.062 7 122656213.330 7      3190.637          47.000    23340695.258 6  95576271.137 6      2486.210          41.000
G21  20727049.945 8 108921406.164 8      -565.930          51.000    20727048.234 8  84873869.816 8      -440.981          51.000
G26  20379776.586 7 107096454.012 7       778.246          46.000    20379778.891 7  83451779.302 7       606.426          46.000
G31  22932478.758 7 120510984.325 7     -2964.273          44.000    22932481.547 7  93904650.110 7     -2309.827          44.000
R09  21611050.727 8 115401793.596 8     -4044.164          51.000    21611052.156 7  89756952.953 7     -3145.461          47.000
R10  19597531.461 8 104465875.048 8     -1689.641          50.000
R21  20994980.312 6 112348322.817 6      2439.145          40.000    20994975.992 5  87382050.149 5      1897.112          33.000
C27  23920347.172 4 124559508.688 4     -2478.641          29.000
C29  23811819.320 6 123994364.177 6      2266.660          37.000
C30  21520367.516 8 112062277.135 8      -171.746          51.000
E13  23143134.555 8 121618009.209 8      -317.266          51.000    23143135.867 8  93187904.390 8      -243.121          51.000
E21  23549450.422 8 123753204.060 8      -470.660          51.000    23549454.773 8  94823886.145 8      -360.627          51.000
E26  24162610.312 7 126975376.612 7      2158.824          47.000    24162614.836 8  97292904.679 8      1654.290          50.000
E27  25743787.719 8 135284484.557 8     -2746.371          50.000    25743792.469 8 103659550.872 8     -2104.389          51.000
> 2020 05 02 14 13  0.0000000  0 14        .000000000000
G18  20385717.617 8 107127756.585 8      -492.586          51.000    20385717.711 8  83476165.083 8      -383.833          51.000
G20  23322485.523 7 122560512.047 7      3185.266          47.000    23322485.141 7  95501698.755 7      2482.028          44.000
G21  20730311.547 8 108938545.375 8      -580.875          51.000    20730310.008 8  84887225.063 8      -452.630          51.000
G26  20375367.375 7 107073283.501 7       762.273          46.000    20375369.453 7  83433724.354 7       593.979          46.000
G31  22949415.625 7 120599985.579 7     -2973.352          44.000    22949419.266 7  93974001.679 7     -2316.897          43.000
R09  21633792.609 7 115523231.731 7     -4055.898          47.000    21633794.078 7  89851404.790 7     -3154.588          46.000
R10  19607098.758 8 104516875.051 8     -1714.547          50.000
R21  20981331.125 6 112275278.175 6      2425.992          41.000    20981326.688 5  87325237.782 5      1886.889          33.000
C29  23798768.039 5 123926400.249 5      2260.371          33.000
C30  21521372.469 8 112067508.875 8      -181.109          51.000
E13  23144962.570 8 121627616.361 8      -327.426          51.000    23144964.188 8  93195265.714 8      -250.891          51.000
E21  23552162.266 8 123767457.651 8      -483.789          51.000    23552167.203 8  94834807.710 8      -370.728          51.000
E26  24150295.000 8 126910659.437 8      2151.211          48.000    24150299.648 8  97243316.223 8      1648.372          51.000
E27  25759473.141 8 135366911.813 8     -2752.930          51.000    25759477.906 8 103722709.351 8     -2109.460          51.000
> 2020 05 02 14 13 30.0000000  0 13        .000000000000
G18  20388606.289 8 107142936.630 8      -511.418          51.000    20388606.398 8  83487993.694 8      -398.508          51.000
G20  23304341.547 7 122465166.475 7      3179.070          47.000    23304342.469 7  95427403.558 7      2477.201          44.000
G21  20733694.203 8 108956320.655 8      -596.184          51.000    20733692.828 8  84901075.937 8      -464.559          51.000
G26  20371085.688 7 107050783.810 7       745.656          47.000    20371087.836 7  83416192.127 7       581.028          47.000
G31  22966438.398 7 120689438.769 7     -2982.402          42.000    22966442.805 7  94043705.435 7     -2323.950          42.000
R09  21656634.914 6 115645215.012 6     -4068.227          41.000    21656637.797 7  89946280.651 7     -3164.176          43.000
R10  19616842.750 8 104568815.924 8     -1740.020          50.000
R21  20967790.438 6 112202820.669 6      2412.551          39.000    20967787.352 5  87268882.050 5      1876.428          35.000
C30  21522467.555 8 112073209.884 8      -191.066          51.000
E13  23146884.984 8 121637718.849 8      -338.191          51.000    23146886.523 8  93203006.577 8      -259.140          51.000
E21  23554985.469 8 123782294.428 8      -497.457          51.000    23554990.531 8  94846176.132 8      -381.153          51.000
E26  24138059.977 8 126846361.548 8      2143.059          48.000    24138064.680 8  97194049.045 8      1642.087          51.000
E27  25775232.281 8 135449726.286 8     -2760.059          50.000    25775236.898 8 103786164.564 8     -2114.886          51.000
> 2020 05 02 14 14  0.0000000  0 15        .000000000000
G18  20391581.711 8 107158572.331 8      -529.020          51.000    20391581.750 8  83500177.367 8      -412.223          50.000
G20  23286212.172 7 122369898.324 7      3174.000          47.000    23286213.992 7  95353168.689 7      2473.250          44.000
G21  20737144.023 8 108974449.530 8      -610.602          51.000    20737142.609 8  84915202.334 8      -475.793          51.000
G26  20366878.430 7 107028675.245 7       730.043          47.000    20366880.664 7  83398964.668 7       568.865          47.000
G31  22983493.133 7 120779060.258 7     -2990.375          42.000    22983498.344 7  94113540.382 7     -2330.162          42.000
R09  21679523.516 6 115767453.915 6     -4079.016          41.000    21679529.055 6  90041355.420 6     -3172.568          39.000
R10  19626709.195 8 104621411.225 8     -1764.441          50.000
R21  20954301.758 5 112130664.781 5      2399.547          35.000    20954303.805 5  87212760.743 5      1866.308          33.000
C27  23963278.383 5 124783070.422 5     -2488.340          30.000
C29  23772828.789 4 123791326.298 4      2246.723          29.000
C30  21523599.219 8 112079101.129 8      -199.914          51.000
E13  23148847.781 8 121648034.750 8      -347.781          51.000    23148849.344 8  93210910.981 8      -266.509          51.000
E21  23557866.414 8 123797433.621 8      -510.082          51.000    23557871.250 8  94857776.290 8      -390.815          51.000
E26  24125851.734 8 126782202.409 8      2135.938          48.000    24125856.477 8  97144888.164 8      1636.609          51.000
E27  25791011.039 8 135532645.927 8     -2766.102          50.000    25791015.445 8 103849700.357 8     -2119.447          51.000
> 2020 05 02 14 14 30.0000000  0 16        .000000000000
G18  20394645.148 8 107174670.183 8      -543.941          51.000    20394644.836 8  83512721.143 8      -423.850          49.000
G20  23268099.508 7 122274718.355 7      3171.430          47.000    23268101.961 7  95279002.541 7      2471.247          44.000
G21  20740662.289 8 108992938.189 8      -621.891          51.000    20740661.047 8  84929609.090 8      -484.587          51.000
G26  20362747.328 8 107006966.680 8       717.121          48.000    20362749.422 8  83382048.895 8       558.796          48.000
G29  22582750.359 5 118673153.708 5     -2575.988          34.000
G31  23000581.117 7 120868854.766 7     -2995.512          45.000    23000586.133 7  94183510.114 7     -2334.168          45.000
R09  21702463.086 7 115889952.997 7     -4087.176          44.000    21702468.836 4  90136645.000 4     -3178.914          28.000
R10  19636699.719 8 104674666.685 8     -1785.863          50.000
R21  20940874.797 5 112058818.381 5      2389.770          34.000    20940877.680 5  87156880.223 5      1858.716          33.000
C27  23977620.484 5 124857725.365 5     -2487.883          32.000
C29  23759884.664 5 123723931.342 5      2245.078          35.000
C30  21524768.344 8 112085189.402 8      -205.844          51.000
E13  23150852.555 8 121658570.775 8      -354.551          51.000    23150854.055 8  93218984.049 8      -271.669          51.000
E21  23560806.367 8 123812883.068 8      -519.883          51.000    23560810.914 8  94869614.165 8      -398.322          51.000
E26  24113670.727 7 126718189.986 7      2131.586          47.000    24113676.328 8  97095839.707 8      1633.275          51.000
E27  25806811.070 8 135615677.132 8     -2769.195          51.000    25806815.117 8 103913321.635 8     -2121.854          49.000
> 2020 05 02 14 15  0.0000000  0 16        .000000000000
G18  20397790.375 8 107191198.158 8      -565.098          51.000    20397790.070 8  83525600.086 8      -440.336          50.000
G20  23249998.523 7 122179598.543 7      3162.477          47.000    23250001.086 7  95204883.255 7      2464.267          44.000
G21  20744242.906 8 109011754.613 8      -639.637          51.000    20744241.867 8  84944271.253 8      -498.418          51.000
G26  20358686.781 8 106985628.519 8       697.953          48.000    20358688.508 8  83365421.763 8       543.860          48.000
G29  22597476.500 5 118750505.290 5     -2582.863          30.000    22597459.867 4  92532857.678 4     -2012.618          27.000
G31  23017695.766 7 120958788.668 7     -3006.914          47.000    23017699.898 7  94253588.399 7     -2343.050          47.000
R09  21725445.891 7 116012677.508 7     -4101.852          45.000    21725468.555 5  90232115.189 5     -3190.329          33.000
R10  19646807.914 8 104728549.554 8     -1813.688          50.000
R21  20927498.359 5 111987250.582 5      2373.754          30.000    20927504.039 5  87101216.408 5      1846.244          34.000
C27  23991958.508 6 124932338.669 6     -2493.613          36.000
C29  23746955.953 5 123656608.230 5      2235.188          32.000
C30  21525969.078 8 112091443.543 8      -218.316          51.000
E13  23152893.359 8 121669295.233 8      -367.684          51.000    23152894.734 8  93227201.500 8      -281.744          51.000
E21  23563799.719 8 123828612.146 8      -536.066          51.000    23563803.836 8  94881666.304 8      -410.710          51.000
E26  24101511.148 7 126654293.902 7      2120.641          46.000    24101517.523 8  97046880.356 8      1625.083          51.000
E27  25822626.656 8 135698787.989 8     -2778.809          51.000    25822629.438 8 103977003.921 8     -2129.136          48.000
> 2020 05 02 14 15 30.0000000  0 15        .000000000000
G18  20401081.617 8 107208493.578 8      -582.004          51.000    20401081.195 8  83539077.051 8      -453.510          50.000
G20  23231973.914 7 122084879.998 7      3157.844          46.000    23231976.562 7  95131076.631 7      2460.661          44.000
G21  20747949.953 8 109031235.707 8      -653.066          50.000    20747948.742 8  84959451.330 8      -508.883          50.000
G26  20354761.367 8 106965000.452 8       683.016          49.000    20354762.680 8  83349347.958 8       532.223          49.000
G31  23034900.680 8 121049197.473 8     -3014.195          48.000    23034903.531 8  94324036.721 8     -2348.727          48.000
R09  21748534.461 7 116135967.569 7     -4111.707          42.000    21748548.320 6  90328007.469 6     -3197.997          38.000
R10  19657097.844 8 104783400.847 8     -1837.141          51.000
R21  20914245.297 6 111916306.705 6      2362.008          36.000    20914247.805 5  87046037.828 5      1837.117          35.000
C27  24006353.164 5 125007264.966 5     -2494.805          34.000
C29  23734099.117 5 123589714.456 5      2231.441          31.000
C30  21527266.359 8 112098198.291 8      -226.258          51.000
E13  23155033.961 8 121680545.574 8      -376.543          51.000    23155035.586 8  93235821.909 8      -288.502          51.000
E21  23566910.867 8 123844959.492 8      -547.965          51.000    23566914.422 8  94894192.184 8      -419.908          51.000
E26  24089438.070 7 126590852.894 7      2114.379          47.000    24089444.758 8  96998269.752 8      1620.088          51.000
E27  25838521.891 8 135782315.836 8     -2783.980          51.000    25838522.789 7 104041005.709 7     -2133.198          47.000
> 2020 05 02 14 16  0.0000000  0 15        .000000000000
G18  20404486.812 8 107226387.971 8      -606.637          50.000    20404486.188 8  83553020.717 8      -472.704          50.000
G20  23213994.617 7 121990398.941 7      3145.156          46.000    23213997.266 7  95057455.064 7      2450.771          44.000
G21  20751751.422 8 109051212.930 8      -674.402          49.000    20751750.109 8  84975017.995 8      -525.508          49.000
G26  20350939.445 8 106944916.468 8       660.148          49.000    20350940.625 8  83333698.103 8       514.401          49.000
G29  22627048.391 5 118905965.756 5     -2598.883          34.000
G31  23052163.586 8 121139911.055 8     -3029.090          48.000    23052164.812 8  94394722.531 8     -2360.333          49.000
R09  21771695.680 6 116259649.534 6     -4129.496          39.000    21771707.328 7  90424204.545 7     -3211.833          43.000
R10  19667537.555 8 104839049.480 8     -1868.398          50.000
R21  20901074.109 6 111845816.317 6      2341.996          38.000    20901075.461 5  86991212.067 5      1821.559          34.000
C29  23721295.977 5 123523026.742 5      2218.531          30.000
C30  21528627.633 8 112105287.160 8      -242.062          51.000
E13  23157242.844 8 121692153.652 8      -393.035          51.000    23157244.422 8  93244716.412 8      -301.139          51.000
E21  23570107.930 8 123861758.021 8      -567.621          51.000    23570110.828 8  94907063.771 8      -434.969          51.000
E26  24077420.773 8 126527700.143 8      2100.094          50.000    24077426.672 8  96949880.017 8      1609.208          51.000
E27  25854464.414 8 135866092.251 8     -2796.828          51.000    25854463.953 7 104105197.960 7     -2143.027          47.000
> 2020 05 02 14 16 30.0000000  0 16        .000000000000
G18  20407967.734 8 107244681.219 8      -617.832          50.000    20407967.477 8  83567275.200 8      -481.428          50.000
G20  23196023.266 7 121895958.941 7      3145.773          46.000    23196026.023 7  94983865.507 7      2451.252          44.000
G21  20755609.039 8 109071486.061 8      -682.020          48.000    20755607.945 8  84990815.252 8      -531.444          48.000
G26  20347183.398 8 106925178.884 8       650.785          49.000    20347184.812 8  83318318.169 8       507.105          49.000
G29  22641863.758 6 118983812.910 6     -2596.012          37.000
G31  23069446.047 7 121230727.562 7     -3030.270          47.000    23069445.703 7  94465488.546 7     -2361.252          47.000
R09  21794890.828 6 116383517.660 6     -4133.488          37.000    21794903.109 7  90520546.428 7     -3214.932          44.000
R10  19678088.586 8 104895291.344 8     -1885.988          48.000
R21  20887947.430 5 111775577.994 5      2335.621          34.000    20887948.227 4  86936582.232 4      1816.591          25.000
C27  24035156.531 5 125157371.756 5     -2501.000          30.000
C29  23708501.148 5 123456398.060 5      2219.207          33.000
C30  21530014.805 8 112112512.401 8      -244.438          51.000
E13  23159481.828 8 121703919.648 8      -396.203          51.000    23159483.414 8  93253731.904 8      -303.581          51.000
E21  23573353.062 8 123878809.038 8      -573.918          51.000    23573355.305 8  94920128.824 8      -439.755          51.000
E26  24065420.828 8 126464637.077 8      2099.199          50.000    24065425.844 8  96901559.025 8      1608.477          51.000
E27  25870416.188 8 135949917.179 8     -2796.363          51.000    25870415.039 7 104169427.368 7     -2142.611          46.000
> 2020 05 02 14 17  0.0000000  0 15        .000000000000
G18  20411552.273 8 107263518.705 8      -637.379          51.000    20411552.164 8  83581953.760 8      -496.659          50.000
G20  23178088.227 7 121801709.528 7      3138.094          46.000    23178090.703 7  94910424.452 7      2445.268          42.000
G21  20759550.664 8 109092200.195 8      -698.277          48.000    20759549.539 8  85006956.131 8      -544.112          48.000
G26  20343521.461 8 106905935.416 8       632.809          49.000    20343523.117 8  83303323.255 8       493.098          49.000
G31  23086775.406 7 121321790.778 7     -3039.836          44.000    23086773.750 7  94536446.827 7     -2368.706          43.000
R09  21818150.086 6 116507717.357 6     -4145.785          37.000    21818161.445 7  90617146.211 7     -3224.500          44.000
R10  19688778.438 8 104952273.391 8     -1912.199          48.000
R21  20874892.898 6 111705741.074 6      2320.707          36.000    20874910.156 4  86882333.023 4      1804.994          28.000
C27  24049582.828 5 125232485.143 5     -2505.645          30.000
C29  23695744.742 6 123389959.862 6      2211.145          39.000
C30  21531456.422 8 112120018.665 8      -255.305          51.000
E13  23161778.297 8 121715989.158 8      -407.754          51.000    23161780.539 8  93262979.992 8      -312.444          51.000
E21  23576674.070 8 123896259.292 8      -588.738          51.000    23576675.453 8  94933499.796 8      -451.090          51.000
E26  24053465.711 8 126401810.657 8      2089.824          50.000    24053470.336 8  96853419.340 8      1601.360          51.000
E27  25886404.422 8 136033936.008 8     -2804.230          51.000    25886403.586 7 104233805.352 7     -2148.729          46.000
> 2020 05 02 14 17 30.0000000  0 16        .000000000000
G18  20415223.648 8 107282812.675 8      -652.676          51.000    20415223.648 8  83596988.014 8      -508.579          51.000
G20  23160173.656 7 121707567.133 7      3134.434          46.000    23160175.219 7  94837066.794 7      2442.419          43.000
G21  20763559.438 7 109113267.137 7      -710.070          47.000    20763558.180 7  85023371.910 7      -553.302          47.000
G26  20339937.305 8 106887100.853 8       619.090          48.000    20339939.352 8  83288646.958 8       482.408          48.000
G29  22671555.102 5 119139826.289 5     -2603.645          34.000    22671577.695 5  92836316.804 5     -2028.820          34.000
G31  23104134.680 6 121413011.487 6     -3045.285          38.000    23104132.273 6  94607527.814 6     -2372.953          38.000
R09  21841455.859 6 116632157.289 6     -4153.844          39.000    21841464.484 7  90713932.815 7     -3230.764          43.000
R10  19699590.016 7 105009905.782 7     -1933.855          47.000
R21  20861900.766 6 111636217.780 6      2310.496          36.000    20861917.867 5  86828259.303 5      1797.053          30.000
C29  23683009.070 6 123323626.705 6      2207.062          39.000
C30  21532935.289 8 112127719.560 8      -261.848          51.000
E13  23164116.109 8 121728274.823 8      -414.977          51.000    23164118.633 8  93272393.695 8      -317.951          51.000
E15  25846986.430 5 135826828.342 5     -2474.883          35.000
E21  23580054.508 8 123914022.415 8      -599.191          51.000    23580055.398 8  94947110.491 8      -459.115          51.000
E26  24041538.797 8 126339134.729 8      2084.777          49.000    24041543.664 8  96805394.971 8      1597.442          51.000
E27  25902412.258 8 136118061.130 8     -2807.699          48.000    25902412.133 7 104298264.783 7     -2151.426          46.000
> 2020 05 02 14 18  0.0000000  0 17        .000000000000
G18  20419010.820 8 107302714.603 8      -663.516          51.000    20419010.992 8  83612496.020 8      -517.025          51.000
G20  23142309.180 7 121613687.507 7      3134.797          45.000    23142308.852 6  94763913.915 6      2442.702          39.000
G21  20767664.102 7 109134838.377 7      -717.371          47.000    20767663.055 7  85040180.687 7      -558.990          47.000
G26  20336460.305 8 106868829.059 8       609.680          50.000    20336462.609 8  83274409.176 8       475.075          50.000
G29  22686445.180 5 119218068.920 5     -2601.395          34.000    22686462.969 5  92897284.932 5     -2027.064          32.000
G31  23121554.750 4 121504588.042 4     -3046.121          27.000    23121549.695 4  94678879.704 4     -2373.610          27.000
R09  21864834.938 7 116756988.868 7     -4157.469          42.000    21864840.227 6  90811023.990 6     -3233.590          40.000
R10  19710551.883 7 105068341.902 7     -1951.117          46.000
R21  20848997.305 5 111567164.121 5      2303.996          32.000    20849013.031 5  86774550.689 5      1791.991          31.000
C27  24078490.344 5 125382988.554 5     -2501.391          31.000
C29  23670321.641 5 123257550.115 5      2207.359          34.000
C30  21534479.914 8 112135765.732 8      -264.047          50.000
E13  23166524.062 8 121740928.399 8      -417.934          51.000    23166526.344 8  93282089.304 8      -320.211          51.000
E15  25861132.734 5 135901171.455 5     -2470.270          34.000
E21  23583523.570 8 123932251.312 8      -605.430          51.000    23583524.531 8  94961078.067 8      -463.853          51.000
E26  24029669.664 8 126276762.411 8      2084.020          50.000    24029674.672 8  96757603.214 8      1596.882          51.000
E27  25918468.688 7 136202444.062 7     -2807.055          45.000    25918469.719 7 104362921.788 7     -2150.830          46.000
> 2020 05 02 14 18 30.0000000  0 16        .000000000000
G18  20422884.602 8 107323071.515 8      -693.426          51.000    20422884.898 8  83628358.557 8      -540.332          51.000
G20  23124466.094 7 121519921.637 7      3116.203          45.000    23124463.680 6  94690849.705 6      2428.216          37.000
G21  20771835.812 8 109156760.915 8      -743.871          48.000    20771834.773 8  85057263.174 8      -579.637          48.000
G26  20333061.812 8 106850969.426 8       581.227          51.000    20333064.039 8  83260492.587 8       452.907          51.000
G31  23139007.000 5 121596284.256 5     -3065.730          31.000    23138996.984 5  94750318.530 5     -2388.890          32.000
R09  21888257.406 7 116882054.517 7     -4180.129          42.000    21888259.141 5  90908297.178 5     -3251.214          35.000
R10  19721635.688 8 105127425.492 8     -1987.570          49.000
R21  20836155.906 5 111498425.912 5      2278.461          35.000    20836165.648 5  86721087.584 5      1772.139          30.000
C27  24092942.508 5 125458269.540 5     -2517.035          31.000
C29  23657652.758 5 123191579.948 5      2190.055          32.000
C30  21536062.078 8 112144006.194 8      -285.180          51.000
E13  23168972.969 8 121753797.232 8      -439.789          51.000    23168975.125 8  93291949.858 8      -337.005          51.000
E15  25875279.461 5 135975511.188 5     -2485.285          32.000
E21  23587052.305 8 123950794.366 8      -630.594          51.000    23587053.242 8  94975286.384 8      -483.206          51.000
E26  24017829.523 8 126214542.313 8      2064.227          51.000    24017834.438 8  96709928.102 8      1581.668          51.000
E27  25934544.883 7 136286931.936 7     -2825.160          44.000    25934547.602 7 104427659.232 7     -2164.811          47.000
> 2020 05 02 14 19  0.0000000  0 16        .000000000000
G18  20426895.344 8 107344148.100 8      -711.770          51.000    20426895.617 8  83644781.876 8      -554.626          51.000
G20  23106696.055 7 121426538.874 7      3109.023          45.000    23106691.977 6  94618084.031 6      2422.622          36.000
G21  20776124.695 8 109179299.059 8      -758.902          49.000    20776123.422 8  85074825.372 8      -591.352          49.000
G26  20329792.625 8 106833789.170 8       564.074          51.000    20329794.812 8  83247105.379 8       439.538          50.000
G29  22716316.117 5 119375046.190 5     -2623.082          35.000
G31  23156518.578 6 121688372.720 6     -3073.648          36.000    23156531.836 6  94822117.011 6     -2395.048          36.000
R09  21911772.953 7 117007620.463 7     -4191.027          42.000    21911771.625 5  91005959.454 5     -3259.691          33.000
R10  19732891.312 8 105187424.291 8     -2012.477          49.000
R21  20823421.133 5 111430274.357 5      2264.383          35.000    20823428.383 4  86668080.860 4      1761.190          24.000
C27  24107440.562 4 125533818.275 4     -2520.402          29.000
C30  21537732.422 8 112152703.871 8      -294.902          51.000
E13  23171513.344 8 121767146.398 8      -450.281          51.000    23171515.672 8  93302178.455 8      -345.003          51.000
E15  25889477.109 5 136050121.227 5     -2488.531          32.000
E21  23590691.203 8 123969917.759 8      -644.422          51.000    23590692.070 8  94989939.379 8      -493.769          51.000
E26  24006068.938 8 126152740.825 8      2055.734          51.000    24006073.797 8  96662573.710 8      1575.149          51.000
E27  25950692.398 7 136371789.630 7     -2832.105          45.000    25950696.445 8 104492680.027 8     -2170.022          48.000
> 2020 05 02 14 19 30.0000000  0 13        .000000000000
G18  20430985.805 8 107365643.112 8      -725.801          51.000    20430985.945 8  83661531.243 8      -565.556          51.000
G20  23088942.445 7 121333241.780 7      3106.137          46.000    23088937.945 6  94545385.061 6      2420.369          36.000
G21  20780473.430 8 109202151.430 8      -769.152          50.000    20780472.047 8  85092632.427 8      -599.336          50.000
G26  20326595.867 8 106816989.432 8       551.289          51.000    20326597.977 8  83234014.674 8       429.576          51.000
G31  23174067.492 6 121780581.899 6     -3077.785          39.000    23174080.703 6  94893968.295 6     -2398.277          39.000
R09  21935324.656 7 117133378.650 7     -4197.363          44.000    21935322.672 6  91103771.231 6     -3264.619          36.000
R10  19744260.961 8 105248032.360 8     -2032.629          48.000
R21  20810738.406 5 111362404.320 5      2255.207          32.000
C30  21539433.273 8 112161560.822 8      -300.090          51.000
E13  23174087.758 8 121780674.955 8      -456.156          51.000    23174090.328 8  93312544.503 8      -349.504          51.000
E21  23594383.242 8 123989321.564 8      -653.746          51.000    23594384.773 8  95004807.233 8      -500.943          51.000
E26  23994331.102 8 126091058.199 8      2052.012          51.000    23994335.797 8  96615310.414 8      1572.201          51.000
E27  25966853.344 7 136456715.974 7     -2834.262          45.000    25966858.547 8 104557753.406 8     -2171.746          49.000
> 2020 05 02 14 20  0.0000000  0 12        .000000000000
G18  20435203.133 8 107387805.010 8      -741.258          51.000    20435203.273 8  83678800.271 8      -577.600          50.000
G20  23071253.148 7 121240283.087 7      3101.473          45.000    23071249.320 6  94472949.786 6      2416.735          36.000
G21  20784929.195 8 109225566.354 8      -781.254          50.000    20784927.969 8  85110877.848 8      -608.766          50.000
G26  20323519.180 8 106800821.130 8       536.941          51.000    20323521.320 8  83221416.009 8       418.396          51.000
G31  23191683.297 6 121873150.799 6     -3082.883          41.000    23191697.117 6  94966099.875 6     -2402.246          41.000
R09  21958958.875 7 117259579.163 7     -4205.258          46.000    21958957.938 6  91201927.066 6     -3270.759          37.000
R10  19755791.805 8 105309500.341 8     -2054.566          48.000
C30  21541212.180 8 112170823.918 8      -307.082          51.000
E13  23176743.688 8 121794631.755 8      -463.805          51.000    23176746.320 8  93323238.687 8      -355.452          51.000
E21  23598176.367 8 124009255.697 8      -664.867          51.000    23598178.703 8  95020081.435 8      -509.366          51.000
E26  23982663.727 8 126029744.639 8      2046.176          51.000    23982668.031 8  96568329.908 8      1567.834          51.000
E27  25983074.961 7 136541959.587 7     -2838.258          47.000    25983080.906 8 104623069.876 8     -2174.706          50.000
> 2020 05 02 14 20 30.0000000  0 14        .000000000000
G18  20439463.352 8 107410192.380 8      -763.832          51.000    20439463.219 8  83696244.979 8      -595.194          50.000
G20  23053545.008 7 121147225.744 7      3089.664          46.000    23053541.492 6  94400437.598 6      2407.533          38.000
G21  20789408.023 8 109249102.555 8      -800.379          50.000    20789406.812 8  85129217.763 8      -623.672          50.000
G26  20320478.969 8 106784845.325 8       515.426          51.000    20320481.477 8  83208967.316 8       401.630          51.000
G31  23209282.734 6 121965636.700 6     -3095.113          40.000    23209296.875 6  95038166.801 6     -2411.780          41.000
R09  21982591.250 7 117385771.228 7     -4220.145          47.000    21982591.375 6  91300076.342 6     -3282.338          38.000
R10  19767400.070 8 105371379.827 8     -2083.562          48.000
R21  20785583.891 4 111227898.017 4      2226.496          28.000    20785595.398 5  86510603.480 5      1731.719          30.000
C29  23607403.750 5 122929959.906 5      2165.094          33.000
C30  21542985.438 8 112180056.405 8      -320.879          51.000
E13  23179397.180 8 121808575.745 8      -478.340          51.000    23179399.789 8  93333923.040 8      -366.478          51.000
E21  23601986.773 8 124029280.174 8      -682.785          51.000    23601989.398 8  95035424.864 8      -523.158          51.000
E26  23970982.766 8 125968360.352 8      2033.648          51.000    23970987.016 8  96521295.232 8      1558.133          51.000
E27  25999273.250 8 136627079.151 8     -2849.035          48.000    25999279.391 8 104688291.303 8     -2182.949          51.000
> 2020 05 02 14 21  0.0000000  0 14        .000000000000
G18  20443874.406 8 107433372.595 8      -778.668          51.000    20443874.234 8  83714307.482 8      -606.754          50.000
G20  23035926.789 8 121054641.269 8      3085.430          48.000    23035924.266 6  94328293.897 6      2404.234          40.000
G21  20794017.820 8 109273326.942 8      -811.762          50.000    20794016.617 8  85148093.914 8      -632.542          50.000
G26  20317583.922 8 106769631.820 8       501.539          51.000    20317586.562 8  83197112.633 8       390.810          51.000
G31  23226973.852 6 122058605.195 6     -3100.145          40.000    23226988.086 6  95110609.747 6     -2415.700          40.000
R09  22006329.117 7 117512528.985 7     -4227.371          47.000    22006330.492 6  91398665.616 6     -3287.958          38.000
R10  19779193.539 8 105434245.717 8     -2104.625          49.000
R21  20773143.133 5 111161297.874 5      2215.613          31.000    20773152.930 5  86458821.285 5      1723.255          32.000
C29  23594943.094 5 122865088.080 5      2162.332          32.000
C30  21544860.820 8 112189821.189 8      -327.195          51.000
E13  23182156.297 8 121823074.698 8      -485.270          51.000    23182158.930 8  93345032.633 8      -371.809          51.000
E21  23605922.750 8 124049963.806 8      -693.180          51.000    23605924.992 8  95051273.369 8      -531.096          51.000
E26  23959396.586 8 125907474.420 8      2028.457          51.000    23959400.742 8  96474642.411 8      1554.269          50.000
E27  26015555.883 8 136712642.221 8     -2852.211          48.000    26015561.797 8 104753852.571 8     -2185.460          51.000
> 2020 05 02 14 21 30.0000000  0 14        .000000000000
G18  20448364.656 8 107456969.247 8      -796.277          51.000    20448364.727 8  83732694.503 8      -620.476          50.000
G20  23018327.930 8 120962157.559 8      3078.219          49.000    23018326.562 7  94256228.744 7      2398.615          42.000
G21  20798686.938 8 109297862.900 8      -825.930          50.000    20798686.008 8  85167212.849 8      -643.582          50.000
G26  20314762.750 8 106754806.657 8       484.836          51.000    20314765.625 8  83185560.555 8       377.794          51.000
G31  23244684.609 6 122151678.509 6     -3106.914          38.000    23244698.258 6  95183134.383 6     -2420.975          38.000
R09  22030100.047 7 117639467.792 7     -4237.266          44.000    22030102.930 6  91497395.738 6     -3295.654          36.000
R10  19791100.930 8 105497715.358 8     -2128.512          50.000
R21  20760756.320 4 111094989.110 4      2202.328          28.000    20760761.492 5  86407252.909 5      1712.922          30.000
C29  23582498.312 4 122800293.819 4      2155.191          29.000
C30  21546766.969 8 112199745.995 8      -336.324          51.000
E13  23184949.562 8 121837752.672 8      -495.176          51.000    23184952.320 8  93356279.404 8      -379.429          51.000
E21  23609912.922 8 124070931.662 8      -706.613          51.000    23609914.891 8  95067339.644 8      -541.428          51.000
E26  23947833.797 8 125846712.103 8      2020.406          51.000    23947837.531 8  96428084.326 8      1548.121          50.000
E27  26031851.266 8 136798272.657 8     -2858.309          48.000    26031856.586 8 104819465.450 8     -2190.195          51.000
> 2020 05 02 14 22  0.0000000  0 13        .000000000000
G18  20452973.156 8 107481186.952 8      -810.520          51.000    20452973.117 8  83751565.443 8      -631.574          50.000
G20  23000788.000 8 120869983.721 8      3074.289          49.000    23000787.742 7  94184405.017 7      2395.550          45.000
G21  20803454.203 8 109322914.891 8      -836.738          50.000    20803453.414 8  85186733.883 8      -652.004          50.000
G26  20312054.969 8 106740576.942 8       471.473          51.000    20312058.016 8  83174472.466 8       367.381          51.000
G31  23262454.250 6 122245059.779 6     -3110.707          38.000    23262464.148 6  95255899.022 6     -2423.925          38.000
R09  22053943.273 7 117766793.297 7     -4243.328          44.000    22053947.031 5  91596426.625 5     -3300.369          31.000
R10  19803160.398 8 105561995.404 8     -2148.996          51.000
C27  24194703.805 5 125988164.649 5     -2528.809          31.000
C30  21548743.008 8 112210034.284 8      -342.023          51.000
E13  23187815.867 8 121852814.655 8      -501.402          51.000    23187818.695 8  93367820.414 8      -384.176          51.000
E21  23613996.305 8 124092389.793 8      -716.414          51.000    23613998.391 8  95083781.563 8      -548.887          51.000
E26  23936333.820 8 125786279.734 8      2015.988          51.000    23936337.102 8  96381779.069 8      1544.712          50.000
E27  26048198.320 7 136884175.159 7     -2860.941          47.000    26048203.242 8 104885286.784 8     -2192.117          51.000
> 2020 05 02 14 22 30.0000000  0 13        .000000000000
G18  20457656.219 8 107505796.563 8      -837.531          51.000    20457656.211 8  83770741.769 8      -652.622          50.000
G20  22983264.047 8 120777894.669 8      3057.617          48.000    22983265.078 7  94112647.358 7      2382.562          47.000
G21  20808276.039 8 109348254.192 8      -860.219          50.000    20808275.320 8  85206478.781 8      -670.300          50.000
G26  20309417.328 8 106726715.957 8       445.203          51.000    20309420.195 8  83163671.702 8       346.915          51.000
G31  23280239.164 6 122338518.273 6     -3126.910          37.000    23280244.086 6  95328723.775 6     -2436.553          37.000
R09  22077815.734 7 117894270.275 7     -4262.609          45.000
R10  19815327.805 8 105626852.654 8     -2182.441          50.000
R20  19836257.836 4 106073384.062 4     -1604.590          27.000
C30  21550745.234 8 112220459.668 8      -360.379          51.000
E13  23190711.742 8 121868031.955 8      -520.570          51.000    23190714.375 8  93379480.419 8      -398.843          51.000
E21  23618129.703 8 124114110.454 8      -739.109          51.000    23618131.781 8  95100424.649 8      -566.328          51.000
E26  23924853.531 8 125725949.848 8      1998.473          51.000    23924855.984 8  96335552.313 8      1531.327          50.000
E27  26064553.531 8 136970120.830 8     -2876.258          48.000    26064558.188 8 104951141.173 8     -2203.931          51.000
> 2020 05 02 14 23  0.0000000  0 13        .000000000000
G18  20462411.125 8 107530782.899 8      -834.531          51.000    20462411.086 8  83790211.645 8      -650.284          49.000
G20  22965753.648 7 120685879.498 7      3070.422          45.000    22965756.094 7  94040947.269 7      2392.540          45.000
G21  20813149.609 8 109373865.072 8      -853.648          50.000    20813149.070 8  85226435.306 8      -665.181          50.000
G26  20306847.359 8 106713210.957 8       448.789          51.000    20306850.195 8  83153148.324 8       349.706          51.000
G31  23298036.297 6 122432037.235 6     -3113.496          37.000    23298037.461 6  95401595.606 6     -2426.107          37.000
R09  22101713.852 7 118021881.336 7     -4251.262          45.000    22101719.414 5  91794850.815 5     -3306.540          30.000
R10  19827600.102 8 105692270.637 8     -2185.297          51.000
C27  24223890.945 5 126140143.602 5     -2523.828          35.000
C30  21552771.047 8 112231007.863 8      -349.145          51.000
E13  23193634.352 8 121883389.781 8      -509.770          51.000    23193636.812 8  93391248.100 8      -390.573          51.000
E21  23622310.445 8 124136079.912 8      -731.930          51.000    23622312.359 8  95117258.370 8      -560.799          51.000
E26  23913390.148 8 125665708.921 8      2011.145          51.000    23913392.117 8  96289393.734 8      1541.001          50.000
E27  26080914.523 8 137056094.622 8     -2861.676          50.000    26080918.422 8 105017017.133 8     -2192.758          51.000
> 2020 05 02 14 23 30.0000000  0 14        .000000000000
G18  20467293.922 8 107556441.692 8      -866.672          51.000    20467293.688 8  83810205.518 8      -675.329          49.000
G20  22948314.078 7 120594238.710 7      3048.137          44.000    22948317.734 7  93969538.905 7      2375.171          44.000
G21  20818131.078 8 109400043.252 8      -882.336          49.000    20818130.688 8  85246833.902 8      -687.534          50.000
G26  20304401.898 8 106700360.140 8       417.270          51.000    20304404.773 8  83143134.696 8       325.145          51.000
G31  23315902.234 6 122525911.190 6     -3135.391          37.000    23315899.898 6  95474744.022 6     -2443.162          38.000
R09  22125693.141 7 118149924.777 7     -4275.742          43.000    22125697.188 5  91894440.086 5     -3325.577          35.000
R10  19840033.820 8 105758548.363 8     -2223.859          51.000
C27  24238505.305 5 126216246.949 5     -2540.441          31.000
C29  23533052.484 5 122542876.076 5      2130.867          30.000
C30  21554876.734 8 112241972.642 8      -372.648          51.000
E13  23196639.891 8 121899184.378 8      -533.949          51.000    23196642.484 8  93403350.463 8      -409.106          51.000
E21  23626594.922 8 124158595.376 8      -759.797          51.000    23626596.898 8  95134510.449 8      -582.179          51.000
E26  23902000.344 8 125605854.475 8      1988.520          51.000    23902001.641 8  96243531.278 8      1523.647          50.000
E27  26097337.281 8 137142392.524 8     -2882.215          51.000    26097340.070 8 105083141.446 8     -2208.453          51.000
> 2020 05 02 14 24  0.0000000  0 14        .000000000000
G18  20472343.078 8 107582975.123 8      -884.840          50.000    20472342.742 8  83830880.917 8      -689.486          49.000
G20  22930984.867 7 120503178.319 7      3039.945          44.000    22930989.500 7  93898582.764 7      2368.789          44.000
G21  20823258.969 8 109426990.583 8      -896.934          50.000    20823258.398 8  85267831.827 8      -698.909          50.000
G26  20302119.828 8 106688368.141 8       399.586          51.000    20302122.734 8  83133790.276 8       311.366          51.000
G31  23333875.312 6 122620340.752 6     -3142.910          39.000    23333869.289 6  95548325.349 6     -2449.027          38.000
R09  22149790.539 5 118278603.634 5     -4285.809          34.000    22149794.406 6  91994523.538 6     -3333.410          38.000
R10  19852667.023 8 105825890.096 8     -2248.027          49.000
C27  24253205.938 5 126292776.920 5     -2543.879          35.000
C29  23520846.594 5 122479212.691 5      2122.617          33.000
C30  21557100.883 8 112253555.119 8      -382.367          51.000
E13  23199767.227 8 121915618.341 8      -544.250          51.000    23199769.875 8  93415942.743 8      -417.029          51.000
E21  23631022.031 8 124181860.465 8      -773.785          51.000    23631024.062 8  95152336.920 8      -592.900          51.000
E26  23890722.680 8 125546590.371 8      1979.816          51.000    23890723.945 8  96198121.165 8      1516.987          51.000
E27  26113859.852 8 137229216.965 8     -2888.738          51.000    26113862.164 8 105149669.201 8     -2213.425          51.000
> 2020 05 02 14 24 30.0000000  0 14        .000000000000
G18  20477368.070 8 107609382.213 8      -900.473          49.000    20477367.781 8  83851457.882 8      -701.667          48.000
G20  22913576.742 7 120411702.005 7      3034.168          44.000    22913581.297 7  93827302.519 7      2364.290          42.000
G21  20828342.742 8 109453706.109 8      -908.527          50.000    20828341.984 8  85288649.107 8      -707.940          50.000
G26  20299811.211 8 106676236.458 8       384.648          51.000    20299814.078 8  83124337.008 8       299.726          51.000
G31  23351763.102 6 122714323.384 6     -3147.660          39.000    23351754.328 6  95621558.473 6     -2452.725          38.000
R10  19865309.234 8 105893279.713 8     -2269.418          50.000
C27  24267795.453 5 126368741.840 5     -2544.516          31.000
C29  23508560.820 5 122415225.324 5      2118.367          35.000
C30  21559253.422 8 112264764.191 8      -389.254          51.000
E13  23202825.883 8 121931691.211 8      -551.828          51.000    23202828.430 8  93428258.320 8      -422.856          51.000
E15  26046348.961 5 136874487.891 5     -2511.688          35.000
E21  23635401.586 8 124204875.670 8      -785.152          51.000    23635403.758 8  95169971.926 8      -601.568          51.000
E26  23879366.820 8 125486917.365 8      1973.867          50.000    23879369.078 8  96152397.756 8      1512.414          51.000
E27  26130291.797 8 137315567.176 8     -2892.480          51.000    26130294.172 8 105215833.580 8     -2216.376          51.000
> 2020 05 02 14 25  0.0000000  0 16        .000000000000
G18  20482560.039 8 107636667.992 8      -916.453          49.000    20482560.102 8  83872719.524 8      -714.116          48.000
G20  22896282.258 7 120320819.220 7      3027.020          43.000    22896285.375 6  93756484.783 6      2358.717          40.000
G21  20833573.633 8 109481194.607 8      -921.371          50.000    20833572.867 8  85310068.736 8      -717.952          50.000
G26  20297667.758 8 106664972.544 8       368.719          51.000    20297670.484 8  83115559.938 8       287.313          51.000
G31  23369755.953 6 122808863.104 6     -3153.043          39.000    23369745.336 6  95695225.665 6     -2456.920          39.000
R09  22197968.531 5 118535960.428 5     -4300.281          34.000    22197963.656 6  92194594.408 6     -3344.666          39.000
R10  19878151.430 8 105961735.278 8     -2291.785          50.000
R21  20676115.328 5 110642136.445 5      2110.367          35.000    20676110.094 5  86054948.740 5      1641.403          32.000
C27  24282444.562 5 126445060.751 5     -2546.426          31.000
C29  23496379.570 5 122351784.656 5      2112.980          33.000
C30  21561525.797 8 112276596.553 8      -397.160          51.000
E13  23206006.969 8 121948408.477 8      -560.191          51.000    23206009.297 8  93441067.658 8      -429.223          51.000
E15  26060698.945 5 136949898.348 5     -2513.363          35.000
E21  23639925.109 8 124228647.444 8      -797.242          51.000    23639927.875 8  95188186.639 8      -610.862          51.000
E26  23868124.664 8 125427842.253 8      1966.895          49.000    23868128.164 8  96107132.443 8      1507.200          51.000
E27  26146824.742 8 137402448.416 8     -2896.953          51.000    26146827.250 8 105282404.869 8     -2219.878          50.000
> 2020 05 02 14 25 30.0000000  0 16        .000000000000
G18  20487844.734 7 107664440.967 7      -932.965          47.000    20487845.055 7  83894360.799 7      -726.986          47.000
G20  22879026.828 6 120230142.564 6      3020.180          41.000    22879028.656 6  93685827.756 6      2353.393          39.000
G21  20838877.250 8 109509065.098 8      -934.555          51.000    20838876.422 8  85331786.014 8      -728.224          50.000
G26  20295615.406 8 106654187.425 8       352.320          51.000    20295618.008 8  83107155.947 8       274.535          51.000
G31  23387779.062 6 122903566.531 6     -3158.805          36.000    23387767.328 5  95769020.429 5     -2461.409          35.000
R09  22222149.141 6 118665126.174 6     -4308.316          39.000    22222151.844 6  92295056.495 6     -3350.916          38.000
R10  19891118.766 8 106030859.160 8     -2314.332          50.000
R21  20664320.398 4 110579058.472 4      2097.270          29.000    20664323.320 5  86005888.264 5      1631.219          33.000
C27  24297134.922 6 126521501.645 6     -2547.684          37.000
C29  23484230.539 4 122288547.435 4      2108.348          27.000
C30  21563843.500 8 112288665.116 8      -405.281          51.000
E13  23209236.414 8 121965379.186 8      -568.973          51.000    23209238.523 8  93454071.186 8      -435.927          51.000
E15  26075056.141 5 137025344.820 5     -2514.742          34.000
E21  23644518.328 8 124252785.810 8      -809.723          51.000    23644521.727 8  95206682.254 8      -620.437          51.000
E26  23856922.359 8 125368975.327 8      1959.582          50.000    23856926.969 8  96062026.639 8      1501.618          51.000
E27  26163384.219 8 137489469.522 8     -2902.051          50.000    26163386.625 8 105349083.312 8     -2223.616          49.000
> 2020 05 02 14 26  0.0000000  0 14        .000000000000
G18  20493202.914 8 107692600.257 8      -952.320          48.000    20493203.570 8  83916303.107 8      -742.068          49.000
G20  22861792.547 7 120139575.877 7      3009.703          42.000    22861793.570 6  93615256.344 6      2345.223          38.000
G21  20844234.109 8 109537215.766 8      -950.445          51.000    20844233.211 8  85353721.601 8      -740.607          51.000
G26  20293635.422 8 106643782.601 8       333.074          51.000    20293638.062 8  83099048.298 8       259.538          51.000
G31  23405812.633 5 122998331.679 5     -3167.438          34.000    23405800.805 5  95842863.223 5     -2468.139          33.000
R09  22246359.078 6 118794422.736 6     -4319.289          37.000    22246364.664 6  92395620.295 6     -3359.456          36.000
R10  19904191.758 8 106100547.808 8     -2339.871          49.000
C27  24311797.703 4 126597909.886 4     -2552.957          29.000
C30  21566187.305 8 112300870.683 8      -416.434          51.000
E13  23212495.086 8 121982502.968 8      -580.688          51.000    23212497.289 8  93467192.016 8      -444.963          51.000
E15  26089400.984 5 137100728.776 5     -2518.797          35.000
E21  23649162.500 8 124277191.368 8      -825.332          51.000    23649165.875 8  95225382.607 8      -632.385          51.000
E26  23845741.195 8 125310217.457 8      1949.352          51.000    23845746.219 8  96017004.381 8      1493.752          51.000
E27  26179950.609 8 137576529.820 8     -2910.098          49.000    26179953.164 8 105415791.775 8     -2229.776          48.000
> 2020 05 02 14 26 30.0000000  0 16        .000000000000
G18  20498679.680 8 107721381.786 8      -965.668          49.000    20498680.516 8  83938730.264 8      -752.469          48.000
G20  22844625.391 7 120049359.045 7      3005.016          43.000    22844625.711 6  93544957.561 6      2341.574          39.000
G21  20849689.258 8 109565883.065 8      -960.445          51.000    20849688.406 8  85376059.764 8      -748.399          50.000
G26  20291773.242 8 106633996.498 8       319.746          51.000    20291775.773 8  83091422.764 8       249.153          51.000
G29  22943221.047 5 120567432.490 5     -2678.461          35.000
G31  23423901.984 5 123093392.627 5     -3169.973          35.000    23423890.758 5  95916936.590 5     -2470.106          35.000
R09  22270640.102 6 118924087.441 6     -4324.055          36.000    22270643.992 5  92496470.463 5     -3363.157          34.000
R10  19917415.234 8 106171039.625 8     -2359.195          48.000
C27  24326484.797 5 126674419.924 5     -2551.348          32.000
C29  23460017.867 6 122162502.806 6      2096.488          36.000
C30  21568602.531 8 112313447.859 8      -421.668          51.000
E13  23215827.656 8 122000016.220 8      -586.480          51.000    23215830.117 8  93480611.265 8      -449.387          51.000
E15  26103778.930 6 137176288.653 6     -2517.977          36.000
E21  23653902.828 8 124302101.467 8      -834.969          51.000    23653905.742 8  95244469.564 8      -639.787          51.000
E26  23834626.359 8 125251806.255 8      1945.070          51.000    23834630.797 8  95972247.781 8      1490.370          50.000
E27  26196569.172 8 137663865.505 8     -2911.969          48.000    26196571.578 7 105482711.226 7     -2231.252          47.000
> 2020 05 02 14 27  0.0000000  0 16        .000000000000
G18  20504300.039 8 107750916.678 8      -987.844          48.000    20504300.883 8  83961744.476 8      -769.748          48.000
G20  22827550.766 7 119959627.977 7      2992.223          44.000    22827550.945 6  93475037.287 6      2331.605          41.000
G21  20855267.664 8 109595198.067 8      -978.605          50.000    20855266.898 8  85398902.635 8      -762.550          50.000
G26  20290054.195 8 106624962.713 8       297.945          51.000    20290056.555 8  83084383.458 8       232.165          51.000
G31  23442062.906 5 123188887.635 5     -3181.238          33.000
R09  22295014.484 5 119054132.622 5     -4337.668          31.000    22295018.922 5  92597709.053 5     -3373.751          35.000
R10  19930814.539 8 106242466.828 8     -2387.066          50.000
R21  20629424.367 5 110392238.256 5      2053.270          32.000
C27  24341241.023 5 126751296.808 5     -2558.621          35.000
C29  23448014.773 5 122100011.881 5      2085.059          32.000
C30  21571114.414 8 112326527.475 8      -435.242          51.000
E13  23219259.445 8 122018050.647 8      -600.566          51.000    23219261.727 8  93494429.854 8      -460.192          51.000
E15  26118215.383 6 137252153.863 6     -2524.312          37.000    26118220.812 5 105167251.989 5     -1934.534          33.000
E21  23658764.602 8 124327648.761 8      -852.961          51.000    23658767.250 8  95264044.761 8      -653.532          51.000
E26  23823602.664 8 125193874.726 8      1932.301          51.000    23823606.039 8  95927858.712 8      1480.588          50.000
E27  26213265.055 7 137751608.065 7     -2922.262          47.000    26213267.375 7 105549942.430 7     -2239.169          46.000
> 2020 05 02 14 27 30.0000000  0 15        .000000000000
G18  20509950.719 8 107780611.183 8     -1010.238          49.000    20509951.578 8  83984883.071 8      -787.199          49.000
G20  22810456.523 7 119869793.749 7      2978.480          46.000    22810456.711 6  93405036.631 6      2320.894          40.000
G21  20860856.227 8 109624566.831 8      -997.574          50.000    20860855.438 8  85421787.402 8      -777.331          50.000
G26  20288365.734 8 106616089.988 8       275.188          51.000    20288367.945 8  83077469.647 8       214.432          51.000
G31  23460199.164 5 123284205.516 5     -3192.152          31.000    23460202.195 5  96065623.249 5     -2487.394          30.000
R09  22319370.383 5 119184190.797 5     -4351.754          31.000    22319375.305 6  92698865.250 6     -3384.701          36.000
R10  19944276.859 8 106314225.601 8     -2415.535          51.000
R21  20617914.508 6 110330638.723 6      2034.254          36.000
C27  24355946.633 5 126827896.541 5     -2566.059          32.000
C30  21573609.875 8 112339522.073 8      -449.383          51.000
E13  23222677.484 8 122036013.108 8      -615.387          51.000    23222679.688 8  93508193.284 8      -471.539          51.000
E15  26132597.734 5 137327726.304 5     -2531.801          35.000    26132602.281 5 105225161.950 5     -1939.951          35.000
E21  23663634.953 8 124353240.953 8      -871.680          51.000    23663637.539 8  95283654.359 8      -667.851          51.000
E26  23812557.398 8 125135830.893 8      1918.902          51.000    23812560.414 8  95883383.596 8      1470.283          51.000
E27  26229925.641 7 137839163.982 7     -2933.223          47.000    26229928.484 7 105617030.655 7     -2247.561          47.000
> 2020 05 02 14 28  0.0000000  0 16        .000000000000
G18  20515700.453 8 107810825.435 8     -1008.617          50.000    20515701.125 8  84008426.642 8      -785.939          49.000
G20  22793411.625 8 119780220.335 8      2988.527          49.000    22793412.148 6  93335239.236 6      2328.723          41.000
G21  20866523.516 8 109654349.239 8      -992.434          50.000    20866522.719 8  85444994.473 8      -773.328          50.000
G26  20286776.820 8 106607740.797 8       276.797          51.000    20286779.164 8  83070963.779 8       215.686          51.000
G29  22989220.141 5 120809167.203 5     -2682.859          32.000
G31  23478373.758 5 123379712.986 5     -3179.410          33.000    23478377.031 5  96140044.579 5     -2477.466          32.000
R10  19957869.844 8 106386680.369 8     -2419.492          51.000
R21  20606480.844 5 110269452.946 5      2039.809          35.000    20606491.508 4  85765167.001 4      1586.515          24.000
C27  24370671.422 5 126904478.699 5     -2549.852          30.000
C29  23423993.102 5 121974891.197 5      2085.574          32.000
C30  21576157.617 8 112352789.316 8      -439.602          51.000
E13  23226150.297 8 122054264.185 8      -605.977          51.000    23226152.977 8  93522177.869 8      -464.305          51.000
E15  26146993.914 5 137403379.512 5     -2515.938          35.000    26146998.031 6 105283127.615 6     -1927.440          36.000
E21  23668582.055 8 124379239.646 8      -866.277          50.000    23668584.922 8  95303575.433 8      -663.729          51.000
E26  23801559.609 8 125078036.639 8      1929.488          51.000    23801563.031 8  95839099.703 8      1478.454          51.000
E27  26246620.055 7 137926893.653 7     -2920.082          47.000    26246623.875 8 105684252.040 8     -2237.400          48.000
> 2020 05 02 14 28 30.0000000  0 15        .000000000000
G18  20521553.258 8 107841581.426 8     -1035.777          49.000    20521553.766 8  84032392.349 8      -807.096          49.000
G20  22776421.414 8 119690934.134 8      2970.012          49.000    22776421.375 6  93265665.639 6      2314.295          41.000
G21  20872273.812 8 109684567.484 8     -1015.891          50.000    20872273.273 8  85468541.162 8      -791.603          49.000
G26  20285292.250 8 106599939.635 8       249.402          51.000    20285294.695 8  83064884.958 8       194.339          51.000
G31  23496589.867 6 123475430.532 6     -3195.422          36.000    23496591.930 6  96214629.631 6     -2489.939          36.000
R10  19971596.664 8 106459852.720 8     -2452.453          50.000
R21  20595126.453 5 110208705.631 5      2016.285          33.000
C27  24385415.883 5 126981261.739 5     -2562.449          35.000
C29  23412043.812 5 121912668.670 5      2069.195          30.000
C30  21578762.039 8 112366351.918 8      -458.422          51.000
E13  23229682.414 8 122072826.458 8      -625.406          51.000    23229685.422 8  93536400.918 8      -479.195          51.000
E15  26161408.062 5 137479124.810 5     -2527.398          35.000    26161412.516 6 105341166.179 6     -1936.922          36.000
E21  23673610.672 8 124405668.281 8      -889.527          50.000    23673613.930 8  95323825.960 8      -681.607          51.000
E26  23790613.852 8 125020515.742 8      1911.344          51.000    23790617.969 8  95795025.271 8      1464.515          51.000
E27  26263352.328 7 138014819.452 7     -2935.516          47.000    26263357.188 8 105751623.709 8     -2249.318          50.000
> 2020 05 02 14 29  0.0000000  0 15        .000000000000
G18  20527506.695 8 107872866.612 8     -1050.773          50.000    20527507.172 8  84056770.431 8      -818.784          50.000
G20  22759484.359 8 119601927.584 8      2963.125          50.000    22759483.742 6  93196309.944 6      2308.932          40.000
G21  20878104.672 8 109715209.090 8     -1027.480          49.000    20878104.227 8  85492417.742 8      -800.634          49.000
G26  20283910.125 8 106592676.475 8       234.062          51.000    20283912.492 8  83059225.341 8       182.383          51.000
G31  23514843.555 6 123571344.921 6     -3199.785          37.000    23514844.414 6  96289368.010 6     -2493.339          37.000
R10  19985455.203 8 106533728.749 8     -2473.289          48.000
R21  20583855.172 5 110148385.152 5      2004.184          35.000
C27  24400177.516 6 127058136.099 6     -2562.926          36.000
C29  23400139.180 5 121850660.152 5      2064.199          32.000
C30  21581420.984 8 112380198.400 8      -465.328          51.000
E13  23233271.586 8 122091688.040 8      -632.785          51.000    23233274.344 8  93550853.297 8      -484.822          51.000
E15  26175838.031 5 137554956.345 5     -2528.332          35.000    26175842.977 5 105399268.475 5     -1937.036          32.000
E21  23678719.281 8 124432515.883 8      -900.914          51.000    23678722.852 8  95344397.524 8      -690.338          51.000
E26  23779717.891 8 124963257.597 8      1905.145          49.000    23779722.602 8  95751152.158 8      1459.837          51.000
E27  26280119.773 7 138102929.207 7     -2939.047          47.000    26280125.312 8 105819136.324 8     -2251.973          50.000
> 2020 05 02 14 29 30.0000000  0 16        .000000000000
G18  20533555.656 8 107904653.773 8     -1065.473          50.000    20533556.141 8  84081539.651 8      -830.238          50.000
G20  22742595.711 8 119513177.427 8      2956.559          49.000    22742595.391 7  93127154.071 7      2303.815          42.000
G21  20884010.961 8 109746246.695 8     -1038.773          49.000    20884010.312 8  85516602.905 8      -809.434          49.000
G26  20282625.695 8 106585926.446 8       218.840          51.000    20282627.977 8  83053965.592 8       170.525          51.000
G31  23533129.266 6 123667427.368 6     -3203.160          39.000    23533129.234 6  96364237.366 6     -2495.972          39.000
R09  22417288.578 5 119707073.033 5     -4371.770          33.000    22417292.977 5  93105511.986 5     -3400.265          30.000
R10  19999439.961 8 106608279.235 8     -2493.805          48.000
R21  20572657.961 5 110088465.582 5      1992.598          31.000    20572671.055 3  85624397.473 3      1549.807          23.000
C27  24414954.250 4 127135075.682 4     -2562.918          29.000
C29  23388270.352 4 121788857.478 4      2059.695          29.000
C30  21584129.500 8 112394302.703 8      -472.066          51.000
E13  23236912.648 8 122110822.245 8      -639.898          51.000    23236915.164 8  93565514.581 8      -490.333          51.000
E15  26190278.000 5 137630840.261 5     -2527.715          34.000
E21  23683902.812 8 124459756.709 8      -912.184          51.000    23683906.680 8  95365270.355 8      -698.958          51.000
E26  23768866.586 8 124906236.721 8      1899.176          48.000    23768871.492 8  95707460.877 8      1455.123          51.000
E27  26296917.188 8 138191196.008 8     -2942.469          48.000    26296922.773 8 105886769.274 8     -2254.652          50.000
> 2020 05 02 14 30  0.0000000  0 13        .000000000000
G18  20539700.305 8 107936944.236 8     -1080.043          50.000    20539700.914 8  84106701.079 8      -841.589          50.000
G20  22725756.516 7 119424689.607 7      2949.863          46.000    22725757.141 7  93058202.591 7      2298.598          44.000
G21  20889992.742 8 109777681.383 8     -1049.816          48.000    20889992.211 8  85541097.469 8      -818.036          49.000
G26  20281439.578 8 106579693.379 8       203.742          51.000    20281442.086 8  83049108.667 8       158.760          51.000
G31  23551446.883 5 123763677.659 5     -3206.301          35.000    23551447.047 5  96439237.524 5     -2498.419          35.000
R10  20013551.562 7 106683504.912 7     -2514.098          47.000
R21  20561556.391 5 110029031.373 5      1982.004          31.000
C29  23376437.023 5 121727229.822 5      2055.902          33.000
C30  21586887.953 8 112408667.030 8      -478.555          51.000
E13  23240605.891 8 122130231.029 8      -646.875          51.000    23240608.727 8  93580386.248 8      -495.637          51.000
E21  23689162.047 8 124487393.556 8      -923.141          51.000    23689165.805 8  95386446.623 8      -707.336          51.000
E26  23758061.008 8 124849456.255 8      1893.387          48.000    23758065.539 8  95663953.808 8      1450.741          51.000
E27  26313744.578 7 138279621.489 7     -2945.434          46.000    26313749.836 8 105954523.812 8     -2256.897          49.000
> 2020 05 02 14 30 30.0000000  0 14        .000000000000
G18  20545949.984 8 107969786.188 8     -1099.719          51.000    20545950.477 8  84132292.198 8      -856.924          51.000
G20  22708976.844 7 119336517.096 7      2937.883          45.000    22708978.992 7  92989496.792 7      2289.259          44.000
G21  20896059.195 8 109809561.274 8     -1066.008          48.000    20896058.828 8  85565938.934 8      -830.655          48.000
G26  20280361.477 8 106574027.874 8       183.488          51.000    20280364.102 8  83044693.967 8       142.978          51.000
G31  23569804.672 5 123860142.862 5     -3215.309          35.000    23569805.938 5  96514405.153 5     -2505.435          34.000
R09  22466530.633 6 119970005.751 6     -4387.031          36.000
R10  20027799.766 8 106759453.593 8     -2539.418          48.000
C27  24444575.070 5 127289289.603 5     -2568.387          35.000
C29  23364647.852 5 121665843.572 5      2046.812          32.000
C30  21589705.727 8 112423340.064 8      -490.090          51.000
E13  23244360.578 8 122149963.133 8      -658.789          50.000    23244363.797 8  93595505.660 8      -504.834          51.000
E21  23694506.352 8 124515476.027 8      -939.148          51.000    23694509.617 8  95407964.353 8      -719.646          51.000
E26  23747311.055 8 124792966.184 8      1882.508          50.000    23747315.234 8  95620669.267 8      1442.435          51.000
E27  26330611.023 7 138368254.134 7     -2953.480          45.000    26330615.797 8 106022437.090 8     -2263.161          48.000
> 2020 05 02 14 31  0.0000000  0 13        .000000000000
G18  20552273.492 8 108003016.048 8     -1117.520          51.000    20552273.977 8  84158185.600 8      -870.794          51.000
G20  22692226.969 7 119248500.507 7      2927.727          43.000    22692229.930 7  92920912.479 7      2281.345          44.000
G21  20902179.273 8 109841723.027 8     -1080.242          48.000    20902179.031 7  85591000.021 7      -841.747          47.000
G26  20279360.766 8 106568768.810 8       165.070          51.000    20279363.344 8  83040595.999 8       128.626          51.000
R09  22491197.820 5 120101721.258 5     -4395.840          35.000    22491194.625 4  93412452.060 4     -3418.987          24.000
R10  20042152.398 8 106835957.996 8     -2562.824          48.000
C27  24459381.883 5 127366367.150 5     -2571.926          34.000
C29  23352872.125 5 121604538.403 5      2038.688          34.000
C30  21592552.000 8 112438160.741 8      -499.871          51.000
E13  23248145.891 8 122169855.710 8      -669.117          50.000    23248148.977 8  93610748.015 8      -512.676          51.000
E21  23699904.648 8 124543842.177 8      -953.629          51.000    23699907.234 8  95429699.431 8      -730.703          51.000
E26  23736586.234 8 124736604.861 8      1873.215          51.000    23736589.852 8  95577483.352 8      1435.344          51.000
E27  26347485.492 7 138456930.833 7     -2960.023          44.000    26347489.930 7 106090384.108 7     -2268.049          45.000
> 2020 05 02 14 31 30.0000000  0 13        .000000000000
G18  20558709.750 8 108036838.301 8     -1134.062          51.000    20558710.008 8  84184540.606 8      -883.685          50.000
G20  22675546.656 7 119160848.930 7      2918.895          43.000    22675550.258 7  92852612.609 7      2274.466          43.000
G21  20908391.953 8 109874371.100 8     -1093.008          48.000    20908391.734 8  85616440.068 8      -851.694          48.000
G26  20278476.820 8 106564123.096 8       147.793          51.000    20278479.273 8  83036975.961 8       115.163          51.000
R09  22515923.484 6 120233754.263 6     -4403.223          37.000
R10  20056647.281 7 106913224.208 7     -2584.949          47.000
C27  24474232.102 4 127443733.652 4     -2574.332          29.000
C29  23341152.680 5 121543518.921 5      2031.801          31.000
C30  21595465.773 8 112453332.598 8      -508.430          51.000
E13  23252000.875 8 122190113.813 8      -678.207          50.000    23252003.766 8  93626270.444 8      -519.635          51.000
E21  23705396.219 8 124572697.895 8      -966.871          51.000    23705398.258 8  95451809.641 8      -740.855          51.000
E26  23725925.414 8 124680578.575 8      1865.086          51.000    23725928.648 8  95534554.151 8      1429.071          51.000
E27  26364407.219 7 138545856.397 7     -2965.230          44.000    26364410.469 7 106158521.766 7     -2271.985          42.000
> 2020 05 02 14 32  0.0000000  0 12        .000000000000
G18  20565217.336 8 108071034.836 8     -1156.082          51.000    20565217.172 8  84211187.239 8      -900.843          50.000
G20  22658895.844 7 119073348.987 7      2904.250          44.000    22658898.867 7  92784430.885 7      2263.055          43.000
G21  20914655.719 8 109907287.228 8     -1111.551          48.000    20914655.484 8  85642088.995 8      -866.143          48.000
G26  20277668.586 8 106559875.039 8       125.090          51.000    20277670.727 8  83033665.787 8        97.476          51.000
R09  22540666.289 6 120365880.945 6     -4415.930          37.000
R10  20071242.703 7 106991029.974 7     -2612.512          46.000
C27  24489042.969 6 127520911.948 6     -2581.527          37.000
C30  21598405.594 8 112468640.529 8      -522.398          51.000
E13  23255884.008 8 122210519.957 8      -692.613          50.000    23255887.023 8  93641906.305 8      -530.662          51.000
E21  23710939.758 8 124601826.534 8      -985.438          51.000    23710941.680 8  95474128.968 8      -755.046          51.000
E26  23715286.711 8 124624671.058 8      1851.727          50.000    23715290.016 8  95491715.934 8      1418.837          51.000
E27  26381335.016 7 138634813.111 7     -2975.715          43.000    26381334.562 6 106226683.235 6     -2279.967          38.000
> 2020 05 02 14 32 30.0000000  0 12        .000000000000
G18  20571844.266 8 108105859.099 8     -1166.742          51.000    20571844.055 8  84238323.040 8      -909.150          51.000
G20  22642323.641 7 118986258.472 7      2900.781          46.000    22642324.250 6  92716568.154 6      2260.352          40.000
G21  20921018.828 8 109940724.857 8     -1118.742          50.000    20921018.461 8  85668144.294 8      -871.747          50.000
G26  20276984.680 8 106556280.585 8       113.461          51.000    20276986.578 8  83030864.917 8        88.411          51.000
R09  22565474.344 5 120498356.967 5     -4417.273          34.000
R10  20085987.680 7 107069631.628 7     -2628.820          47.000
C27  24503897.406 6 127598285.707 6     -2577.684          37.000
C30  21601419.938 8 112484336.680 8      -525.262          51.000
E13  23259843.727 8 122231328.297 8      -695.785          51.000    23259846.680 8  93657850.363 8      -533.155          51.000
E21  23716583.492 8 124631483.096 8      -992.926          51.000    23716585.664 8  95496852.813 8      -760.759          51.000
E26  23704718.367 8 124569137.699 8      1849.371          49.000    23704722.695 8  95449164.396 8      1417.045          51.000
E27  26398317.312 6 138724054.816 6     -2975.078          41.000    26398314.961 6 106295063.072 6     -2279.426          39.000
> 2020 05 02 14 33  0.0000000  0 14        .000000000000
G18  20578553.461 8 108141115.684 8     -1183.840          51.000    20578553.031 8  84265795.693 8      -922.476          49.000
G20  22625793.312 8 118899386.429 8      2890.703          48.000    22625790.555 6  92648875.715 6      2252.499          36.000
G21  20927444.086 8 109974488.743 8     -1132.309          50.000    20927443.375 8  85694453.813 8      -882.318          50.000
G26  20276388.328 8 106553146.692 8        95.348          51.000    20276390.328 8  83028422.911 8        74.297          51.000
R09  22590309.117 5 120630981.865 5     -4424.324          34.000    22590325.883 4  93824175.724 4     -3441.141          27.000
R10  20100845.359 8 107148829.378 8     -2651.238          48.000
R21  20496398.477 4 109680367.586 4      1895.793          27.000
C27  24518755.312 5 127675661.884 5     -2580.840          35.000
C29  23306179.836 5 121361394.611 5      2012.273          32.000
C30  21604471.859 8 112500228.405 8      -534.367          51.000
E13  23263843.055 8 122252344.048 8      -705.344          51.000    23263845.477 8  93673953.341 8      -540.518          51.000
E21  23722290.383 8 124661473.670 8     -1006.660          51.000    23722292.898 8  95519832.570 8      -771.337          51.000
E26  23694184.828 8 124513784.865 8      1840.609          51.000    23694189.719 8  95406751.198 8      1410.391          51.000
E27  26415316.773 6 138813386.419 6     -2980.547          40.000    26415316.289 7 106363511.862 7     -2283.873          42.000
> 2020 05 02 14 33 30.0000000  0 13        .000000000000
G18  20585349.328 8 108176828.133 8     -1201.309          51.000    20585348.562 8  84293623.582 8      -936.085          49.000
G20  22609309.859 8 118812761.082 8      2880.121          48.000    22609302.703 5  92581375.533 5      2244.253          35.000
G21  20933935.969 8 110008602.526 8     -1146.273          51.000    20933934.992 8  85721035.988 8      -893.200          50.000
G26  20275884.578 8 106550499.368 8        76.867          51.000    20275886.633 8  83026360.055 8        59.897          51.000
R09  22615177.172 6 120763777.441 6     -4432.902          37.000    22615191.898 4  93927465.115 4     -3447.813          26.000
R10  20115819.414 8 107228645.916 8     -2674.156          51.000
C27  24533621.477 5 127753064.689 5     -2583.633          33.000
C29  23294590.883 5 121301060.649 5      2004.500          32.000
C30  21607566.023 8 112516340.125 8      -543.945          51.000
E13  23267886.531 8 122273591.483 8      -715.316          51.000    23267888.461 8  93690233.843 8      -548.159          51.000
E21  23728065.430 8 124691823.278 8     -1020.938          51.000    23728068.125 8  95543087.453 8      -782.298          51.000
E26  23683690.945 8 124458638.005 8      1831.488          51.000    23683696.219 8  95364495.841 8      1403.312          51.000
E27  26432336.641 6 138902831.913 6     -2986.926          39.000    26432339.977 7 106432047.988 7     -2288.528          44.000
> 2020 05 02 14 34  0.0000000  0 15        .000000000000
G18  20592238.633 8 108213031.917 8     -1213.969          51.000    20592238.086 8  84321834.315 8      -945.950          50.000
G20  22592880.781 8 118726422.538 8      2874.242          49.000    22592873.039 6  92514098.813 6      2239.672          36.000
G21  20940501.125 8 110043101.562 8     -1155.359          51.000    20940499.938 8  85747918.362 8      -900.280          50.000
G26  20275480.625 8 106548376.429 8        62.969          51.000    20275482.672 8  83024705.814 8        49.067          51.000
R09  22640083.906 6 120896778.092 6     -4435.445          36.000    22640095.609 4  94030888.919 4     -3449.794          29.000
R10  20130916.430 8 107309116.143 8     -2692.207          51.000
R21  20475277.953 5 109567350.286 5      1872.074          32.000
C27  24548502.016 5 127830530.170 5     -2582.227          32.000
C29  23283039.188 4 121240921.098 4      2002.199          28.000
C30  21610709.367 8 112532707.950 8      -548.867          51.000
E13  23271980.945 8 122295106.699 8      -720.664          51.000    23271982.680 8  93706719.526 8      -552.143          51.000
E15  26320690.664 6 138316159.335 6     -2543.277          36.000
E21  23733916.023 8 124722568.866 8     -1030.457          51.000    23733918.555 8  95566645.749 8      -789.550          51.000
E26  23673243.469 8 124403734.431 8      1827.113          51.000    23673249.023 8  95322426.879 8      1399.993          51.000
E27  26449384.508 6 138992427.194 6     -2988.195          38.000    26449391.406 7 106500698.882 7     -2289.468          46.000
> 2020 05 02 14 34 30.0000000  0 14        .000000000000
G18  20599212.078 8 108249677.958 8     -1232.145          51.000    20599211.852 8  84350389.685 8      -960.113          50.000
G20  22576497.617 8 118640326.274 8      2862.648          48.000    22576491.914 6  92447010.887 6      2230.638          40.000
G21  20947130.234 8 110077936.995 8     -1170.047          51.000    20947128.727 8  85775062.861 8      -911.725          50.000
G26  20275167.516 8 106546731.233 8        43.699          51.000    20275169.539 8  83023423.846 8        34.051          51.000
G29  23190763.945 5 121868269.096 5     -2739.590          34.000    23190757.234 5  94962277.245 5     -2134.745          30.000
R09  22665019.914 5 121029931.775 5     -4444.145          35.000    22665029.961 5  94134452.761 5     -3456.563          33.000
R10  20146126.070 8 107390188.840 8     -2715.684          51.000
C27  24563382.305 5 127908010.909 5     -2585.535          32.000
C30  21613892.680 8 112549284.339 8      -559.223          51.000
E13  23276117.078 8 122316841.323 8      -731.457          51.000    23276118.727 8  93723373.355 8      -560.422          51.000
E15  26335213.781 6 138392480.440 6     -2547.504          36.000
E21  23739832.727 8 124753662.860 8     -1045.527          51.000    23739835.312 8  95590471.005 8      -801.142          51.000
E26  23662833.094 8 124349026.997 8      1816.977          51.000    23662838.906 8  95280508.213 8      1392.280          51.000
E27  26466452.203 6 139082123.621 6     -2994.535          38.000    26466461.188 7 106569427.286 7     -2294.798          46.000
> 2020 05 02 14 35  0.0000000  0 13        .000000000000
G18  20606293.734 8 108286892.982 8     -1249.883          51.000    20606293.609 8  84379388.406 8      -973.938          50.000
G20  22560185.219 8 118554603.400 8      2851.156          48.000    22560181.961 7  92380213.903 7      2221.680          42.000
G21  20953847.281 8 110113235.076 8     -1184.188          51.000    20953845.609 8  85802567.863 8      -922.744          50.000
G26  20274969.727 8 106545693.002 8        24.434          51.000    20274972.008 8  83022614.814 8        19.036          51.000
R04  22961134.305 5 122955824.335 5       845.082          35.000    22961136.406 4  95632321.960 4       657.286          28.000
R09  22690008.336 6 121163365.602 6     -4452.309          36.000    22690017.156 5  94238234.538 5     -3462.913          35.000
R10  20161471.867 8 107471991.458 8     -2738.820          49.000
C30  21617140.297 8 112566195.902 8      -569.312          51.000
E13  23280319.109 8 122338922.820 8      -741.715          51.000    23280320.625 8  93740292.952 8      -568.306          51.000
E15  26349761.828 6 138468931.853 6     -2550.625          36.000
E21  23745839.891 8 124785233.502 8     -1060.176          51.000    23745842.773 8  95614661.465 8      -812.345          51.000
E26  23652484.352 8 124294644.316 8      1807.426          51.000    23652489.805 8  95238838.400 8      1384.926          51.000
E27  26483564.227 6 139172048.378 6     -3001.137          39.000    26483573.695 7 106638330.607 7     -2299.494          47.000
> 2020 05 02 14 35 30.0000000  0 13        .000000000000
G18  20613462.188 8 108324563.958 8     -1263.664          51.000    20613462.336 8  84408742.425 8      -984.673          50.000
G20  22543923.070 7 118469145.762 7      2843.676          47.000    22543921.781 7  92313623.605 7      2215.854          44.000
G21  20960630.953 8 110148883.535 8     -1194.379          51.000    20960629.492 8  85830345.895 8      -930.682          50.000
G26  20274866.500 8 106545151.015 8         9.480          51.000    20274868.812 8  83022192.481 8         7.387          51.000
R04  22956454.258 5 122930774.109 5       823.348          31.000    22956457.484 4  95612838.069 4       640.385          29.000
R09  22715026.016 5 121296962.551 5     -4456.852          30.000    22715034.930 6  94342143.170 6     -3466.443          37.000
R10  20176932.773 8 107554408.012 8     -2757.664          48.000
C30  21620430.883 8 112583331.760 8      -575.195          51.000
E13  23284565.594 8 122361238.903 8      -748.000          51.000    23284566.992 8  93757392.290 8      -573.176          51.000
E15  26364313.055 5 138545401.444 5     -2549.707          34.000
E21  23751916.625 8 124817169.289 8     -1070.953          51.000    23751919.742 8  95639131.726 8      -820.511          51.000
E26  23642175.945 8 124240475.235 8      1801.754          51.000    23642180.289 8  95197332.283 8      1380.607          51.000
E27  26500698.992 6 139262088.836 6     -3003.504          40.000    26500707.812 7 106707322.614 7     -2301.422          47.000
> 2020 05 02 14 36  0.0000000  0 13        .000000000000
G18  20620715.109 8 108362678.407 8     -1278.836          51.000    20620715.398 8  84438441.995 8      -996.492          50.000
G20  22527709.711 8 118383945.089 8      2834.633          48.000    22527709.500 7  92247233.513 7      2208.805          45.000
G21  20967478.836 8 110184869.384 8     -1206.105          51.000    20967477.469 8  85858386.823 8      -939.822          49.000
G26  20274855.930 8 106545095.198 8        -7.238          51.000    20274858.305 8  83022148.981 8        -5.640          51.000
R04  22951904.680 5 122906416.622 5       799.312          33.000    22951910.344 4  95593893.446 4       621.691          28.000
R10  20192506.008 8 107637424.410 8     -2778.266          48.000
C27  24608127.266 5 128140966.705 5     -2590.660          30.000
C29  23237217.844 5 121002284.583 5      1976.047          32.000
C30  21623762.406 8 112600680.578 8      -582.863          51.000
E13  23288854.445 8 122383777.753 8      -755.977          51.000    23288855.758 8  93774662.325 8      -579.261          51.000
E21  23758060.992 8 124849459.167 8     -1083.207          51.000    23758064.086 8  95663873.313 8      -830.014          51.000
E26  23631905.922 8 124186509.218 8      1794.434          51.000    23631909.180 8  95155981.749 8      1374.989          51.000
E27  26517854.133 6 139352232.988 6     -3007.574          41.000    26517861.898 8 106776394.037 8     -2304.442          48.000
> 2020 05 02 14 36 30.0000000  0 14        .000000000000
G18  20628091.031 8 108401439.125 8     -1294.770          51.000    20628091.367 8  84468645.156 8     -1008.911          50.000
G20  22511584.836 8 118299208.943 8      2824.773          48.000    22511585.227 7  92181205.383 7      2201.125          45.000
G21  20974429.602 8 110221396.032 8     -1218.602          51.000    20974428.023 8  85886849.148 8      -949.560          49.000
G26  20274976.812 8 106545730.773 8       -24.695          51.000    20274979.273 8  83022644.212 8       -19.243          51.000
R04  22947524.656 6 122882962.083 6       774.770          36.000    22947530.141 4  95575651.015 4       602.599          27.000
R09  22765186.547 5 121564900.723 5     -4467.539          32.000    22765193.148 6  94550468.064 6     -3474.759          37.000
R10  20208230.539 8 107721245.304 8     -2799.266          49.000
R21  20423781.188 5 109291867.300 5      1804.285          33.000    20423781.977 4  85004765.274 4      1403.327          28.000
C29  23225873.328 6 120943245.433 6      1970.008          37.000
C30  21627173.859 8 112618444.452 8      -591.160          51.000
E13  23293224.570 8 122406742.928 8      -764.668          51.000    23293225.836 8  93792259.018 8      -585.950          51.000
E21  23764311.672 8 124882307.488 8     -1096.316          51.000    23764314.602 8  95689042.792 8      -840.044          51.000
E26  23621713.539 8 124132951.021 8      1786.418          51.000    23621716.906 8  95114943.663 8      1368.772          51.000
E27  26535068.250 6 139442684.047 6     -3012.164          41.000    26535074.414 7 106845700.631 7     -2308.052          47.000
> 2020 05 02 14 37  0.0000000  0 15        .000000000000
G18  20635506.195 8 108440405.578 8     -1312.383          51.000    20635506.711 8  84499008.616 8     -1022.636          51.000
G20  22495465.219 7 118214501.885 7      2812.883          47.000    22495466.141 7  92115199.901 7      2191.857          45.000
G21  20981399.328 8 110258022.188 8     -1232.668          51.000    20981397.680 8  85915389.023 8      -960.517          50.000
G26  20275145.914 8 106546619.512 8       -43.910          51.000    20275148.219 8  83023336.741 8       -34.216          51.000
G29  23269210.273 5 122280536.000 5     -2758.234          34.000
G31  23810825.172 5 125126733.131 5     -3277.383          34.000    23810822.070 5  97501339.579 5     -2553.811          34.000
R04  22943229.672 5 122859965.215 5       748.820          35.000    22943235.102 4  95557764.612 4       582.419          27.000
R09  22790283.711 5 121698902.792 5     -4475.781          34.000    22790287.586 6  94654691.699 6     -3481.169          37.000
R10  20224022.383 8 107805422.511 8     -2822.062          49.000
C29  23214520.094 6 120884129.239 6      1961.438          36.000
C30  21630581.344 8 112636187.927 8      -601.098          51.000
E13  23297592.102 8 122429694.595 8      -774.883          51.000    23297593.430 8  93809845.354 8      -593.714          51.000
E21  23770585.289 8 124915275.161 8     -1110.957          51.000    23770587.922 8  95714303.701 8      -851.277          51.000
E26  23611516.008 8 124079361.919 8      1776.797          51.000    23611519.852 8  95073881.876 8      1361.415          51.000
E27  26552256.734 7 139533001.921 7     -3018.473          42.000    26552261.445 7 106914905.163 7     -2312.742          47.000
> 2020 05 02 14 37 30.0000000  0 16        .000000000000
G18  20643040.773 8 108479999.922 8     -1324.457          51.000    20643041.289 8  84529861.370 8     -1032.041          50.000
G20  22479431.656 7 118130250.495 7      2806.742          44.000    22479433.688 7  92049549.471 7      2187.072          44.000
G21  20988468.406 8 110295170.449 8     -1241.238          51.000    20988466.859 8  85944335.736 8      -967.199          49.000
G26  20275443.898 8 106548186.067 8       -57.711          51.000    20275446.250 8  83024557.421 8       -44.970          51.000
G29  23284964.141 5 122363321.232 5     -2758.047          33.000
G31  23829544.836 5 125225103.190 5     -3277.738          34.000    23829544.078 5  97577999.356 5     -2554.085          33.000
R04  22939101.469 5 122837859.724 5       727.684          34.000    22939107.711 5  95540571.429 5       565.976          30.000
R09  22815443.641 6 121833235.342 6     -4477.234          36.000    22815443.625 6  94759172.362 6     -3482.299          36.000
R10  20239961.156 8 107890382.706 8     -2839.109          49.000
C27  24652959.883 5 128374435.526 5     -2593.512          31.000
C29  23203233.914 5 120825356.103 5      1958.844          33.000
C30  21634065.344 8 112654330.492 8      -605.723          51.000
E13  23302037.562 8 122453055.753 8      -779.750          51.000    23302038.836 8  93827745.458 8      -597.450          51.000
E21  23776962.664 8 124948785.894 8     -1120.355          51.000    23776964.844 8  95739980.738 8      -858.442          51.000
E26  23601393.977 8 124026166.031 8      1772.395          51.000    23601398.078 8  95033121.395 8      1358.066          51.000
E27  26569499.977 6 139623609.309 6     -3019.539          41.000    26569503.945 7 106984331.535 7     -2313.496          47.000
> 2020 05 02 14 38  0.0000000  0 15        .000000000000
G18  20650655.445 8 108520015.000 8     -1343.645          51.000    20650656.008 8  84561041.958 8     -1046.996          50.000
G20  22463445.883 7 118046251.525 7      2792.711          42.000    22463449.102 7  91984095.728 7      2176.138          42.000
G21  20995597.414 8 110332633.689 8     -1256.867          51.000    20995595.922 8  85973527.871 8      -979.377          49.000
G26  20275831.914 8 106550225.596 8       -78.637          51.000    20275834.398 8  83026146.650 8       -61.275          51.000
G31  23848276.703 5 125323544.127 5     -3284.664          34.000    23848277.797 5  97654710.213 5     -2559.485          33.000
R04  22935100.219 5 122816437.861 5       699.445          33.000    22935108.547 5  95523909.967 5       544.013          31.000
R09  22840623.750 6 121967686.173 6     -4486.293          36.000    22840622.070 5  94863745.006 5     -3489.348          35.000
R10  20256007.094 8 107975914.651 8     -2863.520          50.000
C27  24667915.391 5 128452322.503 5     -2598.844          32.000
C29  23191977.305 5 120766722.857 5      1949.715          31.000
C30  21637586.867 8 112672667.981 8      -617.273          51.000
E13  23306521.836 8 122476619.935 8      -791.645          51.000    23306522.781 8  93845801.134 8      -606.597          51.000
E21  23783404.172 8 124982633.990 8     -1136.695          51.000    23783405.930 8  95765916.277 8      -870.980          51.000
E26  23591307.828 8 123973158.088 8      1760.973          51.000    23591311.711 8  94992504.949 8      1349.323          51.000
E27  26586758.734 7 139714299.408 7     -3027.262          42.000    26586762.523 7 107053821.291 7     -2319.491          47.000
> 2020 05 02 14 38 30.0000000  0 13        .000000000000
G18  20658389.477 8 108560657.350 8     -1356.465          51.000    20658390.180 8  84592711.329 8     -1056.986          50.000
G20  22447548.852 6 117962716.503 6      2785.152          40.000    22447552.711 6  91919003.578 6      2170.252          40.000
G21  21002825.742 8 110370618.615 8     -1266.152          51.000    21002824.203 8  86003126.529 8      -986.612          49.000
G26  20276349.867 8 106552946.999 8       -93.336          51.000    20276352.148 8  83028267.223 8       -72.729          51.000
G31  23867059.727 6 125422271.830 6     -3286.230          37.000    23867063.336 6  97731629.748 6     -2560.699          37.000
R04  22931272.047 5 122795910.626 5       678.043          30.000    22931276.555 5  95507945.658 5       527.370          31.000
R09  22865864.359 5 122102463.288 5     -4489.844          32.000    22865862.289 5  94968571.409 5     -3492.110          35.000
R10  20272199.172 8 108062226.630 8     -2881.254          49.000
C30  21641185.328 8 112691406.218 8      -622.625          51.000
E13  23311084.133 8 122500594.490 8      -797.262          51.000    23311084.930 8  93864171.247 8      -610.889          51.000
E21  23789949.305 8 125017027.528 8     -1146.832          51.000    23789950.766 8  95792269.749 8      -878.750          51.000
E26  23581296.797 8 123920546.626 8      1755.875          51.000    23581299.914 8  94952192.303 8      1345.384          51.000
E27  26604072.406 7 139805279.331 7     -3028.809          42.000    26604076.219 7 107123533.114 7     -2320.698          46.000
> 2020 05 02 14 39  0.0000000  0 14        .000000000000
G18  20666162.188 8 108601503.157 8     -1372.586          51.000    20666162.727 8  84624539.251 8     -1069.547          50.000
G20  22431661.117 7 117879226.481 7      2774.648          42.000    22431664.078 7  91853946.441 7      2162.067          42.000
G21  21010072.719 8 110408701.713 8     -1278.676          51.000    21010071.281 8  86032801.674 8      -996.371          49.000
G26  20276917.352 8 106555928.862 8      -111.438          51.000    20276919.516 8  83030590.747 8       -86.834          51.000
G31  23885813.859 6 125520838.047 6     -3290.254          39.000    23885818.297 6  97808434.512 6     -2563.834          39.000
R04  22927526.109 5 122775855.356 5       652.918          34.000    22927531.594 5  95492347.164 5       507.828          32.000
R09  22891085.914 5 122237134.115 5     -4495.320          33.000    22891082.992 5  95073315.122 5     -3496.366          33.000
R10  20288455.992 8 108148887.124 8     -2902.340          48.000
C27  24697868.445 5 128608259.493 5     -2600.426          34.000
C30  21644780.188 8 112710126.431 8      -631.309          51.000
E13  23315643.922 8 122524556.430 8      -806.176          51.000    23315644.789 8  93882531.703 8      -617.722          51.000
E21  23796517.898 8 125051544.130 8     -1160.293          51.000    23796519.367 8  95818717.541 8      -889.014          51.000
E26  23571280.492 8 123867909.779 8      1747.332          51.000    23571282.492 8  94911860.219 8      1338.880          51.000
E27  26621360.531 6 139896125.780 6     -3033.844          41.000    26621364.203 7 107193142.652 7     -2324.568          44.000
> 2020 05 02 14 39 30.0000000  0 14        .000000000000
G18  20674055.219 8 108642980.937 8     -1389.895          51.000    20674055.703 8  84656859.589 8     -1083.035          50.000
G20  22415865.000 7 117796214.497 7      2762.293          46.000    22415866.953 7  91789261.814 7      2152.436          44.000
G21  21017419.891 8 110447311.354 8     -1292.562          51.000    21017418.688 8  86062887.119 8     -1007.192          49.000
G26  20277616.336 8 106559601.972 8      -130.805          51.000    20277618.625 8  83033452.907 8      -101.926          51.000
G31  23904621.047 6 125619678.939 6     -3295.875          37.000    23904625.719 6  97885453.319 6     -2568.217          39.000
R04  22923948.219 4 122756709.124 4       626.688          28.000    22923956.938 5  95477455.721 5       487.424          33.000
R09  22916368.625 5 122372132.470 5     -4502.188          33.000    22916365.062 4  95178313.592 4     -3501.707          27.000
R10  20304859.164 8 108236329.745 8     -2924.410          48.000
C27  24712865.359 5 128686355.862 5     -2603.613          32.000
C30  21648453.492 8 112729254.348 8      -641.160          51.000
E13  23320283.000 8 122548934.968 8      -816.375          51.000    23320283.797 8  93901211.366 8      -625.588          51.000
E21  23803191.641 8 125086613.758 8     -1175.020          51.000    23803193.477 8  95845589.088 8      -900.352          51.000
E26  23561340.758 8 123815677.913 8      1737.480          51.000    23561341.875 8  94871838.435 8      1331.328          51.000
E27  26638704.703 6 139987267.676 6     -3039.797          39.000    26638708.430 7 107262978.554 7     -2329.150          43.000
> 2020 05 02 14 40  0.0000000  0 12        .000000000000
G18  20682057.039 8 108685030.902 8     -1404.016          50.000    20682057.539 8  84689625.809 8     -1094.038          49.000
G20  22400149.555 8 117713625.364 8      2753.027          48.000    22400150.703 7  91724906.700 7      2145.216          43.000
G21  21024855.789 8 110486387.559 8     -1303.094          51.000    21024854.656 8  86093336.112 8     -1015.398          48.000
G26  20278436.023 8 106563908.938 8      -147.062          51.000    20278438.227 8  83036808.981 8      -114.594          51.000
G31  23923468.930 6 125718733.869 6     -3298.602          37.000    23923472.992 6  97962638.845 6     -2570.342          37.000
R09  22941700.586 5 122507395.374 5     -4505.453          34.000    22941698.273 4  95283517.900 4     -3504.250          29.000
R10  20321397.812 8 108324491.940 8     -2943.492          48.000
C30  21652193.977 8 112748731.933 8      -647.969          51.000
E13  23324990.047 8 122573671.169 8      -823.305          51.000    23324990.656 8  93920165.065 8      -630.805          51.000
E21  23809959.211 8 125122178.183 8     -1186.496          51.000    23809961.609 8  95872839.755 8      -909.139          51.000
E26  23551466.719 8 123763793.247 8      1730.949          51.000    23551468.344 8  94832082.673 8      1326.327          51.000
E27  26656094.148 6 140078645.761 6     -3042.434          40.000    26656097.844 6 107332995.443 6     -2331.350          40.000
> 2020 05 02 14 40 30.0000000  0 13        .000000000000
G18  20690096.719 8 108727280.232 8     -1420.504          51.000    20690097.289 8  84722547.360 8     -1106.886          48.000
G20  22384444.336 8 117631090.952 8      2741.309          49.000    22384444.789 7  91660594.207 7      2136.088          44.000
G21  21032309.555 8 110525557.732 8     -1316.156          51.000    21032308.297 8  86123858.320 8     -1025.576          48.000
G26  20279305.898 8 106568479.257 8      -165.703          51.000    20279308.055 8  83040370.274 8      -129.119          51.000
G31  23942287.555 6 125817628.874 6     -3302.797          38.000    23942290.945 6  98039699.772 6     -2573.608          38.000
R10  20338000.695 8 108412994.641 8     -2964.770          48.000
R21  20345273.141 5 108871665.062 5      1696.590          33.000
C27  24742878.094 6 128842633.546 6     -2606.621          38.000
C30  21655930.820 8 112768190.954 8      -657.262          51.000
E13  23329694.375 8 122598393.004 8      -832.754          51.000    23329694.984 8  93939107.771 8      -638.108          51.000
E21  23816749.945 8 125157866.119 8     -1200.676          50.000    23816753.133 8  95900185.049 8      -919.965          51.000
E26  23541588.211 8 123711884.894 8      1721.711          51.000    23541590.742 8  94792308.762 8      1319.227          51.000
E27  26673457.867 6 140169887.753 6     -3048.262          37.000    26673461.586 6 107402908.056 6     -2335.639          37.000
> 2020 05 02 14 41  0.0000000  0 13        .000000000000
G18  20698274.539 8 108770255.448 8     -1432.090          50.000    20698275.141 8  84756034.529 8     -1115.914          48.000
G20  22368850.203 7 117549142.566 7      2734.441          47.000    22368850.922 7  91596738.352 7      2130.734          45.000
G21  21039881.484 8 110565348.640 8     -1324.160          51.000    21039880.297 8  86154864.218 8     -1031.810          48.000
G26  20280326.484 8 106573841.805 8      -179.438          51.000    20280328.648 8  83044548.873 8      -139.821          51.000
G31  23961175.625 6 125916889.625 6     -3302.266          38.000    23961179.242 6  98117045.682 6     -2573.194          38.000
R10  20354767.469 8 108502370.033 8     -2980.930          48.000
C27  24757925.820 5 128920984.163 5     -2605.051          31.000
C29  23125247.375 5 120419221.290 5      1914.867          31.000
C30  21659764.688 8 112788154.304 8      -661.398          51.000
E13  23334496.453 8 122623627.830 8      -837.184          51.000    23334497.344 8  93958443.553 8      -641.463          51.000
E21  23823665.023 8 125194205.449 8     -1209.609          51.000    23823668.516 8  95928029.490 8      -926.900          51.000
E26  23531806.266 8 123660481.315 8      1717.559          51.000    23531808.969 8  94752921.628 8      1316.066          51.000
E27  26690896.055 5 140261520.661 5     -3048.414          34.000    26690900.195 5 107473194.232 5     -2335.825          30.000
> 2020 05 02 14 41 30.0000000  0 14        .000000000000
G18  20706507.039 8 108813517.884 8     -1450.242          50.000    20706507.375 7  84789745.524 7     -1130.059          47.000
G20  22353284.688 8 117467346.002 8      2720.699          48.000    22353286.047 7  91533000.820 7      2120.028          45.000
G21  21047488.211 8 110605322.401 8     -1338.930          51.000    21047486.922 8  86186012.610 8     -1043.322          48.000
G26  20281414.734 8 106579560.248 8      -199.918          51.000    20281417.000 8  83049004.800 8      -155.780          51.000
G31  23980049.492 6 126016076.541 6     -3308.137          37.000    23980053.242 6  98194334.064 6     -2577.775          37.000
R10  20371614.383 8 108592172.316 8     -3004.012          50.000
R21  20326398.391 4 108770673.852 4      1671.297          29.000
C27  24772952.898 5 128999261.532 5     -2608.645          34.000
C29  23114240.242 5 120361916.687 5      1905.836          30.000
C30  21663612.461 8 112808188.603 8      -672.289          51.000
E13  23339313.000 8 122648937.849 8      -848.301          51.000    23339314.102 8  93977836.950 8      -650.012          51.000
E21  23830621.172 8 125230759.065 8     -1225.391          51.000    23830624.562 8  95956038.139 8      -938.930          51.000
E26  23522037.727 8 123609145.864 8      1706.703          51.000    23522039.703 8  94713586.711 8      1307.701          51.000
E27  26708325.758 5 140353197.444 5     -3055.305          34.000
> 2020 05 02 14 42  0.0000000  0 14        .000000000000
G18  20714816.734 8 108857185.422 8     -1457.387          49.000    20714816.906 8  84823772.167 8     -1135.626          48.000
G20  22337771.391 8 117385823.423 8      2717.809          49.000    22337772.680 7  91469476.768 7      2117.776          45.000
G21  21055152.008 8 110645595.795 8     -1342.547          51.000    21055150.484 8  86217394.471 8     -1046.137          48.000
G26  20282593.578 8 106585754.716 8      -209.402          51.000    20282596.000 8  83053831.659 8      -163.171          51.000
G31  23998931.281 6 126115306.224 6     -3303.242          37.000    23998936.219 5  98271655.750 5     -2573.958          35.000
R10  20388563.344 8 108682519.144 8     -3015.551          50.000
R21  20317052.430 6 108720692.334 6      1666.004          36.000
C27  24787966.961 5 129077484.606 5     -2601.949          35.000
C29  23103263.938 5 120304756.158 5      1907.867          32.000
C30  21667496.359 8 112828411.815 8      -672.336          51.000
E13  23344166.453 8 122674441.688 8      -848.418          51.000    23344167.531 8  93997378.853 8      -650.092          51.000
E21  23837640.750 8 125267646.366 8     -1230.203          51.000    23837643.953 8  95984302.436 8      -942.659          51.000
E26  23512305.039 8 123557998.327 8      1706.730          51.000    23512306.328 8  94674395.774 8      1307.743          51.000
E27  26725769.078 5 140444862.296 5     -3050.828          33.000
> 2020 05 02 14 42 30.0000000  0 13        .000000000000
G18  20723230.461 8 108901399.651 8     -1482.820          49.000    20723230.523 7  84858224.815 7     -1155.444          47.000
G20  22322338.539 8 117304721.457 8      2696.402          51.000    22322339.102 7  91406280.437 7      2101.096          44.000
G21  21062899.969 8 110686311.445 8     -1364.445          51.000    21062898.445 8  86249120.966 8     -1063.201          48.000
G26  20283890.398 8 106592569.188 8      -237.348          51.000    20283892.867 8  83059141.629 8      -184.946          51.000
G31  24017848.227 5 126214719.502 5     -3316.426          35.000    24017854.336 5  98349120.550 5     -2584.234          34.000
R10  20405640.984 8 108773553.250 8     -3045.750          49.000
R21  20307807.281 5 108671177.921 5      1642.055          30.000
C27  24803007.648 6 129155844.495 6     -2614.020          38.000
C30  21671443.305 8 112848965.510 8      -690.516          51.000
E13  23349083.680 8 122700281.814 8      -866.812          51.000    23349084.820 8  94017178.438 8      -664.184          51.000
E21  23844750.633 8 125305010.417 8     -1253.281          51.000    23844753.875 8  96012932.004 8      -960.306          51.000
E26  23502635.336 8 123507182.298 8      1688.430          51.000    23502636.984 8  94635458.851 8      1293.705          51.000
E27                                                                  26743247.289 5 107683970.950 5     -2348.970          35.000
> 2020 05 02 14 43  0.0000000  0 12        .000000000000
G18  20731725.852 8 108946043.240 8     -1487.859          50.000    20731725.906 7  84893012.033 7     -1159.371          46.000
G20  22306964.555 8 117223927.496 8      2695.320          51.000    22306964.594 7  91343324.152 7      2100.250          44.000
G21  21070709.688 8 110727351.584 8     -1366.047          51.000    21070708.008 8  86281100.303 8     -1064.452          48.000
G26  20285283.203 8 106599888.568 8      -245.129          51.000    20285285.906 8  83064845.033 8      -191.010          51.000
G29  23459479.852 5 123280372.912 5     -2788.109          33.000    23459486.469 5  96062657.095 5     -2172.547          35.000
R10  20422824.820 8 108865153.605 8     -3055.293          48.000
C27  24818058.312 6 129234225.999 6     -2606.004          37.000
C30  21675431.672 8 112869734.666 8      -688.609          51.000
E13  23354042.812 8 122726341.756 8      -864.977          51.000    23354044.039 8  94037146.449 8      -662.780          51.000
E21  23851929.328 8 125342735.339 8     -1256.062          51.000    23851932.531 8  96041838.094 8      -962.464          51.000
E26  23493006.508 8 123456582.413 8      1690.465          51.000    23493009.289 8  94596687.530 8      1295.288          51.000
E27                                                                  26760749.438 6 107754438.800 6     -2344.355          36.000
> 2020 05 02 14 43 30.0000000  0 13        .000000000000
G18  20740298.070 8 108991090.018 8     -1511.574          49.000    20740297.789 7  84928113.396 7     -1177.850          46.000
G20  22291645.055 8 117143419.812 8      2675.410          51.000    22291644.297 7  91280590.961 7      2084.738          43.000
G21  21078576.258 8 110768690.238 8     -1386.277          51.000    21078574.336 7  86313312.245 7     -1080.216          47.000
G26  20286767.406 8 106607688.942 8      -271.441          51.000    20286770.375 8  83070923.243 8      -211.513          51.000
G29  23475443.859 5 123364276.558 5     -2801.254          34.000    23475456.812 5  96128036.357 5     -2182.801          33.000
R10  20440109.711 7 108957292.473 7     -3083.609          47.000
R21  20289509.039 5 108573265.112 5      1616.809          31.000
C27  24833112.297 5 129312604.424 5     -2616.043          32.000
C30  21679457.000 8 112890694.566 8      -705.066          51.000
E13  23359039.062 8 122752596.172 8      -881.703          51.000    23359040.477 8  94057263.467 8      -675.564          51.000
E21  23859172.195 8 125380796.358 8     -1277.633          51.000    23859175.383 8  96071001.714 8      -978.971          51.000
E26  23483413.766 8 123406174.391 8      1673.715          51.000    23483417.758 8  94558063.215 8      1282.484          51.000
E27  26778259.852 6 140720709.043 6     -3072.465          36.000    26778263.531 5 107824960.951 5     -2354.274          35.000
> 2020 05 02 14 44  0.0000000  0 13        .000000000000
G18  20748960.133 8 109036609.548 8     -1525.969          50.000    20748959.922 7  84963583.178 7     -1189.067          46.000
G20  22276393.633 8 117063272.730 8      2664.789          50.000    22276392.391 7  91218138.770 7      2076.462          43.000
G21  21086512.883 8 110810397.417 8     -1397.188          51.000    21086510.789 7  86345811.372 7     -1088.718          47.000
G26  20288356.719 8 106616042.249 8      -288.398          51.000    20288360.000 8  83077432.302 8      -224.726          51.000
R04  22897968.211 6 122617551.707 6       402.797          36.000
R10  20457508.930 7 109050038.918 7     -3102.430          47.000
C27  24848178.109 5 129391050.078 5     -2616.805          35.000
C29  23059776.266 4 120078305.796 4      1874.266          28.000
C30  21683532.570 8 112911915.493 8      -712.422          51.000
E13  23364085.430 8 122779115.560 8      -889.133          51.000    23364087.156 8  94077583.531 8      -681.290          51.000
E21  23866492.500 8 125419264.662 8     -1289.801          51.000    23866495.750 8  96100477.404 8      -988.310          51.000
E26  23473870.938 8 123356029.906 8      1666.262          51.000    23473875.602 8  94519640.826 8      1276.770          51.000
E27  26795802.031 6 140812887.574 6     -3075.723          38.000    26795802.836 5 107895591.173 5     -2356.663          30.000
> 2020 05 02 14 44 30.0000000  0 14        .000000000000
G18  20757715.094 8 109082617.112 8     -1540.645          49.000    20757714.977 7  84999433.226 7     -1200.502          47.000
G20  22261214.219 8 116983506.370 8      2653.496          48.000    22261213.094 7  91155983.234 7      2067.662          44.000
G21  21094522.594 8 110852488.709 8     -1408.328          51.000    21094520.422 8  86378609.789 8     -1097.399          48.000
G26  20290054.680 8 106624965.920 8      -306.031          51.000    20290058.086 8  83084385.822 8      -238.466          51.000
R04  22895786.477 6 122605850.572 6       377.859          37.000    22895784.531 4  95360123.223 4       293.894          29.000
R09  23170587.883 5 123729654.461 5     -4547.367          32.000    23170588.086 4  96234169.983 4     -3536.850          27.000
R10  20475024.695 8 109143406.915 8     -3121.590          48.000
R21  20271513.469 5 108476975.631 5      1590.438          30.000
C27  24863259.578 6 129469579.605 6     -2617.992          36.000
C30  21687661.227 8 112933413.734 8      -720.180          51.000
E13  23369185.227 8 122805915.984 8      -896.969          51.000    23369186.875 8  94098118.919 8      -687.279          51.000
E21  23873893.500 8 125458156.843 8     -1302.445          51.000    23873896.758 8  96130277.895 8      -997.933          51.000
E26  23464381.562 8 123306166.088 8      1658.551          50.000    23464386.141 8  94481433.508 8      1270.841          51.000
E27  26813374.477 6 140905222.875 6     -3079.434          41.000
> 2020 05 02 14 45  0.0000000  0 13        .000000000000
G18  20766548.758 8 109129038.448 8     -1555.137          49.000    20766548.188 7  85035605.713 7     -1211.795          45.000
G20  22246093.688 8 116904051.029 8      2642.449          48.000    22246092.469 7  91094070.034 7      2059.054          42.000
G21  21102591.062 8 110894889.089 8     -1419.430          50.000    21102589.133 8  86411649.048 8     -1106.049          49.000
G26  20291847.570 8 106634388.060 8      -323.293          51.000    20291851.016 8  83091727.747 8      -251.917          51.000
R04  22893735.328 6 122594871.121 6       352.668          37.000    22893732.297 4  95351583.712 4       274.300          25.000
R10  20492642.711 8 109237319.733 8     -3140.445          49.000
R21  20262622.984 4 108429402.102 4      1578.242          28.000
C27  24878345.336 5 129548120.629 5     -2619.164          32.000
C30  21691828.891 8 112955117.116 8      -727.785          51.000
E13  23374324.758 8 122832924.172 8      -904.652          51.000    23374326.156 8  94118813.497 8      -693.157          51.000
E21  23881361.203 8 125497400.201 8     -1314.828          51.000    23881364.484 8  96160347.473 8     -1007.457          51.000
E26  23454932.047 8 123256510.776 8      1650.781          50.000    23454936.312 8  94443385.949 8      1264.884          51.000
E27  26830962.047 6 140997641.316 6     -3082.879          40.000
> 2020 05 02 14 45 30.0000000  0 14        .000000000000
G18  20775469.555 8 109175917.654 8     -1568.297          48.000    20775469.008 7  85072134.949 7     -1222.050          47.000
G20  22231041.836 8 116824955.268 8      2632.570          48.000    22231040.531 7  91032436.975 7      2051.350          42.000
G21  21110726.750 8 110937643.388 8     -1429.156          49.000    21110725.289 8  86444964.090 8     -1113.628          49.000
G26  20293744.195 8 106644354.966 8      -339.367          51.000    20293747.633 8  83099494.159 8      -264.442          51.000
R04  22891827.430 6 122584661.474 6       329.324          37.000    22891826.914 4  95343645.818 4       256.138          29.000
R09  23221711.602 5 124002719.001 5     -4552.605          32.000    23221715.789 4  96446553.453 4     -3540.915          28.000
R10  20510371.070 8 109331820.556 8     -3157.785          49.000
R21  20253816.953 5 108382284.695 5      1566.203          33.000
C27  24893441.750 5 129626675.348 5     -2618.547          30.000
C30  21696044.492 8 112977070.560 8      -733.961          51.000
E13  23379512.281 8 122860185.041 8      -910.984          51.000    23379513.836 8  94139701.699 8      -698.051          51.000
E21  23888904.234 8 125537040.281 8     -1326.043          51.000    23888907.242 8  96190721.030 8     -1016.095          51.000
E26  23445531.195 8 123207109.960 8      1644.324          50.000    23445535.867 8  94405533.388 8      1259.997          51.000
E27  26848573.141 6 141090187.646 6     -3085.035          40.000
> 2020 05 02 14 46  0.0000000  0 14        .000000000000
G18  20784472.734 8 109223229.688 8     -1585.930          48.000    20784472.516 7  85109001.481 7     -1235.789          47.000
G20  22216054.570 8 116746198.857 8      2617.867          49.000    22216053.328 6  90971068.371 6      2039.893          40.000
G21  21118925.023 8 110980726.555 8     -1443.258          49.000    21118923.773 8  86478535.393 8     -1124.616          48.000
G26  20295740.258 8 106654843.858 8      -359.941          51.000    20295743.430 8  83107667.308 8      -280.474          51.000
G31  24150681.430 5 126912680.578 5     -3333.926          34.000
R04  22890060.453 6 122575199.052 6       301.215          37.000    22890061.680 5  95336286.191 5       234.281          33.000
R09  23247309.023 5 124139395.689 5     -4559.434          33.000    23247311.297 4  96552856.767 4     -3546.241          29.000
R10  20528204.195 8 109426882.420 8     -3179.785          48.000
C27  24908544.953 5 129705323.099 5     -2622.711          30.000
C30  21700303.805 8 112999250.610 8      -744.746          51.000
E13  23384743.227 8 122887674.485 8      -921.801          51.000    23384744.992 8  94160765.048 8      -706.306          51.000
E21  23896518.430 8 125577053.494 8     -1341.660          51.000    23896520.883 8  96221380.493 8     -1027.989          51.000
E26  23436174.688 8 123157940.600 8      1633.527          51.000    23436180.141 8  94367858.203 8      1251.643          51.000
E27  26866203.734 6 141182837.280 6     -3091.582          40.000    26866214.883 5 108179102.394 5     -2369.138          33.000
> 2020 05 02 14 46 30.0000000  0 14        .000000000000
G18  20793556.812 7 109270967.105 7     -1598.723          47.000    20793556.750 7  85146199.466 7     -1245.758          47.000
G20  22201131.773 8 116667779.077 8      2607.781          50.000    22201129.797 6  90909962.065 6      2032.037          41.000
G21  21127184.531 8 111024131.480 8     -1452.715          50.000    21127183.297 8  86512357.405 8     -1131.986          48.000
G26  20297834.742 8 106665849.455 8      -376.066          51.000    20297837.625 8  83116243.093 8      -293.039          51.000
G31  24169713.602 6 127012678.886 6     -3334.613          36.000    24169700.852 6  98970861.837 6     -2598.406          36.000
R04  22888432.344 6 122566478.956 6       277.574          36.000    22888434.297 5  95329504.022 5       215.894          33.000
R09  23272922.914 5 124276165.656 5     -4560.781          33.000    23272923.883 4  96659233.104 4     -3547.283          27.000
R10  20546140.805 8 109522496.143 8     -3196.906          49.000
C27  24923651.836 6 129783980.674 6     -2622.406          36.000
C30  21704605.602 8 113021651.139 8      -750.887          51.000
E13  23390016.547 8 122915385.899 8      -927.781          51.000    23390018.242 8  94181998.466 8      -710.831          51.000
E21  23904202.656 8 125617433.800 8     -1352.578          51.000    23904204.867 8  96252321.220 8     -1036.250          51.000
E26  23426861.500 8 123108997.250 8      1627.215          51.000    23426867.461 8  94330356.183 8      1246.887          51.000
E27  26883852.703 6 141275583.378 6     -3093.785          41.000    26883859.688 5 108250167.537 5     -2370.497          33.000
> 2020 05 02 14 47  0.0000000  0 15        .000000000000
G10  24463371.312 6 128555890.930 6      3501.121          36.000    24463376.359 6 100173432.729 6      2728.146          36.000
G18  20802727.938 8 109319161.495 8     -1614.332          48.000    20802727.984 7  85183753.528 7     -1257.924          47.000
G20  22186280.234 8 116589731.996 8      2595.180          51.000    22186278.289 7  90849146.209 7      2022.221          43.000
G21  21135511.375 8 111067889.873 8     -1464.609          49.000    21135510.156 8  86546454.852 8     -1141.254          49.000
G26  20300034.125 8 106677405.598 8      -394.473          51.000    20300036.633 8  83125247.877 8      -307.381          51.000
G31  24188761.430 6 127112762.797 6     -3336.910          36.000    24188747.711 5  99048849.172 5     -2600.199          35.000
R04  22886949.570 6 122558536.512 6       252.043          36.000    22886950.828 5  95323326.611 5       196.030          30.000
R09  23298559.977 5 124413059.767 5     -4565.832          34.000    23298558.031 4  96765706.040 4     -3551.215          26.000
R10  20564187.602 8 109618692.641 8     -3216.324          50.000
C27  24938768.234 6 129862697.874 6     -2625.031          37.000
C30  21708956.055 8 113044304.775 8      -759.426          51.000
E13  23395338.312 8 122943351.778 8      -936.488          51.000    23395340.016 8  94203426.887 8      -717.599          51.000
E21  23911962.906 8 125658214.304 8     -1366.188          51.000    23911965.281 8  96283568.586 8     -1046.786          51.000
E26  23417597.742 8 123060313.539 8      1618.387          51.000    23417603.195 8  94293053.111 8      1240.021          51.000
E27  26901525.875 6 141368458.088 6     -3098.102          41.000    26901528.211 5 108321331.223 5     -2373.517          34.000
> 2020 05 02 14 47 30.0000000  0 14        .000000000000
G10  24443401.039 5 128450938.571 5      3505.645          34.000    24443403.727 5 100091651.861 5      2731.680          34.000
G18  20811993.406 8 109367851.107 8     -1622.738          48.000    20811993.438 7  85221693.484 7     -1264.471          47.000
G20  22171507.930 8 116512100.711 8      2589.168          51.000    22171506.336 7  90788654.340 7      2017.533          44.000
G21  21143912.766 8 111112040.328 8     -1469.680          49.000    21143911.773 8  86580857.814 8     -1145.205          49.000
G26  20302345.945 8 106689552.785 8      -406.211          51.000    20302348.258 8  83134713.203 8      -316.528          51.000
G31  24207831.906 5 127212970.086 5     -3334.141          34.000    24207818.602 5  99126932.635 5     -2598.035          33.000
R04  22885620.367 5 122551413.706 5       232.527          32.000    22885618.930 4  95317786.565 4       180.855          26.000
R10  20582350.820 8 109715508.758 8     -3228.801          50.000
C27  24953903.211 5 129941513.965 5     -2620.480          34.000
C30  21713362.781 8 113067250.836 8      -761.258          51.000
E13  23400715.891 8 122971611.414 8      -938.281          51.000    23400717.719 8  94225080.388 8      -718.973          51.000
E21  23919806.852 8 125699434.735 8     -1372.770          51.000    23919809.508 8  96315153.027 8     -1051.814          51.000
E26  23408391.047 8 123011929.694 8      1616.363          51.000    23408395.008 8  94255979.815 8      1238.593          51.000
E27  26919230.883 6 141461500.259 6     -3095.547          41.000    26919232.062 6 108392623.199 6     -2372.017          36.000
> 2020 05 02 14 48  0.0000000  0 14        .000000000000
G18  20821325.242 8 109416890.277 8     -1646.961          48.000    20821325.367 7  85259905.824 7     -1283.343          47.000
G20  22156787.828 8 116434744.311 8      2567.441          51.000    22156786.391 7  90728376.671 7      2000.604          46.000
G21  21152361.109 8 111156437.141 8     -1490.441          50.000    21152360.258 8  86615452.719 8     -1161.386          49.000
G26  20304742.734 8 106702147.542 8      -433.816          51.000    20304744.914 8  83144527.289 8      -338.039          51.000
R09  23349893.609 5 124687103.446 5     -4574.969          30.000    23349896.203 4  96978877.992 4     -3558.318          27.000
R10  20600601.492 8 109812795.119 8     -3257.352          48.000
R21  20210898.812 5 108152578.578 5      1494.035          34.000
C27  24969030.328 4 130020286.006 4     -2631.676          28.000
C29  22974560.875 5 119634563.513 5      1818.051          30.000
C30  21717798.016 8 113090346.275 8      -778.766          51.000
E13  23406121.805 8 123000020.010 8      -955.738          51.000    23406123.578 8  94246848.014 8      -732.340          51.000
E21  23927707.102 8 125740950.827 8     -1395.125          51.000    23927709.922 8  96346964.032 8     -1069.001          51.000
E26  23399214.578 8 122963701.036 8      1598.629          51.000    23399216.977 8  94218948.178 8      1225.037          51.000
E27  26936939.992 6 141554564.859 6     -3109.012          40.000    26936941.852 6 108463932.377 6     -2382.086          36.000
> 2020 05 02 14 48 30.0000000  0 12        .000000000000
G18  20830775.695 8 109466552.246 8     -1658.328          49.000    20830775.750 7  85298603.468 7     -1292.204          47.000
G20  22142172.500 8 116357940.587 8      2558.172          51.000    22142171.328 7  90668529.663 7      1993.381          45.000
G21  21160908.469 8 111201353.658 8     -1498.566          48.000    21160907.625 8  86650452.599 8     -1167.714          48.000
G26  20307276.984 8 106715465.247 8      -448.586          51.000    20307279.094 8  83154904.711 8      -349.547          51.000
R09  23375618.086 5 124824458.375 5     -4576.973          30.000    23375620.023 5  97085709.437 5     -3559.877          30.000
R10  20618991.266 7 109910827.296 7     -3272.613          47.000
R21  20202573.211 5 108107997.358 5      1483.246          31.000
C30  21722314.016 8 113113863.165 8      -783.664          51.000
E13  23411608.234 8 123028851.737 8      -960.715          51.000    23411609.945 8  94268939.862 8      -736.168          51.000
E21  23935715.922 8 125783037.282 8     -1404.988          51.000    23935718.914 8  96379212.068 8     -1076.552          51.000
E26  23390119.289 8 122915904.813 8      1593.301          51.000    23390123.117 8  94182325.107 8      1220.886          51.000
E27  26954705.531 6 141647925.632 6     -3109.246          39.000    26954708.484 6 108535468.505 6     -2382.721          37.000
> 2020 05 02 14 49  0.0000000  0 11        .000000000000
G18  20840277.812 7 109516485.988 7     -1669.980          47.000    20840277.688 7  85337512.855 7     -1301.283          47.000
G20  22127596.250 8 116281342.844 8      2548.648          50.000    22127594.750 7  90608843.130 7      1985.960          45.000
G21  21169488.000 8 111246439.225 8     -1506.711          49.000    21169487.375 8  86685584.215 8     -1174.060          49.000
G26  20309882.477 8 106729157.039 8      -463.551          51.000    20309884.508 8  83165573.644 8      -361.208          51.000
G29  23652393.953 5 124294192.118 5     -2832.902          34.000
R10  20637454.125 8 110009248.273 8     -3288.113          48.000
C30  21726844.484 8 113137455.054 8      -788.648          51.000
E13  23417108.617 8 123057756.487 8      -965.828          51.000    23417110.430 8  94291087.660 8      -740.044          51.000
E21  23943766.797 8 125825344.462 8     -1415.043          51.000    23943769.820 8  96411629.250 8     -1084.349          51.000
E26  23381039.414 8 122868190.972 8      1587.957          51.000    23381044.500 8  94145765.157 8      1216.695          51.000
E27  26972461.109 6 141741232.230 6     -3110.453          38.000    26972464.984 6 108606963.106 6     -2383.310          38.000
> 2020 05 02 14 49 30.0000000  0 14        .000000000000
G18  20849820.031 7 109566630.989 7     -1689.965          47.000    20849820.039 7  85376586.914 7     -1316.856          46.000
G20  22113048.328 8 116204895.751 8      2530.668          48.000    22113047.227 7  90549274.001 7      1971.949          45.000
G21  21178088.320 8 111291633.875 8     -1523.355          49.000    21178087.945 8  86720800.821 8     -1187.030          49.000
G26  20312547.977 8 106743164.667 8      -487.289          51.000    20312550.344 8  83176488.675 8      -379.706          51.000
G29  23668546.523 5 124379057.675 5     -2841.270          33.000
R04  22881662.578 5 122530266.368 5       120.754          32.000    22881665.164 5  95301329.256 5        93.917          31.000
R09  23427019.164 5 125098990.653 5     -4584.262          32.000    23427014.977 4  97299185.182 4     -3565.537          29.000
R10  20655978.680 8 110107994.421 8     -3312.203          49.000
C29  22943220.445 5 119471442.486 5      1799.324          32.000
C30  21731378.203 8 113161063.414 8      -802.125          51.000
E13  23422611.602 8 123086674.768 8      -979.156          51.000    23422613.633 8  94313245.821 8      -750.275          51.000
E21  23951848.375 8 125867813.354 8     -1433.367          51.000    23951851.328 8  96444170.349 8     -1098.273          51.000
E26  23371964.086 8 122820501.076 8      1574.297          51.000    23371969.617 8  94109223.556 8      1206.244          51.000
E27  26990195.125 6 141834424.757 6     -3119.512          37.000    26990199.695 6 108678370.296 6     -2390.248          38.000
> 2020 05 02 14 50  0.0000000  0 15        .000000000000
G18  20859497.695 8 109617487.664 8     -1699.367          48.000    20859497.633 7  85416215.470 7     -1324.185          45.000
G20  22098625.000 7 116129104.053 7      2523.160          47.000    22098624.219 7  90490215.555 7      1966.099          45.000
G21  21186804.508 8 111337437.433 8     -1529.168          49.000    21186804.008 8  86756491.894 8     -1191.559          49.000
G26  20315369.000 8 106757990.551 8      -500.141          51.000    20315371.906 8  83188041.296 8      -389.720          51.000
R04  22881046.445 5 122526967.808 5       100.359          32.000    22881047.195 5  95298763.737 5        78.066          32.000
R09  23452769.922 5 125236514.508 5     -4582.785          31.000    23452763.969 4  97406147.853 4     -3564.398          27.000
R10  20674659.641 8 110207571.992 8     -3325.195          49.000
R21  20177898.102 5 107976082.586 5      1446.449          31.000    20177896.500 4  83981330.046 4      1125.016          27.000
C27  25029634.273 5 130335868.242 5     -2631.902          31.000
C29  22932859.047 5 119417501.574 5      1797.477          32.000
C30  21736010.594 8 113185185.342 8      -804.867          51.000
E13  23428212.508 8 123116107.834 8      -981.945          51.000    23428214.672 8  94335798.420 8      -752.385          51.000
E21  23960056.117 8 125910945.695 8     -1441.000          51.000    23960059.180 8  96477219.801 8     -1104.176          51.000
E26  23362989.031 8 122773337.435 8      1571.117          51.000    23362994.383 8  94073085.210 8      1203.822          51.000
E27  27008003.070 6 141928004.116 6     -3117.918          36.000    27008007.961 6 108750073.906 6     -2389.243          38.000
> 2020 05 02 14 50 30.0000000  0 13        .000000000000
G18  20869235.039 7 109668658.215 7     -1708.785          47.000    20869234.844 7  85456088.593 7     -1331.521          45.000
G20  22084251.508 8 116053574.388 8      2515.172          48.000    22084251.453 7  90431361.326 7      1959.877          43.000
G21  21195560.992 8 111383452.484 8     -1535.441          49.000    21195560.328 8  86792347.766 8     -1196.448          49.000
G26  20318270.492 8 106773239.137 8      -513.484          51.000    20318273.359 8  83199923.294 8      -400.118          51.000
G29  23700988.141 5 124549512.086 5     -2838.070          33.000    23700986.414 5  97051563.806 5     -2211.483          31.000
R04  22880551.727 5 122524320.564 5        79.012          35.000    22880552.062 5  95296704.746 5        61.451          31.000
R10  20693420.562 8 110307575.907 8     -3338.598          49.000
C27  25044799.094 5 130414821.548 5     -2628.516          30.000
C30  21740666.125 8 113209428.116 8      -808.188          51.000
E13  23433835.852 8 123145658.918 8      -985.027          51.000    23433838.078 8  94358441.439 8      -754.719          51.000
E21  23968314.641 8 125954345.206 8     -1449.090          51.000    23968317.953 8  96510473.962 8     -1110.315          51.000
E26  23354038.750 8 122726304.321 8      1567.613          51.000    23354043.852 8  94037046.883 8      1201.134          51.000
E27  27025808.914 5 142021583.202 5     -3116.508          33.000    27025814.500 6 108821769.660 6     -2388.354          37.000
> 2020 05 02 14 51  0.0000000  0 11        .000000000000
G18  20879078.375 8 109720386.406 8     -1727.629          48.000    20879078.617 7  85496396.264 7     -1346.204          45.000
G20  22069975.820 8 115978555.595 8      2497.918          49.000    22069975.891 7  90372905.152 7      1946.430          43.000
G21  21204404.094 8 111429923.048 8     -1550.797          49.000    21204403.562 8  86828558.582 8     -1208.413          49.000
G26  20321299.289 8 106789156.257 8      -535.777          51.000    20321301.961 8  83212326.258 8      -417.489          51.000
R04  22880227.523 4 122522575.856 4        48.781          29.000    22880226.172 5  95295347.641 5        37.938          30.000
R10  20712307.633 8 110408251.939 8     -3361.082          48.000
C30  21745391.586 8 113234034.745 8      -820.449          51.000
E13  23439528.188 8 123175572.781 8      -997.277          51.000    23439530.602 8  94381362.443 8      -764.145          51.000
E21  23976670.812 8 125998257.044 8     -1466.395          51.000    23976674.172 8  96544120.695 8     -1123.586          51.000
E26  23345160.188 8 122679647.517 8      1554.855          51.000    23345165.539 8  94001296.884 8      1191.377          51.000
E27                                                                  27043666.242 6 108893644.799 6     -2394.289          36.000
> 2020 05 02 14 51 30.0000000  0 11        .000000000000
G18  20888993.750 7 109772492.212 7     -1732.688          47.000    20888993.977 7  85536998.161 7     -1350.146          44.000
G20  22055764.328 8 115903872.193 8      2494.324          50.000    22055764.289 7  90314710.330 7      1943.629          43.000
G21  21213299.766 8 111476669.701 8     -1552.285          50.000    21213299.094 8  86864984.530 8     -1209.573          50.000
G26  20324421.445 8 106805564.025 8      -544.742          51.000    20324424.070 8  83225111.522 8      -424.474          51.000
R10  20731286.055 8 110509415.517 8     -3369.652          48.000
C27  25075192.727 4 130573092.626 4     -2627.766          29.000
C30  21750153.008 8 113258828.151 8      -819.242          51.000
E13  23445255.453 8 123205670.291 8      -995.816          51.000    23445257.977 8  94404424.172 8      -763.034          51.000
E21  23985090.766 8 126042502.554 8     -1469.930          51.000    23985093.797 8  96578023.107 8     -1126.391          51.000
E26  23336319.578 8 122633188.949 8      1555.789          51.000    23336325.344 8  93965698.773 8      1192.050          51.000
E27                                                                  27061528.969 6 108965561.858 6     -2390.135          36.000
> 2020 05 02 14 52  0.0000000  0 11        .000000000000
G18  20898940.445 7 109824763.386 7     -1756.207          46.000    20898940.656 7  85577728.942 7     -1368.473          44.000
G20  22041577.242 8 115829316.455 8      2471.910          50.000    22041577.141 7  90256615.027 7      1926.167          43.000
G21  21222207.656 8 111523480.307 8     -1572.484          50.000    21222206.797 8  86901460.305 8     -1225.312          50.000
G26  20327596.969 8 106822252.322 8      -572.023          51.000    20327599.664 8  83238115.359 8      -445.733          51.000
R10  20750314.992 7 110610849.921 7     -3396.867          47.000
C27  25090344.055 5 130651994.663 5     -2637.434          31.000
C30  21754910.172 8 113283599.523 8      -836.398          51.000
E13  23450977.547 8 123235740.299 8     -1012.949          51.000    23450979.914 8  94427464.816 8      -776.165          51.000
E21  23993534.219 8 126086870.998 8     -1492.129          51.000    23993536.844 8  96612019.713 8     -1143.311          51.000
E26  23327476.836 8 122586718.458 8      1538.145          51.000    23327482.680 8  93930091.525 8      1178.503          51.000
E27  27079351.477 5 142302953.301 5     -3131.602          33.000    27079362.008 5 109037358.655 5     -2399.751          35.000
> 2020 05 02 14 52 30.0000000  0 16        .000000000000
G18  20909007.992 7 109877669.038 7     -1769.430          47.000    20909008.734 7  85618954.135 7     -1378.776          44.000
G20  22027504.641 8 115755362.389 8      2459.637          51.000    22027504.094 7  90198988.519 7      1916.600          44.000
G21  21231216.961 8 111570824.022 8     -1582.434          50.000    21231216.125 8  86938351.502 8     -1233.068          50.000
G26  20330915.703 8 106839692.345 8      -589.203          51.000    20330918.203 8  83251704.962 8      -459.119          51.000
G29  23766049.758 5 124891429.008 5     -2854.848          30.000
G31  24398959.898 4 128217413.711 4     -3355.145          29.000
R04  22880020.266 5 122521462.656 5       -27.629          31.000    22880028.891 4  95294498.311 4       -21.492          29.000
R10  20769483.203 8 110713029.333 8     -3413.586          48.000
C27  25105546.156 6 130731148.756 6     -2638.344          36.000
C29  22881543.539 4 119150208.716 4      1764.980          29.000
C30  21759752.469 8 113308815.081 8      -843.328          51.000
E13  23456783.922 8 123266252.821 8     -1019.816          51.000    23456786.133 8  94450844.534 8      -781.424          51.000
E15  26862496.859 5 141163383.008 5     -2578.137          33.000
E21  24002090.289 8 126131832.856 8     -1503.914          51.000    24002093.000 8  96646470.993 8     -1152.380          51.000
E26  23318721.375 8 122540707.135 8      1530.707          51.000    23318726.734 8  93894836.107 8      1172.835          51.000
E27                                                                  27097254.500 5 109109395.129 5     -2401.317          31.000
> 2020 05 02 14 53  0.0000000  0 15        .000000000000
G18  20919146.625 7 109930947.554 7     -1780.363          47.000    20919147.227 7  85660469.844 7     -1387.296          42.000
G20  22013497.539 8 115681752.811 8      2449.613          51.000    22013496.930 7  90141630.486 7      1908.793          44.000
G21  21240277.906 8 111618439.499 8     -1589.938          50.000    21240277.000 8  86975454.474 8     -1238.912          50.000
G26  20334328.227 8 106857624.479 8      -604.219          51.000    20334329.922 8  83265678.067 8      -470.817          51.000
G27  22569550.445 5 118603819.040 5      2592.305          30.000
R04  22880250.688 5 122522659.611 5       -50.188          35.000    22880251.711 4  95295429.270 4       -39.029          28.000
R10  20788740.609 7 110815686.346 7     -3428.000          47.000
R11  20055521.109 5 107170639.818 5      1010.793          32.000    20055517.617 4  83354936.213 4       786.166          29.000
C27  25120746.078 5 130810296.378 5     -2636.586          35.000
C30  21764630.531 8 113334216.911 8      -848.062          51.000
E13  23462624.945 8 123296947.235 8     -1024.488          51.000    23462627.172 8  94474363.630 8      -784.977          51.000
E15  26877213.594 5 141240710.013 5     -2575.738          33.000    26877219.594 5 108223423.417 5     -1973.456          34.000
E21  24010709.516 8 126177127.875 8     -1513.711          51.000    24010712.555 8  96681177.538 8     -1159.850          51.000
E26  23310003.773 8 122494895.355 8      1525.469          51.000    23310007.711 8  93859733.592 8      1168.848          51.000
E27  27115140.875 5 142491027.865 5     -3134.742          33.000    27115157.508 4 109181502.440 4     -2401.930          29.000
> 2020 05 02 14 53 30.0000000  0 14        .000000000000
G18  20929362.375 7 109984631.520 7     -1797.203          47.000    20929362.680 7  85702301.506 7     -1400.418          42.000
G20  21999562.961 8 115608525.170 8      2433.430          51.000    21999562.664 7  90084570.036 7      1896.182          44.000
G21  21249396.828 8 111666359.431 8     -1603.488          50.000    21249395.680 8  87012794.677 8     -1249.471          49.000
G26  20337841.078 8 106876083.451 8      -625.117          51.000    20337842.523 8  83280061.673 8      -487.107          51.000
R10  20808094.086 8 110918852.833 8     -3448.422          49.000
R11  20049931.391 5 107140777.200 5       980.945          35.000    20049929.766 4  83331709.767 4       762.964          29.000
R21  20122975.055 5 107682161.266 5      1352.457          34.000    20122978.359 4  83752802.595 4      1051.914          29.000
C27  25135950.570 4 130889471.413 4     -2640.059          29.000
C30  21769550.898 8 113359838.856 8      -858.832          51.000
E13  23468507.031 8 123327857.140 8     -1035.008          51.000    23468509.164 8  94498047.842 8      -793.070          51.000
E15  26891930.719 5 141318048.847 5     -2579.125          33.000    26891935.602 5 108282682.706 5     -1976.201          34.000
E21  24019398.680 8 126222790.056 8     -1529.234          51.000    24019401.938 8  96716165.427 8     -1171.760          51.000
E26  23301330.812 8 122449317.786 8      1514.250          51.000    23301333.125 8  93824810.547 8      1160.255          51.000
E27  27133056.828 6 142585176.606 6     -3141.113          37.000    27133075.492 5 109253650.878 5     -2406.770          33.000
> 2020 05 02 14 54  0.0000000  0 12        .000000000000
G18  20939668.539 7 110038790.060 7     -1809.605          46.000    20939669.000 7  85744502.955 7     -1410.082          43.000
G20  21985714.664 8 115535752.864 8      2421.621          50.000    21985715.383 7  90027864.387 7      1886.981          46.000
G21  21258586.844 8 111714653.099 8     -1612.504          50.000    21258585.430 8  87050426.101 8     -1256.500          49.000
G26  20341467.766 8 106895140.347 8      -641.621          51.000    20341469.367 8  83294911.183 8      -499.964          51.000
R04  22881140.805 6 122527469.979 6      -103.234          38.000    22881136.844 4  95299130.151 4       -80.293          29.000
R10  20827556.773 8 111022597.135 8     -3464.152          50.000
C30  21774526.961 8 113385750.771 8      -864.953          51.000
E13  23474443.484 8 123359052.640 8     -1040.969          51.000    23474445.367 8  94521950.875 8      -797.613          51.000
E15  26906661.383 5 141395459.792 5     -2578.016          34.000    26906665.305 5 108341990.790 5     -1975.177          31.000
E21  24028171.109 8 126268889.849 8     -1540.332          51.000    24028174.344 8  96751488.630 8     -1180.233          51.000
E26  23292715.875 8 122404045.424 8      1507.723          51.000    23292717.477 8  93790121.359 8      1155.229          51.000
E27  27151002.250 6 142679482.094 6     -3142.258          37.000    27151021.578 5 109325910.819 5     -2407.836          34.000
> 2020 05 02 14 54 30.0000000  0 15        .000000000000
G18  20950040.734 7 110093296.981 7     -1826.531          44.000    20950041.180 7  85786975.923 7     -1423.271          42.000
G20  21971929.773 8 115463314.463 8      2405.254          49.000    21971931.320 7  89971418.900 7      1874.227          46.000
G21  21267824.148 8 111763195.226 8     -1625.883          51.000    21267822.367 8  87088251.129 8     -1266.922          49.000
G26  20345184.609 8 106914671.109 8      -662.691          51.000    20345185.961 8  83310129.947 8      -516.383          51.000
R04  22881789.273 5 122530966.283 5      -131.707          34.000    22881789.945 4  95301849.364 4      -102.448          26.000
R10  20847103.641 8 111126789.467 8     -3484.176          51.000
R11  20039217.820 5 107083555.942 5       925.215          32.000    20039216.039 4  83287174.833 4       719.618          29.000
R21  20107959.945 5 107601786.792 5      1324.184          32.000
C29  22841165.250 5 118939939.540 5      1736.422          33.000
C30  21779535.000 8 113411829.181 8      -875.734          51.000
E13  23480410.422 8 123390408.654 8     -1051.523          51.000    23480412.180 8  94545976.904 8      -805.689          51.000
E15  26921382.469 5 141472819.100 5     -2581.723          32.000
E21  24037003.156 8 126315302.558 8     -1555.961          51.000    24037006.016 8  96787051.609 8     -1192.179          51.000
E26  23284135.102 8 122358954.274 8      1496.402          51.000    23284136.969 8  93755571.029 8      1146.603          51.000
E27  27168953.055 6 142773816.934 6     -3148.648          39.000    27168972.586 5 109398193.243 5     -2412.490          33.000
> 2020 05 02 14 55  0.0000000  0 12        .000000000000
G18  20960507.023 7 110148298.191 7     -1838.191          45.000    20960507.086 7  85829834.025 7     -1432.360          42.000
G20  21958237.000 8 115391360.516 8      2393.816          48.000    21958239.297 8  89915350.907 8      1865.311          48.000
G21  21277136.367 8 111812131.182 8     -1634.336          51.000    21277134.438 8  87126383.036 8     -1273.509          49.000
G26  20349019.758 8 106934823.616 8      -678.684          51.000    20349020.898 8  83325833.207 8      -528.844          51.000
R10  20866761.570 8 111231576.110 8     -3499.297          49.000
C27  25181628.742 5 131127348.941 5     -2645.379          31.000
C29  22831182.258 5 118887938.473 5      1731.352          32.000
C30  21784603.086 8 113438220.022 8      -881.539          51.000
E13  23486435.867 8 123422072.023 8     -1057.137          51.000    23486437.570 8  94570238.443 8      -809.969          51.000
E21  24045922.891 8 126362175.389 8     -1566.602          51.000    24045925.242 8  96822967.148 8     -1200.368          51.000
E26  23275616.711 8 122314192.146 8      1490.016          51.000    23275618.703 8  93721272.792 8      1141.745          49.000
E27  27186937.523 6 142868327.595 6     -3150.055          39.000    27186956.688 5 109470610.383 5     -2413.268          31.000
> 2020 05 02 14 55 30.0000000  0 14        .000000000000
G10  24124769.297 5 126776519.024 5      3471.953          33.000
G18  20971021.672 7 110203553.068 7     -1851.008          45.000    20971021.344 6  85872889.755 6     -1442.344          41.000
G20  21944591.617 7 115319655.064 7      2381.082          47.000    21944594.367 7  89859476.563 7      1855.389          47.000
G21  21286477.758 8 111861220.664 8     -1643.871          50.000    21286476.062 8  87164634.571 8     -1280.939          49.000
G26  20352927.734 8 106955359.176 8      -695.891          51.000    20352929.008 8  83341834.948 8      -542.252          51.000
R04  22883531.281 5 122540259.621 5      -180.930          35.000    22883533.625 4  95309087.048 4      -140.726          29.000
R10  20886484.289 8 111336711.321 8     -3515.340          48.000
C27  25196847.531 4 131206598.062 4     -2645.438          29.000
C29  22821207.102 5 118836012.626 5      1726.422          31.000
C30  21789685.664 8 113464686.294 8      -888.457          51.000
E13  23492474.062 8 123453803.118 8     -1063.824          51.000    23492475.883 8  94594551.873 8      -815.129          51.000
E21  24054884.633 8 126409269.031 8     -1578.449          51.000    24054886.531 8  96859051.883 8     -1209.497          51.000
E26  23267115.523 8 122269520.427 8      1482.562          51.000    23267116.789 8  93687043.842 8      1135.977          48.000
E27  27204910.195 6 142962774.028 6     -3152.227          38.000
> 2020 05 02 14 56  0.0000000  0 15        .000000000000
G10  24104952.875 6 126672390.566 6      3470.637          37.000    24104961.938 5  98705771.181 5      2704.383          32.000
G18  20981630.508 7 110259301.863 7     -1864.012          43.000    20981629.953 7  85916330.401 7     -1452.474          43.000
G20  21931039.969 7 115248442.875 7      2368.098          46.000    21931042.602 7  89803986.568 7      1845.268          46.000
G21  21295894.094 8 111910704.403 8     -1653.391          50.000    21295892.492 8  87203193.335 8     -1288.356          49.000
G26  20356954.461 8 106976520.177 8      -713.191          51.000    20356956.289 8  83358324.032 8      -555.737          51.000
R04  22884620.727 6 122546090.147 6      -206.172          38.000    22884622.953 4  95313621.922 4      -160.356          27.000
R10  20906317.969 8 111442436.994 8     -3531.242          49.000
R21  20085974.555 5 107484115.245 5      1288.367          35.000
C27  25212087.617 5 131285969.999 5     -2645.152          35.000
C29  22811285.516 5 118784344.683 5      1720.230          32.000
C30  21794828.609 8 113491467.636 8      -895.359          51.000
E13  23498570.891 8 123485843.310 8     -1070.516          51.000    23498573.094 8  94619102.148 8      -820.307          51.000
E21  24063934.172 8 126456825.239 8     -1590.324          51.000    24063935.742 8  96895491.026 8     -1218.587          51.000
E26  23258677.914 8 122225181.468 8      1475.023          51.000    23258678.242 8  93653069.858 8      1130.177          48.000
E27  27222917.031 6 143057397.292 6     -3154.328          41.000    27222933.758 5 109615474.801 5     -2416.992          31.000
> 2020 05 02 14 56 30.0000000  0 13        .000000000000
G10  24085146.773 5 126568312.620 5      3467.105          34.000    24085159.531 5  98624671.777 5      2701.656          30.000
G18  20992310.398 7 110315424.279 7     -1878.199          44.000    20992309.930 7  85960062.132 7     -1463.532          43.000
G20  21917559.758 7 115177608.322 7      2353.949          44.000    21917562.539 7  89748790.844 7      1834.249          43.000
G21  21305362.664 8 111960462.551 8     -1664.344          50.000    21305361.016 8  87241965.907 8     -1296.891          50.000
G26  20361077.453 8 106998188.192 8      -731.910          50.000    20361079.828 8  83375208.189 8      -570.320          51.000
R04  22885849.500 6 122552662.221 6      -232.324          36.000
R10  20926240.109 8 111548629.841 8     -3548.703          50.000
C27  25227331.938 6 131365347.066 6     -2647.250          37.000
C30  21800009.266 8 113518446.224 8      -903.633          51.000
E13  23504703.883 8 123518073.243 8     -1078.605          51.000    23504706.273 8  94643797.803 8      -826.473          51.000
E21  24073048.875 8 126504724.931 8     -1603.516          51.000    24073050.430 8  96932193.362 8     -1228.656          51.000
E26  23250280.969 8 122181056.870 8      1466.148          49.000    23250281.938 8  93619260.115 8      1123.454          50.000
E27  27240934.898 6 143152077.613 6     -3157.961          39.000    27240948.648 5 109688017.925 5     -2419.691          32.000
> 2020 05 02 14 57  0.0000000  0 13        .000000000000
G10  24065356.453 5 126464319.653 5      3465.582          35.000    24065369.758 5  98543638.238 5      2700.426          30.000
G18  21003066.906 7 110371949.943 7     -1890.035          44.000    21003066.625 7  86004108.105 7     -1472.755          43.000
G20  21904158.141 7 115107185.762 7      2341.117          45.000    21904160.711 7  89693916.104 7      1824.247          45.000
G21  21314889.281 8 112010525.362 8     -1673.051          50.000    21314887.789 8  87280975.888 8     -1303.676          50.000
G26  20365302.984 8 107020394.851 8      -748.547          50.000    20365305.852 8  83392512.083 8      -583.283          50.000
R04  22887220.719 4 122560008.238 4      -257.293          29.000
R10  20946255.102 8 111655317.899 8     -3563.781          50.000
C27  25242583.031 5 131444760.160 5     -2647.047          34.000
C30  21805233.867 8 113545652.947 8      -909.980          51.000
E13  23510878.992 8 123550523.639 8     -1084.570          51.000    23510881.102 8  94668662.379 8      -831.037          51.000
E21  24082234.781 8 126552999.139 8     -1614.602          50.000    24082236.742 8  96969182.684 8     -1237.165          51.000
E26  23241930.641 8 122137178.337 8      1459.289          48.000    23241933.719 8  93585638.931 8      1118.145          51.000
E27  27258969.359 6 143246845.339 6     -3159.859          39.000    27258979.461 5 109760632.015 5     -2421.287          33.000
> 2020 05 02 14 57 30.0000000  0 14        .000000000000
G10  24045582.320 6 126360416.091 6      3462.078          37.000    24045592.938 5  98462690.495 5      2697.726          30.000
G18  21013899.930 7 110428878.276 7     -1904.238          45.000    21013899.633 7  86048467.841 7     -1483.825          42.000
G20  21890836.359 8 115037178.759 8      2326.477          49.000    21890838.578 7  89639365.196 7      1812.839          44.000
G21  21324473.453 8 112060890.851 8     -1683.688          50.000    21324472.188 8  87320221.730 8     -1311.964          49.000
G26  20369631.312 8 107043141.557 8      -767.121          50.000    20369634.727 8  83410236.783 8      -597.757          50.000
R04  22888736.625 5 122568129.869 5      -283.555          34.000    22888735.172 4  95330769.921 4      -220.539          28.000
R10  20966361.992 8 111762498.780 8     -3580.793          49.000
R21  20064651.336 4 107370039.108 4      1248.422          28.000
C27  25257840.211 5 131524210.289 5     -2648.859          33.000
C30  21810502.781 8 113573088.731 8      -918.309          51.000
E13  23517096.164 8 123583194.949 8     -1092.594          51.000    23517097.961 8  94693696.233 8      -837.149          51.000
E21  24091492.242 8 126601648.623 8     -1627.805          50.000    24091494.758 8  97006459.573 8     -1247.219          51.000
E26  23233627.828 8 122093547.276 8      1450.422          49.000    23233632.492 8  93552207.362 8      1111.365          51.000
E27  27277020.711 6 143341700.480 6     -3163.234          39.000    27277027.383 5 109833313.059 5     -2423.672          34.000
> 2020 05 02 14 58  0.0000000  0 13        .000000000000
G10  24025827.852 6 126256610.568 6      3457.898          38.000    24025838.570 5  98381803.195 5      2694.472          34.000
G18  21024810.469 7 110486212.968 7     -1918.258          46.000    21024810.070 7  86093144.215 7     -1494.746          42.000
G20  21877596.109 8 114967595.798 8      2312.062          51.000    21877596.602 7  89585144.709 7      1801.610          42.000
G21  21334116.258 8 112111564.362 8     -1694.617          50.000    21334114.945 8  87359707.577 8     -1320.481          48.000
G26  20374063.484 8 107066433.919 8      -785.883          51.000    20374067.062 8  83428386.652 8      -612.376          51.000
R10  20986560.922 7 111870174.496 7     -3597.703          47.000
R21  20057698.969 5 107332797.987 5      1234.750          30.000
C27  25273107.000 5 131603702.570 5     -2650.336          33.000
C30  21815816.773 8 113600758.680 8      -926.555          51.000
E13  23523356.203 8 123616091.876 8     -1100.633          51.000    23523358.008 8  94718902.980 8      -843.324          51.000
E21  24100822.219 8 126650678.458 8     -1641.000          51.000    24100825.430 8  97044027.882 8     -1257.333          51.000
E26  23225373.641 8 122050169.427 8      1441.402          49.000    23225378.477 8  93518969.792 8      1104.430          50.000
E27  27295089.523 6 143436647.393 6     -3166.629          38.000    27295093.570 5 109906064.437 5     -2426.534          34.000
> 2020 05 02 14 58 30.0000000  0 13        .000000000000
G10  24006083.484 6 126152857.060 6      3457.547          39.000    24006095.602 6  98300956.475 6      2694.198          36.000
G18  21035788.719 7 110543903.163 7     -1928.898          47.000    21035788.539 7  86138097.601 7     -1503.038          44.000
G20  21864428.062 8 114898390.652 8      2300.441          51.000    21864426.250 7  89531218.670 7      1792.555          42.000
G21  21343808.023 8 112162495.145 8     -1701.953          50.000    21343806.562 8  87399393.905 8     -1326.197          49.000
G26  20378590.250 8 107090222.977 8      -801.250          51.000    20378593.688 8  83446923.574 8      -624.351          51.000
R04  22892196.445 5 122586656.440 5      -333.309          32.000    22892198.914 5  95345188.108 5      -259.243          31.000
R10  21006841.812 7 111978291.840 7     -3611.191          45.000
C27  25288373.164 5 131683188.517 5     -2649.176          34.000
C30  21821166.305 8 113628613.931 8      -931.594          51.000
E13  23529649.797 8 123649164.673 8     -1105.418          51.000    23529651.688 8  94744244.470 8      -846.988          51.000
E21  24110215.320 8 126700039.124 8     -1650.973          51.000    24110218.969 8  97081849.672 8     -1265.037          51.000
E26  23217158.078 8 122006995.905 8      1435.645          48.000    23217162.438 8  93485888.793 8      1100.027          49.000
E27  27313166.531 6 143531635.905 6     -3167.016          37.000    27313168.086 5 109978847.642 5     -2426.605          33.000
> 2020 05 02 14 59  0.0000000  0 12        .000000000000
G10  23986365.953 6 126049203.510 6      3456.016          40.000
G18  21046849.758 7 110602028.772 7     -1940.586          46.000    21046849.516 7  86183390.273 7     -1512.145          46.000
G20  21851347.953 8 114829648.140 8      2288.059          51.000    21851343.852 7  89477653.128 7      1782.906          42.000
G21  21353563.922 8 112213763.312 8     -1710.465          50.000    21353562.500 8  87439343.120 8     -1332.830          48.000
G26  20383227.164 8 107114590.615 8      -817.734          51.000    20383230.578 8  83465911.316 8      -637.196          51.000
R10  21027221.219 7 112086930.070 7     -3625.574          46.000
C27  25303653.000 5 131762748.842 5     -2649.465          32.000
C30  21826566.906 8 113656735.174 8      -937.492          51.000
E13  23535992.305 8 123682494.312 8     -1110.984          51.000    23535994.211 8  94769782.770 8      -851.256          51.000
E21  24119686.930 8 126749811.854 8     -1661.684          51.000    24119690.570 8  97119987.188 8     -1273.235          51.000
E26  23208996.594 8 121964108.722 8      1429.105          48.000    23209000.391 8  93453027.213 8      1095.107          49.000
E27  27331266.648 5 143626746.600 5     -3168.258          35.000    27331266.664 5 110051684.512 5     -2427.476          31.000
> 2020 05 02 14 59 30.0000000  0 15        .000000000000
G10  23966649.859 6 125945597.509 6      3446.434          37.000
G18  21057969.539 7 110660463.488 7     -1959.723          46.000    21057969.086 7  86228923.817 7     -1527.057          46.000
G20  21838332.055 8 114761246.115 8      2267.578          51.000    21838327.148 7  89424352.932 7      1766.947          43.000
G21  21363360.188 8 112265243.061 8     -1726.414          50.000    21363358.977 8  87479457.218 8     -1345.255          48.000
G26  20387950.680 8 107139412.362 8      -841.730          51.000    20387953.648 8  83485252.913 8      -655.894          51.000
R04  22896229.383 5 122608273.210 5      -389.828          34.000    22896233.711 4  95361993.291 4      -303.209          27.000
R10  21047675.609 8 112195959.239 8     -3647.621          48.000
R21  20037229.641 5 107223271.126 5      1192.430          32.000
C27  25318922.875 4 131842260.050 4     -2655.559          29.000
C29  22742844.445 5 118427974.029 5      1669.551          31.000
C30  21831994.766 8 113684998.812 8      -951.246          51.000
E13  23542359.805 8 123715955.579 8     -1124.426          51.000    23542361.609 8  94795421.926 8      -861.606          51.000
E21  24129213.312 8 126799871.655 8     -1680.273          51.000    24129216.602 8  97158344.649 8     -1287.422          51.000
E26  23200866.281 8 121921383.533 8      1414.668          48.000    23200870.023 8  93420289.764 8      1083.939          51.000
E27  27349364.922 5 143721882.810 5     -3177.414          33.000    27349364.766 5 110124558.763 5     -2434.379          30.000
