     3.04           OBSERVATION DATA    M (MIXED)           RINEX VERSION / TYPE
Convert 2.6.2       NovAtel             20200515 152957 UTC PGM / RUN BY / DATE 
Rinex Version 3.04 Observation File                         COMMENT             
                                                            MARKER NAME         
                                                            MARKER NUMBER       
                                                            MARKER TYPE         
                                                            OBSERVER / AGENCY   
                    NovAtel GPSCard                         REC # / TYPE / VERS 
                                                            ANT # / TYPE        
        0.0000        0.0000        0.0000                  APPROX POSITION XYZ 
        0.0000        0.0000        0.0000                  ANTENNA: DELTA H/E/N
G    8 C1C L1C D1C S1C C2W L2W D2W S2W                      SYS / # / OBS TYPES 
R    8 C1C L1C D1C S1C C2P L2P D2P S2P                      SYS / # / OBS TYPES 
E    8 C1C L1C D1C S1C C7Q L7Q D7Q S7Q                      SYS / # / OBS TYPES 
C    4 C2I L2I D2I S2I                                      SYS / # / OBS TYPES 
DBHZ                                                        SIGNAL STRENGTH UNIT
    30.000                                                  INTERVAL            
  2020    05    08    11    00    0.0000000     GPS         TIME OF FIRST OBS   
  2020    05    08    11    59   30.0000000     GPS         TIME OF LAST OBS    
G L1C  0.00000  09 G24 G02 G32 G12 G25 G29 G14 G21 G18      SYS / PHASE SHIFT   
G L2W  0.00000  09 G24 G32 G12 G25 G29 G14 G02 G18 G21      SYS / PHASE SHIFT   
R L1C  0.00000  05 R14 R17 R24 R15 R18                      SYS / PHASE SHIFT   
R L2P  0.25000  05 R14 R17 R24 R15 R18                      SYS / PHASE SHIFT   
E L1C  0.50000  05 E21 E26 E13 E01 E33                      SYS / PHASE SHIFT   
E L7Q -0.25000  05 E21 E13 E26 E01 E33                      SYS / PHASE SHIFT   
C L2I  0.00000  03 C30 C29 C27                              SYS / PHASE SHIFT   
  5 R14 -7 R17  4 R24  2 R15  0 R18 -3                      GLONASS SLOT / FRQ #
 C1C  -71.950 C2C  -71.950 C2P  -71.950                     GLONASS COD/PHS/BIS 
     0     0     0     0GPS                                 LEAP SECONDS        
                                                            END OF HEADER       
> 2020 05 08 11 00  0.0000000  0 14      -0.000000000000
G24  24808970.820 5 130372036.695 5     -3730.980          34.000    24808977.500 5 101588574.173 5     -2907.258          32.000  
G02  23381485.633 5 122870522.609 5     -1613.898          34.000                                                                  
G32  23398791.180 8 122961548.255 8     -2536.340          48.000    23398794.734 7  95814153.039 7     -1976.369          44.000  
G12  21849030.078 6 114817448.021 6     -2374.762          41.000    21849031.539 6  89468121.701 6     -1850.464          41.000  
G25  20319685.211 8 106780679.552 8      -825.387          51.000    20319686.703 8  83205732.948 8      -643.159          51.000  
G29  20424104.352 8 107329385.681 8      1105.059          48.000    20424104.156 8  83633308.948 8       861.085          48.000  
R14  20222586.680 8 107797382.493 8     -2038.781          51.000    20222590.344 8  83842403.031 8     -1585.719          49.000  
R17  19437134.602 8 104011627.844 8      1796.316          50.000    19437136.117 7  80897949.062 7      1397.132          47.000  
R24  20329858.648 7 108712563.557 7     -2415.824          42.000    20329860.570 6  84554278.125 6     -1878.975          39.000  
E21  24284550.633 8 127616147.905 8     -1244.309          51.000    24284552.914 8  97783819.085 8      -953.453          51.000  
E13                                                                  24370238.422 6  98128881.132 6      -605.017          36.000  
E26  23488461.469 8 123432669.488 8      2129.875          51.000    23488464.609 8  94578318.182 8      1631.896          51.000  
C30  21542859.125 8 112179412.177 8       388.781          51.000  
C29  24062564.633 7 125300090.571 7      2996.719          44.000  
> 2020 05 08 11 00 30.0000000  0 15      -0.000000000000
G24  24830265.586 4 130483939.901 4     -3726.887          29.000    24830272.398 4 101675771.399 4     -2904.068          26.000  
G02  23390734.664 5 122919128.908 5     -1624.238          30.000                                                                  
G32  23413291.922 8 123037750.156 8     -2541.738          48.000    23413295.367 7  95873531.098 7     -1980.579          43.000  
G12  21862601.656 6 114888766.958 6     -2377.828          41.000    21862600.484 6  89523694.864 6     -1852.854          41.000  
G25  20324422.375 8 106805573.450 8      -832.297          51.000    20324423.867 8  83225130.796 8      -648.540          51.000  
G29  20417834.633 8 107296440.240 8      1093.262          51.000    20417834.641 8  83607637.183 8       851.893          51.000  
R14  20234097.898 8 107858745.903 8     -2050.102          50.000    20234102.031 8  83890130.118 8     -1594.524          49.000  
R17  19427125.352 8 103958068.416 8      1776.309          50.000    19427127.523 8  80856291.733 8      1381.574          48.000  
R24  20343461.516 7 108785307.352 7     -2431.742          44.000    20343464.367 6  84610856.673 6     -1891.355          38.000  
E21  24291666.766 8 127653543.884 8     -1247.035          51.000    24291669.695 8  97812473.127 8      -955.551          51.000  
E13  24374792.164 5 128090397.462 5      -799.043          35.000    24374779.695 6  98147164.353 6      -612.305          36.000  
E26  23476326.742 8 123368902.783 8      2123.047          51.000    23476329.742 8  94529458.023 8      1626.763          51.000  
C30  21540656.117 8 112167941.490 8       377.789          51.000  
C29  24045309.922 7 125210261.399 7      2993.641          47.000  
C27  23694497.977 5 123383471.003 5     -2503.051          32.000  
> 2020 05 08 11 01  0.0000000  0 13      -0.000000000000
G32  23427845.844 7 123114231.876 7     -2567.895          47.000    23427849.047 7  95933127.205 7     -2000.957          43.000  
G12  21876211.000 6 114960283.719 6     -2401.363          40.000    21876208.047 6  89579422.218 6     -1871.193          40.000  
G25  20329221.984 8 106830795.201 8      -860.125          51.000    20329223.461 8  83244784.113 8      -670.227          51.000  
G29  20411655.734 8 107263968.390 8      1060.609          51.000    20411655.344 8  83582334.463 8       826.449          51.000  
R14  20245696.195 8 107920572.125 8     -2082.664          51.000    20245700.438 8  83938217.147 8     -1619.853          49.000  
R17  19417250.281 8 103905227.813 8      1735.215          50.000    19417253.453 8  80815193.521 8      1349.612          48.000  
R24  20357176.703 7 108858645.916 7     -2468.527          44.000    20357179.203 6  84667897.748 6     -1919.969          36.000  
E21  24298820.133 8 127691134.323 8     -1270.125          51.000    24298823.078 8  97841276.171 8      -973.201          51.000  
E13  24379408.953 5 128114666.350 5      -829.672          35.000    24379396.789 6  98165759.906 6      -635.810          36.000  
E26  23464252.906 8 123305454.570 8      2095.660          51.000    23464255.547 8  94480841.899 8      1605.802          51.000  
C30  21538538.992 8 112156918.659 8       346.199          51.000  
C29  24028095.875 8 125120643.510 8      2970.004          49.000  
C27  23708954.672 6 123458774.621 6     -2527.922          36.000  
> 2020 05 08 11 01 30.0000000  0 13      -0.000000000000
G32  23442477.250 7 123191121.294 7     -2564.082          46.000    23442480.266 7  95993041.010 7     -1997.987          43.000  
G12  21889882.531 5 115032128.790 5     -2394.914          35.000    21889880.031 5  89635405.383 5     -1866.167          35.000  
G25  20334108.883 8 106856475.715 8      -858.086          51.000    20334110.492 8  83264794.905 8      -668.639          51.000  
G29  20405591.695 8 107232101.178 8      1057.801          51.000    20405591.219 8  83557502.911 8       824.261          51.000  
R14  20257406.383 8 107982993.610 8     -2084.918          51.000    20257410.531 8  83986767.161 8     -1621.603          49.000  
R17  19407535.352 8 103853240.833 8      1724.391          51.000    19407538.523 7  80774759.199 7      1341.193          47.000  
R24  20371026.797 7 108932708.615 7     -2475.156          44.000    20371029.516 5  84725502.073 5     -1925.122          35.000  
E21  24306035.477 8 127729050.497 8     -1263.660          51.000    24306038.062 8  97870328.830 8      -968.287          51.000  
E13                                                                  24384117.031 6  98184767.494 6      -636.112          37.000  
E26  23452265.000 8 123242457.223 8      2098.031          51.000    23452267.539 8  94432571.226 8      1607.589          51.000  
C30  21536532.625 8 112146473.183 8       344.223          51.000  
C29  24010948.359 8 125031368.222 8      2975.727          49.000  
C27  23723483.680 6 123534454.875 6     -2523.301          36.000  
> 2020 05 08 11 02  0.0000000  0 13      -0.000000000000
G32  23457149.250 7 123268223.503 7     -2575.805          47.000    23457152.016 7  96053120.615 7     -2007.124          43.000  
G12  21903579.625 5 115104109.372 5     -2403.797          35.000    21903578.508 5  89691494.088 5     -1873.089          35.000  
G25  20339046.555 8 106882422.866 8      -871.586          51.000    20339048.164 8  83285013.474 8      -679.158          51.000  
G29  20399606.172 8 107200646.806 8      1039.445          51.000    20399606.047 8  83532993.045 8       809.958          51.000  
R14  20269191.617 8 108045814.971 8     -2102.918          51.000    20269195.672 8  84035628.209 8     -1635.603          49.000  
R17  19397943.836 8 103801913.433 8      1697.672          51.000    19397947.203 8  80734837.941 8      1320.415          48.000  
R24  20384975.523 7 109007296.745 7     -2497.113          44.000    20384978.359 5  84783515.059 5     -1942.200          33.000  
E21  24313276.086 8 127767100.610 8     -1272.801          51.000    24313278.680 8  97899484.092 8      -975.216          51.000  
E13  24388904.594 6 128164573.919 6      -846.410          41.000    24388904.461 6  98204039.291 6      -648.441          38.000  
E26  23440326.602 8 123179719.974 8      2084.723          51.000    23440329.375 8  94384499.850 8      1597.332          51.000  
C30  21534600.969 8 112136414.496 8       326.734          51.000  
C29  23993831.234 8 124942246.620 8      2966.027          48.000  
C27  23738047.625 5 123610319.657 5     -2534.316          32.000  
> 2020 05 08 11 02 30.0000000  0 11      -0.000000000000
G32  23471878.656 7 123345626.776 7     -2587.777          46.000    23471881.008 7  96113434.799 7     -2016.453          43.000  
G25  20344052.273 8 106908727.892 8      -885.527          51.000    20344053.898 8  83305510.911 8      -690.022          51.000  
G29  20393716.734 8 107169696.785 8      1020.520          51.000    20393716.812 8  83508876.141 8       795.210          51.000  
R14  20281069.133 8 108109128.407 8     -2121.359          51.000    20281073.133 8  84084871.985 8     -1649.947          50.000  
R17  19388493.445 8 103751339.997 8      1670.473          51.000    19388496.492 8  80695503.068 8      1299.257          48.000  
R24  20399039.008 7 109082499.858 7     -2519.848          43.000    20399038.969 4  84841900.83024     -1959.885          29.000  
E21  24320559.570 8 127805376.259 8     -1282.379          51.000    24320562.180 8  97928812.184 8      -982.621          51.000  
E13  24393770.828 6 128190160.541 6      -862.855          40.000    24393774.430 6  98223644.625 6      -661.182          38.000  
E26  23428455.297 8 123117335.552 8      2070.797          51.000    23428458.672 8  94336698.815 8      1586.730          51.000  
C30  21532760.852 8 112126832.798 8       308.691          51.000  
C29  23976761.594 7 124853370.713 7      2955.688          47.000  
> 2020 05 08 11 03  0.0000000  0 11      -0.000000000000
G32  23486665.555 7 123423333.198 7     -2593.559          45.000    23486667.922 7  96173985.202 7     -2020.955          44.000  
G25  20349126.969 8 106935395.684 8      -893.109          51.000    20349128.617 8  83326291.018 8      -695.927          51.000  
G29  20387924.117 8 107139255.909 8      1008.066          51.000    20387924.094 8  83485155.994 8       785.507          51.000  
R14  20293040.070 8 108172938.887 8     -2133.473          51.000    20293044.164 8  84134502.317 8     -1659.368          51.000  
R17  19379184.688 8 103701527.058 8      1649.656          51.000    19379187.266 7  80656759.708 7      1283.066          47.000  
R24  20413218.094 7 109158319.228 7     -2535.902          42.000    20413217.820 5  84900870.907 5     -1972.369          30.000  
E21  24327886.938 8 127843882.716 8     -1285.629          51.000    24327889.367 8  97958317.130 8      -985.126          51.000  
E13  24398722.555 6 128216186.417 6      -873.367          39.000    24398726.477 6  98243586.565 6      -669.033          38.000  
E26  23416652.414 8 123055310.304 8      2063.301          51.000    23416656.039 8  94289172.979 8      1580.936          51.000  
C30  21531013.109 8 112117732.705 8       297.125          51.000  
C29  23959740.453 7 124764746.895 7      2951.781          45.000  
> 2020 05 08 11 03 30.0000000  0 11      -0.000000000000
G32  23501497.289 7 123501275.538 7     -2602.570          44.000    23501499.977 7  96234719.465 7     -2027.978          43.000  
G25  20354258.391 8 106962362.070 8      -904.727          51.000    20354260.102 8  83347303.775 8      -704.982          51.000  
G29  20382216.414 8 107109260.272 8       991.730          51.000    20382216.133 8  83461782.775 8       772.777          51.000  
R14  20305092.188 8 108237180.609 8     -2149.344          51.000    20305095.773 8  84184468.073 8     -1671.715          50.000  
R17  19370005.867 8 103652410.779 8      1624.738          51.000    19370008.320 7  80618558.182 7      1263.689          47.000  
R24  20427499.008 6 109234686.171 6     -2555.402          39.000    20427499.617 4  84960273.01924     -1987.529          25.000  
E21  24335246.156 8 127882556.036 8     -1292.727          51.000    24335248.141 8  97987949.945 8      -990.561          51.000  
E13  24403746.594 6 128242586.599 6      -886.996          40.000    24403749.594 6  98263815.284 6      -679.422          39.000  
E26  23404905.797 8 122993581.325 8      2051.871          51.000    23404909.445 8  94241874.143 8      1572.220          51.000  
C30  21529345.906 8 112109050.355 8       281.754          51.000  
C29  23942756.594 7 124676313.038 7      2943.898          46.000  
> 2020 05 08 11 04  0.0000000  0 14      -0.000000000000
G32  23516376.664 7 123579467.487 7     -2611.340          45.000    23516379.688 7  96295648.240 7     -2034.811          44.000  
G14  23042987.219 5 121091735.64625     -1247.051          35.000                                                                  
G12  21958772.281 6 115394113.438 6     -2430.168          37.000    21958768.570 6  89917506.791 6     -1893.635          37.000  
G25  20359449.805 8 106989643.487 8      -915.266          51.000    20359451.703 8  83368562.012 8      -713.194          51.000  
G29  20376596.445 8 107079726.531 8       976.246          51.000    20376595.750 8  83438769.486 8       760.711          51.000  
R14  20317227.891 8 108301869.967 8     -2164.305          51.000    20317231.031 8  84234781.990 8     -1683.348          50.000  
R17  19360960.336 8 103604009.282 8      1600.879          51.000    19360963.000 7  80580912.610 7      1245.128          46.000  
R24  20441884.695 6 109311613.926 6     -2574.008          40.000                                                                  
E21  24342640.242 8 127921413.103 8     -1298.871          51.000    24342642.047 8  98017723.540 8      -995.254          51.000  
E13  24408844.328 6 128269376.752 6      -899.918          41.000    24408847.922 6  98284342.841 6      -689.668          39.000  
E26  23393218.828 8 122932166.579 8      2041.348          51.000    23393222.508 8  94194816.091 8      1564.123          51.000  
C30  21527761.984 8 112100801.858 8       267.211          51.000  
C29  23925813.688 7 124588087.011 7      2936.898          45.000  
C27  23796837.023 5 123916290.993 5     -2566.297          33.000  
> 2020 05 08 11 04 30.0000000  0 14      -0.000000000000
G32  23531303.227 7 123657906.455 7     -2617.551          45.000    23531306.797 7  96356769.491 7     -2039.651          43.000  
G14  23050149.039 5 121129364.897 5     -1260.695          35.000                                                                  
G12  21972658.773 6 115467081.487 6     -2434.219          37.000    21972649.656 6  89974365.036 6     -1896.791          37.000  
G25  20364701.203 8 107017240.321 8      -924.059          51.000    20364702.992 8  83390066.034 8      -720.046          51.000  
G29  20371064.359 8 107050655.249 8       962.387          51.000    20371063.195 8  83416116.543 8       749.912          51.000  
R14  20329447.273 8 108367006.846 8     -2177.641          51.000    20329450.609 8  84285443.968 8     -1693.721          50.000  
R17  19352048.953 8 103556324.266 8      1578.594          51.000    19352051.219 7  80543824.260 7      1227.795          46.000  
R24  20456374.070 6 109389099.387 6     -2591.395          36.000    20456403.562 4  85080403.709 4     -2015.523          27.000  
E21  24350069.492 8 127960454.632 8     -1303.371          51.000    24350071.555 8  98047638.458 8      -998.637          51.000  
E13  24414016.320 6 128296556.375 6      -911.426          41.000    24414020.773 6  98305168.825 6      -698.440          39.000  
E26  23381592.070 8 122871067.775 8      2032.430          51.000    23381595.797 8  94148000.125 8      1557.332          51.000  
C30  21526261.484 8 112092987.275 8       254.301          51.000  
C29  23908911.438 7 124500070.688 7      2931.559          44.000  
C27  23811638.578 5 123993364.245 5     -2571.453          31.000  
> 2020 05 08 11 05  0.0000000  0 13      -0.000000000000
G32  23546288.734 7 123736654.529 7     -2630.066          45.000    23546292.836 7  96418131.590 7     -2049.403          44.000  
G14  23057409.055 5 121167515.059 5     -1280.676          33.000                                                                  
G12  21986591.023 6 115540296.553 6     -2444.602          39.000    21986585.594 6  90031415.575 6     -1904.888          38.000  
G25  20370025.070 8 107045217.619 8      -938.992          51.000    20370026.711 8  83411866.500 8      -731.682          51.000  
G29  20365632.625 8 107022111.451 8       942.703          51.000    20365631.312 8  83393874.637 8       734.574          51.000  
R14  20341762.781 8 108432656.979 8     -2196.844          51.000    20341766.359 8  84336505.153 8     -1708.660          49.000  
R17  19343284.469 8 103509423.338 8      1550.316          51.000    19343286.445 7  80507345.777 7      1205.802          46.000  
R24  20470979.625 6 109467205.374 6     -2613.766          40.000                                                                  
E21  24357546.398 8 127999745.988 8     -1313.766          51.000    24357548.688 8  98077744.810 8     -1006.655          51.000  
E13  24419274.797 6 128324189.640 6      -928.539          41.000    24419279.305 6  98326342.374 6      -711.404          38.000  
E26  23370038.148 8 122810351.306 8      2017.625          51.000    23370041.672 8  94101477.108 8      1545.925          51.000  
C30  21524856.688 8 112085670.751 8       235.645          51.000  
C29  23892061.891 7 124412330.033 7      2920.082          44.000  
> 2020 05 08 11 05 30.0000000  0 12      -0.000000000000
G32  23561334.188 7 123815717.947 7     -2637.309          46.000    23561338.281 7  96479739.418 7     -2055.046          43.000  
G12  22000572.109 6 115613766.754 6     -2450.164          37.000    22000568.930 6  90088665.025 6     -1909.225          37.000  
G25  20375423.062 8 107073584.395 8      -948.738          51.000    20375424.688 8  83433970.486 8      -739.277          51.000  
G29  20360302.711 8 106994103.880 8       927.785          51.000    20360301.523 8  83372050.563 8       722.953          51.000  
R14  20354176.375 8 108498829.075 8     -2211.164          51.000    20354180.125 8  84387972.322 8     -1719.795          50.000  
R17  19334668.727 8 103463317.167 8      1526.895          51.000    19334670.555 7  80471485.448 7      1187.585          46.000  
R24  20485704.023 6 109545937.540 6     -2631.527          40.000                                                                  
E21  24365072.648 8 128039296.568 8     -1319.340          51.000    24365074.977 8  98108049.776 8     -1010.911          51.000  
E13  24424621.406 6 128352284.764 6      -940.793          40.000    24424624.695 6  98347869.869 6      -721.041          38.000  
E26  23358558.766 8 122750027.643 8      2007.602          51.000    23358562.367 8  94055255.074 8      1538.230          51.000  
C30  21523549.094 8 112078861.048 8       221.672          51.000  
C29  23875267.680 7 124324875.546 7      2913.492          46.000  
> 2020 05 08 11 06  0.0000000  0 12      -0.000000000000
G32  23576411.672 7 123894950.339 7     -2649.418          45.000    23576415.094 7  96541478.914 7     -2064.482          43.000  
G12  22014574.055 6 115687348.182 6     -2459.836          38.000    22014571.602 6  90146001.096 6     -1916.759          38.000  
G25  20380867.812 8 107102197.258 8      -963.469          51.000    20380869.469 8  83456266.225 8      -750.758          51.000  
G29  20355047.547 8 106966489.521 8       908.332          51.000    20355046.406 8  83350532.887 8       707.794          51.000  
R14  20366660.727 8 108565377.304 8     -2230.242          51.000    20366664.641 8  84439732.011 8     -1734.633          50.000  
R17  19326174.406 8 103417860.990 8      1498.727          51.000    19326176.320 7  80436130.652 7      1165.676          47.000  
R24  20500516.508 6 109625146.315 6     -2654.133          39.000                                                                  
E21  24372620.930 8 128078963.282 8     -1329.570          51.000    24372623.523 8  98138443.740 8     -1018.789          51.000  
E13  24430028.328 6 128380697.455 6      -957.781          40.000    24430030.609 6  98369640.668 6      -734.010          39.000  
E26  23347127.258 8 122689954.682 8      1992.855          51.000    23347131.062 8  94009225.161 8      1526.940          51.000  
C30  21522311.258 8 112072415.708 8       203.270          51.000  
C29  23858501.711 8 124237566.554 8      2902.195          48.000  
> 2020 05 08 11 06 30.0000000  0 12      -0.000000000000
G32  23591553.664 7 123974522.524 7     -2655.770          44.000    23591556.359 7  96603483.171 7     -2069.435          44.000  
G12  22028629.961 6 115761214.461 6     -2465.062          36.000    22028628.273 6  90203559.192 6     -1920.832          36.000  
G25  20386392.500 8 107131229.951 8      -972.270          51.000    20386394.461 8  83478889.103 8      -757.613          51.000  
G29  20349900.562 8 106939442.253 8       894.523          51.000    20349899.203 8  83329457.116 8       697.034          51.000  
R14  20379248.484 8 108632477.337 8     -2243.473          51.000    20379252.719 8  84491920.929 8     -1744.924          50.000  
R17  19317835.109 8 103373232.916 8      1476.184          51.000    19317837.078 8  80401419.958 8      1148.146          48.000  
R24  20515451.891 5 109705005.135 5     -2670.191          35.000                                                                  
E21  24380224.562 8 128118920.216 8     -1334.246          51.000    24380227.547 8  98169060.075 8     -1022.336          51.000  
E13  24435528.500 6 128409600.586 6      -969.090          41.000    24435530.648 6  98391787.233 6      -742.616          39.000  
E26  23335777.023 8 122630307.571 8      1983.551          51.000    23335781.062 8  93963521.562 8      1519.894          51.000  
C30  21521176.453 8 112066506.609 8       190.445          51.000  
C29  23841796.562 8 124150576.771 8      2896.660          49.000  
> 2020 05 08 11 07  0.0000000  0 13      -0.000000000000
G32  23606737.656 6 124054316.533 6     -2663.668          41.000    23606740.094 6  96665660.256 6     -2075.589          41.000  
G12  22042717.211 5 115835249.811 5     -2470.457          32.000    22042717.141 5  90261249.000 5     -1925.035          30.000  
G25  20391975.297 8 107160567.474 8      -983.016          51.000    20391977.203 8  83501749.511 8      -765.986          51.000  
G29  20344839.750 8 106912847.147 8       878.887          51.000    20344838.289 8  83308733.659 8       684.847          51.000  
R14  20391917.695 8 108700011.938 8     -2258.473          51.000    20391922.336 8  84544447.831 8     -1756.590          50.000  
R17  19309628.391 8 103329317.112 8      1451.859          51.000    19309630.625 8  80367263.232 8      1129.221          48.000  
R24  20530478.789 6 109785300.965 6     -2688.574          36.000                                                                  
E21  24387861.734 8 128159052.771 8     -1340.781          51.000    24387865.047 8  98199810.989 8     -1027.379          51.000  
E13  24441099.891 7 128438878.239 7      -982.113          42.000    24441102.992 6  98414220.767 6      -752.568          40.000  
E26  23324486.328 8 122570972.678 8      1972.465          51.000    23324490.523 8  93918057.187 8      1511.391          51.000  
C30  21520122.312 8 112061019.411 8       175.820          51.000  
C29  23825130.609 8 124063793.774 8      2889.219          49.000  
C27  23886388.188 5 124382682.739 5     -2614.086          34.000  
> 2020 05 08 11 07 30.0000000  0 14      -0.000000000000
G32  23621969.742 6 124134365.036 6     -2672.508          38.000    23621972.750 6  96728035.689 6     -2082.471          38.000  
G12  22056847.055 5 115909512.90725     -2478.633          32.000                                                                  
G25  20397622.898 8 107190245.395 8      -995.148          51.000    20397624.672 8  83524875.161 8      -775.441          51.000  
G29  20339871.484 8 106886739.731 8       861.883          51.000    20339870.562 8  83288390.225 8       671.597          51.000  
R14  20404675.102 8 108768017.014 8     -2274.863          51.000    20404680.016 8  84597340.640 8     -1769.339          49.000  
R15  19454516.188 6 103958644.946 6      1374.363          36.000    19454521.164 5  80856741.94125      1068.949          30.000  
R17  19301561.898 8 103286150.823 8      1426.160          51.000    19301564.141 8  80333689.449 8      1109.236          48.000  
R24  20545624.828 6 109866251.367 6     -2707.984          39.000    20545627.703 4  85451567.938 4     -2106.214          26.000  
E21  24395539.078 8 128199396.820 8     -1348.488          51.000    24395542.555 8  98230723.946 8     -1033.252          51.000  
E13  24446749.508 6 128468565.148 6      -996.574          40.000    24446753.094 6  98436967.911 6      -763.624          39.000  
E26  23313261.914 8 122511986.896 8      1960.121          51.000    23313266.195 8  93872860.301 8      1501.951          51.000  
C30  21519156.164 8 112055989.099 8       159.812          51.000  
C29  23808511.508 8 123977254.295 8      2880.414          50.000  
C27  23901477.188 6 124461246.174 6     -2622.746          36.000  
> 2020 05 08 11 08  0.0000000  0 13      -0.000000000000
G32  23637247.734 7 124214652.535 7     -2680.492          42.000    23637251.227 7  96790597.379 7     -2088.699          42.000  
G25  20403332.828 8 107220251.093 8     -1005.758          51.000    20403334.734 8  83548256.213 8      -783.708          51.000  
G29  20334993.828 8 106861107.472 8       846.266          51.000    20334993.281 8  83268417.022 8       659.428          51.000  
R14  20417518.820 8 108836479.120 8     -2289.898          51.000    20417523.070 8  84650588.928 8     -1781.032          49.000  
R15  19446841.688 6 103917642.184 6      1358.793          37.000    19446844.836 5  80824850.431 5      1056.842          30.000  
R17  19293633.164 8 103243722.629 8      1401.828          51.000    19293635.383 8  80300689.765 8      1090.311          48.000  
R24  20560864.594 5 109947747.376 5     -2726.074          35.000    20560876.398 4  85514969.886 4     -2120.271          26.000  
E21  24403254.203 8 128239940.111 8     -1354.957          51.000    24403257.562 8  98261789.573 8     -1038.205          51.000  
E13  24452474.336 6 128498647.740 6     -1009.484          39.000    24452477.078 6  98460018.206 6      -773.268          38.000  
E26  23302101.539 8 122453338.950 8      1949.098          51.000    23302106.000 8  93827922.276 8      1493.471          51.000  
C30  21518275.281 8 112051402.843 8       145.309          51.000  
C29  23791937.703 8 123890947.305 8      2872.824          51.000  
C27  23916607.039 6 124540032.753 6     -2630.191          36.000  
> 2020 05 08 11 08 30.0000000  0 13      -0.000000000000
G32  23652571.055 7 124295175.213 7     -2688.410          47.000    23652574.406 7  96853342.268 7     -2094.866          42.000  
G25  20409104.969 8 107250583.656 8     -1016.977          51.000    20409106.852 8  83571891.956 8      -792.453          51.000  
G29  20330206.430 8 106835949.421 8       830.203          51.000    20330205.898 8  83248813.338 8       646.912          51.000  
R14  20430447.867 8 108905396.640 8     -2305.246          51.000    20430451.672 8  84704191.404 8     -1792.973          49.000  
R15  19439252.836 4 103877088.16224      1342.734          29.000    19439257.461 5  80793309.97025      1044.349          31.000  
R17  19285842.336 8 103202032.331 8      1376.949          50.000    19285844.062 7  80268263.970 7      1070.961          46.000  
R24  20576206.914 6 110029784.597 6     -2744.246          37.000                                                                  
E21  24411007.344 8 128280681.993 8     -1361.758          51.000    24411010.312 8  98293007.371 8     -1043.452          51.000  
E13  24458274.047 6 128529124.202 6     -1022.891          40.000    24458276.242 6  98483370.354 6      -783.914          38.000  
E26  23291005.383 8 122395029.195 8      1937.559          51.000    23291009.383 8  93783243.394 8      1484.603          51.000  
C30  21517479.289 8 112047259.286 8       130.414          51.000  
C29  23775409.141 8 123804873.388 8      2864.758          51.000  
C27  23931778.742 5 124619039.625 5     -2637.312          35.000  
> 2020 05 08 11 09  0.0000000  0 14      -0.000000000000
G32  23667941.234 7 124375943.838 7     -2696.977          47.000    23667944.180 6  96916278.773 6     -2101.544          41.000  
G14  23118725.461 5 121489694.127 5     -1404.879          34.000                                                                  
G25  20414941.844 8 107281256.728 8     -1028.434          51.000    20414943.797 8  83595793.033 8      -801.380          51.000  
G29  20325512.016 8 106811279.367 8       813.809          51.000    20325511.531 8  83229589.935 8       634.137          51.000  
R14  20443464.656 8 108974783.206 8     -2321.176          51.000    20443468.398 8  84758158.684 8     -1805.359          50.000  
R15  19431760.398 5 103837043.323 5      1326.020          33.000    19431766.008 5  80762163.426 5      1031.346          31.000  
R17  19278192.227 8 103161095.333 8      1351.617          50.000    19278193.562 7  80236424.076 7      1051.258          47.000  
R24  20591646.297 5 110112371.77625     -2762.281          31.000                                                                  
E21  24418800.734 8 128321636.550 8     -1369.027          51.000    24418803.633 8  98324388.128 8     -1048.975          51.000  
E13  24464151.125 6 128560007.335 6     -1036.660          40.000    24464154.242 6  98507034.049 6      -794.405          39.000  
E26  23279976.555 8 122337072.705 8      1925.613          51.000    23279979.703 8  93738835.198 8      1475.471          51.000  
C30  21516770.922 8 112043571.664 8       114.910          51.000  
C29  23758928.008 8 123719047.586 8      2856.293          49.000  
C27  23946995.750 5 124698278.608 5     -2644.691          31.000  
> 2020 05 08 11 09 30.0000000  0 15      -0.000000000000
G02  23571517.250 5 123869158.27625     -1887.227          31.000                                                                  
G32  23683357.570 7 124456954.946 7     -2704.621          46.000    23683359.961 7  96979404.224 7     -2107.501          43.000  
G14  23126791.422 5 121532060.295 5     -1419.988          32.000                                                                  
G25  20420843.391 8 107312269.823 8     -1039.730          51.000    20420845.391 8  83619959.067 8      -810.180          51.000  
G29  20320910.492 8 106787096.722 8       797.672          51.000    20320910.219 8  83210746.319 8       621.563          51.000  
R14  20456569.188 8 109044637.737 8     -2336.578          51.000    20456573.148 8  84812489.960 8     -1817.339          50.000  
R15  19424360.477 5 103797487.726 5      1309.637          35.000    19424362.258 5  80731398.027 5      1018.607          31.000  
R17  19270683.070 8 103120912.172 8      1326.641          50.000    19270684.188 7  80205170.515 7      1031.832          45.000  
R24  20607193.359 5 110195507.402 5     -2780.574          33.000    20607230.750 4  85707718.494 4     -2162.666          29.000  
E21  24426634.453 8 128362803.620 8     -1376.059          51.000    24426637.492 8  98355931.723 8     -1054.377          51.000  
E13                                                                  24470108.922 6  98531008.252 6      -804.666          38.000  
E26  23269015.359 8 122279470.288 8      1913.895          51.000    23269017.648 8  93694698.321 8      1466.491          51.000  
C30  21516150.031 8 112040339.111 8        99.879          51.000  
C29  23742493.422 7 123633470.980 7      2848.207          46.000  
C27  23962257.359 4 124777762.05324     -2652.676          28.000  
> 2020 05 08 11 10  0.0000000  0 12      -0.000000000000
G32  23698821.258 7 124538216.431 7     -2712.871          43.000    23698823.570 7  97042724.794 7     -2113.926          43.000  
G25  20426811.633 8 107343633.817 8     -1051.277          51.000    20426813.625 8  83644398.543 8      -819.177          51.000  
G29  20316403.570 8 106763412.367 8       781.148          51.000    20316403.352 8  83192290.981 8       608.687          51.000  
R14  20469763.453 8 109114970.522 8     -2352.371          51.000    20469767.023 8  84867193.217 8     -1829.619          49.000  
R15  19417053.734 6 103758435.085 6      1293.316          38.000    19417056.422 5  80701023.691 5      1005.907          33.000  
R17  19263316.938 8 103081494.664 8      1301.137          51.000    19263317.523 7  80174512.425 7      1011.995          45.000  
R24  20622845.734 5 110279198.601 5     -2799.066          33.000    20622887.383 4  85772811.798 4     -2177.046          25.000  
E21  24434510.812 8 128404194.435 8     -1383.320          51.000    24434513.773 8  98387646.753 8     -1059.926          51.000  
E13  24476139.031 5 128622977.083 5     -1063.438          34.000    24476140.484 6  98555300.519 6      -815.052          39.000  
E26  23258123.867 8 122222234.099 8      1901.848          51.000    23258125.367 8  93650842.067 8      1457.285          50.000  
C30  21515618.805 8 112037572.036 8        84.449          51.000  
C29  23726107.414 7 123548155.760 7      2839.512          45.000  
> 2020 05 08 11 10 30.0000000  0 11      -0.000000000000
G32  23714327.617 6 124619705.242 6     -2720.109          41.000    23714330.938 6  97106222.545 6     -2119.569          41.000  
G25  20432842.758 8 107375328.527 8     -1061.969          50.000    20432844.789 8  83669095.711 8      -827.508          51.000  
G29  20311987.727 8 106740206.043 8       765.434          51.000    20311987.352 8  83174208.143 8       596.442          51.000  
R14  20483043.750 8 109185760.840 8     -2367.340          51.000    20483046.828 8  84922252.345 8     -1841.268          49.000  
R15  19409836.875 6 103719867.355 6      1277.492          36.000    19409840.625 5  80671026.558 5       993.602          33.000  
R17  19256090.359 8 103042823.377 8      1276.434          51.000    19256091.094 7  80144434.808 7       992.785          46.000  
E21  24442426.086 8 128445789.095 8     -1389.938          51.000    24442428.680 8  98419517.980 8     -1065.042          51.000  
E13  24482247.281 5 128655076.618 5     -1076.941          35.000    24482247.992 6  98579894.721 6      -824.860          40.000  
E26  23247298.211 8 122165345.256 8      1890.418          51.000    23247299.258 8  93607251.974 8      1448.461          50.000  
C30  21515173.062 8 112035250.004 8        69.887          51.000  
C29  23709768.719 7 123463083.366 7      2831.578          46.000  
> 2020 05 08 11 11  0.0000000  0 11      -0.000000000000
G32  23729877.430 7 124701422.080 7     -2727.441          42.000    23729881.812 7  97169897.973 7     -2125.280          42.000  
G25  20438937.492 8 107407357.593 8     -1072.812          50.000    20438939.727 8  83694053.420 8      -835.958          50.000  
G29  20307663.453 8 106717481.299 8       749.902          51.000    20307663.094 8  83156500.574 8       584.340          51.000  
R14  20496410.086 8 109257011.624 8     -2382.281          51.000    20496413.383 8  84977669.573 8     -1852.886          48.000  
R15  19402710.727 6 103681791.183 6      1261.617          39.000    19402712.609 5  80641411.745 5       981.258          32.000  
R17  19249003.766 8 103004902.941 8      1251.832          51.000    19249004.930 7  80114941.172 7       973.647          45.000  
E21  24450380.938 8 128487591.591 8     -1396.516          51.000    24450383.141 8  98451548.450 8     -1070.031          51.000  
E13                                                                  24488432.656 6  98604792.940 6      -834.752          41.000  
E26  23236539.422 8 122108808.685 8      1879.129          51.000    23236540.555 8  93563931.787 8      1439.865          50.000  
C30  21514813.523 8 112033376.226 8        55.422          51.000  
C29  23693478.789 7 123378258.841 7      2823.762          47.000  
> 2020 05 08 11 11 30.0000000  0 11      -0.000000000000
G32  23745469.570 7 124783358.737 7     -2734.465          46.000    23745474.031 7  97233744.673 7     -2130.756          43.000  
G25  20445094.961 8 107439715.677 8     -1083.500          51.000    20445097.352 8  83719267.513 8      -844.286          51.000  
G29  20303429.438 8 106695233.070 8       734.164          50.000    20303429.445 8  83139164.310 8       572.076          50.000  
R14  20509861.625 8 109328716.886 8     -2397.242          51.000    20509864.938 8  85033440.322 8     -1864.522          49.000  
R15  19395676.953 6 103644203.546 6      1245.332          39.000    19395677.883 5  80612176.892 5       968.592          34.000  
R17  19242056.312 8 102967728.862 8      1227.191          50.000    19242058.227 7  80086028.008 7       954.485          46.000  
E21  24458374.375 8 128529596.976 8     -1403.113          51.000    24458376.328 8  98483734.363 8     -1075.066          50.000  
E13                                                                  24494690.352 6  98629990.298 6      -844.588          40.000  
E26  23225846.797 8 122052620.383 8      1867.578          51.000    23225848.336 8  93520878.433 8      1431.062          51.000  
C30  21514539.023 8 112031945.012 8        40.781          51.000  
C29  23677236.711 8 123293678.396 8      2815.812          49.000  
> 2020 05 08 11 12  0.0000000  0 13      -0.000000000000
G02  23626353.922 5 124157325.199 5     -1962.348          31.000                                                                  
G32  23761090.031 7 124865443.623 7     -2749.480          47.000    23761093.266 6  97297706.887 6     -2142.450          41.000  
G12  22185672.445 5 116586495.25325     -2544.262          31.000                                                                  
G25  20451302.148 8 107472334.154 8     -1102.590          51.000    20451304.539 8  83744684.522 8      -859.161          51.000  
G29  20299272.891 8 106673391.968 8       710.273          51.000    20299272.953 8  83122145.273 8       553.460          51.000  
R14  20523385.062 8 109400806.378 8     -2420.566          50.000    20523389.305 8  85089509.890 8     -1882.663          49.000  
R15  19388721.148 6 103607036.971 6      1220.473          36.000    19388723.609 6  80583269.550 6       949.251          36.000  
R17  19235235.656 8 102931232.084 8      1194.066          50.000    19235238.547 7  80057641.665 7       928.719          47.000  
E21  24466393.469 8 128571736.905 8     -1417.930          51.000    24466395.297 8  98516023.378 8     -1086.442          51.000  
E13                                                                  24501007.312 6  98655433.504 6      -860.631          40.000  
E26  23215207.516 8 121996713.015 8      1847.789          51.000    23215209.695 8  93478040.312 8      1415.884          51.000  
C30  21514336.234 8 112030887.884 8        18.113          51.000  
C29  23661029.203 8 123209275.527 8      2799.516          50.000  
> 2020 05 08 11 12 30.0000000  0 13      -0.000000000000
G02  23637570.250 4 124216268.83124     -1966.535          29.000                                                                  
G32  23776781.555 8 124947902.211 8     -2747.473          49.000    23776782.812 6  97361960.275 6     -2140.891          40.000  
G12  22200184.625 5 116662733.006 5     -2541.250          33.000    22200184.766 5  90906044.973 5     -1980.195          33.000  
G25  20457602.375 8 107505441.301 8     -1104.309          51.000    20457604.648 8  83770482.299 8      -860.500          51.000  
G29  20295237.562 8 106652186.637 8       703.574          51.000    20295237.469 8  83105621.635 8       548.240          51.000  
R14  20537024.180 8 109473511.110 8     -2426.176          51.000    20537028.594 8  85146058.017 8     -1887.026          49.000  
R15  19381887.836 6 103570526.570 6      1213.359          39.000    19381890.719 5  80554872.553 5       943.724          35.000  
R17  19228585.453 8 102895646.159 8      1178.559          50.000    19228588.273 7  80029963.714 7       916.657          46.000  
E21  24474481.562 8 128614240.014 8     -1415.441          51.000    24474483.531 8  98548590.654 8     -1084.590          51.000  
E13                                                                  24507429.781 6  98681296.755 6      -863.423          40.000  
E26  23204665.367 8 121941316.071 8      1845.383          51.000    23204668.258 8  93435593.281 8      1414.004          51.000  
C30  21514248.781 8 112030430.662 8        12.594          51.000  
C29  23644899.180 8 123125277.874 8      2800.461          49.000  
> 2020 05 08 11 13  0.0000000  0 12      -0.000000000000
G32  23792495.000 8 125030475.800 8     -2757.285          49.000    23792494.883 6  97426303.295 6     -2148.538          40.000  
G12  22214720.344 5 116739111.844 5     -2550.199          31.000    22214720.812 4  90965560.887 4     -1987.172          29.000  
G25  20463946.977 8 107538781.471 8     -1118.230          51.000    20463949.203 8  83796461.650 8      -871.349          51.000  
G29  20291274.438 8 106631361.319 8       684.883          51.000    20291274.383 8  83089394.128 8       533.675          51.000  
R14  20550730.539 8 109546571.266 8     -2444.211          51.000    20550734.719 8  85202882.559 8     -1901.056          50.000  
R15  19375130.234 7 103534414.652 7      1194.168          42.000    19375132.609 6  80526785.510 6       928.797          36.000  
R17  19222057.094 8 102860711.383 8      1150.707          51.000    19222059.930 7  80002792.242 7       894.995          46.000  
E21  24482590.086 8 128656850.996 8     -1425.023          51.000    24482592.031 8  98581240.593 8     -1091.851          51.000  
E13  24513905.469 5 128821436.697 5     -1142.969          35.000    24513908.734 6  98707383.389 6      -875.423          40.000  
E26  23194172.227 8 121886175.127 8      1830.863          51.000    23194175.719 8  93393342.432 8      1402.861          51.000  
C30  21514227.797 8 112030319.537 8        -4.930          51.000  
C29  23628797.695 8 123041433.558 8      2789.363          48.000  
> 2020 05 08 11 13 30.0000000  0 12      -0.000000000000
G02  23660201.125 5 124335189.929 5     -1995.766          34.000                                                                  
G32  23808260.484 8 125113323.271 8     -2764.219          48.000    23808260.195 6  97490859.738 6     -2153.937          40.000  
G25  20470366.703 8 107572516.417 8     -1129.145          51.000    20470368.797 8  83822748.617 8      -879.850          51.000  
G29  20287414.602 8 106611077.852 8       669.023          51.000    20287414.031 8  83073588.839 8       521.320          51.000  
R14  20564534.055 8 109620150.247 8     -2459.320          51.000    20564538.133 8  85260110.624 8     -1912.805          50.000  
R15  19368478.633 7 103498868.381 7      1177.523          43.000    19368480.289 6  80499138.429 6       915.855          36.000  
R17  19215681.695 8 102826593.183 8      1125.641          50.000    19215684.000 7  79976255.882 7       875.498          46.000  
E21  24490749.961 8 128699731.995 8     -1432.086          51.000    24490752.141 8  98614097.443 8     -1097.262          51.000  
E13  24520473.258 5 128855954.249 5     -1155.535          34.000    24520473.445 6  98733816.603 6      -885.650          41.000  
E26  23183759.000 8 121831453.247 8      1818.906          51.000    23183762.766 8  93351412.700 8      1393.672          51.000  
C30  21514303.797 8 112030714.326 8       -19.730          51.000  
C29  23612755.805 7 122957904.372 7      2780.801          47.000  
> 2020 05 08 11 14  0.0000000  0 11      -0.000000000000
G32  23824056.898 7 125196333.697 7     -2769.836          47.000    23824057.312 6  97555543.139 6     -2158.317          41.000  
G25  20476840.945 8 107606538.105 8     -1138.832          51.000    20476842.797 8  83849259.001 8      -887.402          51.000  
G29  20283637.328 8 106591227.684 8       654.348          51.000    20283636.008 8  83058121.182 8       509.881          51.000  
R14  20578414.078 8 109694137.557 8     -2473.098          51.000    20578418.203 8  85317656.267 8     -1923.524          50.000  
R15  19361912.516 7 103463780.361 7      1162.113          43.000    19361914.688 6  80471847.762 6       903.866          37.000  
R17  19209438.297 8 102793182.438 8      1101.824          51.000    19209440.125 7  79950269.735 7       856.975          46.000  
E21  24498940.797 8 128742775.270 8     -1437.473          51.000    24498943.297 8  98647078.640 8     -1101.423          51.000  
E13  24527104.617 6 128890799.073 6     -1167.055          36.000    24527103.406 6  98760512.852 6      -894.282          41.000  
E26  23173405.133 8 121777043.623 8      1808.445          51.000    23173408.812 8  93309722.242 8      1385.666          51.000  
C30  21514456.078 8 112031507.551 8       -33.066          51.000  
C29  23596754.617 7 122874584.693 7      2773.719          47.000  
> 2020 05 08 11 14 30.0000000  0 12      -0.000000000000
G32  23839897.133 7 125279574.758 7     -2777.875          46.000    23839898.477 6  97620406.259 6     -2164.582          41.000  
G25  20483383.188 8 107640917.142 8     -1151.254          51.000    20483384.828 8  83876047.849 8      -897.081          51.000  
G29  20279955.922 8 106571881.448 8       637.113          51.000    20279954.562 8  83043046.199 8       496.449          51.000  
R14  20592383.664 8 109768604.268 8     -2489.613          51.000    20592387.711 8  85375574.791 8     -1936.366          49.000  
R18  22059849.633 6 117756590.621 6      4097.789          38.000    22059840.188 5  91588418.285 5      3187.167          31.000  
R15  19355445.227 6 103429225.157 6      1143.582          41.000    19355448.828 6  80444971.455 6       889.450          39.000  
R17  19203340.469 8 102760551.634 8      1075.328          51.000    19203342.289 7  79924890.249 7       836.367          46.000  
E21  24507175.867 8 128786051.785 8     -1445.805          51.000    24507178.883 8  98680238.550 8     -1107.804          51.000  
E13  24533813.062 6 128926052.889 6     -1181.492          37.000    24533812.242 6  98787525.484 6      -905.159          40.000  
E26  23163124.422 8 121723018.151 8      1795.035          51.000    23163127.789 8  93268326.121 8      1375.453          51.000  
C30  21514698.141 8 112032768.631 8       -49.230          51.000  
C29  23580808.422 8 122791545.852 8      2763.902          48.000  
> 2020 05 08 11 15  0.0000000  0 13      -0.000000000000
G32  23855766.219 7 125362894.43327     -2782.410          45.000                                                                  
G25  20489979.375 8 107675579.866 8     -1160.312          51.000    20489980.727 8  83903057.754 8      -904.140          51.000  
G29  20276356.250 8 106552965.386 8       623.230          51.000    20276355.086 8  83028306.402 8       485.631          51.000  
R14  20606429.070 8 109843475.140 8     -2502.547          51.000    20606433.148 8  85433807.677 8     -1946.426          50.000  
R18  22036843.469 5 117633759.658 5      4088.953          35.000    22036834.289 5  91492902.886 5      3180.298          32.000  
R15  19349064.398 7 103395130.193 7      1128.672          43.000    19349068.703 6  80418453.135 6       877.853          39.000  
R17  19197374.352 8 102728626.447 8      1052.348          50.000    19197375.984 7  79900059.546 7       818.490          46.000  
R24  20784757.508 5 111145010.291 5     -2968.336          34.000    20784747.938 4  86446082.310 4     -2308.709          27.000  
E21  24515441.211 8 128829488.220 8     -1450.801          51.000    24515444.516 8  98713520.995 8     -1111.647          51.000  
E13  24540586.148 5 128961649.886 5     -1192.098          33.000    24540585.352 6  98814797.319 6      -913.453          40.000  
E26  23152903.008 8 121669304.376 8      1785.020          51.000    23152906.141 8  93227168.830 8      1367.812          51.000  
C30  21515015.883 8 112034424.177 8       -61.898          51.000  
C29  23564902.898 8 122708716.380 8      2757.379          48.000  
> 2020 05 08 11 15 30.0000000  0 13      -0.000000000000
G32  23871692.641 7 125446590.854 7     -2790.438          45.000    23871696.461 7  97750597.686 7     -2174.371          42.000  
G14  23230226.305 5 122075646.477 5     -1597.531          35.000    23230224.258 5  95123884.327 5     -1244.830          31.000  
G25  20496657.234 8 107710672.914 8     -1172.617          51.000    20496658.719 8  83930402.986 8      -913.728          51.000  
G29  20272866.500 8 106534626.092 8       606.012          51.000    20272865.359 8  83014016.025 8       472.217          51.000  
R14  20620577.969 8 109918898.019 8     -2518.957          51.000    20620582.289 8  85492469.865 8     -1959.189          48.000  
R18  22013916.664 5 117511393.215 5      4076.332          33.000    22013903.711 4  91397722.90524      3170.481          29.000  
R15  19342798.656 7 103361647.165 7      1110.277          44.000    19342802.594 6  80392410.804 6       863.549          39.000  
R17  19191568.070 8 102697556.874 8      1025.754          51.000    19191569.945 7  79875894.353 7       797.812          47.000  
E21  24523765.297 8 128873231.474 8     -1459.012          51.000    24523768.320 8  98747038.561 8     -1117.906          51.000  
E13  24547450.773 6 128997724.832 6     -1206.629          39.000    24547450.430 6  98842439.949 6      -924.417          39.000  
E26  23142768.766 8 121616050.182 8      1771.781          49.000    23142772.023 8  93186363.673 8      1357.557          51.000  
C30  21515437.203 8 112036618.911 8       -77.895          51.000  
C29  23549065.055 7 122626242.977 7      2747.445          45.000  
> 2020 05 08 11 16  0.0000000  0 13      -0.000000000000
G32  23887643.500 7 125530412.303 7     -2797.398          45.000    23887647.070 7  97815913.057 7     -2179.792          43.000  
G14  23239389.750 6 122123792.717 6     -1612.156          36.000                                                                  
G25  20503385.281 8 107746029.919 8     -1184.344          51.000    20503387.094 8  83957953.889 8      -922.866          51.000  
G29  20269454.711 8 106516696.879 8       589.414          51.000    20269453.703 8  83000045.234 8       459.287          51.000  
R14  20634798.594 8 109994703.524 8     -2534.648          50.000    20634803.141 8  85551429.674 8     -1971.394          48.000  
R18  21991038.258 5 117389252.416 5      4065.566          34.000    21991045.352 5  91302782.19425      3162.102          32.000  
R15  19336616.000 7 103328609.366 7      1092.301          45.000    19336619.570 6  80366714.738 6       849.567          40.000  
R17  19185890.328 8 102667174.207 8       999.930          51.000    19185892.148 7  79852263.422 7       777.723          46.000  
E21  24532115.953 8 128917115.585 8     -1466.602          50.000    24532118.867 8  98780664.076 8     -1123.775          51.000  
E13  24554375.477 6 129034117.343 6     -1220.273          37.000    24554375.633 6  98870325.059 6      -934.614          39.000  
E26  23132690.391 8 121563090.402 8      1758.977          48.000    23132694.133 8  93145784.095 8      1347.776          51.000  
C30  21515930.289 8 112039187.493 8       -93.219          51.000  
C29  23533262.992 7 122543962.281 7      2737.969          44.000  
> 2020 05 08 11 16 30.0000000  0 14      -0.000000000000
G32  23903634.047 7 125614441.637 7     -2801.207          45.000    23903636.953 7  97881390.405 7     -2182.762          42.000  
G14  23248636.664 5 122172382.151 5     -1623.824          34.000                                                                  
G12  22317531.211 5 117279396.64125     -2591.258          32.000                                                                  
G25  20510179.281 8 107781733.161 8     -1192.812          51.000    20510181.258 8  83985774.585 8      -929.465          51.000  
G29  20266136.711 8 106499259.983 8       576.062          51.000    20266135.578 8  82986458.046 8       448.883          51.000  
R14  20649106.523 8 110070974.621 8     -2546.992          50.000    20649110.953 7  85610751.602 7     -1980.997          47.000  
R18  21968224.359 6 117267494.345 6      4057.133          37.000    21968226.930 5  91208057.20025      3155.548          34.000  
R15  19330532.852 7 103296103.387 7      1077.676          45.000    19330536.375 6  80341432.273 6       838.192          39.000  
R17  19180356.539 8 102637562.824 8       977.273          50.000    19180358.430 7  79829232.341 7       760.102          46.000  
E21  24540509.172 8 128961223.184 8     -1470.836          51.000    24540512.227 8  98814460.818 8     -1127.059          51.000  
E13  24561375.125 5 129070896.503 5     -1230.164          33.000    24561376.148 6  98898514.988 6      -942.396          38.000  
E26  23122684.359 8 121510508.514 8      1749.574          50.000    23122688.500 8  93105494.081 8      1340.548          51.000  
C30  21516510.703 8 112042210.977 8      -105.270          51.000  
C29  23517514.000 7 122461957.245 7      2731.828          46.000  
> 2020 05 08 11 17  0.0000000  0 13      -0.000000000000
G32  23919661.516 7 125698664.090 7     -2814.027          46.000    23919663.688 7  97947018.251 7     -2192.749          42.000  
G14  23257964.508 5 122221400.395 5     -1644.301          32.000                                                                  
G25  20517036.969 8 107817770.706 8     -1210.281          51.000    20517039.133 8  84013855.801 8      -943.077          51.000  
G29  20262910.062 8 106482303.264 8       553.727          51.000    20262908.797 8  82973245.019 8       431.475          51.000  
R14  20663499.633 8 110147698.220 8     -2568.570          50.000    20663504.219 7  85670425.502 7     -1997.777          47.000  
R18  21945471.148 6 117146016.090 6      4039.422          37.000    21945473.609 6  91113581.47426      3141.770          37.000  
R15  19324547.438 7 103264119.230 7      1053.805          45.000    19324549.914 6  80316555.725 6       819.626          39.000  
R17  19174964.922 8 102608710.844 8       945.477          50.000    19174967.211 7  79806791.928 7       735.374          46.000  
E21  24548943.156 8 129005542.700 8     -1484.488          51.000    24548946.188 8  98848419.934 8     -1137.475          51.000  
E13  24568448.930 6 129108070.582 6     -1249.227          37.000    24568450.195 6  98926999.802 6      -957.299          38.000  
E26  23112748.617 8 121458293.799 8      1730.727          51.000    23112752.883 8  93065485.437 8      1326.154          51.000  
C30  21517176.352 8 112045677.023 8      -126.488          51.000  
C29  23501816.773 8 122380217.418 8      2716.848          48.000  
> 2020 05 08 11 17 30.0000000  0 12      -0.000000000000
G32  23935730.508 7 125783104.517 7     -2816.137          46.000    23935732.102 7  98012815.917 7     -2194.393          42.000  
G25  20523963.578 8 107854170.484 8     -1217.176          51.000    20523965.828 8  84042219.236 8      -948.449          51.000  
G29  20259779.836 8 106465854.292 8       541.988          51.000    20259778.898 8  82960427.612 8       422.329          51.000  
R14  20677982.773 8 110224901.770 8     -2579.270          50.000    20677987.688 7  85730472.657 7     -2006.099          47.000  
R18  21922780.016 6 117024913.611 6      4032.594          41.000    21922788.172 6  91019394.318 6      3136.462          37.000  
R15  19318665.258 7 103232687.798 7      1040.652          45.000    19318666.898 6  80292109.050 6       809.396          40.000  
R17  19169720.688 8 102580647.497 8       924.496          51.000    19169722.648 7  79784964.868 7       719.050          45.000  
E21  24557423.039 8 129050102.296 8     -1487.172          51.000    24557425.531 8  98882562.973 8     -1139.537          51.000  
E13  24575601.305 6 129145657.362 6     -1257.434          36.000    24575603.773 6  98955799.993 6      -963.593          39.000  
E26  23102888.641 8 121406475.324 8      1722.789          51.000    23102892.508 8  93025780.373 8      1320.066          51.000  
C30  21517931.891 8 112049612.668 8      -136.863          51.000  
C29  23486176.500 8 122298771.819 8      2712.102          49.000  
> 2020 05 08 11 18  0.0000000  0 13      -0.000000000000
G32  23951828.109 7 125867695.460 7     -2823.043          47.000    23951829.297 6  98078730.877 6     -2199.777          41.000  
G25  20530946.906 8 107890867.787 8     -1229.207          51.000    20530949.055 8  84070814.524 8      -957.824          51.000  
G29  20256734.016 8 106449848.193 8       525.117          51.000    20256733.445 8  82947955.333 8       409.182          51.000  
R14  20692543.977 8 110302519.110 8     -2595.098          50.000    20692548.766 8  85790841.665 8     -2018.410          48.000  
R18  21900153.539 6 116904127.483 6      4019.953          40.000    21900161.602 6  90925451.636 6      3126.631          38.000  
R15  19312875.000 7 103201745.941 7      1022.270          47.000    19312876.812 6  80268043.135 6       795.096          41.000  
R17  19164611.977 8 102553307.312 8       898.301          51.000    19164613.664 7  79763700.282 7       698.679          47.000  
R24  20886395.055 5 111688555.07025     -3068.098          33.000                                                                  
E21  24565936.352 8 129094837.656 8     -1495.012          51.000    24565938.219 8  98916840.689 8     -1145.541          51.000  
E13  24582819.320 5 129183590.102 5     -1270.754          34.000    24582823.211 6  98984865.343 6      -973.976          38.000  
E26  23093091.836 8 121354989.609 8      1709.699          51.000    23093095.320 8  92986330.288 8      1310.015          51.000  
C30  21518765.164 8 112053953.321 8      -152.359          50.000  
C29  23470580.969 8 122217557.831 8      2702.281          51.000  
> 2020 05 08 11 18 30.0000000  0 14      -0.000000000000
G32  23967956.695 8 125952450.126 8     -2825.199          48.000    23967957.742 6  98144773.414 6     -2201.455          40.000  
G12  22377072.289 5 117592303.091 5     -2615.797          33.000    22377086.906 5  91630386.261 5     -2038.284          32.000  
G25  20537989.922 8 107927878.707 8     -1236.234          51.000    20537991.945 8  84099654.185 8      -963.300          51.000  
G29  20253775.594 8 106434301.220 8       513.242          51.000    20253775.086 8  82935840.808 8       399.929          51.000  
R14  20707185.688 8 110380565.927 8     -2605.992          51.000    20707190.352 8  85851544.708 8     -2026.883          49.000  
R18  21877588.148 6 116783675.367 6      4012.598          39.000    21877596.875 6  90831766.677 6      3120.910          39.000  
R15  19307180.312 8 103171312.401 8      1008.703          48.000    19307182.070 7  80244372.611 7       784.547          42.000  
R17  19159641.484 8 102526706.971 8       877.129          51.000    19159643.055 7  79743011.144 7       682.208          47.000  
R24  20903662.625 6 111780791.308 6     -3080.000          37.000    20903639.656 4  86940601.01024     -2395.556          26.000  
E21  24574486.281 8 129139765.207 8     -1498.055          51.000    24574487.602 8  98951265.676 8     -1147.933          51.000  
E13  24590106.305 5 129221879.902 5     -1279.898          32.000    24590109.516 6  99014207.314 6      -980.492          37.000  
E26  23083361.289 8 121303853.924 8      1701.402          51.000    23083364.711 8  92947148.415 8      1303.682          51.000  
C30  21519679.219 8 112058714.414 8      -163.141          49.000  
C29  23455033.195 8 122136592.795 8      2697.371          51.000  
> 2020 05 08 11 19  0.0000000  0 14      -0.000000000000
G02  23790026.555 5 125017436.889 5     -2139.762          34.000                                                                  
G32  23984127.195 7 126037426.126 7     -2837.047          47.000    23984128.430 6  98210988.421 6     -2210.690          40.000  
G25  20545104.141 8 107965263.822 8     -1253.133          51.000    20545106.008 8  84128785.436 8      -976.467          51.000  
G29  20250915.789 8 106419273.106 8       491.555          51.000    20250915.422 8  82924130.604 8       383.030          51.000  
R14  20721919.445 8 110459102.690 8     -2626.828          51.000    20721923.336 8  85912628.839 8     -2043.089          49.000  
R18  21855095.344 5 116663612.990 5      3994.520          33.000    21855106.047 6  90738384.905 6      3106.849          40.000  
R15  19301592.383 8 103141451.319 8       985.012          48.000    19301594.438 7  80221147.330 7       766.120          42.000  
R17  19154820.727 8 102500908.617 8       845.777          51.000    19154821.930 7  79722945.759 7       657.827          47.000  
R24  20921012.820 5 111873586.592 5     -3101.445          32.000                                                                  
E21  24583084.109 8 129184945.870 8     -1511.047          51.000    24583085.273 8  98985884.596 8     -1157.858          51.000  
E13  24597474.227 5 129260598.174 5     -1298.387          32.000    24597476.141 6  99043871.538 6      -994.776          38.000  
E26  23073709.008 8 121253130.038 8      1683.012          51.000    23073712.305 8  92908282.078 8      1289.653          51.000  
C30  21520685.359 8 112063955.346 8      -183.398          49.000  
C29  23439544.812 8 122055938.191 8      2682.562          51.000  
> 2020 05 08 11 19 30.0000000  0 15      -0.000000000000
G02  23802263.930 5 125081740.095 5     -2149.992          35.000                                                                  
G32  24000322.336 7 126122533.573 7     -2839.605          46.000    24000324.211 6  98277305.862 6     -2212.680          41.000  
G14  23305805.094 5 122472856.86525     -1709.520          33.000                                                                  
G12  22407052.953 5 117749852.767 5     -2631.895          34.000                                                                  
G25  20552272.930 8 108002936.109 8     -1261.012          51.000    20552274.820 8  84158140.455 8      -982.607          51.000  
G29  20248138.141 8 106404676.840 8       478.859          51.000    20248138.141 8  82912756.920 8       373.137          51.000  
R14  20736728.250 8 110538040.409 8     -2638.449          51.000    20736731.883 8  85974024.818 8     -2052.128          49.000  
R15  19296095.609 8 103112076.634 8       970.492          49.000    19296096.797 7  80198300.375 7       754.830          42.000  
R17  19150133.414 8 102475823.948 8       823.801          51.000    19150134.297 7  79703435.476 7       640.734          47.000  
R24  20938443.383 4 111966873.492 4     -3115.691          28.000                                                                  
E21  24591713.258 8 129230292.947 8     -1514.887          51.000    24591714.656 8  99020631.034 8     -1160.764          51.000  
E13  24604902.180 5 129299640.976 5     -1307.844          33.000    24604908.273 6  99073790.532 6     -1002.192          38.000  
E26  23064118.414 8 121202732.085 8      1673.945          51.000    23064121.531 8  92869665.484 8      1282.658          51.000  
C30  21521766.938 8 112069589.286 8      -194.781          50.000  
C29  23424099.141 8 121975509.145 8      2676.699          51.000  
> 2020 05 08 11 20  0.0000000  0 15      -0.000000000000
G02  23814584.625 6 125146481.693 6     -2162.777          36.000                                                                  
G32  24016561.945 7 126207875.919 7     -2846.262          46.000    24016564.367 6  98343806.355 6     -2217.867          41.000  
G12  22422103.867 6 117828950.296 6     -2638.027          36.000    22422110.672 5  91814800.599 5     -2055.615          35.000  
G25  20559516.594 8 108041001.903 8     -1272.941          51.000    20559518.633 8  84187802.070 8      -991.903          51.000  
G29  20245462.867 8 106390618.737 8       462.086          51.000    20245463.047 8  82901802.572 8       360.067          51.000  
R14  20751632.211 8 110617486.207 8     -2654.215          51.000    20751635.828 8  86035815.950 8     -2064.393          50.000  
R18  21810315.969 6 116424570.037 6      3973.184          37.000    21810313.750 6  90552435.332 6      3090.258          41.000  
R15  19290710.352 8 103083299.022 8       951.660          49.000    19290711.703 7  80175917.787 7       740.177          44.000  
R17  19145599.539 8 102451561.729 8       797.512          51.000    19145600.430 8  79684564.875 8       620.287          48.000  
R24  20955935.305 5 112060417.53425     -3130.449          32.000                                                                  
E21  24600394.344 8 129275913.085 8     -1522.875          51.000    24600395.898 8  99055586.698 8     -1166.867          51.000  
E13  24612414.836 6 129339112.607 6     -1321.344          36.000    24612423.664 6  99104044.942 6     -1012.435          37.000  
E26  23054609.812 8 121152767.554 8      1660.594          51.000    23054613.109 8  92831380.966 8      1272.422          51.000  
C30  21522944.625 8 112075721.043 8      -210.285          50.000  
C29  23408716.703 8 121895412.430 8      2666.766          50.000  
> 2020 05 08 11 20 30.0000000  0 15      -0.000000000000
G02  23826968.250 5 125211555.172 5     -2174.652          35.000    23826973.688 5  97567473.824 5     -1694.535          33.000  
G32  24032825.891 7 126293345.314 7     -2851.109          46.000    24032828.203 6  98410405.812 6     -2221.644          41.000  
G12  22437184.320 5 117908190.050 5     -2643.309          31.000    22437190.133 5  91876545.400 5     -2059.752          31.000  
G25  20566815.180 8 108079356.334 8     -1283.410          51.000    20566817.070 8  84217688.616 8     -1000.063          51.000  
G29  20242870.000 8 106376993.482 8       446.855          51.000    20242870.078 8  82891185.506 8       348.199          51.000  
R14  20766611.430 8 110697332.714 8     -2668.363          51.000    20766614.977 8  86097918.738 8     -2075.397          49.000  
R18  21788015.555 6 116305541.611 6      3962.074          37.000    21788013.859 6  90459857.667 6      3081.614          41.000  
R15  19285417.031 8 103055014.315 8       934.480          49.000    19285419.289 7  80153918.559 7       726.815          44.000  
R17  19141199.117 8 102428015.406 8       772.758          50.000    19141200.367 7  79666251.080 7       601.034          47.000  
R24  20973574.930 5 112154676.343 5     -3144.395          34.000    20973550.734 4  87231391.19124     -2445.638          26.000  
E21  24609107.352 8 129321701.753 8     -1529.270          51.000    24609109.539 8  99090671.511 8     -1171.779          51.000  
E13  24619992.039 5 129378929.095 5     -1332.387          34.000    24619997.992 5  99134553.600 5     -1021.190          35.000  
E26  23045164.047 8 121103132.705 8      1648.762          51.000    23045167.484 8  92793349.066 8      1263.395          51.000  
C30  21524197.781 8 112082246.119 8      -224.145          51.000  
C29  23393378.352 8 121815545.512 8      2658.137          50.000  
> 2020 05 08 11 21  0.0000000  0 15      -0.000000000000
G02  23839432.656 5 125277055.535 5     -2186.156          34.000    23839435.617 5  97618502.917 5     -1703.499          30.000  
G32  24049132.227 7 126379035.865 7     -2855.316          46.000    24049133.797 7  98477177.604 7     -2224.929          42.000  
G12  22452304.961 5 117987661.092 5     -2648.305          32.000                                                                  
G25  20574187.164 8 108118096.260 8     -1293.035          51.000    20574188.969 8  84247875.555 8     -1007.560          51.000  
G29  20240377.812 8 106363897.654 8       432.391          51.000    20240378.008 8  82880980.991 8       336.931          51.000  
R14  20781683.828 8 110777677.360 8     -2681.734          51.000    20781687.148 8  86160409.015 8     -2085.794          49.000  
R18  21765791.000 6 116186928.012 6      3951.398          38.000    21765791.938 7  90367602.686 7      3073.311          42.000  
R15  19280235.102 8 103027323.242 8       917.910          50.000    19280237.414 7  80132381.064 7       713.933          44.000  
R17  19136950.578 8 102405283.711 8       748.945          49.000    19136952.328 7  79648570.883 7       582.513          47.000  
R24  20991269.320 5 112249326.848 5     -3158.676          34.000                                                                  
E21  24617870.688 8 129367756.176 8     -1534.891          51.000    24617873.836 8  99125959.943 8     -1176.068          51.000  
E13                                                                  24627653.125 5  99165389.911 5     -1029.950          34.000  
E26  23035800.250 8 121053925.522 8      1637.828          51.000    23035803.523 8  92755644.884 8      1254.957          51.000  
C30  21525544.656 8 112089259.903 8      -237.199          51.000  
C29  23378103.391 8 121736005.730 8      2650.422          50.000  
> 2020 05 08 11 21 30.0000000  0 17      -0.000000000000
G02  23851937.531 4 125342768.196 4     -2200.555          29.000                                                                  
G21  23544062.438 6 123724884.54626      3422.207          37.000                                                                  
G18  23864417.336 6 125408354.893 6      3716.539          37.000    23864413.781 5  97720801.403 5      2896.011          31.000  
G32  24065439.734 7 126464731.922 7     -2861.438          47.000    24065440.844 6  98543953.678 6     -2229.692          41.000  
G25  20581592.023 8 108157008.910 8     -1304.734          51.000    20581593.789 8  84278197.061 8     -1016.676          51.000  
G29  20237945.664 8 106351118.180 8       415.926          51.000    20237946.227 8  82871022.957 8       324.098          51.000  
R14  20796809.141 8 110858303.818 8     -2697.059          51.000    20796812.508 8  86223118.411 8     -2097.716          49.000  
R18  21743605.078 6 116068516.172 6      3938.945          37.000    21743608.273 7  90275504.602 7      3063.628          43.000  
R15  19275124.148 8 103000012.090 8       899.141          50.000    19275126.648 7  80111139.047 7       699.329          45.000  
R17  19132813.977 8 102383150.594 8       722.938          50.000    19132816.406 8  79631356.236 8       562.285          48.000  
R24  21009017.898 5 112344252.085 5     -3173.875          33.000                                                                  
E21  24626644.500 8 129413863.896 8     -1542.539          51.000    24626648.055 8  99161289.227 8     -1181.958          51.000  
E13                                                                  24635352.797 5  99196389.988 5     -1039.714          33.000  
E26  23026477.922 8 121004934.397 8      1624.734          51.000    23026480.938 8  92718106.247 8      1244.930          51.000  
C30  21526945.078 8 112096550.952 8      -252.387          50.000  
C29  23362851.367 8 121656583.684 8      2640.781          49.000  
C27  24340574.148 5 126747753.688 5     -2812.043          32.000  
> 2020 05 08 11 22  0.0000000  0 17      -0.000000000000
G21  23524563.633 6 123622417.677 6      3411.641          38.000                                                                  
G18  23843229.281 6 125297009.616 6      3709.176          37.000    23843230.508 5  97634038.783 5      2890.271          33.000  
G32  24081812.344 8 126550770.095 8     -2871.566          48.000    24081813.695 6  98610996.323 6     -2237.588          41.000  
G14  23355635.898 5 122734694.24725     -1782.441          34.000                                                                  
G25  20589094.375 8 108196433.833 8     -1320.754          51.000    20589096.203 8  84308917.776 8     -1029.159          51.000  
G29  20235638.617 8 106338994.208 8       395.152          51.000    20235639.086 8  82861575.708 8       307.911          51.000  
R14  20812051.633 8 110939555.274 8     -2716.773          50.000    20812054.742 8  86286313.946 8     -2113.046          48.000  
R18  21721522.773 6 115950654.364 6      3921.238          39.000    21721528.211 7  90183834.352 7      3049.853          43.000  
R15  19270149.211 8 102973428.521 8       875.980          51.000    19270152.000 7  80090462.925 7       681.318          45.000  
R17  19128853.867 8 102361961.717 8       692.551          51.000    19128856.852 8  79614876.022 8       538.651          48.000  
R24  21026893.555 5 112439853.626 5     -3194.129          33.000                                                                  
E21  24635493.133 8 129460364.753 8     -1554.551          51.000    24635496.898 8  99196919.759 8     -1191.177          51.000  
E13                                                                  24643158.469 5  99227813.260 5     -1053.051          32.000  
E26  23017261.711 8 120956499.946 8      1607.172          51.000    23017264.328 8  92680994.182 8      1231.488          51.000  
C30  21528462.859 8 112104455.053 8      -271.691          50.000  
C29  23347686.656 8 121577617.144 8      2626.566          49.000  
C27  24356815.398 5 126832310.398 5     -2822.402          35.000  
> 2020 05 08 11 22 30.0000000  0 15      -0.000000000000
G18  23822055.359 6 125185742.001 6      3707.566          39.000    23822057.078 6  97547336.764 6      2889.014          36.000  
G32  24098213.180 7 126636956.754 7     -2875.352          47.000    24098215.188 6  98678154.668 6     -2240.537          41.000  
G25  20596657.812 8 108236180.276 8     -1330.355          51.000    20596659.781 8  84339889.004 8     -1036.641          51.000  
G29  20233420.055 8 106327334.752 8       380.816          51.000    20233420.219 8  82852490.424 8       296.740          51.000  
R14  20827374.641 8 111021237.473 8     -2730.066          50.000    20827378.133 8  86349844.496 8     -2123.388          48.000  
R18  21699509.414 6 115833152.166 6      3910.484          39.000    21699515.742 6  90092443.774 6      3041.489          41.000  
R15  19265274.742 8 102947380.851 8       859.238          51.000    19265277.375 7  80070203.639 7       668.297          45.000  
R17  19125034.430 8 102341522.997 8       668.699          50.000    19125037.273 7  79598979.246 7       520.099          47.000  
E21  24644380.414 8 129507068.359 8     -1560.320          51.000    24644384.383 8  99232705.618 8     -1195.562          51.000  
E01  23723002.594 6 124665219.007 6       805.250          39.000    23723002.617 6  95522702.101 6       617.211          40.000  
E13                                                                  24651029.273 5  99259479.601 5     -1061.390          30.000  
E26  23008115.242 8 120908432.522 8      1596.027          51.000    23008117.555 8  92644163.344 8      1222.868          51.000  
C30  21530062.227 8 112112782.610 8      -284.648          51.000  
C29  23332573.305 8 121498918.571 8      2618.586          49.000  
C27  24373086.398 5 126917033.628 5     -2826.707          34.000  
> 2020 05 08 11 23  0.0000000  0 16      -0.000000000000
G18  23800894.266 6 125074542.184 6      3705.680          40.000    23800895.820 6  97460687.524 6      2887.541          37.000  
G32  24114639.164 7 126723276.165 7     -2879.559          44.000    24114642.078 7  98745416.478 7     -2243.816          42.000  
G12  22513129.203 5 118307293.21225     -2676.391          34.000                                                                  
G25  20604280.000 8 108276235.280 8     -1340.285          51.000    20604281.875 8  84371100.684 8     -1044.378          51.000  
G29  20231287.359 8 106316126.803 8       366.137          51.000    20231287.227 8  82843756.957 8       285.301          51.000  
R14  20842776.156 8 111103336.319 8     -2743.594          50.000    20842779.516 8  86413699.164 8     -2133.904          48.000  
R18  21677562.555 6 115715999.511 6      3899.086          40.000    21677568.914 6  90001325.164 6      3032.626          38.000  
R15  19260498.477 8 102921858.502 8       841.965          51.000    19260501.211 7  80050352.913 7       654.862          46.000  
R17  19121352.820 8 102321821.513 8       644.492          50.000    19121355.539 7  79583655.889 7       501.272          47.000  
E21  24653304.258 8 129553962.092 8     -1566.230          51.000    24653307.906 8  99268637.179 8     -1200.138          51.000  
E01  23718420.336 6 124641141.574 6       799.438          40.000    23718420.977 6  95504253.139 6       612.679          40.000  
E13                                                                  24658966.617 5  99291440.333 5     -1069.756          31.000  
E26  22999036.273 8 120860720.325 8      1584.445          51.000    22999038.547 8  92607604.677 8      1214.101          51.000  
C30  21531740.305 8 112121520.165 8      -298.078          50.000  
C29  23317509.352 8 121420476.398 8      2610.484          50.000  
C27  24389386.273 5 127001909.096 5     -2832.109          34.000  
> 2020 05 08 11 23 30.0000000  0 17      -0.000000000000
G18  23779744.555 6 124963402.416 6      3704.801          38.000    23779746.086 5  97374085.119 5      2886.859          31.000  
G32  24131087.867 6 126809714.696 6     -2882.125          40.000    24131091.359 6  98812771.128 6     -2245.812          40.000  
G12  22528414.953 5 118387614.62125     -2679.844          30.000                                                                  
G25  20611958.992 8 108316588.151 8     -1348.746          51.000    20611960.977 8  84402544.463 8     -1050.971          51.000  
G29  20229238.508 8 106305359.261 8       352.816          51.000    20229238.047 8  82835366.655 8       274.919          51.000  
R14  20858253.625 8 111185840.159 8     -2755.598          49.000    20858257.109 8  86477868.781 8     -2143.243          48.000  
R18  21655680.023 6 115599189.068 6      3889.527          38.000    21655685.672 6  89910472.686 6      3025.192          36.000  
R15  19255818.961 8 102896852.963 8       826.203          51.000    19255821.773 7  80030904.147 7       642.603          47.000  
R17  19117807.102 8 102302846.414 8       621.613          51.000    19117809.320 7  79568897.495 7       483.477          46.000  
R24  21080963.656 5 112728945.209 5     -3233.328          33.000                                                                  
E21  24662262.367 8 129601035.637 8     -1570.918          51.000    24662265.445 8  99304706.500 8     -1203.667          51.000  
E01  23713872.367 6 124617243.420 6       795.043          41.000    23713873.820 6  95485941.545 6       608.899          41.000  
E13  24666968.062 5 129625851.652 5     -1406.215          34.000    24666969.086 5  99323662.471 5     -1077.436          32.000  
E26  22990023.016 8 120813353.786 8      1574.289          51.000    22990025.438 8  92571310.851 8      1206.244          51.000  
C30  21533494.766 8 112130656.467 8      -309.965          50.000  
C29  23302492.609 8 121342281.438 8      2603.527          49.000  
C27  24405712.398 5 127086924.447 5     -2835.289          33.000  
> 2020 05 08 11 24  0.0000000  0 16      -0.000000000000
G18  23758611.688 6 124852352.231 6      3699.438          36.000    23758614.727 4  97287552.556 4      2882.682          28.000  
G32  24147563.688 6 126896295.877 6     -2888.945          39.000    24147567.711 6  98880236.978 6     -2251.124          39.000  
G12  22543743.766 6 118468151.490 6     -2687.656          36.000    22543751.312 5  92312908.425 5     -2094.272          32.000  
G25  20619699.734 8 108357265.328 8     -1362.004          51.000    20619701.859 8  84434240.951 8     -1061.302          51.000  
G29  20227278.320 8 106295058.078 8       335.000          51.000    20227277.453 8  82827339.767 8       261.039          51.000  
R14  20873812.023 8 111268774.909 8     -2772.270          50.000    20873815.609 8  86542373.568 8     -2156.210          48.000  
R18  21633864.156 6 115482751.135 6      3874.113          36.000    21633872.273 6  89819909.867 6      3013.206          38.000  
R15  19251241.602 8 102872393.401 8       805.496          51.000    19251244.484 7  80011880.036 7       626.497          47.000  
R17  19114402.188 8 102284624.602 8       594.195          51.000    19114404.219 7  79554724.981 7       462.152          47.000  
E21  24671259.773 8 129648315.710 8     -1580.090          51.000    24671262.234 8  99340934.064 8     -1210.671          51.000  
E01  23709364.016 6 124593552.052 6       785.781          41.000    23709365.930 6  95467788.435 6       601.937          40.000  
E13  24675037.656 5 129668197.013 5     -1420.438          33.000    24675040.055 5  99356159.443 5     -1088.271          34.000  
E26  22981080.656 8 120766360.405 8      1559.582          51.000    22981083.375 8  92535302.934 8      1195.008          51.000  
C30  21535331.125 8 112140217.041 8      -326.402          51.000  
C29  23287528.109 8 121264361.239 8      2592.195          48.000  
C27  24422070.602 5 127172104.283 5     -2842.973          34.000  
> 2020 05 08 11 24 30.0000000  0 15      -0.000000000000
G18  23737500.852 5 124741415.723 5      3694.836          35.000    23737504.102 5  97201108.475 5      2879.088          32.000  
G32  24164070.164 6 126983038.126 6     -2895.570          40.000    24164074.617 6  98947828.338 6     -2256.292          40.000  
G25  20627506.156 8 108398287.962 8     -1374.430          50.000    20627508.219 8  84466206.643 8     -1070.984          50.000  
G29  20225410.977 8 106285244.127 8       317.754          51.000    20225409.328 8  82819692.546 8       247.601          51.000  
R14  20889454.711 8 111352161.245 8     -2788.336          48.000    20889458.875 8  86607229.563 8     -2168.709          48.000  
R18  21612123.930 6 115366710.140 6      3860.023          40.000    21612133.117 6  89729655.764 6      3002.244          40.000  
R15  19246771.117 8 102848504.003 8       785.582          51.000    19246774.016 7  79993299.393 7       611.008          47.000  
R17  19111141.961 8 102267177.805 8       567.359          50.000    19111144.031 7  79541155.270 7       441.280          47.000  
E21  24680300.602 8 129695823.783 8     -1588.742          51.000    24680302.391 8  99377336.344 8     -1217.319          51.000  
E01  23704899.141 7 124570089.905 7       776.754          42.000    23704901.391 6  95449810.907 6       595.283          40.000  
E13                                                                  24683182.805 5  99388947.566 5     -1098.573          34.000  
E26  22972213.461 8 120719762.418 8      1545.340          51.000    22972216.367 8  92499597.973 8      1184.107          51.000  
C30  21537252.688 8 112150222.203 8      -342.164          50.000  
C29  23272620.523 8 121186738.137 8      2581.246          48.000  
C27  24438465.180 5 127257467.862 5     -2849.574          34.000  
> 2020 05 08 11 25  0.0000000  0 16      -0.000000000000
G32  24180602.344 7 127069916.296 7     -2896.723          42.000    24180607.648 6  99015525.562 6     -2257.187          41.000  
G14  23417950.523 5 123062136.74925     -1855.844          30.000                                                                  
G12  22574502.133 5 118629806.86125     -2697.812          35.000    22574508.594 5  92438831.25525     -2102.192          34.000  
G25  20635374.016 8 108439633.770 8     -1381.918          50.000    20635376.008 8  84498424.134 8     -1076.820          51.000  
G29  20223632.000 8 106275894.713 8       305.617          51.000    20223630.000 8  82812407.287 8       238.143          51.000  
R14  20905177.883 8 111435975.388 8     -2799.207          49.000    20905182.297 7  86672418.312 7     -2177.161          47.000  
R18  21590456.438 7 115251046.803 7      3850.816          42.000    21590465.094 7  89639695.411 7      2995.080          42.000  
R15  19242403.430 8 102825164.029 8       770.469          51.000    19242406.320 8  79975146.074 8       599.251          48.000  
R17  19108022.180 8 102250483.136 8       545.656          50.000    19108024.141 7  79528170.514 7       424.399          46.000  
E21  24689380.438 8 129743537.892 8     -1592.238          51.000    24689382.086 8  99413896.474 8     -1220.081          51.000  
E01  23700473.742 7 124546835.711 7       773.293          42.000    23700475.406 6  95431992.739 6       592.595          40.000  
E13  24691389.328 6 129754128.212 6     -1442.414          37.000    24691393.617 5  99422008.913 5     -1105.305          35.000  
E26  22963417.195 8 120673538.569 8      1536.168          51.000    22963420.367 8  92464179.685 8      1177.049          51.000  
C30  21539255.141 8 112160649.197 8      -353.012          51.000  
C29  23257767.039 8 121109391.325 8      2575.273          50.000  
C27  24454891.117 5 127342991.624 5     -2852.184          31.000  
> 2020 05 08 11 25 30.0000000  0 17      -0.000000000000
G32  24197143.688 7 127156842.815 7     -2902.848          43.000    24197150.227 6  99083260.443 6     -2261.963          38.000  
G14  23428579.414 5 123117984.674 5     -1870.945          33.000                                                                  
G12  22589916.945 5 118710813.09625     -2705.992          34.000    22589930.141 5  92501939.92925     -2108.587          34.000  
G25  20643287.195 8 108481218.036 8     -1394.473          51.000    20643289.070 8  84530827.460 8     -1086.602          51.000  
G29  20221925.102 8 106266924.784 8       288.316          51.000    20221923.258 8  82805417.729 8       224.659          51.000  
R14  20920965.695 8 111520130.671 8     -2815.277          50.000    20920969.523 8  86737872.427 8     -2189.664          49.000  
R18  21568844.250 7 115135678.488 7      3836.523          42.000    21568852.812 7  89549964.512 7      2983.966          44.000  
R15  19238122.852 8 102802290.035 8       750.266          51.000    19238125.844 8  79957355.177 8       583.540          48.000  
R17  19105026.695 8 102234454.473 8       518.840          50.000    19105028.773 7  79515703.775 7       403.542          47.000  
R24  21154184.547 5 113120505.734 5     -3291.406          34.000    21154191.688 4  87982677.70624     -2559.983          24.000  
E21  24698483.250 8 129791373.689 8     -1600.859          51.000    24698485.000 8  99450549.850 8     -1226.657          51.000  
E01  23696071.922 7 124523705.993 7       764.676          44.000    23696073.031 6  95414269.986 6       585.912          41.000  
E13                                                                  24699657.094 6  99455277.787 6     -1115.826          36.000  
E26  22954675.797 8 120627605.269 8      1521.863          51.000    22954679.406 8  92428984.059 8      1166.134          51.000  
C30  21541322.180 8 112171413.445 8      -368.684          51.000  
C29  23242951.531 8 121032238.323 8      2564.227          51.000  
C27  24471330.844 5 127428589.908 5     -2858.672          32.000  
> 2020 05 08 11 26  0.0000000  0 15      -0.000000000000
G32  24213743.375 7 127244075.592 7     -2914.754          42.000    24213751.180 6  99151233.997 6     -2271.238          40.000  
G14  23439312.359 5 123174387.717 5     -1891.383          33.000                                                                  
G25  20651295.383 8 108523301.556 8     -1412.820          51.000    20651297.219 8  84563619.809 8     -1100.896          51.000  
G29  20220339.914 8 106258594.703 8       265.105          51.000    20220338.016 8  82798926.745 8       206.576          51.000  
R14  20936866.844 8 111604890.621 8     -2837.293          50.000    20936870.508 8  86803796.776 8     -2206.784          48.000  
R18  21547337.164 7 115020873.109 7      3815.527          43.000    21547346.156 7  89460671.468 7      2967.633          44.000  
R15  19233979.531 8 102780149.312 8       723.906          51.000    19233982.320 8  79940134.615 8       563.038          48.000  
R17  19102205.039 8 102219357.159 8       485.879          50.000    19102207.523 7  79503961.443 7       377.906          47.000  
E21  24707658.859 8 129839592.268 8     -1615.551          51.000    24707660.539 8  99487496.533 8     -1237.863          51.000  
E01  23691743.711 7 124500962.661 7       749.754          45.000    23691745.180 7  95396843.293 7       574.478          42.000  
E13                                                                  24708021.641 6  99488953.119 6     -1130.716          37.000  
E26  22946039.750 8 120582224.322 8      1501.578          51.000    22946043.328 8  92394211.669 8      1150.594          51.000  
C30  21543503.562 8 112182772.666 8      -390.387          51.000  
C29  23228222.891 8 120955538.790 8      2547.285          50.000  
C27  24487833.914 5 127514519.599 5     -2871.629          34.000  
> 2020 05 08 11 26 30.0000000  0 17      -0.000000000000
G18  23653243.859 5 124298634.014 5      3686.668          32.000                                                                  
G32  24230348.836 6 127331339.005 6     -2908.086          41.000    24230357.703 6  99219231.441 6     -2266.045          40.000  
G14  23450098.148 5 123231070.885 5     -1893.809          32.000                                                                  
G25  20659346.742 8 108565611.519 8     -1412.754          51.000    20659348.539 8  84596588.604 8     -1100.848          51.000  
G29  20218824.500 8 106250631.433 8       260.660          51.000    20218822.414 8  82792721.594 8       203.112          51.000  
R14  20952829.273 8 111689977.467 8     -2840.316          51.000    20952832.500 8  86869975.436 8     -2209.135          48.000  
R18  21525884.508 7 114906356.863 7      3813.676          44.000    21525893.125 7  89371603.296 7      2966.193          43.000  
R15  19229922.055 8 102758466.886 8       716.402          51.000    19229924.602 8  79923270.492 8       557.202          48.000  
R17  19099505.508 8 102204913.262 8       471.836          50.000    19099508.344 7  79492727.308 7       366.984          47.000  
R24  21191279.188 5 113318916.679 5     -3315.051          31.000                                                                  
E21  24716855.438 8 129887921.112 8     -1611.516          51.000    24716857.234 8  99524527.708 8     -1234.783          51.000  
E01  23687437.453 7 124478334.078 7       753.652          44.000    23687439.906 7  95379504.495 7       577.549          43.000  
E13  24716430.250 5 129885714.644 5     -1476.426          34.000    24716433.672 6  99522824.975 6     -1131.270          37.000  
E26  22937457.398 8 120537123.975 8      1499.980          51.000    22937460.195 8  92359654.275 8      1149.366          51.000  
C30  21545747.328 8 112194455.792 8      -393.500          51.000  
C29  23213529.141 8 120879023.820 8      2548.715          50.000  
C27  24504347.539 5 127600508.669 5     -2865.449          33.000  
> 2020 05 08 11 27  0.0000000  0 16      -0.000000000000
G18  23632232.141 5 124188215.552 5      3676.594          34.000                                                                  
G32  24246982.164 7 127418746.762 7     -2917.988          42.000    24246991.281 6  99287341.343 6     -2273.758          39.000  
G14  23460959.977 4 123288148.237 4     -1910.504          29.000                                                                  
G25  20667463.375 8 108608264.556 8     -1429.414          51.000    20667465.219 8  84629824.715 8     -1113.829          51.000  
G29  20217401.055 8 106243151.062 8       239.363          51.000    20217398.781 8  82786892.749 8       186.517          51.000  
R14  20968874.875 8 111775508.516 8     -2860.352          50.000    20968878.023 8  86936499.580 8     -2224.718          48.000  
R18  21504508.930 7 114792251.535 7      3794.547          43.000    21504516.352 6  89282854.737 6      2951.315          41.000  
R15  19225973.008 8 102737363.829 8       691.777          51.000    19225975.203 8  79906857.003 8       538.049          48.000  
R17  19096950.109 8 102191241.487 8       440.879          49.000    19096953.305 7  79482093.722 7       342.906          47.000  
E21  24726094.953 8 129936477.196 8     -1624.105          51.000    24726097.078 8  99561732.982 8     -1244.466          51.000  
E01  23683175.555 7 124455938.059 7       740.824          45.000    23683178.828 7  95362343.897 7       567.639          44.000  
E13                                                                  24724915.914 6  99556981.842 6     -1144.685          38.000  
E26  22928950.430 8 120492421.875 8      1481.602          51.000    22928952.367 8  92325402.038 8      1135.248          51.000  
C30  21548075.203 8 112206577.722 8      -413.238          51.000  
C29  23198892.758 8 120802810.249 8      2533.465          49.000  
C27  24520893.891 5 127686671.221 5     -2876.234          33.000  
> 2020 05 08 11 27 30.0000000  0 17      -0.000000000000
G02  24007631.195 6 126160938.994 6     -2354.129          36.000                                                                  
G18  23611218.055 6 124077781.146 6      3663.562          38.000                                                                  
G32  24263614.766 6 127506150.257 6     -2930.895          40.000    24263623.203 6  99355447.909 6     -2283.815          36.000  
G14  23471870.078 5 123345503.062 5     -1933.430          31.000                                                                  
G25  20675617.570 8 108651114.751 8     -1449.445          51.000    20675619.281 8  84663214.469 8     -1129.438          51.000  
G29  20216041.680 8 106236007.380 8       214.680          51.000    20216039.484 8  82781326.258 8       167.283          51.000  
R14  20984976.086 8 111861335.029 8     -2883.832          51.000    20984978.820 7  87003253.458 7     -2242.984          47.000  
R18  21483183.102 7 114678411.982 7      3772.219          45.000    21483189.133 6  89194312.915 6      2933.951          40.000  
R15  19222104.766 8 102716693.912 8       663.676          51.000    19222107.086 8  79890780.417 8       516.192          49.000  
R17  19094511.391 8 102178193.205 8       406.480          49.000    19094515.109 7  79471945.083 7       316.152          47.000  
E21  24735350.242 8 129985114.990 8     -1640.242          51.000    24735352.672 8  99599000.876 8     -1256.789          51.000  
E01  23678930.250 7 124433629.902 7       724.379          45.000    23678933.828 7  95345250.632 7       555.002          44.000  
E13                                                                  24733442.289 6  99591311.171 6     -1160.650          39.000  
E26  22920491.188 8 120447973.181 8      1459.809          50.000    22920493.492 8  92291343.989 8      1118.474          51.000  
C30  21550459.570 8 112218993.224 8      -436.242          51.000  
C29  23184286.828 8 120726754.855 8      2514.879          50.000  
C27  24537445.320 4 127772916.07024     -2891.004          28.000  
> 2020 05 08 11 28  0.0000000  0 16      -0.000000000000
G02  24021053.305 5 126231477.491 5     -2348.629          35.000                                                                  
G18  23590265.547 6 123967669.173 6      3676.703          40.000    23590266.562 5  96598191.983 5      2864.961          32.000  
G32  24280309.984 6 127593882.032 6     -2918.230          40.000    24280315.648 5  99423810.259 5     -2273.953          35.000  
G14  23482890.633 5 123403418.738 5     -1927.754          30.000                                                                  
G25  20683873.102 8 108694497.466 8     -1443.348          51.000    20683874.734 8  84697019.156 8     -1124.687          51.000  
G29  20214809.922 8 106229535.530 8       216.211          51.000    20214808.305 8  82776283.247 8       168.476          51.000  
R14  21001195.938 8 111947795.882 8     -2880.863          51.000    21001198.375 7  87070500.690 7     -2240.675          46.000  
R18  21461972.531 8 114565182.421 8      3775.996          48.000    21461976.891 6  89106245.543 6      2936.886          41.000  
R15  19218381.867 8 102696800.510 8       661.902          51.000    19218384.547 8  79875307.753 8       514.813          49.000  
R17  19092252.945 8 102166109.496 8       398.609          48.000    19092257.000 7  79462546.665 7       310.030          46.000  
E21  24744685.102 8 130034170.138 8     -1630.531          51.000    24744687.789 8  99636588.579 8     -1249.336          51.000  
E01  23674765.641 7 124411746.089 7       733.977          45.000    23674769.328 7  95328482.512 7       562.461          45.000  
E13  24742071.484 6 130020454.826 6     -1509.320          38.000    24742075.461 6  99626068.986 6     -1156.831          38.000  
E26  22912144.602 8 120404114.289 8      1463.770          51.000    22912147.500 8  92257737.842 8      1121.521          51.000  
C30  21552963.859 8 112232033.831 8      -433.594          51.000  
C29  23169775.852 8 120651191.251 8      2522.129          51.000  
> 2020 05 08 11 28 30.0000000  0 16      -0.000000000000
G02  24034541.742 5 126302368.235 5     -2377.750          32.000                                                                  
G18  23569337.156 6 123857687.544 6      3654.863          38.000    23569335.039 5  96512492.076 5      2847.958          33.000  
G32  24297030.039 6 127681744.026 6     -2939.539          41.000    24297031.344 5  99492274.101 5     -2290.548          31.000  
G12  22683212.133 5 119201137.909 5     -2752.371          33.000                                                                  
G25  20692192.719 8 108738217.608 8     -1471.660          51.000    20692194.398 8  84731086.770 8     -1146.749          51.000  
G29  20213668.711 8 106223539.508 8       183.230          51.000    20213667.672 8  82771611.001 8       142.777          51.000  
R14  21017497.180 8 112034692.311 8     -2912.699          50.000    21017499.930 7  87138086.724 7     -2265.433          47.000  
R18  21440839.914 8 114452367.422 8      3744.668          51.000    21440842.922 7  89018500.605 7      2912.523          42.000  
R15  19214767.609 8 102677487.412 8       625.137          51.000    19214770.211 8  79860286.442 8       486.218          49.000  
R17  19090137.758 8 102154791.680 8       355.574          49.000    19090141.773 7  79453743.909 7       276.558          46.000  
E21  24754062.375 8 130083447.847 8     -1654.980          51.000    24754064.922 8  99674346.798 8     -1268.154          51.000  
E01  23670645.055 7 124390092.711 7       709.156          44.000    23670648.859 7  95311890.950 7       543.359          45.000  
E13  24750774.258 6 130066179.829 6     -1538.930          39.000    24750776.422 6  99661104.939 6     -1179.115          37.000  
E26  22903873.891 8 120360651.078 8      1433.422          51.000    22903876.945 8  92224434.833 8      1098.364          51.000  
C30  21555551.086 8 112245505.540 8      -464.945          51.000  
C29  23155322.875 8 120575927.430 8      2495.113          51.000  
> 2020 05 08 11 29  0.0000000  0 15      -0.000000000000
G18  23548431.375 6 123747828.067 6      3665.848          39.000    23548426.172 5  96426887.431 5      2856.502          31.000  
G32  24313771.992 6 127769722.185 6     -2928.332          39.000    24313770.453 4  99560828.414 4     -2281.833          29.000  
G12  22698894.797 5 119283489.10625     -2743.320          32.000    22698890.281 5  92948161.18625     -2137.653          32.000  
G25  20700574.359 8 108782263.815 8     -1467.629          51.000    20700576.164 8  84765408.469 8     -1143.607          51.000  
G29  20212616.133 8 106218007.865 8       182.762          51.000    20212615.312 8  82767300.626 8       142.412          51.000  
R14  21033877.469 8 112122011.569 8     -2911.578          48.000    21033881.344 8  87206001.689 8     -2264.561          50.000  
R18  21419783.422 8 114339958.884 8      3746.289          51.000    21419784.766 7  88931071.819 7      2913.781          42.000  
R15  19211260.164 8 102658745.379 8       621.227          51.000    19211262.812 8  79845709.299 8       483.176          49.000  
R17  19088163.586 8 102144227.597 8       345.582          48.000    19088167.898 7  79445527.424 7       268.786          46.000  
E21  24763480.102 8 130132937.069 8     -1647.141          51.000    24763482.250 8  99712267.097 8     -1262.119          51.000  
E01  23666566.586 7 124368659.599 7       716.801          46.000    23666570.414 7  95295468.155 7       549.207          45.000  
E13  24759542.461 5 130112255.277 5     -1535.480          33.000    24759542.367 6  99696409.449 6     -1176.583          36.000  
E26  22895676.750 8 120317573.171 8      1435.527          51.000    22895679.641 8  92191427.074 8      1099.989          51.000  
C30  21558218.648 8 112259396.317 8      -464.055          51.000  
C29  23140925.586 8 120500953.441 8      2500.293          51.000  
> 2020 05 08 11 29 30.0000000  0 14      -0.000000000000
G18  23527532.234 6 123638003.139 6      3653.086          37.000    23527527.586 5  96341309.647 5      2846.571          32.000  
G32  24330518.203 6 127857723.081 6     -2940.512          37.000    24330516.719 4  99629398.563 4     -2291.293          27.000  
G25  20709000.812 8 108826545.376 8     -1486.832          51.000    20709002.672 8  84799913.556 8     -1158.574          51.000  
G29  20211634.430 8 106212849.455 8       158.840          51.000    20211633.586 8  82763281.095 8       123.771          51.000  
R14  21050318.961 7 112209660.866 7     -2934.078          46.000    21050324.547 8  87274173.379 8     -2282.061          50.000  
R18  21398785.914 8 114227867.850 8      3723.996          51.000    21398785.961 7  88843889.961 7      2896.445          43.000  
R15  19207842.758 8 102640484.568 8       593.656          51.000    19207845.609 8  79831506.440 8       461.733          49.000  
R17  19086313.266 8 102134324.806 8       312.156          49.000    19086316.789 7  79437825.241 7       242.788          45.000  
E21  24772920.812 8 130182547.462 8     -1662.562          51.000    24772922.703 8  99750280.234 8     -1273.921          51.000  
E01  23662513.180 7 124347357.248 7       700.992          47.000    23662516.742 7  95279145.572 7       537.193          45.000  
E13  24768357.969 6 130158596.207 6     -1555.605          37.000    24768357.992 6  99731912.167 6     -1191.671          37.000  
E26  22887535.703 8 120274790.870 8      1414.301          51.000    22887538.578 8  92158645.849 8      1083.686          51.000  
C30  21560949.414 8 112273615.589 8      -486.270          51.000  
C29  23126566.953 8 120426180.733 8      2482.297          51.000  
> 2020 05 08 11 30  0.0000000  0 16      -0.000000000000
G18  23506664.234 5 123528339.332 5      3656.594          34.000    23506659.812 5  96255857.446 5      2849.298          34.000  
G32  24347289.711 5 127945910.90025     -2936.078          33.000                                                                  
G14  23527629.570 5 123638524.658 5     -1980.332          34.000    23527638.750 5  96341759.279 5     -1543.141          34.000  
G25  20717495.617 8 108871185.779 8     -1490.000          51.000    20717497.336 8  84834698.261 8     -1161.039          51.000  
G29  20210747.141 8 106208187.379 8       151.125          51.000    20210746.430 8  82759648.313 8       117.760          51.000  
R14  21066846.758 8 112297764.321 8     -2940.211          49.000    21066852.617 8  87342698.296 8     -2286.831          50.000  
R18  21377871.242 8 114116222.900 8      3718.109          51.000    21377871.078 7  88757055.038 7      2891.864          43.000  
R15  19204539.484 8 102622832.720 8       582.312          51.000    19204542.477 8  79817777.215 8       452.910          49.000  
R17  19084610.148 8 102125208.754 8       294.949          49.000    19084613.133 7  79430734.978 7       229.405          46.000  
E21  24782407.977 8 130232402.836 8     -1661.707          51.000    24782409.938 8  99788481.079 8     -1273.272          51.000  
E01  23658508.289 8 124326310.331 8       701.488          48.000    23658511.453 7  95263018.719 7       537.468          45.000  
E13  24777247.633 6 130205311.440 6     -1559.383          41.000    24777247.852 6  99767706.888 6     -1194.805          37.000  
E26  22879474.672 8 120232428.664 8      1409.324          51.000    22879477.820 8  92126186.525 8      1079.863          51.000  
C30  21563766.742 8 112288284.991 8      -492.453          51.000  
C29  23112270.336 8 120351732.980 8      2480.047          49.000  
C27  24620813.930 5 128207036.629 5     -2901.875          33.000  
> 2020 05 08 11 30 30.0000000  0 14      -0.000000000000
G14  23538976.102 5 123698145.894 5     -1995.457          35.000    23538981.391 5  96388217.329 5     -1554.914          34.000  
G25  20726040.117 8 108916087.545 8     -1504.414          51.000    20726041.992 8  84869686.624 8     -1172.271          51.000  
G29  20209935.664 8 106203923.485 8       132.129          51.000    20209935.188 8  82756325.800 8       102.958          51.000  
R14  21083441.883 8 112386222.146 8     -2957.785          50.000    21083447.188 8  87411498.831 8     -2300.500          50.000  
R18  21357020.984 8 114004928.245 8      3700.461          48.000    21357022.039 7  88670492.535 7      2878.137          44.000  
R15  19201332.031 8 102605692.841 8       559.348          51.000    19201334.938 8  79804446.194 8       435.048          49.000  
R17  19083035.344 8 102116779.451 8       266.113          50.000    19083037.922 7  79424178.880 7       206.977          46.000  
E21  24791923.312 8 130282406.025 8     -1672.523          51.000    24791925.609 8  99826795.164 8     -1281.581          51.000  
E01  23654533.789 8 124305422.586 8       690.270          48.000    23654536.180 7  95247013.818 7       529.019          46.000  
E13  24786190.875 5 130252309.046 5     -1574.516          35.000    24786191.914 6  99803717.976 6     -1206.451          37.000  
E26  22871475.461 8 120190390.097 8      1392.629          51.000    22871478.672 8  92093975.154 8      1067.023          51.000  
C30  21566651.719 8 112303307.188 8      -509.855          51.000  
C29  23098016.797 7 120277514.944 7      2466.719          47.000  
C27  24637555.023 5 128294218.134 5     -2910.527          35.000  
> 2020 05 08 11 31  0.0000000  0 15      -0.000000000000
G14  23550397.508 6 123758166.068 6     -2001.734          36.000    23550404.922 5  96434986.332 5     -1559.800          32.000  
G25  20734654.188 8 108961355.187 8     -1509.418          51.000    20734656.352 8  84904960.082 8     -1176.170          51.000  
G29  20209219.828 8 106200162.003 8       122.617          51.000    20209219.594 8  82753394.775 8        95.546          51.000  
R14  21100122.672 8 112475139.214 8     -2965.938          51.000    21100127.992 8  87480656.466 8     -2306.844          49.000  
R18  21336256.570 8 113894093.336 8      3692.375          49.000    21336259.195 7  88584287.610 7      2871.848          45.000  
R15  19198240.641 8 102589173.533 8       545.922          51.000    19198243.828 8  79791597.831 8       424.606          50.000  
R17  19081608.805 8 102109143.372 8       246.984          50.000    19081610.617 7  79418239.701 7       192.099          46.000  
R24  21361859.477 5 114231076.71325     -3431.250          31.000                                                                  
E21  24801486.703 8 130332661.864 8     -1674.031          51.000    24801489.086 8  99865302.851 8     -1282.697          51.000  
E01  23650609.828 8 124284799.707 8       688.398          49.000    23650611.266 7  95231211.884 7       527.465          46.000  
E13                                                                  24795208.609 6  99840024.639 6     -1210.875          37.000  
E26  22863557.680 8 120148780.637 8      1385.211          51.000    22863561.164 8  92062092.578 8      1061.438          51.000  
C30  21569624.109 8 112318784.980 8      -518.031          51.000  
C29  23083826.367 7 120203631.422 7      2462.695          46.000  
C27  24654330.836 5 128381583.333 5     -2909.438          35.000  
> 2020 05 08 11 31 30.0000000  0 15      -0.000000000000
G18  23444201.531 5 123200098.596 5      3637.609          35.000                                                                  
G14  23561897.922 5 123818600.680 5     -2021.406          35.000    23561906.648 5  96482078.171 5     -1575.122          35.000  
G25  20743341.336 8 109007006.804 8     -1528.168          50.000    20743343.617 8  84940532.726 8     -1190.781          50.000  
G29  20208603.000 8 106196920.532 8        99.418          51.000    20208603.031 8  82750868.955 8        77.469          51.000  
R14  21116893.188 8 112564532.561 8     -2987.676          51.000    21116897.734 8  87550184.566 8     -2323.751          48.000  
R18  21315583.320 8 113783739.612 8      3670.398          51.000    21315585.984 7  88498456.956 7      2854.755          45.000  
R15  19195269.203 8 102573295.547 8       518.535          51.000    19195272.359 8  79779248.272 8       403.305          49.000  
R17  19080333.805 8 102102318.259 8       214.016          51.000    19080335.266 7  79412931.292 7       166.457          47.000  
E21  24811101.555 8 130383188.748 8     -1688.723          51.000    24811103.977 8  99904018.248 8     -1293.990          51.000  
E01  23646739.883 8 124264460.973 8       673.199          49.000    23646740.992 7  95215627.665 7       515.888          47.000  
E13  24804299.219 6 130347474.233 6     -1599.461          39.000    24804302.211 6  99876639.848 6     -1225.457          38.000  
E26  22855724.648 8 120107619.309 8      1364.566          51.000    22855728.492 8  92030553.393 8      1045.545          51.000  
C30  21572687.312 8 112334735.554 8      -539.602          50.000  
C29  23069704.977 8 120130101.642 8      2445.016          48.000  
C27  24671146.750 6 128469148.614 6     -2922.516          37.000  
> 2020 05 08 11 32  0.0000000  0 18      -0.000000000000
G02  24130642.945 6 126807384.850 6     -2443.664          36.000    24130647.992 5  98810968.738 5     -1904.154          34.000  
G18  23423399.898 5 123090804.882 5      3635.840          34.000    23423396.461 5  95914883.333 5      2833.117          34.000  
G14  23573426.422 6 123879182.179 6     -2030.254          37.000    23573434.164 5  96529284.488 5     -1582.016          32.000  
G12  22793548.695 5 119780921.708 5     -2781.480          34.000    22793544.266 5  93335750.164 5     -2167.388          33.000  
G25  20752051.070 8 109052776.765 8     -1536.219          51.000    20752053.180 8  84976197.627 8     -1197.054          51.000  
G29  20208034.383 8 106193932.977 8        86.730          51.000    20208034.438 8  82748540.991 8        67.582          51.000  
R14  21133702.414 8 112654132.012 8     -2998.855          51.000    21133706.062 7  87619872.958 7     -2332.447          47.000  
R18  21294950.781 8 113673600.266 8      3658.914          50.000    21294953.047 7  88412793.050 7      2845.826          45.000  
R15  19192367.711 8 102557790.727 8       501.723          51.000    19192370.891 8  79767188.956 8       390.229          49.000  
R17  19079159.578 8 102096033.225 8       191.688          51.000    19079160.883 7  79408042.943 7       149.090          47.000  
R24  21400542.555 5 114437927.76325     -3460.977          30.000                                                                  
E21  24820717.562 8 130433721.446 8     -1693.125          51.000    24820720.555 8  99942738.072 8     -1297.333          51.000  
E01  23642873.508 8 124244142.021 8       668.391          49.000    23642874.719 7  95200058.592 7       512.153          47.000  
E13  24813418.555 6 130395396.262 6     -1608.383          37.000    24813422.508 6  99913359.272 6     -1232.281          38.000  
E26  22847926.562 8 120066641.522 8      1354.211          51.000    22847930.664 8  91999154.827 8      1037.643          51.000  
C30  21575790.289 8 112350894.958 8      -550.742          49.000  
C29  23055601.859 8 120056663.658 8      2437.781          49.000  
C27  24687951.227 6 128556649.207 6     -2924.055          40.000  
> 2020 05 08 11 32 30.0000000  0 17      -0.000000000000
G02  24144641.125 6 126880939.386 6     -2454.680          36.000                                                                  
G18  23402670.250 5 122981887.972 5      3630.684          33.000    23402672.125 5  95830013.082 5      2829.096          33.000  
G14  23585065.898 6 123940348.305 6     -2042.559          38.000    23585072.445 5  96576946.365 5     -1591.599          34.000  
G25  20760867.203 8 109099105.604 8     -1547.320          51.000    20760869.273 8  85012298.021 8     -1205.704          51.000  
G29  20207597.734 8 106191639.367 8        71.168          51.000    20207597.836 8  82746753.784 8        55.456          51.000  
R14  21150633.766 8 112744383.204 8     -3012.988          51.000    21150636.625 7  87690068.259 7     -2343.436          47.000  
R18  21274442.688 8 113564126.330 8      3644.418          49.000    21274444.844 7  88327646.675 7      2834.548          45.000  
R15  19189620.312 8 102543109.424 8       481.961          50.000    19189623.461 8  79755770.164 8       374.859          49.000  
R17  19078169.930 8 102090736.366 8       166.387          50.000    19078170.914 7  79403923.164 7       129.412          47.000  
R24  21420012.742 4 114542009.40624     -3472.891          28.000                                                                  
E21  24830418.773 8 130484700.768 8     -1700.562          51.000    24830422.359 8  99981800.132 8     -1303.041          51.000  
E01  23639094.758 8 124224284.582 8       660.398          49.000    23639096.078 7  95184843.155 7       505.999          47.000  
E13  24822647.945 5 130443893.511 5     -1620.047          35.000    24822651.234 6  99950519.533 6     -1241.335          36.000  
E26  22840247.648 8 120026288.729 8      1340.785          51.000    22840251.820 8  91968235.160 8      1027.382          51.000  
C30  21579017.102 8 112367698.942 8      -564.715          50.000  
C29  23041600.727 8 119983755.295 8      2427.570          51.000  
C27  24704826.820 6 128644520.217 6     -2929.078          38.000  
> 2020 05 08 11 33  0.0000000  0 16      -0.000000000000
G02  24158683.953 6 126954729.165 6     -2465.988          36.000                                                                  
G18  23381953.578 5 122873028.827 5      3625.270          35.000    23381956.523 5  95745187.908 5      2824.880          32.000  
G14  23596754.781 6 124001774.589 6     -2053.945          38.000    23596760.820 5  96624811.026 5     -1600.468          32.000  
G25  20769728.344 8 109145671.146 8     -1558.324          51.000    20769730.398 8  85048582.846 8     -1214.279          51.000  
G29  20207231.953 8 106189717.138 8        55.699          51.000    20207232.242 8  82745255.959 8        43.402          51.000  
R14  21167625.383 8 112834958.080 8     -3026.719          50.000    21167628.164 7  87760515.355 7     -2354.115          47.000  
R18  21253997.719 8 113454993.363 8      3629.918          49.000    21254000.789 7  88242765.475 7      2823.267          46.000  
R15  19186965.906 8 102528925.945 8       462.219          50.000    19186969.023 8  79744738.558 8       359.504          48.000  
R17  19077303.227 8 102086098.912 8       141.410          51.000    19077304.547 8  79400316.271 8       109.986          48.000  
E21  24840143.742 8 130535804.757 8     -1707.695          51.000    24840147.516 8 100020957.728 8     -1308.542          51.000  
E01  23635342.484 8 124204567.607 8       652.680          49.000    23635343.922 7  95169735.333 7       500.174          47.000  
E13  24831924.883 6 130492642.695 6     -1631.250          36.000    24831926.039 5  99987872.802 5     -1250.216          35.000  
E26  22832626.625 8 119986239.588 8      1327.734          51.000    22832630.531 8  91937548.179 8      1017.335          51.000  
C30  21582306.234 8 112384827.400 8      -578.492          50.000  
C29  23027640.672 8 119911058.535 8      2417.629          51.000  
C27  24721711.461 5 128732440.818 5     -2933.688          34.000  
> 2020 05 08 11 33 30.0000000  0 15      -0.000000000000
G02  24172796.406 6 127028887.822 6     -2493.977          36.000                                                                  
G18  23361275.062 6 122764365.699 6      3603.195          38.000    23361279.445 5  95660515.373 5      2807.682          35.000  
G14  23608518.078 6 124063594.003 6     -2082.785          36.000    23608525.242 5  96672981.919 5     -1622.950          35.000  
G25  20778660.219 8 109192608.501 8     -1586.477          51.000    20778662.438 8  85085157.395 8     -1236.213          51.000  
G29  20206962.516 8 106188300.472 8        23.082          51.000    20206962.953 8  82744152.070 8        17.986          51.000  
R14  21184702.492 8 112925992.991 8     -3058.199          49.000    21184706.594 8  87831320.253 8     -2378.600          48.000  
R18  21233643.297 8 113346341.872 8      3597.742          51.000    21233646.906 7  88158258.778 7      2798.244          47.000  
R15  19184431.070 8 102515379.940 8       424.875          50.000    19184434.094 8  79734202.794 8       330.461          48.000  
R17  19076585.352 8 102082258.133 8        98.723          50.000    19076586.906 7  79397329.005 7        76.784          47.000  
E21  24849918.031 8 130587168.926 8     -1732.195          51.000    24849921.656 8 100060314.679 8     -1327.240          51.000  
E01  23631642.914 8 124185127.475 8       627.609          49.000    23631644.242 8  95154839.648 8       480.944          48.000  
E13  24841274.922 6 130541777.877 6     -1659.855          36.000    24841275.234 5 100025521.806 5     -1271.967          35.000  
E26  22825089.266 8 119946630.189 8      1297.328          51.000    22825092.648 8  91907198.156 8       994.045          51.000  
C30  21585683.000 8 112402413.444 8      -609.410          50.000  
C29  23013747.531 8 119838708.567 8      2390.215          51.000  
> 2020 05 08 11 34  0.0000000  0 16      -0.000000000000
G02  24186986.844 5 127103458.482 5     -2484.316          35.000                                                                  
G18  23340643.742 6 122655946.809 6      3618.297          38.000    23340648.227 5  95576033.145 5      2819.453          33.000  
G14  23620364.125 6 124125849.048 6     -2073.617          36.000    23620370.711 5  96721492.278 5     -1615.797          32.000  
G12  22857363.234 5 120116256.827 5     -2801.895          34.000    22857366.352 5  93597082.516 5     -2183.298          31.000  
G25  20787671.523 8 109239962.678 8     -1577.336          51.000    20787673.742 8  85122056.726 8     -1229.096          51.000  
G29  20206797.828 8 106187434.171 8        27.785          51.000    20206798.414 8  82743477.008 8        21.651          51.000  
R14  21201874.977 8 113017531.889 8     -3051.598          51.000    21201879.656 8  87902517.163 8     -2373.465          49.000  
R18  21213389.188 8 113238220.378 8      3603.445          51.000    21213392.203 7  88074164.327 7      2802.680          47.000  
R15  19182023.742 8 102502519.449 8       425.551          48.000    19182027.273 8  79724200.172 8       330.984          48.000  
R17  19076024.680 8 102079259.169 8        94.305          50.000    19076026.508 8  79394996.467 8        73.348          48.000  
E21  24859750.266 8 130638838.610 8     -1719.332          51.000    24859753.891 8 100099905.710 8     -1317.471          51.000  
E01  23628004.969 8 124166010.416 8       639.766          50.000    23628006.125 8  95140191.506 8       490.294          48.000  
E13  24850706.883 5 130591344.747 5     -1651.547          35.000    24850708.227 6 100063500.109 6     -1265.107          36.000  
E26  22817644.445 8 119907506.486 8      1303.984          51.000    22817647.180 8  91877220.277 8       999.214          51.000  
C30  21589156.391 8 112420500.936 8      -603.176          51.000  
C29  22999929.383 8 119766751.306 8      2399.984          51.000  
> 2020 05 08 11 34 30.0000000  0 16      -0.000000000000
G02  24201209.914 5 127178204.393 5     -2497.062          30.000                                                                  
G21  23047908.406 5 121117562.811 5      3255.867          35.000                                                                  
G18  23320015.281 6 122547540.090 6      3610.559          39.000    23320019.047 5  95491560.421 5      2813.426          35.000  
G14  23632248.281 5 124188302.389 5     -2087.820          35.000    23632252.289 4  96770157.105 4     -1626.870          28.000  
G25  20796717.461 8 109287498.584 8     -1590.305          51.000    20796719.586 8  85159097.676 8     -1239.199          51.000  
G29  20206692.797 8 106186882.606 8        10.430          51.000    20206693.469 8  82743047.221 8         8.127          51.000  
R14  21219097.359 8 113109335.571 8     -3067.277          50.000    21219102.094 8  87973919.997 8     -2385.664          49.000  
R18  21193190.609 8 113130393.333 8      3586.516          51.000    21193193.047 8  87990298.914 8      2789.516          48.000  
R15  19179700.602 8 102490107.297 8       403.457          48.000    19179704.312 7  79714546.267 7       313.800          47.000  
R17  19075576.555 8 102076861.964 8        67.121          50.000    19075578.727 7  79393131.984 7        52.205          47.000  
E21  24869595.984 8 130690579.007 8     -1728.656          51.000    24869599.266 8 100139550.936 8     -1324.514          51.000  
E01  23624384.164 8 124146982.561 8       630.035          49.000    23624385.289 8  95125611.721 8       482.811          49.000  
E13  24860175.852 6 130641103.187 6     -1664.395          40.000    24860178.266 5 100101626.734 5     -1275.469          35.000  
E26  22810247.648 8 119868634.319 8      1288.754          51.000    22810249.812 8  91847435.132 8       987.538          51.000  
C30  21592681.281 8 112438856.144 8      -618.961          51.000  
C29  22986141.000 8 119694955.032 8      2387.727          49.000  
> 2020 05 08 11 35  0.0000000  0 17      -0.000000000000
G21  23029338.938 5 121019981.526 5      3246.434          33.000                                                                  
G18  23299416.469 6 122439288.997 6      3603.676          41.000    23299419.727 5  95407208.992 5      2808.066          33.000  
G14  23644196.516 5 124251091.754 5     -2100.977          35.000    23644196.773 5  96819083.797 5     -1637.134          34.000  
G25  20805824.586 8 109335356.431 8     -1602.887          51.000    20805826.828 8  85196389.498 8     -1249.003          51.000  
G29  20206674.359 8 106186785.665 8        -6.523          51.000    20206674.625 8  82742971.670 8        -5.083          51.000  
R14  21236395.250 8 113201545.064 8     -3082.676          49.000    21236400.281 8  88045638.435 8     -2397.637          48.000  
R18  21173074.258 8 113023006.466 8      3569.973          50.000    21173076.281 8  87906775.831 8      2776.646          48.000  
R15  19177488.875 8 102478288.339 8       381.758          48.000    19177492.594 7  79705353.769 7       296.926          47.000  
R17  19075267.461 8 102075208.831 8        40.590          50.000    19075269.766 7  79391846.201 7        31.570          47.000  
R24  21518274.250 5 115067497.41025     -3533.598          30.000                                                                  
E21  24879481.727 8 130742530.670 8     -1737.562          51.000    24879484.945 8 100179358.038 8     -1331.380          51.000  
E01  23620807.164 8 124128185.348 8       620.414          50.000    23620808.539 8  95111208.667 8       475.394          49.000  
E13  24869707.656 6 130691194.305 6     -1677.473          40.000    24869709.422 5 100140008.150 5     -1285.433          34.000  
E26  22802925.539 8 119830154.786 8      1273.809          51.000    22802927.320 8  91817950.842 8       976.030          51.000  
C30  21596284.016 8 112457617.151 8      -634.320          51.000  
C29  22972410.891 8 119623459.898 8      2375.895          50.000  
C27  24789535.969 5 129085623.313 5     -2952.301          30.000  
> 2020 05 08 11 35 30.0000000  0 16      -0.000000000000
G21  23010824.594 5 120922689.674 5      3240.043          32.000                                                                  
G18  23278860.234 6 122331261.135 6      3599.633          40.000    23278864.219 5  95323031.479 5      2804.913          34.000  
G14  23656220.633 6 124314279.466 6     -2110.211          39.000    23656218.570 5  96868320.927 5     -1644.327          31.000  
G25  20815005.164 8 109383600.705 8     -1612.250          51.000    20815007.484 8  85233982.427 8     -1256.299          51.000  
G29  20206754.500 8 106187206.955 8       -20.320          51.000    20206754.695 8  82743299.961 8       -15.834          51.000  
R14  21253781.195 8 113294224.458 8     -3094.758          49.000    21253786.375 8  88117722.375 8     -2407.034          48.000  
R18  21153052.703 8 112916127.981 8      3556.391          48.000    21153054.375 8  87823648.136 8      2766.082          48.000  
R15  19175400.289 8 102467130.175 8       363.266          48.000    19175404.617 7  79696675.193 7       282.540          47.000  
R17  19075109.695 8 102074364.478 8        17.016          49.000    19075111.914 7  79391189.475 7        13.237          47.000  
E21  24889420.219 8 130794758.322 8     -1743.105          51.000    24889423.312 8 100219376.617 8     -1335.660          50.000  
E01  23617286.422 8 124109684.464 8       614.051          50.000    23617288.141 8  95097032.656 8       470.516          49.000  
E13  24879314.945 6 130741681.196 6     -1687.195          36.000    24879314.852 5 100178692.841 5     -1292.712          33.000  
E26  22795690.367 8 119792133.239 8      1262.047          51.000    22795692.250 8  91788817.472 8       967.068          51.000  
C30  21599977.016 8 112476847.060 8      -646.465          51.000  
C29  22958751.734 8 119552331.036 8      2367.133          50.000  
C27  24806559.047 5 129174260.993 5     -2955.461          32.000  
> 2020 05 08 11 36  0.0000000  0 15      -0.000000000000
G18  23258321.875 6 122223326.728 6      3589.938          40.000    23258326.047 4  95238926.714 4      2797.352          29.000  
G14  23668294.898 6 124377730.075 6     -2126.117          36.000    23668291.211 5  96917762.942 5     -1656.727          33.000  
G25  20824234.086 8 109432098.442 8     -1627.188          51.000    20824236.406 8  85271772.872 8     -1267.939          51.000  
G29  20206908.133 8 106188013.167 8       -39.539          51.000    20206908.281 8  82743928.200 8       -30.807          51.000  
R14  21271230.805 8 113387237.621 8     -3112.383          51.000    21271234.992 7  88190065.949 7     -2420.743          47.000  
R18  21133101.656 7 112809626.191 7      3537.398          47.000    21133102.898 8  87740813.464 8      2751.313          48.000  
R15  19173410.766 8 102456499.751 8       339.141          48.000    19173415.289 7  79688407.088 7       263.776          47.000  
R17  19075077.672 8 102074192.963 8       -11.871          50.000    19075079.805 7  79391056.082 7        -9.233          47.000  
E21  24899386.469 8 130847129.408 8     -1754.320          51.000    24899388.984 8 100259505.088 8     -1344.196          50.000  
E01  23613796.992 8 124091348.216 8       602.273          50.000    23613798.781 8  95082982.802 8       461.456          50.000  
E13  24888972.727 6 130792429.821 6     -1702.320          37.000    24888972.586 5 100217578.202 5     -1304.484          34.000  
E26  22788517.109 8 119754437.633 8      1244.906          51.000    22788519.430 8  91759933.856 8       953.902          51.000  
C30  21603734.469 8 112496413.338 8      -664.031          51.000  
C29  22945137.516 8 119481437.959 8      2352.984          50.000  
C27  24823592.195 5 129262956.131 5     -2963.992          32.000  
> 2020 05 08 11 36 30.0000000  0 15      -0.000000000000
G18  23237823.391 6 122115601.998 6      3589.629          37.000    23237826.953 5  95154985.314 5      2797.099          34.000  
G14  23680440.344 6 124441553.869 6     -2131.324          37.000    23680435.836 6  96967495.719 6     -1660.773          36.000  
G25  20833532.734 8 109480962.643 8     -1632.430          51.000    20833535.094 8  85309848.871 8     -1272.024          51.000  
G29  20207156.234 8 106189316.644 8       -49.250          51.000    20207156.125 8  82744943.898 8       -38.380          51.000  
R14  21288764.406 8 113480698.237 8     -3120.309          49.000    21288767.891 8  88262757.452 8     -2426.910          48.000  
R18  21113242.047 7 112703619.023 7      3527.645          42.000    21113244.328 8  87658363.484 8      2743.724          48.000  
R15  19171542.086 8 102446513.830 8       324.613          50.000    19171546.766 7  79680640.234 7       252.477          47.000  
R17  19075192.930 8 102074808.536 8       -31.145          49.000    19075194.703 7  79391534.838 7       -24.224          47.000  
E21  24909401.594 8 130899757.202 8     -1756.070          51.000    24909403.594 8 100299830.242 8     -1345.594          49.000  
E01  23610360.695 8 124073290.827 8       599.734          51.000    23610362.242 8  95069146.618 8       459.564          50.000  
E13  24898701.336 6 130843552.109 6     -1707.727          39.000    24898703.703 5 100256749.812 5     -1308.566          32.000  
E26  22781427.516 8 119717181.890 8      1237.020          51.000    22781430.281 8  91731387.235 8       947.871          51.000  
C30  21607577.906 8 112516427.131 8      -672.082          51.000  
C29  22931590.312 8 119410893.926 8      2348.215          50.000  
C27  24840657.945 5 129351819.386 5     -2962.672          32.000  
> 2020 05 08 11 37  0.0000000  0 15      -0.000000000000
G18  23217351.523 6 122008016.085 6      3582.977          36.000    23217352.953 5  95071152.201 5      2791.927          32.000  
G14  23692642.359 6 124505675.083 6     -2143.500          38.000    23692637.641 5  97017460.225 5     -1670.266          34.000  
G25  20842886.914 8 109530119.428 8     -1644.676          51.000    20842889.297 8  85348152.861 8     -1281.566          51.000  
G29  20207484.836 8 106191043.252 8       -65.746          51.000    20207484.695 8  82746289.289 8       -51.231          51.000  
R14  21306366.953 8 113574530.063 8     -3135.105          48.000    21306370.422 7  88335737.719 7     -2438.419          46.000  
R18  21093457.250 6 112598034.511 6      3511.047          40.000    21093465.266 8  87576242.043 8      2730.809          48.000  
R15  19169780.453 8 102437099.664 8       302.945          49.000    19169785.117 7  79673318.108 7       235.624          47.000  
R17  19075440.719 8 102076135.216 8       -57.297          49.000    19075442.758 7  79392566.716 7       -44.564          47.000  
E21  24919451.258 8 130952568.182 8     -1764.613          51.000    24919452.609 8 100340295.748 8     -1352.071          49.000  
E01  23606963.680 8 124055439.661 8       590.363          50.000    23606964.969 8  95055468.450 8       452.413          50.000  
E13  24908486.430 6 130894972.947 6     -1720.180          37.000                                                                  
E26  22774407.477 8 119680292.985 8      1222.293          50.000    22774410.906 8  91703121.701 8       936.560          51.000  
C30  21611493.164 8 112536814.428 8      -686.984          51.000  
C29  22918096.398 8 119340626.995 8      2336.441          51.000  
C27  24857740.992 5 129440776.118 5     -2967.887          32.000  
> 2020 05 08 11 37 30.0000000  0 16      -0.000000000000
G21  22937168.312 5 120535624.897 5      3210.227          32.000                                                                  
G18  23196915.430 5 121900618.530 5      3577.168          34.000    23196915.172 4  94987465.819 4      2787.398          27.000  
G14  23704909.320 6 124570137.153 6     -2154.090          41.000    23704904.344 5  97067690.364 5     -1678.515          33.000  
G25  20852305.500 8 109579614.955 8     -1655.348          50.000    20852307.641 8  85386720.791 8     -1289.882          50.000  
G29  20207902.648 8 106193238.492 8       -80.715          51.000    20207902.750 8  82747999.851 8       -62.895          51.000  
R14  21324047.219 8 113668778.701 8     -3148.195          48.000    21324050.867 7  88409042.183 7     -2448.600          44.000  
R18  21073767.141 7 112492922.149 7      3496.070          47.000    21073774.828 8  87494487.967 8      2719.169          48.000  
R15  19168134.828 8 102428305.875 8       283.027          51.000    19168139.461 7  79666478.458 7       220.129          47.000  
R17  19075830.273 8 102078219.254 8       -81.711          50.000    19075832.102 7  79394187.610 7       -63.553          46.000  
E21  24929544.633 8 131005608.753 8     -1771.586          51.000    24929544.984 8 100380937.219 8     -1357.474          49.000  
E01  23603614.977 8 124037842.112 8       582.609          51.000    23603616.031 8  95041984.612 8       446.400          51.000  
E13  24918336.664 6 130946737.243 6     -1730.945          38.000                                                                  
E26  22767465.977 8 119643817.923 8      1209.195          50.000    22767470.141 8  91675173.259 8       926.602          51.000  
C30  21615488.625 8 112557620.096 8      -700.219          51.000  
C29  22904664.367 8 119270684.081 8      2326.391          50.000  
C27  24874849.953 5 129529870.608 5     -2970.992          34.000  
> 2020 05 08 11 38  0.0000000  0 15      -0.000000000000
G21  22918867.867 6 120439460.876 6      3203.691          36.000                                                                  
G14  23717237.109 6 124634917.695 6     -2162.531          41.000    23717231.445 5  97118168.696 5     -1685.087          32.000  
G25  20861784.742 8 109629429.176 8     -1663.594          51.000    20861786.773 8  85425537.031 8     -1296.307          51.000  
G29  20208405.680 8 106195881.518 8       -93.270          51.000    20208405.570 8  82750059.364 8       -72.678          51.000  
R14  21341801.516 7 113763422.535 7     -3159.051          47.000    21341805.695 7  88482654.003 7     -2457.043          45.000  
R18  21054162.797 8 112388264.920 8      3483.141          49.000    21054169.125 7  87413087.937 7      2709.113          46.000  
R15  19166602.352 8 102420114.272 8       265.297          51.000    19166606.742 7  79660107.205 7       206.342          47.000  
R17  19076357.203 8 102081039.259 8      -103.969          50.000    19076358.961 7  79396380.957 7       -80.865          46.000  
E21  24939677.820 8 131058859.246 8     -1776.188          51.000    24939678.352 8 100421739.523 8     -1360.976          50.000  
E01  23600310.969 8 124020479.409 8       577.027          51.000    23600311.898 8  95028680.726 8       442.216          51.000  
E13  24928248.070 6 130998823.935 6     -1739.230          39.000                                                                  
E26  22760599.773 8 119607737.550 8      1198.371          51.000    22760604.195 8  91647527.257 8       918.257          51.000  
C30  21619560.680 8 112578823.516 8      -711.234          51.000  
C29  22891289.898 7 119201046.664 7      2318.340          47.000  
C27  24891982.008 5 129619081.731 5     -2973.398          35.000  
> 2020 05 08 11 38 30.0000000  0 16      -0.000000000000
G21  22900611.164 6 120343518.041 6      3194.320          38.000                                                                  
G14  23729621.469 6 124699996.703 6     -2174.105          41.000    23729615.836 6  97168879.571 6     -1694.109          37.000  
G12  23002745.648 5 120880226.824 5     -2853.051          35.000    23002744.688 5  94192383.271 5     -2223.118          33.000  
G25  20871321.328 8 109679544.519 8     -1675.602          50.000    20871323.461 8  85464587.917 8     -1305.664          50.000  
G29  20208990.547 8 106198954.341 8      -109.625          51.000    20208990.008 8  82752453.776 8       -85.422          51.000  
R14  21359627.242 8 113858442.843 8     -3173.605          48.000    21359631.172 7  88556558.581 7     -2468.366          45.000  
R18  21034640.391 8 112284047.761 8      3466.578          51.000    21034645.000 7  87332030.193 7      2696.231          45.000  
R15  19165179.273 8 102412508.905 8       243.742          50.000    19165183.789 8  79654191.890 8       189.574          48.000  
R17  19077018.297 8 102084576.565 8      -129.891          49.000    19077019.836 7  79399132.208 7      -101.026          46.000  
E21  24949847.508 8 131112302.305 8     -1784.625          51.000    24949848.641 8 100462689.380 8     -1367.423          50.000  
E01  23597048.625 8 124003335.163 8       567.805          51.000    23597049.617 8  95015544.228 8       435.095          51.000  
E13  24938216.969 6 131051214.145 6     -1751.344          37.000    24938223.477 5 100415891.323 5     -1341.739          30.000  
E26  22753805.875 8 119572035.034 8      1183.770          51.000    22753810.023 8  91620170.786 8       907.054          51.000  
C30  21623705.805 8 112600406.368 8      -725.805          51.000  
C29  22877970.945 8 119131698.375 8      2306.867          48.000  
C27  24909132.883 6 129708390.499 6     -2979.109          36.000  
> 2020 05 08 11 39  0.0000000  0 18      -0.000000000000
G02  24331902.844 5 127864972.63325     -2576.500          33.000                                                                  
G21  22882399.945 6 120247812.968 6      3198.410          37.000    22882398.422 4  93699595.174 4      2492.268          24.000  
G14  23742064.727 7 124765385.066 7     -2172.523          42.000    23742059.305 6  97219831.504 6     -1692.876          36.000  
G12  23019052.055 5 120965935.40125     -2846.121          30.000                                                                  
G25  20880917.758 8 109729974.313 8     -1673.938          50.000    20880919.867 8  85503883.820 8     -1304.367          50.000  
G29  20209659.500 8 106202469.557 8      -112.258          51.000    20209659.102 8  82755192.915 8       -87.474          51.000  
R14  21377526.148 8 113953851.592 8     -3174.406          50.000    21377529.859 7  88630765.319 7     -2468.983          47.000  
R18  21015203.445 8 112180287.382 8      3463.488          51.000    21015205.367 7  87251327.774 7      2693.828          43.000  
R15  19163868.977 8 102405505.503 8       235.785          51.000    19163873.078 7  79648744.782 7       183.392          47.000  
R17  19077815.469 8 102088843.712 8      -141.938          50.000    19077817.055 7  79402451.118 7      -110.396          45.000  
R24  21678812.883 5 115925972.07525     -3606.773          30.000                                                                  
E21  24960056.547 8 131165951.617 8     -1779.418          51.000    24960058.359 8 100503797.259 8     -1363.433          50.000  
E01  23593830.617 8 123986423.984 8       572.051          51.000    23593831.891 8  95002586.314 8       438.337          51.000  
E13  24948246.242 6 131103920.044 6     -1750.160          40.000    24948250.914 5 100456268.419 5     -1340.503          31.000  
E26  22747086.836 8 119536724.628 8      1182.754          51.000    22747090.883 8  91593114.771 8       906.252          51.000  
C30  21627925.867 8 112622381.036 8      -726.785          51.000  
C29  22864712.047 8 119062653.729 8      2308.582          50.000  
C27  24926304.719 6 129797808.786 6     -2970.453          36.000  
> 2020 05 08 11 39 30.0000000  0 18      -0.000000000000
G02  24346711.555 5 127942810.201 5     -2579.191          32.000                                                                  
G21  22864244.117 6 120152398.200 6      3196.703          37.000                                                                  
G18  23115492.039 5 121472732.317 5      3572.984          30.000    23115496.422 5  94654093.571 5      2784.145          30.000  
G14  23754575.812 7 124831130.484 7     -2176.645          43.000    23754571.086 5  97271061.614 5     -1696.090          34.000  
G12  23035398.312 5 121051832.045 5     -2845.535          34.000                                                                  
G25  20890583.492 8 109780768.460 8     -1678.457          50.000    20890585.773 8  85543463.634 8     -1307.889          50.000  
G29  20210422.125 8 106206476.685 8      -120.887          51.000    20210421.812 8  82758315.349 8       -94.201          51.000  
R14  21395506.883 8 114049698.326 8     -3181.129          48.000    21395511.219 8  88705312.743 8     -2474.212          48.000  
R18  20995862.320 8 112077037.610 8      3454.309          51.000    20995862.078 7  87171022.491 7      2686.688          43.000  
R15  19162681.164 8 102399156.666 8       221.941          51.000    19162684.984 8  79643806.788 8       172.621          48.000  
R17  19078758.438 8 102093890.800 8      -160.070          50.000    19078760.273 7  79406376.649 7      -124.499          46.000  
E21  24970314.492 8 131219857.411 8     -1780.270          51.000    24970316.680 8 100545101.657 8     -1364.062          51.000  
E01  23590666.492 8 123969797.011 8       570.418          51.000    23590668.203 8  94989846.162 8       437.026          51.000  
E13  24958345.039 6 131156990.409 6     -1754.164          41.000    24958345.117 5 100496918.673 5     -1344.322          31.000  
E26  22740451.984 8 119501856.993 8      1175.805          51.000    22740456.344 8  91566398.055 8       900.912          51.000  
C30  21632230.664 8 112644796.132 8      -733.820          51.000  
C29  22851522.141 8 118993963.276 8      2304.398          51.000  
C27  24943507.031 6 129887384.737 6     -2967.875          36.000  
> 2020 05 08 11 40  0.0000000  0 16      -0.000000000000
G21  22846135.516 6 120057232.676 6      3165.020          39.000                                                                  
G18  23095229.422 6 121366249.169 6      3543.477          37.000                                                                  
G14  23767146.086 7 124897186.295 7     -2209.828          43.000    23767141.875 6  97322533.629 6     -1721.948          37.000  
G25  20900310.328 8 109831882.961 8     -1712.023          50.000    20900312.492 8  85583293.104 8     -1334.045          50.000  
G29  20211269.930 8 106210931.308 8      -158.805          51.000    20211269.320 8  82761786.459 8      -123.747          51.000  
R14  21413560.242 7 114145937.102 7     -3217.363          47.000    21413566.086 8  88780165.086 8     -2502.394          49.000  
R18  20976608.906 8 111974256.563 8      3415.289          51.000    20976608.047 7  87091081.707 7      2656.336          45.000  
R15  19161607.742 8 102393419.388 8       178.125          51.000    19161611.508 8  79639344.431 8       138.542          48.000  
R17  19079838.438 8 102099671.867 8      -207.785          50.000    19079840.523 7  79410873.067 7      -161.611          45.000  
E21  24980613.078 8 131273975.950 8     -1810.352          51.000    24980615.398 8 100586569.088 8     -1387.201          51.000  
E01  23587548.148 8 123953411.518 8       539.215          51.000    23587550.352 8  94977291.032 8       413.177          51.000  
E13  24968504.766 6 131210380.047 6     -1787.863          38.000    24968503.117 5 100537815.521 5     -1369.266          31.000  
E26  22733893.031 8 119467388.985 8      1139.352          51.000    22733897.562 8  91539987.542 8       872.947          51.000  
C30  21636611.289 8 112667607.193 8      -769.820          51.000  
C29  22838392.164 8 118925584.712 8      2271.211          51.000  
C27  24960730.883 5 129977073.310 5     -2994.195          35.000  
> 2020 05 08 11 40 30.0000000  0 16      -0.000000000000
G21  22828078.523 6 119962337.797 6      3160.680          40.000                                                                  
G18  23075006.109 6 121259973.320 6      3540.945          37.000    23075016.031 4  94488326.287 4      2759.146          29.000  
G14  23779778.484 7 124963568.686 7     -2216.055          43.000    23779774.969 6  97374260.117 6     -1726.799          39.000  
G25  20910101.656 8 109883336.201 8     -1718.793          51.000    20910103.594 8  85623386.532 8     -1339.320          51.000  
G29  20212206.188 8 106215850.688 8      -169.648          51.000    20212205.312 8  82765619.753 8      -132.194          51.000  
R14  21431691.094 7 114242585.152 7     -3226.160          46.000    21431697.609 8  88855335.795 8     -2509.236          51.000  
R18  20957445.977 8 111871965.866 8      3403.586          49.000    20957446.883 7  87011522.275 7      2647.234          47.000  
R15  19160652.641 8 102388314.412 8       161.703          50.000    19160656.164 8  79635373.892 8       125.769          49.000  
R17  19081059.219 8 102106204.726 8      -228.070          50.000    19081061.102 7  79415954.179 7      -177.388          45.000  
E21  24990955.641 8 131328325.970 8     -1813.359          51.000    24990958.133 8 100628213.886 8     -1389.440          51.000  
E01  23584479.703 8 123937287.142 8       535.254          51.000    23584482.016 8  94964935.981 8       410.163          51.000  
E13  24978728.523 6 131264106.062 6     -1794.348          36.000    24978727.250 5 100578982.230 5     -1375.049          31.000  
E26  22727413.727 8 119433339.847 8      1130.133          51.000    22727418.062 8  91513897.961 8       865.914          51.000  
C30  21641071.109 8 112690831.594 8      -778.902          51.000  
C29  22825324.680 8 118857537.516 8      2264.723          49.000  
C27  24977979.234 5 130066891.511 5     -2994.027          33.000  
> 2020 05 08 11 41  0.0000000  0 16      -0.000000000000
G21  22810054.102 6 119867617.692 6      3153.109          38.000                                                                  
G18  23054803.586 6 121153809.716 6      3535.590          40.000                                                                  
G14  23792453.828 7 125030176.740 7     -2225.246          45.000    23792450.984 6  97426162.447 6     -1733.955          36.000  
G25  20919938.664 8 109935029.769 8     -1728.438          51.000    20919940.555 8  85663667.214 8     -1346.835          51.000  
G29  20213212.062 8 106221136.064 8      -183.500          51.000    20213210.992 8  82769738.259 8      -142.987          51.000  
R14  21449879.953 7 114339541.547 7     -3238.332          46.000    21449886.711 8  88930746.337 8     -2518.700          50.000  
R18  20938354.039 7 111770068.749 7      3388.805          46.000    20938358.766 8  86932268.899 8      2635.734          48.000  
R15  19159797.367 8 102383743.814 8       142.195          50.000    19159800.695 8  79631818.974 8       110.596          49.000  
R17  19082401.445 8 102113388.221 8      -251.551          51.000    19082403.883 7  79421541.375 7      -195.651          46.000  
E21  25001323.484 8 131382809.362 8     -1819.562          51.000    25001326.445 8 100669960.867 8     -1394.190          51.000  
E01  23581442.586 8 123921326.712 8       528.082          51.000    23581444.875 8  94952706.560 8       404.649          51.000  
E13  24988997.633 6 131318068.990 6     -1803.969          38.000    24989000.875 5 100620349.434 5     -1382.337          32.000  
E26  22720995.164 8 119399611.911 8      1117.730          51.000    22720999.578 8  91488054.499 8       856.416          51.000  
C30  21645591.695 8 112714370.962 8      -791.152          51.000  
C29  22812300.859 8 118789725.352 8      2255.305          49.000  
C27  24995232.000 4 130156740.370 4     -2996.770          29.000  
> 2020 05 08 11 41 30.0000000  0 18      -0.000000000000
G02  24406485.273 5 128256944.892 5     -2640.418          33.000                                                                  
G21  22792068.641 6 119773101.017 6      3140.039          37.000                                                                  
G18  23034627.820 6 121047786.807 6      3524.832          38.000    23034628.203 6  94322926.751 6      2746.632          36.000  
G14  23805176.633 7 125097033.469 7     -2239.738          44.000    23805174.133 6  97478258.578 6     -1745.251          38.000  
G12  23101068.922 5 121396932.785 5     -2889.957          33.000                                                                  
G25  20929826.203 8 109986989.120 8     -1743.574          51.000    20929828.250 8  85704155.026 8     -1358.627          51.000  
G29  20214292.312 8 106226812.241 8      -202.824          51.000    20214290.945 8  82774161.266 8      -158.042          51.000  
R14  21468131.148 7 114436830.892 7     -3255.809          45.000    21468138.242 7  89006415.819 7     -2532.296          47.000  
R18  20919342.555 7 111668593.670 7      3368.215          47.000    20919349.875 8  86853343.845 8      2619.726          48.000  
R15  19159047.445 8 102379735.050 8       117.031          50.000    19159050.594 8  79628701.073 8        91.024          50.000  
R17  19083870.406 8 102121247.260 8      -280.398          50.000    19083872.312 7  79427653.981 7      -218.085          46.000  
E21  25011721.508 8 131437451.841 8     -1831.090          51.000    25011725.141 8 100711829.772 8     -1403.062          51.000  
E01  23578441.828 8 123905556.956 8       515.445          51.000    23578444.070 8  94940623.247 8       394.907          51.000  
E13  24999316.227 6 131372293.061 6     -1818.363          37.000    24999323.312 5 100661897.712 5     -1393.657          32.000  
E26  22714642.414 8 119366231.466 8      1099.754          51.000    22714647.445 8  91462477.295 8       842.786          51.000  
C30  21650177.289 8 112738249.645 8      -808.641          51.000  
C29  22799327.594 8 118722174.570 8      2240.398          50.000  
C27  25012495.148 5 130246627.885 5     -3004.715          30.000  
> 2020 05 08 11 42  0.0000000  0 18      -0.000000000000
G02  24421549.016 5 128336109.300 5     -2646.773          35.000    24421557.117 5 100002193.098 5     -2062.421          33.000  
G21  22774129.086 5 119678836.935 5      3133.863          34.000                                                                  
G18  23014487.797 6 120941954.110 6      3521.277          37.000    23014490.586 6  94240459.727 6      2743.856          37.000  
G14  23817954.766 7 125164182.272 7     -2246.500          45.000    23817953.008 6  97530582.266 6     -1750.523          38.000  
G25  20939773.078 8 110039260.380 8     -1751.098          51.000    20939775.344 8  85744885.856 8     -1364.492          51.000  
G29  20215455.469 8 106232924.840 8      -214.652          51.000    20215454.102 8  82778924.323 8      -167.262          51.000  
R14  21486454.141 7 114534498.558 7     -3265.398          46.000    21486460.242 7  89082379.533 7     -2539.758          44.000  
R18  20900421.289 8 111567590.641 8      3355.348          51.000    20900429.328 8  86774785.971 8      2609.719          48.000  
R15  19158411.352 8 102376337.181 8        99.371          49.000    19158414.836 8  79626058.256 8        77.289          49.000  
R17  19085474.109 8 102129827.644 8      -301.629          49.000    19085475.602 7  79434327.623 7      -234.600          46.000  
R24  21801689.453 4 116583006.005 4     -3680.941          29.000                                                                  
E21  25022158.477 8 131492299.914 8     -1835.148          49.000    25022162.531 8 100753856.210 8     -1406.133          50.000  
E01  23575486.391 8 123890025.314 8       510.332          51.000    23575488.539 8  94928722.382 8       390.983          51.000  
E13  25009692.875 5 131426822.185 5     -1825.832          34.000    25009701.758 5 100703704.644 5     -1399.572          32.000  
E26  22708364.906 8 119333245.457 8      1089.461          51.000    22708370.516 8  91437202.303 8       834.797          51.000  
C30  21654836.617 8 112762512.533 8      -818.719          51.000  
C29  22786414.516 8 118654932.091 8      2232.832          51.000  
C27  25029778.969 5 130336626.306 5     -3005.434          30.000  
> 2020 05 08 11 42 30.0000000  0 18      -0.000000000000
G02  24436716.633 5 128415815.694 5     -2656.168          35.000                                                                  
G21  22756286.141 5 119585093.658 5      3126.609          35.000                                                                  
G18  22994434.359 6 120836580.475 6      3514.414          38.000    22994438.875 6  94158350.379 6      2738.502          38.000  
G14  23830838.477 7 125231886.606 7     -2256.414          46.000    23830837.516 6  97583338.856 6     -1758.248          38.000  
G12  23134093.500 5 121570509.285 5     -2897.105          34.000    23134093.273 5  94730242.926 5     -2257.501          33.000  
G25  20949829.773 8 110092109.202 8     -1761.605          51.000    20949832.047 8  85786066.730 8     -1372.680          51.000  
G29  20216752.062 8 106239739.153 8      -229.125          51.000    20216750.938 8  82784234.167 8      -178.542          51.000  
R14  21504898.156 7 114632812.880 7     -3278.125          47.000    21504902.578 7  89158846.082 7     -2549.656          44.000  
R18  20881640.641 8 111467332.376 8      3339.430          51.000    20881647.844 7  86696807.361 7      2597.335          47.000  
R15  19157941.164 8 102373821.910 8        79.105          51.000    19157943.891 8  79624101.956 8        61.526          49.000  
R17  19087262.695 8 102139398.744 8      -325.676          50.000    19087264.367 7  79441771.800 7      -253.306          47.000  
E21  25032685.016 8 131547619.470 8     -1842.133          49.000    25032689.586 8 100796243.906 8     -1411.481          50.000  
E01  23572627.062 8 123874998.665 8       502.145          51.000    23572628.969 8  94917208.443 8       384.796          51.000  
E13  25020178.523 5 131481922.949 5     -1836.277          34.000    25020184.242 5 100745917.639 5     -1406.977          33.000  
E26  22702213.586 8 119300920.264 8      1076.160          51.000    22702219.234 8  91412433.652 8       824.600          51.000  
C30  21659620.219 8 112787421.956 8      -831.484          51.000  
C29  22773611.836 8 118588262.331 8      2222.441          51.000  
C27  25047132.836 4 130426992.52524     -3008.355          29.000  
> 2020 05 08 11 43  0.0000000  0 16      -0.000000000000
G02  24451913.266 5 128495674.298 5     -2672.191          34.000                                                                  
G21  22738472.008 6 119491486.004 6      3110.777          40.000    22738483.781 5  93110289.250 5      2423.983          32.000  
G18  22974395.219 6 120731280.865 6      3501.555          40.000    22974400.844 6  94076298.675 6      2728.485          40.000  
G14  23843753.484 7 125299755.851 7     -2272.211          44.000    23843753.359 6  97636223.944 6     -1770.555          39.000  
G25  20959922.578 8 110145147.341 8     -1778.230          50.000    20959925.000 8  85827395.158 8     -1385.635          50.000  
G29  20218108.156 8 106246865.567 8      -249.918          51.000    20218107.086 8  82789787.216 8      -194.741          51.000  
R14  21523388.469 7 114731378.594 7     -3297.016          45.000    21523393.164 7  89235508.215 7     -2564.349          47.000  
R18  20862926.336 8 111367427.456 8      3316.918          50.000    20862931.828 7  86619103.567 7      2579.826          46.000  
R15  19157562.414 8 102371796.521 8        52.000          50.000    19157564.594 8  79622526.682 8        40.444          49.000  
R17  19089162.547 8 102149564.256 8      -356.117          48.000    19089164.031 7  79449678.307 7      -276.980          47.000  
E21  25043227.719 8 131603022.654 8     -1855.477          50.000    25043232.656 8 100838695.651 8     -1421.745          50.000  
E01  23569790.016 8 123860090.102 8       487.660          51.000    23569791.852 8  94905784.998 8       373.686          51.000  
E13  25030698.539 5 131537204.867 5     -1853.383          35.000    25030701.438 5 100788276.526 5     -1420.389          34.000  
E26  22696114.469 8 119268868.453 8      1056.512          51.000    22696119.750 8  91387874.480 8       809.553          51.000  
C30  21664454.195 8 112812592.390 8      -850.512          51.000  
C29  22760845.664 8 118521781.791 8      2205.621          51.000  
> 2020 05 08 11 43 30.0000000  0 16      -0.000000000000
G02  24467160.438 5 128575798.434 5     -2673.438          33.000                                                                  
G21  22720707.602 7 119398132.351 7      3108.684          43.000    22720720.039 4  93037546.145 4      2422.358          28.000  
G18  22954393.828 6 120626174.043 6      3501.812          41.000    22954399.781 7  93994397.225 7      2728.686          42.000  
G14  23856721.320 7 125367903.133 7     -2274.875          44.000    23856722.180 6  97689325.686 6     -1772.630          40.000  
G25  20970073.500 8 110198490.426 8     -1781.836          50.000    20970076.109 8  85868961.182 8     -1388.444          50.000  
G29  20219545.555 8 106254419.785 8      -257.480          51.000    20219544.328 8  82795673.616 8      -200.634          51.000  
R14  21541947.508 7 114830311.621 7     -3302.293          44.000    21541953.648 8  89312456.084 8     -2568.454          49.000  
R18  20844299.961 8 111267996.034 8      3307.898          48.000    20844304.164 7  86541768.075 7      2572.810          45.000  
R15  19157297.281 8 102370380.358 8        38.426          51.000    19157299.500 8  79621425.213 8        29.887          49.000  
R17  19091195.398 8 102160440.564 8      -372.980          49.000    19091196.539 8  79458137.631 8      -290.096          48.000  
E21  25053808.711 8 131658625.305 8     -1855.402          50.000    25053812.930 8 100881300.252 8     -1421.697          48.000  
E01  23566997.570 8 123845416.441 8       486.488          51.000    23566999.336 8  94894541.540 8       372.764          51.000  
E13  25041273.914 5 131592782.312 5     -1856.039          35.000    25041277.430 5 100830861.841 5     -1422.229          34.000  
E26  22690089.594 8 119237206.366 8      1050.180          51.000    22690094.320 8  91363613.952 8       804.672          51.000  
C30  21669359.820 8 112838137.417 8      -856.316          51.000  
C29  22748137.508 8 118455606.149 8      2202.148          50.000  
> 2020 05 08 11 44  0.0000000  0 18      -0.000000000000
G02  24482435.195 5 128656069.206 5     -2683.539          32.000                                                                  
G21  22702970.203 7 119304918.216 7      3099.270          45.000    22702988.992 3  92964911.634 3      2415.010          22.000  
G18  22934407.883 7 120521145.914 7      3494.070          43.000    22934413.352 7  93912557.129 7      2722.653          43.000  
G14  23869719.289 7 125436208.818 7     -2285.137          44.000    23869720.797 6  97742550.865 6     -1780.627          39.000  
G25  20980260.320 8 110252021.096 8     -1792.941          50.000    20980262.695 8  85910673.401 8     -1397.098          50.000  
G29  20221041.961 8 106262283.566 8      -272.801          51.000    20221040.703 8  82801801.246 8      -212.572          51.000  
R14  21560552.516 7 114929491.633 7     -3315.809          44.000    21560560.023 8  89389596.060 8     -2578.960          49.000  
R18  20825738.352 7 111168922.004 7      3290.941          45.000    20825743.742 7  86464710.535 7      2559.622          46.000  
R15  19157124.344 8 102369455.794 8        16.984          51.000    19157126.414 8  79620706.120 8        13.210          48.000  
R17  19093337.953 8 102171907.121 8      -397.746          49.000    19093339.516 8  79467056.095 8      -309.358          48.000  
R24  21884736.617 4 117027135.90624     -3716.664          27.000                                                                  
E21  25064405.445 8 131714310.470 8     -1863.023          50.000    25064408.312 8 100923968.071 8     -1427.527          48.000  
E01  23564227.797 8 123830861.643 8       477.656          51.000    23564229.375 8  94883389.166 8       365.988          51.000  
E13  25051882.977 5 131648532.919 5     -1867.230          31.000    25051888.633 5 100873582.821 5     -1430.458          35.000  
E26  22684116.867 8 119205817.426 8      1036.242          51.000    22684120.906 8  91339562.715 8       794.010          51.000  
C30  21674315.211 8 112863939.992 8      -869.816          51.000  
C29  22735464.562 8 118389620.386 8      2190.855          48.000  
C27  25099209.906 5 130698173.764 5     -3018.762          30.000  
> 2020 05 08 11 44 30.0000000  0 16      -0.000000000000
G21  22685303.180 7 119212073.469 7      3088.156          46.000    22685323.086 3  92892564.979 3      2406.362          20.000  
G18  22914480.570 7 120416426.608 7      3485.219          43.000    22914485.539 7  93830957.643 7      2715.756          43.000  
G14  23882790.055 7 125504896.915 7     -2296.504          45.000    23882792.078 6  97796073.990 6     -1789.487          38.000  
G25  20990526.023 8 110305966.221 8     -1805.617          49.000    20990528.102 8  85952708.550 8     -1406.975          49.000  
G29  20222640.328 8 106270682.999 8      -289.398          51.000    20222639.297 8  82808346.262 8      -225.505          51.000  
R14  21579246.930 6 115029147.547 6     -3330.402          41.000    21579255.461 8  89467106.261 8     -2590.310          49.000  
R18  20807287.586 7 111070438.835 7      3272.461          47.000    20807294.727 7  86388112.517 7      2545.248          46.000  
R15  19157086.484 8 102369255.450 8        -5.961          51.000    19157088.781 8  79620550.267 8        -4.636          48.000  
R17  19095634.523 7 102184193.849 7      -423.754          47.000    19095635.609 8  79476612.397 8      -329.586          48.000  
E21  25075060.992 8 131770305.272 8     -1872.266          50.000    25075063.367 8 100966873.116 8     -1434.597          49.000  
E01  23561524.266 8 123816653.900 8       467.227          51.000    23561525.445 8  94872502.702 8       357.966          51.000  
E13                                                                  25062575.805 5 100916612.468 5     -1440.173          35.000  
E26  22678239.367 8 119174929.308 8      1020.652          51.000    22678242.711 8  91315895.202 8       782.008          51.000  
C30  21679363.062 8 112890224.023 8      -884.648          51.000  
C29  22722871.258 8 118324050.453 8      2178.188          50.000  
C27  25116606.422 5 130788764.760 5     -3023.461          32.000  
> 2020 05 08 11 45  0.0000000  0 16      -0.000000000000
G21  22667697.586 7 119119551.385 7      3080.797          47.000    22667714.148 4  92820469.735 4      2400.615          27.000  
G18  22894603.242 7 120311969.805 7      3479.531          43.000    22894607.609 7  93749562.688 7      2711.321          42.000  
G14  23895923.812 7 125573915.614 7     -2303.996          46.000    23895925.727 6  97849854.738 6     -1795.322          38.000  
G25  21000860.852 8 110360276.282 8     -1814.320          48.000    21000862.742 8  85995028.063 8     -1413.756          48.000  
G29  20224331.086 8 106279568.063 8      -302.102          51.000    20224329.867 8  82815269.683 8      -235.404          51.000  
R14  21598022.328 7 115129227.665 7     -3341.000          47.000    21598029.641 7  89544946.383 7     -2598.556          46.000  
R18  20788941.016 8 110972498.668 8      3257.711          51.000    20788947.266 7  86311936.855 7      2533.776          46.000  
R15  19157175.352 8 102369730.600 8       -24.965          51.000    19157177.750 8  79620919.818 8       -19.417          48.000  
R17  19098073.570 8 102197248.841 8      -445.848          48.000    19098075.469 8  79486766.291 8      -346.770          48.000  
E21  25085766.430 8 131826560.432 8     -1877.375          51.000    25085768.500 8 101009977.666 8     -1438.467          50.000  
E01  23558877.688 8 123802744.894 8       460.742          51.000    23558878.469 8  94861845.144 8       353.111          51.000  
E13  25073322.148 5 131761197.477 5     -1887.125          34.000    25073327.773 5 100959911.831 5     -1446.183          35.000  
E26  22672447.609 8 119144493.102 8      1009.117          51.000    22672450.719 8  91292573.969 8       773.259          51.000  
C30  21684493.344 8 112916939.476 8      -895.562          51.000  
C29  22710350.070 8 118258848.358 8      2169.312          51.000  
C27  25134031.492 5 130879499.546 5     -3024.832          32.000  
> 2020 05 08 11 45 30.0000000  0 16      -0.000000000000
G21  22650141.023 7 119027287.803 7      3061.145          47.000    22650149.148 5  92748575.933 5      2385.305          32.000  
G18  22874763.797 7 120207711.489 7      3462.055          45.000    22874767.672 7  93668322.426 7      2697.706          42.000  
G14  23909107.391 7 125643195.661 7     -2323.535          46.000    23909109.219 6  97903839.135 6     -1810.547          39.000  
G25  21011252.289 8 110414884.103 8     -1835.332          49.000    21011254.047 8  86037579.608 8     -1430.129          49.000  
G29  20226101.461 8 106288870.384 8      -327.012          51.000    20226099.961 8  82822518.235 8      -254.814          51.000  
R14  21616865.547 8 115229662.643 8     -3363.867          50.000    21616870.195 7  89623062.396 7     -2616.345          46.000  
R18  20770684.812 8 110875036.476 8      3230.637          51.000    20770689.250 7  86236132.961 7      2512.718          46.000  
R15  19157378.172 8 102370814.990 8       -56.414          51.000    19157380.656 8  79621763.198 8       -43.881          48.000  
R17  19100643.727 7 102211002.561 7      -480.207          47.000    19100645.711 7  79497463.611 7      -373.491          47.000  
E21  25096508.773 8 131883009.130 8     -1894.832          51.000    25096510.344 8 101053230.523 8     -1451.909          50.000  
E01  23556275.422 8 123789068.741 8       441.957          51.000    23556276.008 8  94851366.018 8       338.679          51.000  
E13                                                                  25084133.250 5 101003428.479 5     -1461.735          35.000  
E26  22666729.352 8 119114442.446 8       985.309          51.000    22666732.344 8  91269548.152 8       754.923          51.000  
C30  21689693.844 8 112944018.909 8      -918.617          51.000  
C29  22697887.680 8 118193948.693 8      2148.492          51.000  
C27  25151471.289 5 130970310.231 5     -3038.422          32.000  
> 2020 05 08 11 46  0.0000000  0 17      -0.000000000000
G21  22632637.273 7 118935303.028 7      3063.879          46.000    22632639.570 6  92676899.465 6      2387.436          38.000  
G18  22854966.555 7 120103672.759 7      3466.672          47.000    22854969.641 6  93587253.315 6      2701.303          39.000  
G14  23922343.492 7 125712751.901 7     -2320.547          45.000    23922345.234 6  97958038.734 6     -1808.225          38.000  
G25  21021703.758 8 110469807.471 8     -1833.590          50.000    21021705.664 8  86080377.046 8     -1428.772          50.000  
G29  20227954.406 8 106298607.980 8      -329.488          51.000    20227953.117 8  82830105.976 8      -256.744          51.000  
R14  21635778.234 8 115330468.995 8     -3363.977          51.000    21635779.922 7  89701467.191 7     -2616.433          43.000  
R18  20752521.484 8 110778073.066 8      3226.129          51.000    20752524.461 7  86160716.986 7      2509.212          46.000  
R15  19157698.812 8 102372528.044 8       -65.129          51.000    19157701.164 7  79623095.563 7       -50.659          47.000  
R17  19103347.312 8 102225471.968 8      -491.719          50.000    19103349.758 8  79508717.572 8      -382.448          48.000  
R24  21968615.977 5 117475546.926 5     -3752.668          31.000                                                                  
E21  25107291.359 8 131939669.508 8     -1889.809          51.000    25107292.562 8 101096645.596 8     -1448.060          51.000  
E01  23553721.078 8 123775644.596 8       445.676          51.000    23553721.688 8  94841079.983 8       341.477          51.000  
E13                                                                  25094997.281 6 101047175.285 6     -1460.104          36.000  
E26  22661087.922 8 119084795.889 8       983.961          51.000    22661090.906 8  91246831.951 8       753.918          51.000  
C30  21694967.367 8 112971479.204 8      -919.316          51.000  
C29  22685486.625 8 118129370.342 8      2149.617          50.000  
C27  25168928.297 5 131061213.350 5     -3028.609          32.000  
> 2020 05 08 11 46 30.0000000  0 15      -0.000000000000
G18  22835199.641 8 119999793.219 8      3456.871          48.000    22835199.844 6  93506308.345 6      2693.673          36.000  
G14  23935619.734 7 125782518.581 7     -2332.270          45.000    23935621.469 6  98012402.337 6     -1817.353          37.000  
G25  21032203.086 8 110524982.824 8     -1846.441          50.000    21032205.352 8  86123370.797 8     -1438.786          50.000  
G29  20229877.914 8 106308716.592 8      -346.133          51.000    20229876.602 8  82837982.795 8      -269.717          51.000  
R14  21654747.625 8 115431580.891 8     -3378.598          51.000    21654747.453 6  89780109.717 6     -2627.799          41.000  
R18  20734438.734 8 110681546.609 8      3207.180          49.000    20734441.766 7  86085640.875 7      2494.474          46.000  
R15  19158125.328 8 102374807.170 8       -88.559          51.000    19158127.469 7  79624868.159 7       -68.882          47.000  
R17  19106172.445 8 102240590.708 8      -517.914          49.000    19106175.312 7  79520476.632 7      -402.819          47.000  
E21  25118102.062 8 131996478.217 8     -1899.168          51.000    25118103.516 8 101140174.317 8     -1455.172          51.000  
E01  23551202.703 8 123762410.126 8       434.961          51.000    23551203.555 8  94830939.288 8       333.270          51.000  
E13  25105905.281 6 131932426.414 6     -1917.680          36.000    25105907.398 5 101091102.601 5     -1469.652          35.000  
E26  22655511.172 8 119055490.537 8       968.035          51.000    22655514.391 8  91224377.189 8       741.778          51.000  
C30  21700301.281 8 112999256.295 8      -934.227          51.000  
C29  22673134.211 7 118065051.396 7      2136.559          47.000  
C27  25186389.875 5 131152144.628 5     -3034.477          32.000  
> 2020 05 08 11 47  0.0000000  0 15      -0.000000000000
G18  22815484.383 8 119896186.231 8      3449.949          48.000    22815481.477 6  93425575.747 6      2688.279          37.000  
G14  23948956.508 7 125852603.341 7     -2340.438          44.000    23948957.914 6  98067013.818 6     -1823.721          38.000  
G25  21042771.438 8 110580520.307 8     -1856.230          50.000    21042773.242 8  86166646.742 8     -1446.414          50.000  
G29  20231892.766 8 106319305.214 8      -359.879          51.000    20231891.578 8  82846233.657 8      -280.422          51.000  
R14  21673793.711 8 115533108.845 8     -3390.020          48.000    21673795.016 7  89859075.826 7     -2636.685          45.000  
R18  20716458.844 8 110585571.831 8      3191.004          50.000    20716462.242 7  86010993.835 7      2481.896          47.000  
R15  19158679.234 8 102377765.665 8      -108.918          51.000    19158681.039 7  79627169.217 7       -84.714          47.000  
R17  19109139.906 8 102256469.652 8      -540.789          50.000    19109142.750 7  79532826.904 7      -420.614          47.000  
E21  25128961.633 8 132053545.726 8     -1905.426          51.000    25128963.641 8 101183901.325 8     -1460.008          51.000  
E01  23548741.469 8 123749476.760 8       427.180          51.000    23548742.656 8  94821029.295 8       327.332          51.000  
E13  25116877.742 6 131990099.812 6     -1926.668          36.000    25116882.852 5 101135293.858 5     -1476.716          35.000  
E26  22650020.406 8 119026637.187 8       955.336          51.000    22650024.164 8  91202268.770 8       732.056          51.000  
C30  21705717.320 8 113027458.498 8      -946.035          51.000  
C29  22660851.719 7 118001102.150 7      2126.398          45.000  
C27  25203877.461 5 131243211.888 5     -3036.160          33.000  
> 2020 05 08 11 47 30.0000000  0 15      -0.000000000000
G18  22795813.656 7 119792814.782 7      3436.742          47.000    22795810.938 6  93345026.624 6      2677.985          41.000  
G14  23962345.492 7 125922963.065 7     -2354.695          43.000    23962346.516 6  98121839.497 6     -1834.831          38.000  
G25  21053401.211 8 110636379.633 8     -1872.297          50.000    21053402.656 8  86210173.449 8     -1458.936          50.000  
G29  20233991.156 8 106330332.793 8      -379.930          51.000    20233990.211 8  82854826.574 8      -296.049          51.000  
R14  21692908.008 7 115635010.305 7     -3407.883          45.000    21692913.000 7  89938332.481 7     -2650.579          46.000  
R18  20698575.602 8 110490110.565 8      3168.254          50.000    20698578.766 7  85936746.196 7      2464.198          47.000  
R15  19159352.805 8 102381364.476 8      -135.750          51.000    19159354.414 7  79629968.258 7      -105.583          47.000  
R17  19112241.242 8 102273066.575 8      -570.305          50.000    19112244.539 7  79545735.634 7      -443.570          47.000  
E21  25139862.742 8 132110832.061 8     -1918.297          51.000    25139864.945 8 101227795.994 8     -1469.829          51.000  
E01  23546330.070 8 123736805.525 8       412.953          51.000    23546331.492 8  94811320.155 8       316.350          51.000  
E13  25127909.219 5 132048053.190 5     -1942.340          33.000    25127914.297 5 101179699.295 5     -1488.350          33.000  
E26  22644608.305 8 118998196.289 8       936.172          51.000    22644612.547 8  91180476.399 8       717.294          51.000  
C30  21711206.984 8 113056044.990 8      -964.223          51.000  
C29  22648633.992 7 117937483.780 7      2110.105          47.000  
C27  25221383.898 5 131334374.134 5     -3045.203          35.000  
> 2020 05 08 11 48  0.0000000  0 15      -0.000000000000
G18  22776200.422 7 119689750.058 7      3435.484          44.000    22776199.570 7  93264716.443 7      2677.002          42.000  
G14  23975799.008 6 125993663.589 6     -2357.141          41.000    23975799.938 6  98176930.756 6     -1836.734          37.000  
G25  21064105.188 8 110692628.739 8     -1876.398          49.000    21064106.938 8  86254003.870 8     -1462.132          49.000  
G29  20236186.078 8 106341866.829 8      -387.727          51.000    20236185.000 8  82863814.130 8      -302.125          51.000  
R14  21712106.094 7 115737352.890 7     -3413.551          47.000    21712113.250 7  90017932.269 7     -2654.988          46.000  
R18  20680802.320 8 110395234.569 8      3157.945          51.000    20680804.992 7  85862953.757 7      2456.180          47.000  
R15  19160159.680 8 102385674.337 8      -150.312          51.000    19160160.945 7  79633320.372 7      -116.913          47.000  
R17  19115489.727 8 102290449.223 8      -587.316          50.000    19115492.836 7  79559255.467 7      -456.802          46.000  
E21  25150818.500 8 132168405.401 8     -1918.805          50.000    25150820.969 8 101271910.625 8     -1470.257          51.000  
E01  23543981.820 8 123724465.655 8       410.902          51.000    23543983.258 8  94801864.924 8       314.835          51.000  
E13  25139012.969 5 132106403.310 5     -1945.625          32.000    25139015.758 5 101224406.059 5     -1491.041          32.000  
E26  22639287.914 8 118970236.452 8       929.059          51.000    22639292.188 8  91159052.636 8       711.859          51.000  
C30  21716783.070 8 113085082.173 8      -970.301          51.000  
C29  22636494.320 8 117874264.756 8      2105.781          50.000  
C27  25238921.719 6 131425697.328 6     -3041.812          36.000  
> 2020 05 08 11 48 30.0000000  0 15      -0.000000000000
G18  22756611.773 7 119586818.923 7      3427.492          43.000    22756612.930 7  93184510.353 7      2670.774          42.000  
G14  23989283.305 6 126064525.967 6     -2365.996          39.000    23989283.797 6  98232148.130 6     -1843.634          37.000  
G25  21074849.633 8 110749091.240 8     -1886.785          48.000    21074851.734 8  86298000.584 8     -1470.223          48.000  
G29  20238443.508 8 106353730.421 8      -402.109          51.000    20238442.531 8  82873058.501 8      -313.332          51.000  
R14  21731354.578 8 115839956.512 8     -3425.590          48.000    21731361.391 7  90097735.015 7     -2664.351          45.000  
R18  20663105.555 8 110300767.456 8      3140.789          51.000    20663107.852 7  85789479.348 7      2442.839          46.000  
R15  19161066.109 8 102390517.448 8      -171.617          50.000    19161067.234 7  79637087.228 7      -133.480          47.000  
R17  19118851.227 8 102308436.664 8      -610.887          51.000    19118854.070 7  79573245.681 7      -475.134          47.000  
E21  25161794.867 8 132226089.748 8     -1925.809          48.000    25161798.125 8 101316110.300 8     -1475.561          51.000  
E01  23541663.445 8 123712282.078 8       402.391          51.000    23541664.773 8  94792529.452 8       308.331          51.000  
E13  25150157.320 5 132164967.704 5     -1955.406          33.000    25150155.414 5 101269260.186 5     -1498.251          34.000  
E26  22634025.664 8 118942582.002 8       915.594          51.000    22634029.930 8  91137862.876 8       701.604          51.000  
C30  21722412.422 8 113114394.423 8      -982.789          51.000  
C29  22624398.086 8 117811271.463 8      2094.793          51.000  
C27  25256457.352 6 131517005.581 6     -3044.582          37.000  
> 2020 05 08 11 49  0.0000000  0 15      -0.000000000000
G18  22737070.445 7 119484135.733 7      3418.980          44.000    22737072.820 7  93104497.471 7      2664.145          44.000  
G14  24002819.320 6 126135659.009 6     -2375.344          39.000    24002819.102 6  98287576.427 6     -1850.918          37.000  
G25  21085655.812 7 110805878.274 7     -1897.949          47.000    21085657.734 7  86342250.193 7     -1478.925          46.000  
G29  20240784.734 8 106366033.826 8      -417.207          51.000    20240783.836 8  82882645.564 8      -325.096          51.000  
R14  21750673.086 8 115942932.418 8     -3438.508          48.000    21750678.641 7  90177827.296 7     -2674.398          45.000  
R18  20645507.078 8 110206825.028 8      3122.910          51.000    20645508.797 7  85716413.067 7      2428.931          46.000  
R15  19162093.453 8 102396008.579 8      -193.641          50.000    19162094.938 8  79641358.096 8      -150.609          48.000  
R17  19122346.578 8 102327140.547 8      -635.145          51.000    19122349.641 7  79587793.184 7      -493.998          46.000  
E21  25172813.094 8 132283996.462 8     -1933.613          48.000    25172817.352 8 101360480.373 8     -1481.702          51.000  
E01  23539396.219 8 123700367.227 8       392.793          51.000    23539397.500 8  94783399.897 8       300.941          51.000  
E13  25161354.992 5 132223816.252 5     -1966.258          33.000    25161353.836 5 101314345.888 5     -1506.611          35.000  
E26  22628842.664 8 118915344.738 8       901.066          51.000    22628847.188 8  91116992.808 8       690.428          51.000  
C30  21728115.172 8 113144090.947 8      -996.133          51.000  
C29  22612366.188 8 117748615.100 8      2083.047          50.000  
C27  25274011.422 6 131608407.878 6     -3048.152          37.000  
> 2020 05 08 11 49 30.0000000  0 16      -0.000000000000
G02  24654057.820 5 129557938.337 5     -2780.402          33.000                                                                  
G18  22717571.961 7 119381671.887 7      3409.672          47.000    22717573.953 7  93024655.547 7      2656.891          44.000  
G14  24016400.641 6 126207028.398 6     -2385.074          40.000    24016399.820 6  98343188.875 6     -1858.503          39.000  
G25  21096517.797 7 110862958.015 7     -1909.621          47.000    21096519.562 7  86386727.931 7     -1488.017          47.000  
G29  20243203.422 8 106378744.667 8      -432.547          51.000    20243202.570 8  82892550.113 8      -337.050          51.000  
R14  21770055.055 8 116046246.910 8     -3451.551          48.000    21770060.094 7  90258182.960 7     -2684.540          47.000  
R18  20628001.117 8 110113377.614 8      3104.578          50.000    20628002.828 7  85643731.810 7      2414.672          47.000  
R15  19163236.305 8 102402116.821 8      -215.992          50.000    19163237.875 8  79646108.947 8      -167.994          48.000  
R17  19125969.547 8 102346527.022 8      -659.645          51.000    19125971.930 7  79602871.545 7      -513.057          45.000  
E21  25183868.281 8 132342094.063 8     -1941.867          49.000    25183872.484 8 101404996.699 8     -1487.871          49.000  
E01  23537174.328 8 123688690.625 8       383.180          51.000    23537175.594 8  94774452.880 8       293.620          51.000  
E13  25172600.992 5 132282912.105 5     -1976.855          34.000    25172603.180 5 101359637.847 5     -1514.351          34.000  
E26  22623732.922 8 118888493.531 8       886.473          51.000    22623737.727 8  91096418.540 8       679.258          51.000  
C30  21733885.359 8 113174139.312 8     -1009.523          51.000  
C29  22600392.195 8 117686265.313 8      2071.090          48.000  
C27  25291577.266 6 131699871.507 6     -3051.805          37.000  
> 2020 05 08 11 50  0.0000000  0 16      -0.000000000000
G02  24669949.922 5 129641453.608 5     -2769.656          32.000    24669934.852 5 101019261.203 5     -2158.174          33.000  
G18  22698122.586 7 119279463.874 7      3421.250          47.000    22698123.734 7  92945012.986 7      2665.913          42.000  
G14  24030032.852 6 126278664.680 6     -2373.715          41.000    24030031.992 6  98399009.308 6     -1849.648          37.000  
G25  21107441.664 7 110920363.722 7     -1900.531          47.000    21107443.445 7  86431459.643 7     -1480.934          46.000  
G29  20245705.938 8 106391895.572 8      -427.109          51.000    20245704.953 8  82902797.564 8      -332.816          51.000  
R14  21789506.172 7 116149932.284 7     -3443.578          47.000    21789511.609 8  90338827.112 8     -2678.342          48.000  
R18  20610594.242 8 110020461.588 8      3107.121          49.000    20610597.430 8  85571463.800 8      2416.650          49.000  
R15  19164501.172 8 102408877.641 8      -217.508          51.000    19164502.898 8  79651367.366 8      -169.173          48.000  
R17  19129726.180 8 102366628.253 8      -663.070          51.000    19129728.625 7  79618505.860 7      -515.718          46.000  
E21  25194966.703 8 132400416.056 8     -1929.316          49.000    25194970.016 8 101449684.973 8     -1478.266          48.000  
E01  23535004.320 8 123677286.765 8       394.051          51.000    23535005.414 8  94765714.859 8       302.010          51.000  
E13  25183904.797 5 132342323.334 5     -1966.660          34.000    25183908.016 5 101405163.665 5     -1507.135          32.000  
E26  22618703.023 8 118862062.288 8       892.582          51.000    22618707.945 8  91076166.037 8       683.867          51.000  
C30  21739729.469 8 113204571.510 8     -1002.488          51.000  
C29  22588482.695 7 117624256.144 7      2079.574          47.000  
C27  25309160.719 6 131791428.247 6     -3035.262          36.000  
> 2020 05 08 11 50 30.0000000  0 16      -0.000000000000
G02  24685847.094 5 129724993.833 5     -2797.258          34.000    24685845.406 5 101084409.513 5     -2179.682          34.000  
G18  22678677.414 7 119177278.180 7      3393.375          47.000    22678678.398 7  92865387.822 7      2644.192          43.000  
G14  24043670.406 7 126350328.989 7     -2401.434          42.000    24043669.672 6  98454851.587 6     -1871.251          38.000  
G25  21118382.594 8 110977858.678 8     -1930.387          48.000    21118384.430 8  86476260.897 8     -1504.198          48.000  
G29  20248246.898 8 106405248.769 8      -460.801          51.000    20248245.992 8  82913202.659 8      -359.066          51.000  
R14  21808981.125 7 116253746.919 7     -3475.137          46.000    21808987.352 8  90419571.794 8     -2702.885          48.000  
R18  20593242.516 8 109927839.166 8      3069.941          49.000    20593247.570 8  85499424.122 8      2387.733          49.000  
R15  19165843.344 8 102416051.776 8      -258.578          50.000    19165845.672 8  79656947.241 8      -201.116          48.000  
R17  19133571.078 8 102387201.942 8      -706.168          51.000    19133573.133 7  79634507.639 7      -549.245          45.000  
E21  25206062.672 8 132458726.078 8     -1955.879          48.000    25206065.203 8 101494364.013 8     -1498.568          48.000  
E01  23532841.258 8 123665920.208 8       365.883          51.000    23532842.242 8  94757005.425 8       280.355          51.000  
E13  25195222.000 5 132401783.904 5     -1995.953          34.000    25195224.148 5 101450729.017 5     -1529.595          31.000  
E26  22613707.969 8 118835814.867 8       859.562          51.000    22613713.148 8  91056054.384 8       658.581          51.000  
C30  21745602.047 8 113235152.023 8     -1034.039          51.000  
C29  22576594.820 8 117562354.044 8      2049.406          49.000  
C27  25326715.953 5 131882842.275 5     -3056.547          35.000  
> 2020 05 08 11 51  0.0000000  0 16      -0.000000000000
G02  24701841.031 5 129809044.656 5     -2805.250          34.000                                                                  
G18  22659329.406 7 119075605.406 7      3385.316          45.000    22659330.594 7  92786162.332 7      2637.913          43.000  
G14  24057405.539 7 126422505.993 7     -2409.531          42.000    24057404.727 5  98511093.379 5     -1877.554          35.000  
G25  21129433.547 8 111035930.135 8     -1940.418          51.000    21129435.398 8  86521511.361 8     -1512.014          51.000  
G29  20250919.062 8 106419290.868 8      -474.758          51.000    20250918.227 8  82924144.550 8      -369.941          51.000  
R14  21828572.805 7 116358183.634 7     -3486.602          47.000    21828579.758 8  90500800.336 8     -2711.802          48.000  
R18  20576039.477 8 109836008.180 8      3052.684          51.000    20576045.688 8  85428000.002 8      2374.310          49.000  
R15  19167355.961 8 102424136.354 8      -279.766          50.000    19167358.703 8  79663235.219 8      -217.596          48.000  
R17  19137596.523 8 102408742.516 8      -729.152          51.000    19137598.000 7  79651261.421 7      -567.119          45.000  
E21  25217249.516 8 132517511.614 8     -1962.559          51.000    25217251.820 8 101539407.430 8     -1503.788          49.000  
E01  23530778.234 8 123655079.598 8       357.445          51.000    23530779.352 8  94748698.969 8       273.959          51.000  
E13  25206645.398 5 132461812.893 5     -2005.070          33.000    25206646.156 5 101496718.366 5     -1536.276          31.000  
E26  22608841.109 8 118810239.245 8       846.207          51.000    22608846.234 8  91036457.466 8       648.405          51.000  
C30  21751595.688 8 113266362.854 8     -1046.023          51.000  
C29  22564821.648 8 117501042.953 8      2038.691          51.000  
C27  25344335.594 5 131974595.411 5     -3059.168          33.000  
> 2020 05 08 11 51 30.0000000  0 17      -0.000000000000
G02  24717871.188 5 129893284.930 5     -2812.750          32.000                                                                  
G18  22640018.648 7 118974129.368 7      3377.527          45.000    22640020.453 7  92707090.120 7      2631.843          43.000  
G14  24071177.008 6 126494873.835 6     -2417.098          41.000    24071175.586 5  98567483.839 5     -1883.453          31.000  
G25  21140533.320 8 111094258.745 8     -1950.148          50.000    21140534.922 8  86566962.218 8     -1519.597          50.000  
G29  20253661.461 8 106433701.997 8      -488.234          51.000    20253660.625 8  82935374.005 8      -380.442          51.000  
R14  21848220.914 8 116462917.065 8     -3497.859          48.000    21848228.102 7  90582259.699 7     -2720.558          47.000  
R18  20558924.680 8 109744646.882 8      3035.809          51.000    20558930.586 7  85356941.215 7      2361.185          47.000  
R15  19168978.477 8 102432808.046 8      -300.605          50.000    19168981.484 8  79669979.857 8      -233.807          48.000  
R17  19141741.586 8 102430923.606 8      -751.773          50.000    19141743.203 7  79668513.410 7      -584.710          44.000  
R24  22203099.156 5 118729587.518 5     -3843.828          31.000    22203108.180 4  92345252.38424     -2989.645          25.000  
E21  25228466.422 8 132576453.647 8     -1968.945          51.000    25228469.078 8 101584570.765 8     -1508.637          50.000  
E01  23528754.805 8 123644446.891 8       349.324          51.000    23528756.195 8  94740551.829 8       267.619          51.000  
E13                                                                  25218113.953 5 101542895.236 5     -1543.390          30.000  
E26  22604041.719 8 118785016.697 8       833.242          51.000    22604046.258 8  91017131.080 8       638.474          51.000  
C30  21757649.508 8 113297886.603 8     -1057.582          51.000  
C29  22553101.641 8 117440007.555 8      2028.270          51.000  
C27  25361959.023 5 132066369.971 5     -3061.402          33.000  
> 2020 05 08 11 52  0.0000000  0 17      -0.000000000000
G02  24733949.984 5 129977783.925 5     -2821.004          32.000                                                                  
G18  22620759.672 7 118872923.848 7      3369.312          45.000    22620761.938 7  92628228.692 7      2625.439          44.000  
G14  24084997.695 6 126567500.427 6     -2424.848          41.000    24084995.352 5  98624075.993 5     -1889.489          34.000  
G25  21151695.195 8 111152915.087 8     -1960.293          49.000    21151696.922 8  86612668.426 8     -1527.505          49.000  
G29  20256487.367 8 106448552.119 8      -501.988          51.000    20256486.617 8  82946945.533 8      -391.157          51.000  
R14  21867938.289 8 116568017.334 8     -3509.023          48.000    21867945.117 7  90664004.353 7     -2729.241          43.000  
R18  20541912.219 8 109653829.496 8      3018.492          51.000    20541915.664 7  85286305.509 7      2347.720          45.000  
R15  19170725.070 8 102442140.114 8      -321.746          51.000    19170728.039 8  79677238.123 8      -250.247          48.000  
R17  19146019.469 8 102453814.980 8      -774.492          50.000    19146020.500 7  79686317.800 7      -602.383          44.000  
R24  22224680.234 5 118845005.168 5     -3850.492          31.000    22224690.938 4  92435021.604 4     -2994.831          26.000  
E21  25239726.234 8 132635623.011 8     -1975.754          51.000    25239729.375 8 101629908.292 8     -1513.923          50.000  
E01  23526784.797 8 123634093.878 8       340.766          51.000    23526786.234 8  94732618.998 8       261.121          51.000  
E13                                                                  25229635.078 4 101589285.680 4     -1550.143          29.000  
E26  22599322.914 8 118760218.261 8       819.859          51.000    22599326.781 8  90998129.689 8       628.234          51.000  
C30  21763776.703 8 113329792.243 8     -1069.488          51.000  
C29  22541447.867 8 117379318.824 8      2017.453          51.000  
C27  25379599.656 5 132158234.845 5     -3063.535          32.000  
> 2020 05 08 11 52 30.0000000  0 16      -0.000000000000
G02  24750074.570 5 130062527.938 5     -2828.008          31.000                                                                  
G18  22601550.828 7 118771980.875 7      3361.129          45.000    22601553.500 7  92549571.850 7      2619.062          46.000  
G14  24098865.000 6 126640372.176 6     -2432.195          41.000    24098861.703 4  98680859.148 4     -1895.218          29.000  
G25  21162917.344 8 111211887.877 8     -1970.312          49.000    21162919.320 8  86658621.228 8     -1535.309          49.000  
G29  20259394.477 8 106463829.012 8      -515.617          51.000    20259393.875 8  82958849.586 8      -401.780          51.000  
R14  21887721.367 7 116673471.648 7     -3520.148          45.000    21887726.055 6  90746024.154 6     -2737.906          37.000  
R18  20524999.602 8 109563547.298 8      3001.176          51.000    20525001.047 7  85216086.102 7      2334.251          46.000  
R15  19172593.273 8 102452122.640 8      -342.867          50.000    19172596.188 8  79685002.294 8      -266.675          48.000  
R17  19150427.516 8 102477403.904 8      -797.160          50.000    19150428.703 7  79704664.751 7      -620.014          45.000  
R24  22246302.844 5 118960649.422 5     -3857.844          32.000    22246315.016 4  92524967.026 4     -3000.549          28.000  
E21  25251027.102 8 132695008.741 8     -1982.324          51.000    25251030.617 8 101675411.616 8     -1518.996          51.000  
E01  23524866.211 8 123624010.699 8       332.383          51.000    23524867.578 8  94724892.920 8       254.650          51.000  
E26  22594682.969 8 118735833.429 8       806.680          51.000    22594686.055 8  90979445.217 8       618.124          51.000  
C30  21769974.883 8 113362067.745 8     -1081.285          51.000  
C29  22529857.797 8 117318966.789 8      2006.805          49.000  
C27  25397255.078 5 132250177.741 5     -3065.840          30.000  
> 2020 05 08 11 53  0.0000000  0 16      -0.000000000000
G02  24766258.539 5 130147581.524 5     -2837.066          32.000                                                                  
G18  22582405.031 7 118671369.701 7      3351.715          45.000    22582408.078 7  92471173.536 7      2611.727          45.000  
G14  24112790.812 6 126713552.794 6     -2440.941          39.000    24112787.477 5  98737882.936 5     -1902.033          32.000  
G25  21174212.133 8 111271243.051 8     -1981.246          48.000    21174214.547 8  86704872.003 8     -1543.829          48.000  
G29  20262395.141 8 106479597.780 8      -530.270          51.000    20262394.625 8  82971136.937 8      -413.194          51.000  
R14  21907582.430 7 116779345.302 7     -3532.578          44.000    21907586.820 7  90828370.183 7     -2747.561          44.000  
R18  20508199.969 8 109473869.983 8      2982.676          51.000    20508201.617 8  85146337.145 8      2319.863          48.000  
R15  19174596.320 8 102462824.051 8      -365.180          51.000    19174599.094 8  79693325.622 8      -284.026          48.000  
R17  19154978.336 8 102501755.803 8      -820.832          49.000    19154979.789 7  79723605.139 7      -638.422          45.000  
R24  22267981.695 5 119076584.154 5     -3866.027          35.000    22267992.805 4  92615117.42824     -3006.908          27.000  
E21  25262382.008 8 132754677.059 8     -1990.145          51.000    25262385.391 8 101721131.488 8     -1524.953          51.000  
E01  23523011.828 8 123614264.613 8       322.730          51.000    23523012.930 8  94717425.141 8       247.293          51.000  
E13  25252896.602 5 132704866.338 5     -2041.793          33.000                                                                  
E26  22590134.516 8 118711928.755 8       792.363          51.000    22590136.773 8  90961128.667 8       607.103          51.000  
C30  21776256.422 8 113394777.495 8     -1094.023          50.000  
C29  22518344.156 8 117259017.863 8      1995.086          48.000  
> 2020 05 08 11 53 30.0000000  0 15      -0.000000000000
G02  24782468.867 5 130232754.294 5     -2843.879          30.000                                                                  
G18  22563291.359 7 118570925.882 7      3343.824          47.000    22563294.516 7  92392905.601 7      2605.578          47.000  
G14  24126742.789 6 126786872.126 6     -2448.125          37.000    24126740.125 5  98795014.797 5     -1907.637          35.000  
G25  21185547.656 7 111330813.007 7     -1990.855          47.000    21185550.211 7  86751290.123 7     -1551.316          47.000  
G29  20265457.492 8 106495690.521 8      -543.336          51.000    20265456.938 8  82983676.735 8      -423.379          51.000  
R14  21927490.922 7 116885466.722 7     -3543.164          46.000    21927496.484 8  90910909.036 8     -2755.798          48.000  
R18  20491481.508 8 109384629.814 8      2965.836          49.000    20491485.055 8  85076928.128 8      2306.762          50.000  
R15  19176701.977 8 102474075.319 8      -385.684          50.000    19176704.836 7  79702076.596 7      -299.976          47.000  
R17  19159639.453 8 102526698.332 8      -842.844          49.000    19159640.734 7  79743004.864 7      -655.545          46.000  
R24  22289683.336 6 119192635.611 6     -3871.754          37.000    22289693.422 4  92705373.614 4     -3011.368          28.000  
E21  25273758.602 8 132814460.657 8     -1996.195          51.000    25273761.844 8 101766939.666 8     -1529.544          51.000  
E01  23521189.867 8 123604689.284 8       314.859          51.000    23521190.719 8  94710088.192 8       241.214          51.000  
E26  22585645.383 8 118688337.156 8       779.688          51.000    22585647.242 8  90943051.993 8       597.426          51.000  
C30  21782589.305 8 113427754.528 8     -1105.242          50.000  
C29  22506876.758 8 117199306.971 8      1984.840          50.000  
> 2020 05 08 11 54  0.0000000  0 14      -0.000000000000
G18  22544242.914 8 118470823.004 8      3334.434          48.000    22544245.656 7  92314903.377 7      2598.261          47.000  
G14  24140753.039 6 126860497.878 6     -2456.152          36.000    24140751.242 5  98852385.463 5     -1913.873          33.000  
G25  21196956.609 7 111390768.099 7     -2001.598          46.000    21196958.695 7  86798008.370 7     -1559.690          46.000  
G29  20268613.711 8 106512276.737 8      -557.637          51.000    20268613.211 8  82996601.051 8      -434.525          51.000  
R14  21947478.258 8 116992007.526 8     -3554.871          48.000    21947484.211 8  90993774.075 8     -2764.900          50.000  
R18  20474877.102 8 109296002.438 8      2947.520          48.000    20474883.203 8  85007995.664 8      2292.513          51.000  
R15  19178943.305 8 102486051.258 8      -407.703          51.000    19178946.133 8  79711391.205 8      -317.103          48.000  
R17  19164442.977 8 102552403.511 8      -866.012          49.000    19164444.711 7  79762997.788 7      -673.565          47.000  
R24  22311439.398 5 119308974.532 5     -3879.145          35.000    22311449.289 4  92795859.393 4     -3017.116          29.000  
E21  25285189.375 8 132874530.215 8     -2003.664          50.000    25285192.688 8 101812966.945 8     -1535.285          51.000  
E01  23519433.000 8 123595456.456 8       305.445          51.000    23519433.656 8  94703013.680 8       234.091          51.000  
E26  22581248.188 8 118665229.652 8       765.570          51.000    22581250.039 8  90925346.256 8       586.576          51.000  
C30  21789005.594 8 113461166.734 8     -1117.566          50.000  
C29  22495488.375 8 117140003.981 8      1973.285          51.000  
> 2020 05 08 11 54 30.0000000  0 14      -0.000000000000
G18  22525230.734 7 118370911.206 7      3325.688          47.000    22525232.977 7  92237050.057 7      2591.449          47.000  
G14  24154791.875 6 126934274.445 6     -2463.125          38.000    24154790.930 5  98909873.623 5     -1919.319          34.000  
G25  21208409.797 7 111450955.193 7     -2011.586          47.000    21208412.250 7  86844907.402 7     -1567.473          47.000  
G29  20271834.375 8 106529202.547 8      -571.281          51.000    20271834.055 8  83009790.006 8      -445.154          50.000  
R14  21967515.250 8 117098810.738 8     -3566.004          48.000    21967520.555 8  91076843.230 8     -2773.559          50.000  
R18  20458360.086 8 109207834.983 8      2929.762          50.000    20458367.117 8  84939420.928 8      2278.704          50.000  
R15  19181291.438 8 102498597.335 8      -429.234          51.000    19181294.305 8  79721149.253 8      -333.849          48.000  
R17  19169359.453 8 102578713.377 8      -888.469          48.000    19169361.289 7  79783461.004 7      -691.034          46.000  
R24  22333220.023 5 119425442.040 5     -3885.801          35.000    22333229.664 4  92886445.158 4     -3022.293          28.000  
E21  25296645.445 8 132934732.813 8     -2010.359          50.000    25296648.070 8 101859096.198 8     -1540.463          50.000  
E01  23517712.430 8 123586414.256 8       296.777          51.000    23517712.898 8  94696085.240 8       227.359          51.000  
E26  22576914.039 8 118642453.684 8       752.246          51.000    22576915.992 8  90907894.552 8       576.379          51.000  
C30  21795476.039 8 113494861.419 8     -1129.262          50.000  
C29  22484149.641 8 117080958.230 8      1962.414          51.000  
> 2020 05 08 11 55  0.0000000  0 15      -0.000000000000
G18  22506222.047 7 118271020.977 7      3321.953          45.000    22506224.281 7  92159213.535 7      2588.539          45.000  
G14  24168826.391 6 127008026.622 6     -2465.309          40.000    24168825.281 5  98967342.798 5     -1921.020          34.000  
G25  21219874.305 7 111511201.506 7     -2016.523          47.000    21219877.203 7  86891852.579 7     -1571.314          46.000  
G29  20275086.734 8 106546294.455 8      -579.824          51.000    20275086.375 8  83023108.370 8      -451.808          51.000  
R14  21987567.297 7 117205699.608 7     -3571.910          46.000    21987572.922 8  91159978.992 8     -2778.153          51.000  
R18  20441898.062 8 109119954.196 8      2917.121          51.000    20441904.047 8  84871069.209 8      2268.872          49.000  
R15  19183713.352 8 102511539.317 8      -445.473          51.000    19183716.383 8  79731215.243 8      -346.479          48.000  
R17  19174355.766 8 102605450.467 8      -905.773          48.000    19174357.469 7  79804256.502 7      -704.491          46.000  
R24  22354991.469 5 119541859.264 5     -3886.793          32.000                                                                  
E21  25308093.906 8 132994895.992 8     -2012.129          51.000    25308096.055 8 101905195.250 8     -1541.696          49.000  
E01  23515995.578 8 123577391.268 8       293.156          51.000    23515995.844 8  94689171.529 8       224.587          51.000  
E13  25299880.070 5 132951763.813 5     -2072.680          32.000    25299886.195 5 101872156.674 5     -1588.041          32.000  
E26  22572610.039 8 118619837.004 8       743.977          51.000    22572612.461 8  90890564.908 8       570.021          51.000  
C30  21801967.688 8 113528666.471 8     -1135.820          50.000  
C29  22472827.625 8 117021999.614 8      1956.598          51.000  
> 2020 05 08 11 55 30.0000000  0 13      -0.000000000000
G18  22487372.570 7 118171971.795 7      3297.547          43.000    22487375.469 7  92082032.303 7      2569.515          43.000  
G14  24183011.062 6 127082568.010 6     -2487.875          40.000    24183010.242 5  99025426.932 5     -1938.604          34.000  
G25  21231505.414 8 111572323.216 8     -2042.055          48.000    21231508.188 8  86939479.880 8     -1591.209          48.000  
G29  20278526.000 8 106564367.787 8      -608.742          51.000    20278525.500 8  83037191.478 8      -474.345          51.000  
R14  22007789.312 7 117313500.359 7     -3598.289          45.000    22007796.320 8  91243824.018 8     -2798.670          50.000  
R18  20425645.602 8 109033191.951 8      2883.551          51.000    20425649.531 7  84803587.542 7      2242.765          46.000  
R15  19186364.602 8 102525708.403 8      -482.547          51.000    19186368.289 8  79742235.613 8      -375.314          48.000  
R17  19179587.031 8 102633444.113 8      -943.707          49.000    19179588.883 7  79826029.349 7      -733.995          46.000  
E21  25319690.211 8 133055836.206 8     -2034.344          51.000    25319692.273 8 101951889.646 8     -1558.760          49.000  
E01  23514437.883 8 123569204.924 8       268.992          51.000    23514437.969 8  94682898.876 8       206.087          51.000  
E26  22568491.711 8 118598196.345 8       715.074          51.000    22568494.625 8  90873983.104 8       547.926          51.000  
C30  21808635.711 8 113563389.643 8     -1162.766          50.000  
C29  22461677.750 8 116963937.857 8      1930.316          51.000  
> 2020 05 08 11 56  0.0000000  0 14      -0.000000000000
G18  22468517.109 7 118072886.636 7      3298.469          45.000    22468519.461 7  92004823.080 7      2570.239          43.000  
G14  24197178.305 6 127157016.313 6     -2484.707          40.000    24197177.969 5  99083438.531 5     -1936.136          33.000  
G25  21243135.828 8 111633440.141 8     -2042.055          49.000    21243138.125 8  86987103.466 8     -1591.212          49.000  
G29  20281984.367 8 106582541.698 8      -612.391          51.000    20281983.922 8  83051352.973 8      -477.188          51.000  
R14  22028016.141 7 117421318.970 7     -3599.199          47.000    22028022.695 7  91327682.920 7     -2799.381          47.000  
R18  20409435.586 8 108946656.621 8      2875.750          51.000    20409437.047 7  84736282.366 7      2236.695          45.000  
R15  19189078.023 8 102540211.050 8      -493.953          49.000    19189082.469 8  79753515.431 8      -384.186          48.000  
R17  19184885.406 8 102661796.304 8      -956.062          50.000    19184887.055 7  79848081.050 7      -743.604          46.000  
R24  22398780.664 5 119775960.49225     -3905.422          30.000                                                                  
E21  25331267.156 8 133116673.636 8     -2031.012          51.000    25331269.000 8 101998505.263 8     -1556.240          50.000  
E01  23512871.992 8 123560976.487 8       270.176          51.000    23512872.086 8  94676593.958 8       207.051          51.000  
E26  22564391.797 8 118576652.164 8       711.727          51.000    22564395.094 8  90857475.222 8       545.349          51.000  
C30  21815312.602 8 113598157.947 8     -1164.586          50.000  
C29  22450532.398 8 116905901.931 8      1929.238          50.000  
> 2020 05 08 11 56 30.0000000  0 13      -0.000000000000
G18  22449713.922 8 117974070.436 8      3289.688          49.000    22449713.750 6  91927823.508 6      2563.397          40.000  
G14  24211385.055 6 127231670.494 6     -2491.547          40.000    24211384.516 5  99141610.520 5     -1941.469          35.000  
G25  21254822.719 8 111694854.057 8     -2051.793          49.000    21254824.711 8  87034958.463 8     -1598.800          49.000  
G29  20285519.242 8 106601117.135 8      -625.496          51.000    20285518.727 8  83065827.327 8      -487.400          51.000  
R14  22048303.789 8 117529459.781 8     -3609.793          49.000    22048309.070 7  91411792.393 7     -2807.617          44.000  
R18  20393325.242 8 108860657.167 8      2857.934          50.000    20393326.406 7  84669393.934 7      2222.838          47.000  
R15  19191911.594 8 102555354.985 8      -515.129          48.000    19191916.414 8  79765294.047 8      -400.656          48.000  
R17  19190307.906 8 102690812.382 8      -977.918          50.000    19190309.688 7  79870649.126 7      -760.603          47.000  
E21  25342882.297 8 133177710.203 8     -2037.574          51.000    25342884.008 8 102045273.477 8     -1561.238          50.000  
E01  23511355.672 8 123553008.925 8       261.484          51.000    23511355.883 8  94670488.939 8       200.370          51.000  
E26  22560367.703 8 118555506.671 8       698.500          51.000    22560371.539 8  90841272.831 8       535.170          51.000  
C30  21822055.594 8 113633269.363 8     -1175.816          51.000  
C29  22439449.203 8 116848191.797 8      1918.430          49.000  
> 2020 05 08 11 57  0.0000000  0 16      -0.000000000000
G18  22430959.195 8 117875508.189 8      3281.770          50.000    22430955.789 6  91851021.877 6      2557.227          40.000  
G14  24225627.000 6 127306509.866 6     -2497.098          39.000    24225626.336 5  99199926.835 5     -1945.794          32.000  
G12  23626003.320 5 124155485.30825     -3040.332          33.000                                                                  
G25  21266562.602 8 111756546.593 8     -2060.520          50.000    21266564.062 8  87083030.575 8     -1605.600          49.000  
G29  20289126.836 8 106620075.376 8      -637.656          51.000    20289126.336 8  83080599.987 8      -496.875          51.000  
R14  22068647.211 8 117637902.888 8     -3619.203          49.000    22068651.656 6  91496136.940 6     -2814.939          40.000  
R18  20377310.367 8 108775177.682 8      2841.258          48.000    20377313.688 8  84602909.856 8      2209.862          48.000  
R15  19194861.812 8 102571123.345 8      -535.453          48.000    19194867.242 8  79777558.298 8      -416.467          48.000  
R17  19195850.461 8 102720472.137 8      -998.703          50.000    19195852.188 7  79893717.813 7      -776.772          47.000  
E21  25354532.172 8 133238927.892 8     -2043.008          51.000    25354533.852 8 102092180.511 8     -1565.458          51.000  
E33  25995760.531 6 136608640.078 6      2874.219          41.000    25995768.250 7 104674180.144 7      2202.199          42.000  
E01  23509885.867 8 123545285.308 8       253.953          51.000    23509886.117 8  94664570.833 8       194.594          51.000  
E13  25347772.312 5 133203436.419 5     -2111.047          34.000    25347760.992 5 102064939.476 5     -1617.440          32.000  
E26  22556415.797 8 118534742.128 8       686.324          51.000    22556420.383 8  90825362.339 8       525.933          51.000  
C30  21828860.781 8 113668704.860 8     -1185.918          50.000  
C29  22428425.383 8 116790790.374 8      1908.762          50.000  
> 2020 05 08 11 57 30.0000000  0 15      -0.000000000000
G18  22412264.766 8 117777264.215 8      3267.340          50.000    22412260.797 7  91774468.241 7      2545.983          42.000  
G14  24239914.977 6 127381592.876 6     -2508.863          39.000    24239914.398 4  99258433.069 4     -1954.956          29.000  
G25  21278366.945 8 111818578.789 8     -2075.570          48.000    21278368.180 8  87131367.326 8     -1617.328          48.000  
G29  20292818.656 8 106639476.364 8      -656.074          51.000    20292818.094 8  83095717.638 8      -511.227          51.000  
R14  22089058.180 8 117746708.603 8     -3634.953          49.000    22089059.984 6  91580763.450 6     -2827.192          36.000  
R18  20361405.859 8 108690282.674 8      2817.902          50.000    20361410.375 8  84536880.358 8      2191.702          50.000  
R15  19197941.148 8 102587579.162 8      -562.062          49.000    19197946.688 8  79790357.280 8      -437.160          48.000  
R17  19201524.680 8 102750835.931 8     -1025.883          50.000    19201526.391 8  79917334.079 8      -797.909          48.000  
E21  25366227.711 8 133300388.121 8     -2055.004          51.000    25366229.898 8 102139273.375 8     -1574.578          51.000  
E33  25979383.047 7 136522577.772 7      2862.844          42.000    25979390.992 7 104608236.299 7      2193.480          43.000  
E01  23508474.414 8 123537868.010 8       239.918          51.000    23508474.648 8  94658887.453 8       183.794          51.000  
E13                                                                  25359843.109 5 102113589.631 5     -1628.176          31.000  
E26  22552548.320 8 118514420.138 8       667.828          51.000    22552553.328 8  90809790.952 8       511.647          51.000  
C30  21835739.648 8 113704523.994 8     -1202.496          51.000  
C29  22417473.281 8 116733759.180 8      1892.797          51.000  
> 2020 05 08 11 58  0.0000000  0 15      -0.000000000000
G18  22393625.430 8 117679311.145 8      3258.184          50.000    22393622.664 7  91698141.225 7      2538.845          45.000  
G14  24254242.953 6 127456886.650 6     -2515.043          39.000    24254242.539 5  99317103.470 5     -1959.777          32.000  
G25  21290229.969 7 111880920.071 7     -2084.980          47.000    21290231.195 7  87179944.865 7     -1624.664          47.000  
G29  20296588.891 8 106659288.953 8      -669.246          51.000    20296588.148 8  83111156.005 8      -521.491          51.000  
R14  22109531.180 7 117855844.127 7     -3645.301          47.000    22109530.500 6  91665646.541 6     -2835.240          38.000  
R18  20345606.586 8 108605943.056 8      2800.066          51.000    20345611.328 8  84471282.874 8      2177.830          50.000  
R15  19201143.617 8 102604692.714 8      -583.461          49.000    19201148.789 7  79803667.786 7      -453.806          47.000  
R17  19207324.102 8 102781870.541 8     -1047.664          50.000    19207326.164 8  79941472.101 8      -814.850          48.000  
E21  25377963.531 8 133362060.453 8     -2061.082          51.000    25377966.195 8 102186528.750 8     -1579.266          51.000  
E33  25963043.773 7 136436711.283 7      2857.012          44.000    25963050.344 7 104542442.486 7      2189.230          43.000  
E01  23507115.656 8 123530727.718 8       231.645          51.000    23507115.898 8  94653416.304 8       177.404          51.000  
E13                                                                  25371978.734 5 102162445.455 5     -1634.045          30.000  
E26  22548759.617 8 118494510.548 8       654.871          51.000    22548764.938 8  90794535.554 8       501.889          51.000  
C30  21842686.359 8 113740695.507 8     -1213.457          51.000  
C29  22406586.586 8 116677068.922 8      1882.020          51.000  
> 2020 05 08 11 58 30.0000000  0 15      -0.000000000000
G18  22375017.898 8 117581528.270 8      3252.355          48.000    22375016.961 7  91621946.797 7      2534.307          47.000  
G14  24268586.797 6 127532264.747 6     -2518.273          40.000    24268586.367 5  99375839.580 5     -1962.301          34.000  
G25  21302128.117 7 111943446.402 7     -2091.605          47.000    21302129.484 7  87228666.642 7     -1629.823          47.000  
G29  20300413.773 8 106679388.312 8      -679.066          51.000    20300412.945 8  83126817.853 8      -529.140          51.000  
R14  22130041.484 7 117965182.440 7     -3652.426          44.000    22130043.141 7  91750687.446 7     -2840.776          42.000  
R18  20329888.641 8 108522035.818 8      2785.266          51.000    20329893.289 8  84406021.715 8      2166.318          50.000  
R15  19204446.211 8 102622338.992 8      -601.527          51.000    19204450.695 7  79817392.650 7      -467.855          47.000  
R17  19213225.211 8 102813448.122 8     -1066.070          51.000    19213227.023 7  79966032.425 7      -829.166          47.000  
E21  25389716.211 8 133423821.201 8     -2064.504          51.000    25389719.555 8 102233851.894 8     -1581.906          51.000  
E33  25946718.570 7 136350918.457 7      2854.262          45.000    25946722.461 7 104476705.151 7      2186.970          43.000  
E01  23505786.352 8 123523741.849 8       225.934          51.000    23505786.320 8  94648063.493 8       173.115          51.000  
E26  22545025.984 8 118474889.965 8       644.855          51.000    22545031.461 8  90779501.640 8       494.065          51.000  
C30  21849676.797 8 113777095.632 8     -1221.492          51.000  
C29  22395741.797 8 116620597.757 8      1874.441          51.000  
C27  25610080.688 5 133358404.817 5     -3087.852          31.000  
> 2020 05 08 11 59  0.0000000  0 17      -0.000000000000
G18  22356465.062 7 117484036.087 7      3243.613          47.000    22356465.875 7  91545978.850 7      2527.492          47.000  
G14  24282968.477 6 127607841.757 6     -2524.160          40.000    24282967.188 4  99434730.626 4     -1966.885          26.000  
G12  23695647.359 5 124521488.116 5     -3057.980          33.000                                                                  
G25  21314083.828 7 112006275.070 7     -2100.551          46.000    21314085.586 7  87277624.035 7     -1636.793          46.000  
G29  20304315.406 8 106699891.141 8      -691.520          51.000    20304314.625 8  83142794.083 8      -538.847          51.000  
R14  22150612.500 7 118074840.718 7     -3661.996          44.000    22150616.602 7  91835977.205 7     -2848.220          46.000  
R18  20314273.852 8 108438682.341 8      2767.953          50.000    20314278.148 8  84341191.251 8      2152.853          48.000  
R15  19207871.359 8 102640638.494 8      -622.195          51.000    19207875.086 7  79831625.570 7      -483.930          47.000  
R17  19219249.578 8 102845685.906 8     -1086.953          51.000    19219251.352 8  79991106.263 8      -845.408          48.000  
E21  25401507.469 8 133485787.969 8     -2070.375          49.000    25401511.977 8 102281332.882 8     -1586.377          51.000  
E33  25930429.711 7 136265318.407 7      2848.730          47.000    25930430.977 7 104411115.543 7      2182.819          43.000  
E01  23504508.945 8 123517028.959 8       217.762          51.000    23504508.516 8  94642919.841 8       166.937          51.000  
E13  25396391.719 5 133458937.724 5     -2145.414          35.000                                                                  
E26  22541369.844 8 118455676.108 8       632.309          51.000    22541374.977 8  90764779.366 8       484.496          51.000  
C30  21856733.227 8 113813839.621 8     -1231.867          51.000  
C29  22384961.641 8 116564462.960 8      1864.160          50.000  
C27  25627866.203 5 133451010.240 5     -3088.656          31.000  
> 2020 05 08 11 59 30.0000000  0 17      -0.000000000000
G18  22337992.797 7 117386968.916 7      3230.418          46.000    22337995.062 7  91470342.053 7      2517.207          46.000  
G14  24297412.414 6 127683746.384 6     -2533.820          40.000    24297411.016 5  99493876.952 5     -1974.415          30.000  
G25  21326122.180 7 112069537.101 7     -2114.156          46.000    21326123.828 7  87326919.125 7     -1647.395          46.000  
G29  20308318.617 8 106720927.515 8      -708.180          51.000    20308317.836 8  83159186.059 8      -551.828          51.000  
R14  22171269.320 7 118184950.338 7     -3675.891          47.000    22171274.805 7  91921617.969 7     -2859.030          47.000  
R18  20298787.742 8 108356018.267 8      2746.004          50.000    20298790.945 7  84276897.004 7      2135.784          45.000  
R15  19211443.820 8 102659725.517 8      -647.445          51.000    19211446.602 7  79846470.999 7      -503.569          47.000  
R17  19225422.219 8 102878715.583 8     -1112.195          51.000    19225423.812 7  80016796.027 7      -865.041          47.000  
R24  22552976.438 5 120600469.025 5     -3949.270          32.000    22552980.531 4  93800417.67424     -3071.655          26.000  
E21  25413362.695 8 133548092.070 8     -2080.551          48.000    25413368.375 8 102329072.343 8     -1594.198          51.000  
E33  25914202.828 7 136180043.930 7      2838.914          47.000    25914201.828 7 104345775.419 7      2175.333          44.000  
E01  23503308.414 8 123510721.416 8       205.336          51.000    23503308.047 8  94638086.788 8       157.371          51.000  
E13  25408681.336 5 133523515.978 5     -2157.238          35.000                                                                  
E26  22537816.297 8 118437000.541 8       615.445          51.000    22537820.633 8  90750469.525 8       471.584          51.000  
C30  21863880.516 8 113851056.386 8     -1246.535          51.000  
C29  22374271.438 8 116508795.314 8      1849.723          51.000  
C27  25645683.695 4 133543806.143 4     -3093.836          29.000  
