     3.02           OBSERVATION DATA    M (MIXED)           RINEX VERSION / TYPE
SAVERINEX           SC600               20200505 135931 LCL PGM / RUN BY / DATE
       G = GPS       R = GLONASS       C = COMPASS          COMMENT
       S = SBAS      J = QZSS          E = GALILEO          COMMENT
BEAN                                                        MARKER NAME
1                                                           MARKER NUMBER
GEODETIC                                                    MARKER TYPE
Unige DICCA         GTER                                    OBSERVER / AGENCY
SC60291900056       SC600               2.12(191226)        REC # / TYPE / VERS
                    HEMA45          NONE                    ANT # / TYPE
  4509407.8091   693652.4678  4442337.6214                  APPROX POSITION XYZ
        0.0000        0.0000        0.0000                  ANTENNA: DELTA H/E/N
G    8 C1C L1C D1C S1C C2Y L2Y D2Y S2Y                      SYS / # / OBS TYPES
R    8 C1C L1C D1C S1C C2P L2P D2P S2P                      SYS / # / OBS TYPES
C    8 C1I L1I D1I S1I C7I L7I D7I S7I                      SYS / # / OBS TYPES
E    8 C1C L1C D1C S1C C7Q L7Q D7Q S7Q                      SYS / # / OBS TYPES
DBHZ                                                        COMMENT
     30.000                                                 INTERVAL
  2020    05    05    11    00    0.0000000     GPS         TIME OF FIRST OBS
  2020    05    05    11    59   30.0000000     GPS         TIME OF LAST OBS
     0                                                      RCV CLOCK OFFS APPL
G L1C  0.00000                                              SYS / PHASE SHIFT
G L2Y  0.00000                                              SYS / PHASE SHIFT
R L1C  0.00000                                              SYS / PHASE SHIFT
R L2P  0.25000                                              SYS / PHASE SHIFT
C L1I  0.00000                                              SYS / PHASE SHIFT
C L7I  0.00000                                              SYS / PHASE SHIFT
E L1C  0.50000                                              SYS / PHASE SHIFT
E L7Q -0.25000                                              SYS / PHASE SHIFT
 14 R01  1 R06 -4 R07  5 R08  6 R09 -2 R10 -5 R11  0 R12 -1 GLONASS SLOT / FRQ #
    R16 -1 R19  3 R20  2 R21  4 R22 -3 R23  3               GLONASS SLOT / FRQ #
 C1C   71.950 C2C   71.950 C2P   71.950                     GLONASS COD/PHS/BIS
    18                                                      LEAP SECONDS
*** Above antenna height is from mark to ANTENNA BOTTOM.    COMMENT
    17     4        0.0000        ANT MEASURE TYPE/HEIGT    COMMENT
    0.0000    0.0000    0.0458    0.0405    0.0000          COMMENT
                    BASE STATION                            COMMENT
                                                            END OF HEADER
> 2020 05 05 11 00  0.0000000  0 18        .000000000000
G02  23183304.133 5 121829007.320 5     -1237.629          34.000
G12  21530800.570 4 113145120.202 4     -2199.902          29.000    21530800.891 4  88165030.844 4     -1714.216          28.000
G24  24288306.039 6 127635844.635 6     -3674.230          37.000    24288309.766 6  99456490.062 6     -2863.040          37.000
G25  20220845.172 8 106261291.937 8      -536.590          51.000    20220847.219 8  82800975.421 8      -418.122          51.000
G29  20610028.461 8 108306437.722 8      1504.660          51.000    20610029.227 8  84394620.798 8      1172.462          51.000
G32  23062945.250 7 121196589.769 7     -2269.680          47.000    23062947.273 7  94438868.022 7     -1768.582          43.000
R11  19880795.617 8 106236917.744 8     -1529.309          51.000    19880798.180 8  82628745.257 8     -1189.462          49.000
R21  19944316.305 8 106726020.257 8     -1807.094          51.000    19944318.570 8  83009174.917 8     -1405.517          48.000
R22  19971409.164 8 106608704.290 8      2730.520          51.000    19971412.766 7  82917897.154 7      2123.737          47.000
C05  39662427.008 5 206532664.307 5        28.625          35.000    39662423.086 6 159704140.612 6        21.703          36.000
C11                                                                  25004298.227 6 100681987.907 6      2509.053          36.000
C12  21710258.445 8 113051081.607 8      1035.191          48.000    21710258.578 8  87418264.088 8       800.461          51.000
C24  22007990.320 8 114601426.890 8      -950.273          51.000
C26  24657374.430 7 128397375.749 7     -2926.496          44.000
E13  24183356.898 8 127084391.854 8      1882.520          51.000    24183359.922 8  97376373.211 8      1442.456          51.000
E15  24588175.203 5 129211730.847 5     -1016.801          34.000    24588183.547 5  99006441.481 5      -779.427          34.000
E21  23709806.500 5 124595873.269 5       818.195          31.000    23709816.984 5  95469580.513 5       626.668          33.000
E27  24454076.883 7 128507026.521 7     -1489.219          45.000    24454076.805 6  98466427.728 6     -1141.362          41.000
> 2020 05 05 11 00 30.0000000  0 17        .000000000000
G12  21543385.609 5 113211222.474 5     -2205.059          34.000    21543374.836 5  88216527.434 5     -1718.221          33.000
G24  24309286.305 6 127746093.729 6     -3674.566          37.000    24309289.727 6  99542398.341 6     -2863.302          37.000
G25  20223937.992 8 106277544.276 8      -545.742          51.000    20223939.766 8  82813639.578 8      -425.254          51.000
G29  20601480.852 8 108261517.825 8      1491.129          51.000    20601481.320 8  84359618.271 8      1161.916          51.000
G32  23075934.773 7 121264849.521 7     -2279.727          47.000    23075936.531 7  94492057.417 7     -1776.413          43.000
R11  19889424.328 8 106283026.558 8     -1543.418          51.000    19889427.000 8  82664607.659 8     -1200.436          50.000
R21  19954509.734 8 106780567.750 8     -1828.242          51.000    19954511.781 8  83051600.733 8     -1421.969          48.000
R22  19956122.688 8 106527102.390 8      2710.844          51.000    19956125.289 8  82854429.005 8      2108.434          48.000
C05  39662260.156 5 206531796.059 5        30.789          35.000    39662256.117 6 159703468.418 6        23.799          36.000
C11                                                                  24985615.180 6 100606766.628 6      2506.612          37.000
C12  21704335.945 8 113020240.721 8      1021.949          48.000    21704335.695 8  87394415.952 8       790.278          51.000
C24  22013498.047 8 114630106.628 8      -960.590          51.000
C26  24674246.539 7 128485231.961 7     -2929.695          43.000
E13  24172640.547 8 127028078.840 8      1872.746          51.000    24172644.156 8  97333224.282 8      1434.997          51.000
E15  24594016.805 5 129242429.594 5     -1028.098          32.000    24594019.664 5  99029960.701 5      -787.976          33.000
E21                                                                  23705158.383 5  95450852.434 5       624.091          34.000
E27  24462592.828 7 128551778.668 7     -1493.164          44.000    24462593.773 6  98500718.283 6     -1144.023          41.000
> 2020 05 05 11 01  0.0000000  0 18        .000000000000
G02  23197585.680 5 121904129.635 5     -1268.102          34.000
G12  21555994.273 6 113277517.100 6     -2214.289          36.000    21555992.102 5  88268185.697 5     -1725.420          35.000
G24  24330280.000 6 127856414.590 6     -3679.352          37.000    24330283.289 6  99628362.581 6     -2867.030          38.000
G25  20227091.984 8 106294118.263 8      -558.984          51.000    20227093.461 8  82826554.368 8      -435.572          51.000
G29  20593020.000 8 108217055.606 8      1473.453          51.000    20593020.703 8  84324972.392 8      1148.145          51.000
G32  23088989.492 8 121333451.905 8     -2293.391          48.000    23088991.164 7  94545513.764 7     -1787.058          44.000
R11  19898141.219 8 106329607.166 8     -1561.586          51.000    19898144.133 8  82700837.007 8     -1214.567          50.000
R21  19964830.711 8 106835796.656 8     -1853.340          51.000    19964832.727 8  83094556.561 8     -1441.484          48.000
R22  19940955.805 8 106446139.234 8      2687.102          51.000    19940958.539 8  82791457.690 8      2089.968          50.000
C05  39662089.445 5 206530906.968 5        29.488          35.000    39662085.375 6 159702780.946 6        22.370          37.000
C11                                                                  24966961.211 6 100531659.245 6      2500.649          38.000
C12  21698498.047 8 112989840.797 8      1004.930          48.000    21698497.664 8  87370908.799 8       777.106          51.000
C24  22019074.117 8 114659142.170 8      -974.797          51.000
C26  24691147.031 7 128573236.580 7     -2937.180          45.000
E13  24161989.383 8 126972108.606 8      1858.926          51.000    24161993.680 8  97290338.021 8      1424.354          51.000
E15                                                                  24599933.922 5  99053778.600 5      -799.715          34.000
E21  23700530.008 6 124547104.964 6       806.211          38.000    23700531.961 6  95432229.008 6       617.806          37.000
E27  24471139.016 7 128596691.567 7     -1500.906          42.000    24471140.805 6  98535132.018 6     -1149.988          41.000
> 2020 05 05 11 01 30.0000000  0 16        .000000000000
G24  24351290.758 6 127966825.708 6     -3680.836          37.000    24351293.539 6  99714397.118 6     -2868.187          37.000
G25  20230311.094 8 106311034.764 8      -568.309          51.000    20230312.484 8  82839736.047 8      -442.838          51.000
G29  20584650.453 8 108173072.494 8      1459.426          51.000    20584651.344 8  84290699.809 8      1137.212          51.000
G32  23102112.766 8 121402415.034 8     -2303.469          48.000    23102114.594 7  94599251.215 7     -1794.911          45.000
R11  19906950.219 8 106376681.153 8     -1576.016          51.000    19906953.523 8  82737450.090 8     -1225.790          50.000
R21  19975282.109 8 106891724.904 8     -1874.602          51.000    19975284.281 8  83138056.309 8     -1458.023          48.000
R22  19925913.281 8 106365838.863 8      2667.008          51.000    19925916.305 8  82729001.899 8      2074.339          51.000
C05  39661918.969 6 206530018.822 6        31.000          36.000    39661914.781 6 159702095.148 6        24.032          36.000
C11  24948351.664 5 129912597.740 5      3229.914          32.000    24948340.531 6 100456682.866 6      2498.176          38.000
C12  21692748.922 8 112959902.936 8       991.570          49.000    21692748.352 8  87347758.943 8       766.730          51.000
C24  22024722.414 8 114688554.388 8      -985.348          51.000
C26  24708079.906 7 128661409.380 7     -2940.465          45.000
E13  24151407.734 8 126916503.272 8      1848.758          51.000    24151412.391 8  97247731.362 8      1416.596          51.000
E15                                                                  24605928.719 5  99077910.364 5      -808.284          32.000
E21  23695939.602 6 124522981.480 6       802.301          39.000    23695942.406 6  95413744.805 6       614.732          39.000
E27  24479719.898 7 128641786.320 7     -1504.867          43.000    24479722.867 7  98569685.118 7     -1153.176          42.000
> 2020 05 05 11 02  0.0000000  0 16        .000000000000
G02  23212238.922 6 121981154.143 6     -1299.957          36.000
G24  24372316.859 6 128077317.503 6     -3685.312          37.000    24372318.602 6  99800494.555 6     -2871.675          38.000
G25  20233593.695 8 106328285.505 8      -581.422          51.000    20233595.172 8  82853178.170 8      -453.059          51.000
G29  20576370.789 8 108129560.633 8      1441.754          51.000    20576371.359 8  84256794.455 8      1123.448          51.000
G32  23115302.203 7 121471727.751 7     -2317.137          46.000    23115304.656 7  94653261.117 7     -1805.561          46.000
R11  19915850.109 8 106424240.227 8     -1594.184          51.000    19915853.570 8  82774440.481 8     -1239.921          50.000
R21  19985862.156 8 106948341.120 8     -1899.473          51.000    19985864.445 8  83182091.144 8     -1477.368          48.000
R22  19910993.922 8 106286195.891 8      2642.941          51.000    19910996.922 8  82667057.371 8      2055.621          51.000
C05  39661747.180 5 206529124.487 5        29.105          35.000    39661742.883 6 159701402.794 6        22.542          36.000
C11  24929763.297 5 129815799.814 5      3223.230          33.000    24929751.984 6 100381832.656 6      2492.159          38.000
C12  21687086.836 8 112930419.329 8       974.508          48.000    21687086.461 8  87324960.335 8       753.569          51.000
C24  22030441.586 8 114718335.230 8      -999.621          51.000
C26  24725043.555 7 128749741.210 7     -2947.777          44.000
E13  24140894.516 8 126861255.837 8      1834.891          51.000    24140899.109 8  97205398.928 8      1405.943          51.000
E21  23691382.602 6 124499032.223 6       794.707          39.000    23691386.289 6  95395394.113 6       608.824          41.000
E27  24488334.305 7 128687054.822 7     -1512.469          43.000    24488338.141 7  98604371.346 7     -1158.920          42.000
> 2020 05 05 11 02 30.0000000  0 17        .000000000000
G02  23219698.055 5 122020334.068 5     -1315.863          32.000
G24  24393359.852 6 128187896.639 6     -3687.785          37.000    24393360.273 6  99886659.995 6     -2873.605          37.000
G25  20236941.562 8 106345879.269 8      -592.535          51.000    20236943.133 8  82866887.588 8      -461.716          51.000
G29  20568182.312 8 108086529.496 8      1425.961          51.000    20568182.438 8  84223263.736 8      1111.141          51.000
G32  23128558.945 7 121541396.081 7     -2328.406          45.000    23128562.281 7  94707548.137 7     -1814.343          45.000
R11  19924842.250 8 106472293.160 8     -1610.297          51.000    19924846.055 8  82811814.969 8     -1252.453          49.000
R21  19996571.930 8 107005651.404 8     -1922.160          51.000    19996574.109 7  83226665.797 7     -1495.013          47.000
R22  19896199.367 8 106207221.769 8      2620.957          51.000    19896203.031 8  82605633.069 8      2038.522          51.000
C05  39661575.633 5 206528230.732 5        29.852          35.000    39661571.250 6 159700711.696 6        22.890          37.000
C11  24911206.664 5 129719175.259 5      3217.465          32.000    24911197.031 5 100307116.499 5      2487.978          35.000
C12  21681513.664 8 112901398.768 8       959.355          49.000    21681513.625 8  87302519.815 8       741.856          51.000
C24  22036233.305 8 114748493.586 8     -1011.910          51.000
C26  24742038.797 7 128838239.932 7     -2952.957          46.000
E13  24130451.391 8 126806376.324 8      1822.949          51.000    24130455.500 8  97163348.415 8      1396.802          51.000
E15  24618169.695 5 129369327.041 5     -1083.656          33.000
E21  23686860.305 6 124475266.841 6       788.836          40.000    23686864.117 6  95377184.271 6       604.600          41.000
E27  24496983.609 7 128732506.160 7     -1518.289          43.000    24496987.133 7  98639197.674 7     -1163.352          42.000
> 2020 05 05 11 03  0.0000000  0 16        .000000000000
G24  24414423.938 6 128298585.775 6     -3689.891          36.000    24414423.500 6  99972911.151 6     -2875.242          36.000
G25  20240359.414 8 106363840.147 8      -602.918          51.000    20240360.977 8  82880883.061 8      -469.806          51.000
G29  20560089.930 8 108044003.467 8      1410.859          51.000    20560089.453 8  84190126.604 8      1099.371          51.000
G32  23141887.742 7 121611441.390 7     -2339.398          46.000    23141891.328 7  94762128.884 7     -1822.911          46.000
R11  19933932.031 8 106520864.707 8     -1625.844          51.000    19933935.469 8  82849592.834 8     -1264.545          48.000
R12  19759490.594 5 105551666.836 5      1854.238          31.000
R21  20007415.383 8 107063677.113 8     -1944.227          50.000    20007417.516 8  83271796.906 8     -1512.176          48.000
R22  19881534.953 8 106128943.609 8      2599.438          50.000    19881539.242 8  82544750.041 8      2021.785          51.000
C05  39661409.000 5 206527363.611 5        29.969          35.000    39661404.602 6 159700040.365 6        23.530          37.000
C11  24892691.328 4 129622775.849 4      3211.934          27.000    24892681.555 5 100232554.232 5      2484.018          30.000
C12  21676034.227 8 112872865.588 8       944.699          49.000    21676034.359 8  87280456.167 8       730.507          51.000
C24  22042101.883 8 114779053.486 8     -1023.586          51.000
C26  24759070.711 7 128926928.616 7     -2957.691          47.000
E13  24120083.305 8 126751890.146 8      1811.332          51.000    24120086.203 8  97121599.285 8      1387.907          51.000
E21  23682377.406 6 124451710.290 6       783.438          40.000    23682380.984 6  95359134.431 6       600.470          41.000
E27  24505672.023 7 128778164.600 7     -1523.664          44.000    24505675.688 7  98674182.671 7     -1167.474          43.000
> 2020 05 05 11 03 30.0000000  0 15        .000000000000
G24  24435498.734 6 128409332.287 6     -3692.848          37.000    24435497.891 6 100059207.039 6     -2877.544          37.000
G25  20243837.617 8 106382117.961 8      -614.988          51.000    20243839.031 8  82895125.503 8      -479.212          51.000
G29  20552083.992 8 108001932.965 8      1394.227          51.000    20552083.438 8  84157344.440 8      1086.413          51.000
G32  23155278.617 7 121681810.662 7     -2351.406          47.000    23155281.938 7  94816962.028 7     -1832.268          46.000
R11  19943109.156 8 106569903.899 8     -1642.891          51.000    19943112.641 8  82887734.375 8     -1277.804          48.000
R12  19749112.266 6 105496250.190 6      1840.730          37.000    19749111.312 5  82052595.724 5      1431.682          30.000
R21  20018382.500 8 107122363.915 8     -1967.676          51.000    20018384.898 8  83317442.204 8     -1530.414          48.000
R22  19866991.695 8 106051313.263 8      2576.375          51.000    19866996.328 8  82484370.879 8      2003.847          51.000
C05  39661237.664 5 206526471.412 5        29.574          35.000    39661233.281 6 159699350.505 6        22.736          37.000
C12  21670638.875 8 112844770.356 8       928.777          49.000    21670639.375 8  87258731.169 8       718.241          51.000
C24  22048037.984 8 114809965.352 8     -1036.719          51.000
C26  24776130.055 8 129015756.568 8     -2963.664          48.000
E13  24109780.711 8 126697748.288 8      1798.516          51.000    24109782.367 8  97080113.983 8      1378.089          51.000
E21  23677924.750 6 124428313.058 6       776.836          41.000    23677928.031 6  95341206.697 6       595.235          41.000
E27  24514390.648 7 128823980.106 7     -1530.273          44.000    24514393.531 7  98709288.025 7     -1172.505          42.000
> 2020 05 05 11 04  0.0000000  0 18        .000000000000
G02  23242655.477 4 122140957.567 4     -1366.754          28.000
G12  21632586.680 5 113680009.709 5     -2261.273          35.000    21632576.406 5  88581783.255 5     -1762.031          35.000
G24  24456581.914 6 128520124.805 6     -3699.582          38.000    24456581.414 6 100145538.808 6     -2882.794          37.000
G25  20247374.273 8 106400702.671 8      -630.156          51.000    20247375.523 8  82909607.088 8      -491.031          51.000
G29  20544162.906 8 107960308.622 8      1374.492          51.000    20544162.688 8  84124909.915 8      1071.033          51.000
G32  23168728.797 7 121752491.148 7     -2366.664          47.000    23168732.203 7  94872037.676 7     -1844.154          46.000
R11  19952372.141 8 106619400.405 8     -1663.148          51.000    19952375.328 8  82926231.610 8     -1293.560          48.000
R12  19738804.289 5 105441148.805 5      1823.309          31.000    19738807.781 4  82009775.180 4      1418.120          29.000
R21  20029470.617 8 107181698.688 8     -1994.234          49.000    20029472.953 8  83363591.470 8     -1551.071          48.000
R22  19852568.445 8 105974322.953 8      2550.016          51.000    19852573.102 8  82424489.565 8      1983.345          50.000
C05  39661059.922 5 206525546.305 5        26.449          35.000    39661055.484 6 159698634.369 6        20.147          37.000
C12  21665325.695 8 112817103.278 8       909.543          48.000    21665326.492 8  87237337.251 8       703.431          51.000
C24  22054039.898 8 114841219.410 8     -1052.996          51.000
C26  24793214.195 8 129104713.020 8     -2972.812          49.000
E13  24099541.867 8 126643941.985 8      1782.488          51.000    24099542.070 8  97038885.793 8      1365.818          50.000
E15  24637067.008 5 129468596.568 5     -1127.918          33.000
E21  23673500.727 7 124405066.082 7       766.984          43.000    23673503.297 6  95323394.087 6       587.546          41.000
E27  24523137.422 7 128869942.922 7     -1539.965          45.000    24523139.398 7  98744506.275 7     -1179.973          43.000
> 2020 05 05 11 04 30.0000000  0 17        .000000000000
G02  23250484.945 5 122182119.677 5     -1377.523          35.000
G24  24477697.055 6 128631085.536 6     -3698.023          38.000    24477697.539 6 100232001.607 6     -2881.580          38.000
G25  20250993.086 8 106419718.894 8      -637.613          51.000    20250994.289 8  82924424.932 8      -496.842          51.000
G29  20536350.773 8 107919255.466 8      1362.367          51.000    20536350.328 8  84092920.421 8      1061.582          51.000
G32  23182261.266 7 121823604.538 7     -2374.285          46.000    23182265.227 7  94927450.659 7     -1850.095          45.000
R11  19961744.070 8 106669481.257 8     -1675.578          51.000    19961747.039 8  82965183.342 8     -1303.227          48.000
R12  19728591.805 5 105386584.274 5      1813.137          30.000    19728593.680 4  81967336.445 4      1410.217          29.000
R21  20040702.945 8 107241805.181 8     -2012.887          50.000    20040705.539 8  83410340.951 8     -1565.582          48.000
R22  19838289.766 8 105898102.073 8      2531.363          51.000    19838293.789 8  82365206.669 8      1968.838          49.000
C05  39660900.133 5 206524713.005 5        29.984          35.000    39660895.195 6 159697990.687 6        22.838          37.000
C11  24837325.922 5 129334452.714 5      3194.141          34.000    24837328.961 5 100009620.882 5      2469.785          31.000
C12  21660118.523 8 112789988.109 8       898.066          49.000    21660119.211 8  87216370.094 8       694.360          51.000
C24  22060131.234 8 114872939.258 8     -1061.691          51.000
C26  24810346.312 8 129193920.516 8     -2974.465          49.000
E13  24089390.961 8 126590597.093 8      1773.777          51.000    24089390.594 8  96998011.152 8      1359.137          51.000
E21  23669129.062 7 124382094.752 7       764.516          42.000    23669130.773 6  95305792.703 6       585.702          41.000
E27  24531935.562 7 128916177.904 7     -1542.449          44.000    24531937.523 7  98779933.060 7     -1181.868          43.000
> 2020 05 05 11 05  0.0000000  0 18        .000000000000
G12  21658431.836 5 113815830.855 5     -2270.633          34.000    21658418.359 5  88687603.179 5     -1769.324          32.000
G24  24498799.070 6 128741977.056 6     -3698.535          37.000    24498800.359 6 100318410.487 6     -2881.982          38.000
G25  20254649.023 8 106438930.577 8      -647.547          51.000    20254650.227 8  82939395.079 8      -504.582          51.000
G29  20528602.508 8 107878537.496 8      1347.930          51.000    20528601.922 8  84061192.128 8      1050.335          51.000
G32  23195830.766 7 121894914.877 7     -2383.797          46.000    23195836.102 7  94983065.807 7     -1857.507          45.000
R11  19971180.508 8 106719906.134 8     -1690.328          51.000    19971183.242 8  83004402.664 8     -1314.703          49.000
R12  19718433.047 5 105332245.805 5      1802.805          33.000    19718419.125 4  81925086.000 4      1402.178          27.000
R21  20052034.055 8 107302439.544 8     -2033.727          48.000    20052036.086 7  83457501.027 7     -1581.787          47.000
R22  19824110.656 8 105822413.288 8      2510.277          51.000    19824114.172 8  82306337.634 8      1952.438          49.000
C05  39660711.336 5 206523730.551 5        31.414          35.000    39660706.672 6 159697232.547 6        23.953          37.000
C11  24818922.570 6 129238624.170 6      3189.785          37.000    24818913.039 5  99935520.232 5      2466.765          35.000
C12  21654972.406 8 112763191.183 8       884.148          48.000    21654973.148 8  87195649.015 8       683.758          51.000
C24  22066266.727 8 114904891.130 8     -1072.695          51.000
C26  24827481.062 8 129283144.186 8     -2978.090          49.000
E13  24079283.000 8 126537478.697 8      1763.062          51.000    24079282.836 8  96957310.076 8      1350.930          51.000
E15  24650026.250 6 129536816.851 6     -1149.086          37.000
E21  23664765.000 7 124359163.753 7       760.117          42.000    23664766.695 6  95288222.225 6       582.257          41.000
E27  24540740.844 7 128962449.141 7     -1546.754          43.000    24540742.609 7  98815387.604 7     -1185.160          42.000
> 2020 05 05 11 05 30.0000000  0 18        .000000000000
G02  23266399.273 6 122265730.432 6     -1410.480          36.000
G24  24519952.406 6 128853140.416 6     -3703.957          36.000    24519954.945 6 100405031.226 6     -2886.203          37.000
G25  20258407.352 8 106458680.451 8      -661.633          51.000    20258408.648 8  82954784.588 8      -515.558          51.000
G29  20520983.516 8 107838498.285 8      1329.059          51.000    20520982.961 8  84029992.763 8      1035.633          51.000
G32  23209501.594 7 121966756.279 7     -2397.793          46.000    23209506.648 7  95039046.065 7     -1868.413          45.000
R11  19980746.430 8 106771023.744 8     -1709.672          51.000    19980749.164 8  83044160.767 8     -1329.748          49.000
R12  19708378.656 5 105278583.782 5      1785.746          33.000
R21  20063528.438 8 107363948.091 8     -2059.094          49.000    20063530.438 8  83505340.980 8     -1601.517          48.000
R22  19810096.547 8 105747607.520 8      2484.555          50.000    19810100.242 8  82248155.406 8      1932.431          49.000
C05  39660560.617 5 206522946.759 5        28.227          35.000    39660555.891 6 159696625.671 6        21.987          37.000
C11  24800591.133 6 129143172.586 6      3181.141          38.000    24800575.469 6  99861711.095 6      2459.893          37.000
C12  21649952.688 8 112737052.414 8       865.941          49.000    21649953.359 8  87175436.876 8       669.574          51.000
C24  22072511.883 8 114937414.742 8     -1088.074          50.000
C26  24844683.672 8 129372722.878 8     -2986.258          48.000
E13  24069283.469 8 126484930.788 8      1747.805          51.000    24069284.469 8  96917046.141 8      1339.206          51.000
E15  24656648.211 5 129571644.578 5     -1164.945          35.000
E21  23660474.039 6 124336616.820 6       751.008          41.000    23660476.711 6  95270946.000 6       575.355          41.000
E27  24549618.398 7 129009099.689 7     -1555.531          43.000    24549620.094 7  98851132.798 7     -1192.029          42.000
> 2020 05 05 11 06  0.0000000  0 16        .000000000000
G02  23274487.219 6 122308234.258 6     -1425.496          37.000
G24  24541098.867 5 128964344.384 5     -3705.914          35.000    24541102.336 5 100491625.279 5     -2887.725          33.000
G25  20262210.156 8 106478663.788 8      -672.023          51.000    20262211.484 8  82970356.022 8      -523.655          51.000
G29  20513435.633 8 107798833.236 8      1313.762          51.000    20513434.719 8  83999084.941 8      1023.710          51.000
G32  23223215.812 7 122038824.090 7     -2408.074          47.000    23223219.852 7  95095202.744 7     -1876.425          45.000
R11  19990384.320 8 106822523.993 8     -1725.293          51.000    19990386.836 8  83084216.491 8     -1341.898          49.000
R21  20075127.562 7 107426016.992 7     -2080.449          47.000    20075129.766 8  83553616.814 8     -1618.124          48.000
R22  19796190.062 8 105673377.685 8      2462.441          48.000    19796194.352 8  82190421.098 8      1915.232          49.000
C05  39660389.570 5 206522055.725 5        29.160          35.000    39660384.719 6 159695936.696 6        22.576          37.000
C11  24782274.117 6 129047797.565 6      3175.578          38.000    24782257.039 6  99787961.160 6      2455.691          40.000
C12  21645001.539 8 112711269.984 8       851.234          50.000    21645001.805 8  87155500.270 8       658.307          51.000
C24  22078809.266 8 114970208.278 8     -1099.734          51.000
C26  24861896.609 8 129462353.620 8     -2990.688          48.000
E13  24059334.773 8 126432649.810 8      1736.102          51.000    24059335.969 8  96876986.712 8      1330.218          51.000
E21  23656198.570 7 124314149.940 7       745.449          42.000    23656202.375 7  95253731.152 7       571.030          42.000
E27  24558510.016 7 129055824.932 7     -1560.918          43.000    24558512.047 7  98886935.259 7     -1196.046          42.000
> 2020 05 05 11 06 30.0000000  0 15        .000000000000
G02  23282665.203 4 122351230.696 4     -1441.406          28.000
G25  20266079.477 8 106498997.178 8      -683.750          51.000    20266080.977 8  82986200.206 8      -532.792          51.000
G29  20505980.844 8 107759659.320 8      1297.438          51.000    20505979.797 8  83968559.826 8      1010.990          51.000
G32  23236994.820 8 122111232.028 8     -2419.383          48.000    23236998.164 7  95151624.456 7     -1885.236          45.000
R11  20000115.578 8 106874525.662 8     -1741.859          51.000    20000118.227 8  83124662.199 8     -1354.783          48.000
R21  20086853.078 7 107488762.014 7     -2102.945          47.000    20086855.156 8  83602418.480 8     -1635.624          48.000
R22  19782414.102 8 105599844.454 8      2439.328          49.000    19782419.297 8  82133228.561 8      1897.252          49.000
C05  39660220.297 5 206521174.175 5        29.062          35.000    39660215.422 6 159695252.017 6        22.482          37.000
C11  24763994.781 6 128952616.365 6      3169.309          38.000    24763977.586 7  99714361.104 7      2450.647          42.000
C12  21640141.289 8 112685959.623 8       835.641          50.000    21640141.008 8  87135928.714 8       646.110          51.000
C24  22085181.086 8 115003387.350 8     -1112.516          51.000
C26  24879141.641 8 129552151.106 8     -2996.133          49.000
E13  24049459.352 8 126380753.574 8      1723.227          51.000    24049461.164 8  96837222.087 8      1320.338          51.000
E21  23651960.773 7 124291880.613 7       738.785          43.000    23651965.508 7  95236667.626 7       566.154          43.000
E27  24567438.016 7 129102741.771 7     -1567.379          43.000    24567439.898 7  98922884.494 7     -1201.068          42.000
> 2020 05 05 11 07  0.0000000  0 16        .000000000000
G02  23290931.406 5 122394670.964 5     -1455.816          34.000
G24  24583433.867 5 129186817.163 5     -3711.227          34.000
G25  20270013.836 8 106519672.519 8      -694.883          51.000    20270015.617 8  83002310.836 8      -541.467          51.000
G29  20498618.039 8 107720968.801 8      1281.746          51.000    20498617.172 8  83938411.395 8       998.763          51.000
G32  23250836.305 8 122183969.163 8     -2429.953          49.000    23250839.461 7  95208302.711 7     -1893.470          44.000
R11  20009939.219 8 106927020.279 8     -1758.074          51.000    20009941.719 8  83165491.309 8     -1367.391          48.000
R21  20098702.211 7 107552171.372 7     -2124.656          46.000    20098704.992 7  83651736.916 7     -1652.510          47.000
R22  19768768.805 8 105527002.199 8      2416.535          51.000    19768773.586 8  82076573.490 8      1879.527          49.000
C05  39660051.242 5 206520294.109 5        29.418          35.000    39660046.422 6 159694571.506 6        22.558          37.000
C11  24745751.883 6 128857622.420 6      3163.305          36.000    24745735.305 7  99640905.819 7      2446.125          43.000
C12  21635370.047 8 112661113.455 8       820.402          50.000    21635369.430 8  87116716.101 8       634.423          51.000
C24  22091625.539 8 115036944.045 8     -1124.902          51.000
C26  24896416.898 7 129642106.364 7     -3001.164          47.000
E13  24039655.664 8 126329235.102 8      1710.996          51.000    24039657.320 8  96797746.912 8      1311.044          51.000
E21  23647759.328 7 124269801.513 7       732.805          44.000    23647764.641 7  95219749.877 7       561.557          43.000
E27  24576400.984 7 129149842.197 7     -1573.125          44.000    24576402.484 7  98958974.450 7     -1205.396          42.000
> 2020 05 05 11 07 30.0000000  0 17        .000000000000
G02  23299286.477 5 122438576.845 5     -1470.410          35.000
G24  24604623.867 5 129298169.596 5     -3711.789          34.000
G25  20274014.031 8 106540693.641 8      -706.137          51.000    20274015.875 8  83018690.919 8      -550.236          51.000
G29  20491348.117 8 107682766.148 8      1265.629          51.000    20491347.703 8  83908643.124 8       986.204          51.000
G32  23264740.594 8 122257036.466 8     -2440.699          48.000    23264744.070 7  95265238.240 7     -1901.844          44.000
R11  20019855.836 8 106980011.713 8     -1774.312          51.000    20019858.289 8  83206706.833 8     -1380.021          48.000
R21  20110675.977 7 107616245.978 7     -2146.508          47.000    20110678.688 7  83701572.710 7     -1669.506          47.000
R22  19755254.508 8 105454857.320 8      2393.500          51.000    19755258.305 8  82020460.840 8      1861.614          49.000
C05                                                                  39659878.586 6 159693895.162 6        22.811          37.000
C11  24727546.641 5 128762821.396 5      3156.852          35.000    24727531.258 7  99567599.711 7      2441.401          44.000
C12  21630688.438 8 112636735.473 8       805.141          50.000    21630687.820 8  87097865.538 8       622.540          51.000
C24  22098143.234 8 115070882.271 8     -1137.289          51.000
C26  24913722.812 7 129732222.294 7     -3006.234          47.000
E13  24029924.594 8 126278099.448 8      1698.492          51.000    24029926.281 8  96758565.094 8      1301.415          51.000
E15  24683840.398 6 129714452.951 6     -1217.242          36.000
E21  23643595.070 7 124247917.346 7       726.559          45.000    23643600.188 7  95202981.488 7       556.702          43.000
E27  24585399.250 6 129197130.388 6     -1579.141          41.000    24585401.750 7  98995208.233 7     -1209.835          42.000
> 2020 05 05 11 08  0.0000000  0 15        .000000000000
G25  20278077.406 8 106562046.937 8      -717.395          51.000    20278079.281 8  83035329.834 8      -559.009          51.000
G29  20484168.500 8 107645037.670 8      1249.617          51.000    20484168.453 8  83879244.318 8       973.728          51.000
G32  23278704.484 7 122330417.530 7     -2451.258          47.000    23278708.477 7  95322418.234 7     -1910.074          45.000
R11  20029862.930 8 107033486.079 8     -1790.625          51.000    20029865.398 8  83248297.980 8     -1392.708          48.000
R21  20122771.133 7 107680968.578 7     -2168.238          45.000    20122773.406 7  83751912.512 7     -1686.408          46.000
R22  19741868.477 8 105383398.299 8      2370.480          51.000    19741871.406 8  81964881.643 8      1843.707          49.000
C05  39659713.812 5 206518536.882 5        30.082          35.000    39659709.203 6 159693212.742 6        22.482          37.000
C11  24709377.156 5 128668201.265 5      3150.617          34.000    24709362.891 7  99494433.502 7      2436.469          43.000
C12  21626094.289 8 112612812.404 8       789.859          50.000    21626093.352 8  87079366.712 8       610.724          51.000
C24  22104731.562 8 115105188.624 8     -1149.766          51.000
C26  24931055.969 7 129822484.502 7     -3011.355          43.000
E13  24020264.031 8 126227334.194 8      1685.906          51.000    24020265.289 8  96719667.052 8      1291.741          51.000
E15  24690829.133 5 129751181.864 5     -1230.121          34.000
E21  23639465.562 7 124226215.379 7       720.254          45.000    23639469.617 7  95186352.706 7       551.814          43.000
E27  24594430.781 7 129244592.886 7     -1585.133          42.000    24594434.719 7  99031575.584 7     -1214.504          42.000
> 2020 05 05 11 08 30.0000000  0 16        .000000000000
G24  24647042.328 5 129521081.953 5     -3716.148          34.000    24647040.484 5 100925494.920 5     -2895.661          32.000
G25  20282209.680 8 106583762.165 8      -728.828          51.000    20282211.727 8  83052250.767 8      -567.918          51.000
G29  20477085.125 8 107607813.859 8      1233.492          51.000    20477085.281 8  83850238.743 8       961.160          51.000
G32  23292733.227 7 122404139.204 7     -2461.922          47.000    23292737.297 7  95379863.648 7     -1918.381          46.000
R11  20039965.883 8 107087473.516 8     -1807.066          51.000    20039968.641 8  83290288.186 8     -1405.496          48.000
R12  19649545.312 4 104964334.521 4      1703.887          28.000    19649555.422 5  81638949.987 5      1325.242          30.000
R21  20134992.250 7 107746366.221 7     -2190.000          46.000    20134994.297 7  83802777.348 7     -1703.336          46.000
R22  19728616.781 8 105312657.970 8      2347.125          51.000    19728619.086 8  81909861.403 8      1825.545          49.000
C05  39659548.383 5 206517674.976 5        29.684          35.000    39659543.867 6 159692546.997 6        22.802          37.000
C11  24691249.227 5 128573793.325 5      3144.383          32.000    24691235.859 7  99421431.265 7      2431.521          43.000
C12  21621592.961 8 112589373.847 8       774.289          49.000    21621591.984 8  87061242.531 8       598.772          51.000
C24  22111396.328 8 115139892.625 8     -1162.336          51.000
C26  24948421.461 6 129912921.457 6     -3016.406          41.000
E13  24010679.859 8 126176970.175 8      1673.238          51.000    24010680.492 8  96681076.449 8      1282.125          51.000
E21  23635376.602 7 124204726.227 7       713.902          46.000    23635379.469 7  95169887.004 7       546.986          44.000
E27  24603501.273 6 129292259.688 6     -1590.996          41.000    24603505.852 6  99068099.484 6     -1219.192          41.000
> 2020 05 05 11 09  0.0000000  0 17        .000000000000
G12  21763565.742 5 114368309.202 5     -2330.938          32.000
G24  24668264.641 5 129632606.794 5     -3719.359          34.000    24668266.336 5 101012404.743 5     -2898.214          32.000
G25  20286403.688 8 106605801.196 8      -740.867          51.000    20286405.625 8  83069424.034 8      -577.302          51.000
G29  20470090.516 8 107571056.852 8      1216.625          51.000    20470090.953 8  83821596.913 8       948.019          51.000
G32  23306818.773 7 122478160.520 7     -2473.105          44.000    23306822.727 7  95437542.570 7     -1927.095          44.000
R11  20050157.656 8 107141935.188 8     -1824.109          51.000    20050160.617 8  83332647.242 8     -1418.755          48.000
R12  19640023.375 5 104913473.543 5      1689.340          33.000    19640021.898 4  81599372.487 4      1313.928          28.000
R21  20147331.430 7 107812396.754 7     -2212.496          45.000    20147333.883 7  83854134.453 7     -1720.830          45.000
R22  19715492.414 8 105242599.759 8      2323.141          51.000    19715494.625 8  81855371.682 8      1806.887          49.000
C05  39659380.094 5 206516799.098 5        28.387          35.000    39659375.508 6 159691868.977 6        21.842          37.000
C11  24673156.578 5 128479561.344 5      3137.391          31.000    24673142.719 6  99348565.159 6      2426.017          41.000
C12  21617177.289 8 112566312.138 8       758.316          48.000    21617176.938 8  87043412.920 8       586.170          51.000
C24  22118129.953 8 115174956.619 8     -1175.602          51.000
C26  24965811.570 6 130003494.596 6     -3022.309          37.000
E13  24001165.211 8 126126970.475 8      1659.672          51.000    24001165.609 8  96642765.026 8      1271.712          51.000
E21  23631320.984 7 124183412.663 7       706.656          45.000    23631323.297 7  95153555.832 7       541.413          45.000
E27  24612603.461 7 129340092.899 7     -1598.195          43.000    24612607.289 7  99104750.896 7     -1224.427          42.000
> 2020 05 05 11 09 30.0000000  0 17        .000000000000
G24  24689491.508 5 129744161.475 5     -3725.172          33.000
G25  20290652.406 8 106628128.074 8      -756.344          51.000    20290654.195 8  83086821.585 8      -589.359          51.000
G29  20463177.953 8 107534730.734 8      1196.273          51.000    20463178.352 8  83793290.847 8       932.161          51.000
G32  23320953.945 7 122552436.105 7     -2487.727          46.000
R11  20060431.234 8 107196834.546 8     -1844.762          51.000    20060434.508 8  83375346.707 8     -1434.818          48.000
R12  19630564.516 5 104862942.543 5      1670.418          30.000    19630559.453 4  81560058.656 4      1299.214          26.000
R21  20159781.656 7 107879020.232 7     -2238.004          45.000    20159784.023 7  83905952.694 7     -1740.670          45.000
R22  19702489.305 8 105173189.667 8      2295.422          51.000    19702491.836 8  81801386.057 8      1785.328          48.000
C05  39659201.617 5 206515869.690 5        24.387          35.000    39659197.203 6 159691151.036 6        19.138          37.000
C11  24655090.258 5 128385471.533 5      3126.797          33.000    24655076.398 6  99275808.919 6      2417.859          41.000
C12  21612840.438 7 112543731.755 7       738.418          47.000    21612840.000 8  87025952.321 8       571.155          51.000
C24  22124925.766 8 115210344.940 8     -1192.273          51.000
C26  24983224.133 7 130094167.314 7     -3031.355          42.000
E13  23991713.422 8 126077300.155 8      1642.902          51.000    23991713.805 8  96604706.002 8      1258.895          51.000
E15  24712227.086 5 129863637.470 5     -1274.332          35.000    24712231.086 5  99505912.671 5      -976.331          34.000
E21  23627291.945 7 124162239.494 7       696.160          45.000    23627294.320 7  95137332.215 7       533.356          45.000
E27  24621730.422 6 129388056.719 6     -1608.250          41.000    24621734.820 7  99141502.362 7     -1232.406          44.000
> 2020 05 05 11 10  0.0000000  0 18        .000000000000
G12  21790229.883 6 114508414.794 6     -2349.832          39.000    21790242.469 5  89227375.901 5     -1831.035          33.000
G24  24710738.961 5 129855816.376 5     -3728.211          32.000
G25  20294978.297 8 106650860.292 8      -768.703          51.000    20294979.945 8  83104534.984 8      -598.989          51.000
G29  20456370.102 8 107498953.811 8      1179.102          51.000    20456369.805 8  83765412.728 8       918.780          51.000
G32  23335161.312 8 122627098.107 8     -2499.109          48.000
R11  20070809.125 8 107252290.573 8     -1862.141          51.000    20070812.320 8  83418479.148 8     -1448.332          48.000
R12  19621195.969 5 104812904.688 5      1654.980          30.000
R21  20172364.625 7 107946353.004 7     -2260.555          45.000    20172367.195 7  83958322.631 7     -1758.209          44.000
R22  19689630.805 8 105104549.279 8      2270.867          51.000    19689633.562 8  81747999.106 8      1766.230          48.000
C05  39659035.648 5 206515005.366 5        23.461          35.000    39659031.398 6 159690483.464 6        18.398          37.000
C11  24637071.531 5 128291641.673 5      3118.809          35.000    24637059.289 6  99203253.786 6      2411.869          40.000
C12  21608605.219 7 112521679.212 7       722.141          47.000    21608604.828 8  87008899.896 8       558.342          51.000
C24  22131806.469 8 115246174.099 8     -1205.898          51.000
C26  25000679.672 7 130185055.223 7     -3037.246          44.000
E13  23982347.023 8 126028077.946 8      1629.004          51.000    23982347.945 8  96566990.313 8      1248.204          51.000
E15  24719512.648 5 129901914.879 5     -1288.176          32.000    24719516.750 5  99535253.496 5      -986.915          34.000
E21  23623311.969 7 124141325.117 7       688.469          45.000    23623314.688 7  95121306.905 7       527.570          45.000
E27  24630904.641 7 129436268.911 7     -1615.547          42.000    24630909.984 7  99178444.109 7     -1237.860          44.000
> 2020 05 05 11 10 30.0000000  0 18        .000000000000
G12  21803646.211 6 114578910.804 6     -2351.133          38.000    21803656.758 6  89282307.670 6     -1832.058          37.000
G24  24732006.367 5 129967579.259 5     -3724.348          34.000    24732009.641 5 101273438.272 5     -2902.095          33.000
G25  20299377.914 8 106673980.088 8      -774.152          51.000    20299379.383 8  83122550.397 8      -603.236          51.000
G29  20449663.438 8 107463707.944 8      1169.039          51.000    20449662.555 8  83737948.418 8       910.940          51.000
G32  23349436.047 8 122702111.444 8     -2503.262          48.000    23349439.969 7  95612044.447 7     -1950.597          45.000
R11  20081287.492 8 107308285.382 8     -1872.375          51.000    20081291.031 8  83462030.645 8     -1456.292          48.000
R12  19611919.016 6 104763335.885 6      1647.316          36.000    19611921.422 4  81482615.785 4      1281.249          27.000
R21  20185076.086 7 108014373.671 7     -2275.629          43.000    20185078.219 7  84011227.617 7     -1769.931          43.000
R22  19676913.555 8 105036662.661 8      2253.410          51.000    19676916.203 8  81695198.454 8      1752.655          48.000
C05  39658879.062 5 206514189.611 5        29.320          35.000    39658874.828 6 159689852.682 6        22.869          37.000
C11  24619098.320 6 128198055.978 6      3118.738          36.000    24619087.602 6  99130887.394 6      2411.531          36.000
C12  21604468.602 7 112500135.036 7       712.559          47.000    21604468.359 8  86992240.119 8       551.059          51.000
C24  22138768.359 8 115282426.544 8     -1212.449          51.000
C26  25018173.539 7 130276139.666 7     -3036.551          47.000
E13  23973062.531 8 125979287.174 8      1622.199          51.000    23973063.602 8  96529605.180 8      1243.029          51.000
E15                                                                  24726885.219 5  99564928.106 5      -991.943          34.000
E21  23619377.812 7 124120652.678 7       688.137          45.000    23619380.859 7  95105466.982 7       527.229          45.000
E27  24640123.117 6 129484711.832 6     -1615.598          41.000    24640127.984 7  99215562.701 7     -1237.704          43.000
> 2020 05 05 11 11  0.0000000  0 18        .000000000000
G12  21817084.164 6 114649528.369 6     -2357.844          40.000    21817088.562 6  89337334.366 6     -1837.278          38.000
G24  24753267.461 6 130079310.376 6     -3725.316          37.000    24753271.594 6 101360501.386 6     -2902.841          37.000
G25  20303825.008 8 106697350.016 8      -784.977          51.000    20303826.531 8  83140760.729 8      -611.670          51.000
G29  20443031.539 8 107428856.654 8      1153.238          51.000    20443030.750 8  83710791.579 8       898.627          51.000
G32  23363751.633 8 122777338.303 8     -2513.078          49.000    23363755.656 7  95670662.724 7     -1958.243          45.000
R11  20091840.750 8 107364679.152 8     -1888.344          51.000    20091844.453 8  83505892.459 8     -1468.712          49.000
R12  19602710.977 6 104714116.776 6      1633.062          36.000    19602712.883 4  81444351.327 4      1270.160          28.000
R21  20197888.914 7 108082938.902 7     -2296.383          45.000    20197891.055 7  84064556.114 7     -1786.079          43.000
R22  19664311.758 8 104969392.645 8      2230.164          51.000    19664314.211 7  81642877.397 7      1734.575          47.000
C05                                                                  39658701.227 6 159689153.502 6        23.077          37.000
C11  24601144.812 6 128104579.833 6      3112.527          38.000    24601136.867 5  99058605.658 5      2406.308          35.000
C12  21600403.570 8 112478970.123 8       697.531          48.000    21600403.156 8  86975872.752 8       539.330          51.000
C24  22145785.242 8 115318966.204 8     -1224.637          51.000
C26  25035678.477 8 130367283.631 8     -3040.926          48.000
E13  23963833.453 8 125930791.529 8      1609.664          50.000    23963835.664 8  96492446.191 8      1233.358          51.000
E15  24734310.742 6 129979710.811 6     -1307.445          36.000    24734311.242 5  99594830.449 5     -1001.830          35.000
E21  23615463.617 7 124100085.624 7       681.887          45.000    23615467.039 7  95089707.807 7       522.476          46.000
E27  24649359.516 6 129533248.438 6     -1621.312          41.000    24649363.633 7  99252753.103 7     -1242.301          44.000
> 2020 05 05 11 11 30.0000000  0 18        .000000000000
G12  21830569.836 6 114720399.755 6     -2365.859          38.000    21830571.859 6  89392558.741 6     -1843.533          39.000
G24  24774546.500 6 130191135.576 6     -3728.090          37.000    24774551.562 6 101447637.783 6     -2905.008          36.000
G25  20308344.820 8 106721102.694 8      -797.320          51.000    20308346.445 8  83159269.295 8      -621.286          51.000
G29  20436499.734 8 107394532.176 8      1136.211          51.000    20436499.023 8  83684045.222 8       885.359          51.000
G32  23378132.570 8 122852909.298 8     -2523.938          49.000    23378136.547 7  95729549.180 7     -1966.705          44.000
R11  20102494.094 8 107421606.363 8     -1905.605          51.000    20102497.812 8  83550169.178 8     -1482.138          49.000
R12  19593586.758 6 104665375.914 6      1617.633          36.000    19593584.562 4  81406441.735 4      1258.159          25.000
R21  20210828.828 6 108152180.383 6     -2318.613          41.000    20210830.359 7  84118410.595 7     -1803.363          42.000
R22  19651850.945 8 104902876.021 8      2205.473          51.000    19651853.016 7  81591142.282 7      1715.368          47.000
C05  39658540.117 5 206512425.165 5        28.637          35.000    39658535.867 6 159688487.534 6        22.533          37.000
C11  24583237.656 6 128011346.253 6      3104.656          38.000    24583235.445 6  98986511.465 6      2400.714          38.000
C12  21596436.047 8 112458308.834 8       681.199          48.000    21596435.195 8  86959894.873 8       526.719          51.000
C24  22152882.742 8 115355924.404 8     -1238.090          51.000
C26  25053219.148 7 130458617.425 7     -3046.812          46.000
E13  23954685.422 8 125882724.679 8      1595.918          48.000    23954689.258 8  96455615.736 8      1222.834          51.000
E15  24741816.180 5 130019120.591 5     -1321.312          32.000    24741819.484 5  99625061.185 5     -1012.353          35.000
E21  23611594.875 7 124079757.384 7       674.574          45.000    23611598.859 7  95074131.629 7       516.828          46.000
E27  24658639.242 7 129582011.433 7     -1628.473          42.000    24658643.594 7  99290116.941 7     -1247.749          44.000
> 2020 05 05 11 12  0.0000000  0 19        .000000000000
G02  23378383.281 5 122854219.074 5     -1606.676          34.000
G12  21844095.258 7 114791478.157 7     -2371.910          42.000    21844098.414 6  89447944.486 6     -1848.242          41.000
G24  24795834.633 5 130303007.083 5     -3728.566          34.000    24795841.305 5 101534810.248 5     -2905.379          33.000
G25  20312928.812 8 106745192.138 8      -807.777          51.000    20312930.352 8  83178040.295 8      -629.437          51.000
G29  20430059.516 8 107360688.927 8      1120.941          50.000    20430058.805 8  83657673.827 8       873.461          50.000
G32  23392569.688 8 122928775.637 8     -2533.020          49.000    23392573.305 7  95788665.758 7     -1973.781          44.000
R11  20113238.461 8 107479019.929 8     -1921.066          51.000    20113242.352 8  83594824.135 8     -1494.166          49.000
R12  19584539.914 4 104617095.622 4      1602.695          28.000    19584540.656 4  81368855.926 4      1246.544          26.000
R21  20223884.453 7 108222047.945 7     -2338.352          46.000    20223887.203 6  84172752.036 6     -1818.721          41.000
R22  19639522.773 8 104837068.450 8      2182.543          51.000    19639525.266 8  81539958.640 8      1697.533          49.000
C05                                                                  39658370.023 6 159687819.843 6        22.929          37.000
C11  24565368.438 6 127918311.401 6      3099.055          38.000    24565370.828 6  98914571.049 6      2396.014          40.000
C12  21592556.797 8 112438108.811 8       666.668          49.000    21592555.711 8  86944273.891 8       515.392          51.000
C24  22160052.094 8 115393255.670 8     -1249.812          51.000
C26  25070786.000 7 130550094.675 7     -3050.824          44.000
E13  23945611.000 8 125835041.749 8      1583.801          50.000    23945615.789 8  96419079.451 8      1213.568          51.000
E15                                                                  24749400.891 5  99655584.244 5     -1021.800          34.000
E21  23607763.180 7 124059622.910 7       668.855          44.000    23607767.648 7  95058703.906 7       512.338          46.000
E27  24667953.422 7 129630955.053 7     -1633.719          44.000    24667957.750 7  99327619.169 7     -1251.793          43.000
> 2020 05 05 11 12 30.0000000  0 19        .000000000000
G02  23387598.172 5 122902656.068 5     -1622.641          31.000
G12  21857659.594 6 114862760.208 6     -2379.762          37.000    21857660.188 6  89503488.912 6     -1854.363          38.000
G24  24817130.891 5 130414919.852 5     -3731.387          34.000    24817139.117 5 101622014.860 5     -2907.577          33.000
G25  20317576.266 8 106769614.810 8      -819.914          51.000    20317577.859 8  83197070.943 8      -638.894          51.000
G29  20423709.836 8 107327324.170 8      1103.742          50.000    20423709.656 8  83631675.299 8       860.059          50.000
G32  23407061.562 8 123004930.864 8     -2543.609          48.000    23407064.742 7  95848007.449 7     -1982.033          43.000
R11  20124073.219 8 107536916.241 8     -1938.344          51.000    20124076.648 8  83639854.563 8     -1507.604          49.000
R12  19575577.430 5 104569221.551 5      1588.570          32.000    19575578.305 4  81331616.880 4      1235.555          27.000
R21  20237057.258 6 108292534.455 6     -2360.246          40.000    20237059.359 6  84227574.861 6     -1835.741          40.000
R22  19627326.875 8 104771968.160 8      2157.914          51.000    19627330.242 8  81489325.109 8      1678.381          50.000
C05  39658207.391 5 206510692.390 5        28.691          35.000    39658203.086 6 159687147.662 6        22.428          37.000
C11  24547536.953 6 127825473.257 6      3091.137          37.000    24547541.883 7  98842782.731 7      2390.203          42.000
C12  21588765.008 8 112418362.470 8       650.234          49.000    21588763.969 8  86929006.541 8       502.842          51.000
C24  22167292.227 8 115430956.481 8     -1263.293          51.000
C26  25088379.242 7 130641710.863 7     -3056.598          45.000
E13  23936610.156 8 125787740.231 8      1570.055          51.000    23936614.516 8  96382835.427 8      1203.080          51.000
E15  24757052.422 5 130099176.599 5     -1346.953          33.000    24757052.828 5  99686395.950 5     -1031.800          33.000
E21  23603967.930 7 124039679.540 7       661.246          45.000    23603972.766 7  95043422.598 7       506.678          47.000
E27  24677301.273 7 129680075.979 7     -1640.664          45.000    24677304.852 7  99365257.254 7     -1257.153          42.000
> 2020 05 05 11 13  0.0000000  0 18        .000000000000
G12  21871265.250 6 114934258.230 6     -2386.195          39.000    21871262.703 6  89559201.590 6     -1859.373          40.000
G14  22998422.234 5 120857533.941 5     -1139.789          35.000
G25  20322289.641 8 106794383.550 8      -831.203          51.000    20322291.133 8  83216371.259 8      -647.691          51.000
G29  20417453.820 8 107294450.385 8      1087.852          51.000    20417453.664 8  83606059.373 8       847.677          51.000
G32  23421609.992 7 123081384.915 7     -2553.059          46.000    23421613.047 7  95907581.998 7     -1989.396          43.000
R11  20135000.648 8 107595307.966 8     -1954.332          51.000    20135003.508 8  83685270.307 8     -1520.036          48.000
R12  19566697.031 5 104521797.009 5      1573.168          31.000    19566701.852 4  81294730.997 4      1223.566          29.000
R21  20250346.312 7 108363649.547 7     -2380.727          44.000    20250348.883 6  84282886.601 6     -1851.676          39.000
R22  19615266.766 8 104707590.584 8      2134.184          51.000    19615270.453 8  81439253.690 8      1659.924          50.000
C05  39658041.789 5 206509830.235 5        28.621          35.000    39658037.539 6 159686480.995 6        22.349          37.000
C11  24529746.203 5 127732846.298 5      3084.293          35.000    24529752.125 7  98771157.740 7      2385.001          43.000
C12  21585062.758 8 112399086.611 8       634.848          49.000    21585062.344 8  86914101.228 8       491.001          51.000
C24  22174605.703 8 115469039.548 8     -1275.508          51.000
C26  25106001.367 7 130733477.869 7     -3061.047          46.000
E13  23927684.773 8 125740834.018 8      1557.219          51.000    23927688.133 8  96346894.322 8      1193.215          51.000
E15                                                                  24764777.602 5  99717497.341 5     -1041.940          33.000
E21  23600211.828 7 124019940.983 7       654.930          45.000    23600216.625 7  95028298.234 7       501.736          47.000
E27  24686685.320 7 129729387.261 7     -1646.559          45.000    24686687.352 7  99403041.186 7     -1261.718          42.000
> 2020 05 05 11 13 30.0000000  0 18        .000000000000
G12  21884909.984 6 115005961.033 6     -2393.137          37.000    21884906.789 6  89615073.912 6     -1864.785          37.000
G24  24859756.531 5 130638909.961 5     -3733.562          32.000    24859764.031 5 101796572.795 5     -2909.276          31.000
G25  20327066.938 8 106819488.304 8      -842.227          51.000    20327068.398 8  83235933.411 8      -656.280          51.000
G29  20411289.883 8 107262057.815 8      1072.016          51.000    20411289.359 8  83580818.429 8       835.337          51.000
G32  23436212.727 7 123158124.901 7     -2562.562          46.000    23436215.844 7  95967379.348 7     -1996.802          44.000
R11  20146018.789 8 107654184.980 8     -1970.371          51.000    20146021.414 7  83731063.493 7     -1532.514          47.000
R12  19557899.289 5 104474813.677 5      1558.316          34.000    19557906.273 4  81258188.346 4      1212.024          26.000
R21  20263750.922 6 108435379.549 6     -2400.727          39.000    20263754.102 6  84338676.676 6     -1867.226          38.000
R22  19603340.648 8 104643927.514 8      2110.395          51.000    19603344.148 8  81389737.969 8      1641.418          50.000
C05  39657875.656 5 206508965.384 5        28.867          34.000    39657871.555 6 159685812.259 6        22.328          37.000
C11  24511995.141 5 127640422.091 5      3078.117          34.000    24512000.992 7  98699689.563 7      2379.745          45.000
C12  21581449.086 8 112380270.277 8       619.887          48.000    21581448.750 8  86899551.254 8       479.248          51.000
C24  22181990.539 8 115507494.899 8     -1287.809          51.000
C26  25123651.352 7 130825384.742 7     -3065.656          47.000
E13  23918832.961 8 125694314.142 8      1544.418          51.000    23918835.086 8  96311249.242 8      1183.409          51.000
E15                                                                  24772575.289 5  99748895.820 5     -1051.213          33.000
E21  23596493.047 7 124000398.098 7       648.309          45.000    23596497.336 7  95013323.796 7       496.816          47.000
E27  24696103.578 7 129778879.098 7     -1652.449          45.000    24696105.242 7  99440963.443 7     -1266.216          42.000
> 2020 05 05 11 14  0.0000000  0 18        .000000000000
G12  21898593.680 6 115077869.907 6     -2400.746          36.000    21898591.586 6  89671106.769 6     -1870.711          36.000
G24  24881081.867 5 130750955.774 5     -3735.652          31.000    24881089.383 5 101883881.113 5     -2910.907          32.000
G25  20331908.531 8 106844930.851 8      -853.863          51.000    20331910.125 8  83255758.770 8      -665.348          51.000
G29  20405217.812 8 107230148.539 8      1055.430          51.000    20405217.258 8  83555954.101 8       822.416          51.000
G32  23450869.922 7 123235149.665 7     -2572.219          46.000    23450873.094 7  96027398.607 7     -2004.329          43.000
R11  20157127.953 8 107713548.606 8     -1986.934          51.000    20157130.484 7  83777235.143 7     -1545.396          47.000
R12  19549186.891 5 104428275.830 5      1543.609          34.000
R21  20277269.016 7 108507723.010 7     -2421.797          44.000    20277272.570 5  84394943.766 5     -1883.623          34.000
R22  19591549.172 8 104580982.792 8      2086.082          51.000    19591552.531 8  81340780.959 8      1622.508          51.000
C05  39657709.352 5 206508098.795 5        29.102          34.000    39657705.398 6 159685142.900 6        22.255          37.000
C11  24494285.070 5 127548204.151 5      3070.035          34.000    24494289.797 7  98628380.824 7      2374.209          46.000
C12  21577923.930 8 112361915.285 8       604.105          48.000    21577923.648 8  86885358.039 8       467.093          51.000
C24  22189447.219 8 115546324.326 8     -1300.625          51.000
C26  25141328.648 7 130917432.391 7     -3070.613          47.000
E13  23910055.250 8 125648183.480 8      1531.109          51.000    23910056.531 8  96275902.401 8      1173.179          51.000
E15  24780441.273 5 130222092.348 5     -1384.855          35.000    24780445.273 5  99780583.847 5     -1061.204          33.000
E21  23592812.242 7 123981053.559 7       641.492          46.000    23592815.766 7  94998501.355 7       491.542          47.000
E27  24705556.234 7 129828553.501 7     -1658.910          45.000    24705558.234 7  99479025.558 7     -1271.152          42.000
> 2020 05 05 11 14 30.0000000  0 17        .000000000000
G12  21912317.953 5 115149990.671 5     -2406.621          33.000    21912316.312 5  89727304.697 5     -1875.292          35.000
G25  20336815.586 8 106870717.097 8      -864.480          51.000    20336817.141 8  83275851.955 8      -673.618          51.000
G29  20399238.750 8 107198728.387 8      1039.992          51.000    20399238.727 8  83531470.909 8       810.384          51.000
G32  23465582.078 7 123312462.190 7     -2580.977          46.000    23465584.969 7  96087642.085 7     -2011.151          44.000
R11  20168329.320 8 107773404.658 8     -2002.523          51.000    20168331.531 7  83823789.829 7     -1557.518          47.000
R12  19540559.844 5 104382192.383 5      1529.770          32.000
R21  20290904.234 7 108580682.325 7     -2441.469          42.000    20290905.516 5  84451689.839 5     -1898.920          33.000
R22  19579893.383 8 104518764.431 8      2062.574          51.000    19579897.227 8  81292388.914 8      1604.224          51.000
C05  39657544.086 5 206507238.340 5        29.410          34.000    39657540.094 6 159684477.556 6        22.597          37.000
C11  24476616.820 4 127456165.679 4      3064.441          28.000    24476620.086 8  98557237.208 8      2369.113          48.000
C12  21574488.852 8 112344027.365 8       589.137          48.000    21574488.320 8  86871525.980 8       455.537          51.000
C24  22196976.898 8 115585533.585 8     -1312.570          50.000
C26  25159034.336 7 131009625.601 7     -3074.789          47.000
E13  23901352.703 8 125602448.920 8      1518.531          51.000    23901354.008 8  96240859.072 8      1163.574          51.000
E15  24788384.930 5 130263830.606 5     -1396.652          34.000    24788388.320 5  99812565.049 5     -1070.650          33.000
E21  23589170.344 7 123961914.129 7       635.160          46.000    23589173.414 7  94983836.089 7       486.711          47.000
E27  24715044.812 7 129878416.472 7     -1664.555          45.000    24715046.422 7  99517232.227 7     -1275.261          42.000
> 2020 05 05 11 15  0.0000000  0 17        .000000000000
G24  24923749.031 5 130975196.100 5     -3738.102          30.000
G25  20341785.430 8 106896833.284 8      -875.773          51.000    20341786.906 8  83296202.233 8      -682.421          51.000
G29  20393350.359 8 107167784.129 8      1023.883          51.000    20393350.695 8  83507358.500 8       797.831          51.000
G32  23480345.758 7 123390045.835 7     -2590.250          45.000    23480348.414 7  96148096.815 7     -2018.377          44.000
R11  20179619.781 8 107833738.750 8     -2018.648          50.000    20179622.453 8  83870716.304 8     -1570.063          48.000
R12  19532013.773 5 104336475.523 5      1514.496          33.000    19532022.383 4  81150618.692 4      1177.941          28.000
R21  20304649.805 7 108654239.982 7     -2461.570          43.000    20304654.102 5  84508901.437 5     -1914.552          31.000
R22  19568371.164 8 104457260.463 8      2038.551          51.000    19568375.320 8  81244552.489 8      1585.539          51.000
C05  39657377.133 5 206506369.602 5        30.012          34.000    39657373.211 6 159683805.785 6        22.890          37.000
C11                                                                  24458989.617 8  98486249.465 8      2363.824          49.000
C12  21571140.805 8 112326592.906 8       573.949          48.000    21571140.227 8  86858044.572 8       443.696          51.000
C24  22204576.820 8 115625109.090 8     -1324.988          51.000
C26  25176765.016 7 131101949.901 7     -3079.277          47.000
E13  23892722.781 8 125557097.753 8      1505.586          51.000    23892724.336 8  96206109.510 8      1153.652          51.000
E15                                                                  24796402.891 5  99844827.970 5     -1079.740          34.000
E21  23585564.961 7 123942967.001 7       628.621          46.000    23585567.805 7  94969318.158 7       481.656          47.000
E27  24724566.047 6 129928454.466 6     -1670.488          41.000    24724568.055 7  99555573.062 7     -1280.014          43.000
> 2020 05 05 11 15 30.0000000  0 15        .000000000000
G25  20346820.336 8 106923291.613 8      -887.871          51.000    20346821.805 8  83316819.108 8      -691.848          51.000
G29  20387554.836 8 107137327.973 8      1006.789          51.000    20387555.141 8  83483626.436 8       784.511          51.000
G32  23495162.602 7 123467909.853 7     -2600.332          43.000    23495165.516 7  96208770.021 7     -2026.236          43.000
R11  20191001.992 8 107894563.280 8     -2035.934          50.000    20191005.070 8  83918024.261 8     -1583.504          48.000
R21  20318509.484 7 108728404.969 7     -2482.566          42.000
R22  19556985.477 8 104396485.314 8      2013.316          51.000    19556989.922 8  81197282.922 8      1565.916          51.000
C05  39657210.891 5 206505502.949 5        28.527          35.000    39657207.266 6 159683137.155 6        22.095          37.000
C11                                                                  24441400.828 8  98415428.219 8      2357.759          49.000
C12  21567882.102 8 112309624.019 8       557.551          48.000    21567881.586 8  86844923.152 8       431.203          51.000
C24  22212249.656 8 115665062.856 8     -1338.371          51.000
C26  25194522.766 8 131194416.307 8     -3084.805          48.000
E13  23884168.281 8 125512143.185 8      1491.609          51.000    23884170.000 8  96171663.826 8      1142.975          51.000
E15                                                                  24804489.000 5  99877381.100 5     -1090.482          32.000
E21  23581998.570 7 123924225.259 7       621.109          46.000    23582001.320 8  94954957.606 8       475.864          48.000
E27  24734122.195 6 129978680.014 6     -1677.332          39.000    24734126.078 7  99594057.540 7     -1285.366          43.000
> 2020 05 05 11 16  0.0000000  0 16        .000000000000
G12  21953723.383 5 115367574.724 5     -2427.789          34.000    21953718.031 5  89896826.079 5     -1891.799          33.000
G25  20351921.344 8 106950097.856 8      -899.297          51.000    20351922.828 8  83337707.080 8      -700.754          51.000
G29  20381853.469 8 107107365.549 8       990.617          51.000    20381853.445 8  83460279.111 8       771.909          51.000
G32  23510033.367 7 123546057.092 7     -2609.547          44.000    23510036.695 7  96269663.945 7     -2033.413          44.000
R11  20202477.008 8 107955883.557 8     -2052.168          51.000    20202480.477 8  83965717.788 8     -1596.134          48.000
R21  20332482.672 7 108803179.718 7     -2502.516          43.000
R22  19545738.352 8 104336446.759 8      1989.051          51.000    19545742.391 8  81150586.274 8      1547.039          51.000
C05                                                                  39657043.109 6 159682476.092 6        21.805          38.000
C11  24423854.922 5 127181399.621 5      3042.074          34.000    24423854.727 8  98344779.083 8      2352.249          48.000
C12  21564713.977 8 112293126.237 8       542.098          49.000    21564713.492 8  86832166.027 8       419.278          51.000
C24  22219996.266 8 115705400.571 8     -1350.914          51.000
C26  25212308.180 8 131287029.682 8     -3089.371          48.000
E13  23875690.586 8 125467591.990 8      1478.379          51.000    23875692.391 8  96137527.211 8      1132.787          51.000
E15  24812637.328 5 130391286.749 5     -1434.676          35.000    24812643.609 5  99910238.821 5     -1099.797          31.000
E21  23578472.570 7 123905695.598 7       614.254          47.000    23578475.117 8  94940759.543 8       470.668          48.000
E27  24743716.523 7 130029099.043 7     -1683.836          43.000    24743720.125 7  99632690.293 7     -1290.131          43.000
> 2020 05 05 11 16 30.0000000  0 17        .000000000000
G12  21967604.414 5 115440523.053 5     -2435.051          35.000    21967591.141 5  89953668.997 5     -1897.439          33.000
G25  20357087.016 8 106977243.810 8      -910.492          51.000    20357088.680 8  83358859.753 8      -709.474          51.000
G29  20376244.430 8 107077889.150 8       974.457          51.000    20376243.859 8  83437310.510 8       759.317          51.000
G32  23524956.164 7 123624476.539 7     -2618.520          45.000    23524959.938 7  96330770.001 7     -2040.405          44.000
R11  20214043.453 8 108017691.024 8     -2068.309          51.000    20214047.008 8  84013790.218 8     -1608.687          48.000
R12  19506902.188 5 104202351.897 5      1467.191          34.000    19506902.602 4  81046279.359 4      1141.158          26.000
R21  20346568.164 7 108878552.495 7     -2522.297          43.000
R22  19534628.594 8 104277138.218 8      1964.844          51.000    19534632.227 8  81104457.409 8      1528.212          51.000
C05  39656883.000 5 206503796.058 5        28.605          34.000    39656879.414 6 159681816.528 6        21.814          37.000
C11  24406349.172 6 127090250.964 6      3034.512          36.000    24406350.062 7  98274297.107 7      2346.667          47.000
C12  21561634.906 8 112277091.444 8       526.867          49.000    21561634.336 8  86819766.923 8       407.401          51.000
C24  22227815.086 8 115746114.076 8     -1363.348          51.000
C26  25230119.703 8 131379780.924 8     -3093.965          48.000
E13  23867288.352 8 125423436.993 8      1465.305          51.000    23867290.180 8  96103694.180 8      1122.748          51.000
E15                                                                  24820870.820 5  99943363.095 5     -1109.429          31.000
E21  23574985.430 7 123887370.712 7       607.383          47.000    23574987.898 8  94926718.410 8       465.391          48.000
E27  24753347.023 7 130079703.580 7     -1689.910          45.000    24753349.117 7  99671465.202 7     -1294.788          43.000
> 2020 05 05 11 17  0.0000000  0 17        .000000000000
G12  21981523.406 5 115513668.546 5     -2441.465          35.000    21981513.688 5  90010665.331 5     -1902.452          35.000
G25  20362315.688 8 107004721.040 8      -921.320          51.000    20362317.367 8  83380270.576 8      -717.912          51.000
G29  20370726.125 8 107048890.327 8       958.641          51.000    20370725.047 8  83414714.029 8       746.993          51.000
G32  23539928.734 7 123703156.796 7     -2627.008          45.000    23539933.094 7  96392079.246 7     -2047.019          43.000
R11  20225699.602 8 108079976.920 8     -2084.180          51.000    20225702.984 8  84062234.756 8     -1621.032          48.000
R12  19498704.797 5 104158551.728 5      1452.383          34.000    19498704.117 4  81012226.481 4      1129.622          26.000
R21  20360763.438 7 108954510.929 7     -2541.602          42.000    20360766.070 4  84742432.972 4     -1976.804          27.000
R22  19523653.828 8 104218552.988 8      1940.742          51.000    19523657.523 8  81058891.157 8      1509.466          50.000
C05  39656717.914 5 206502936.750 5        28.734          35.000    39656714.391 6 159681152.019 6        22.479          38.000
C11  24388883.523 6 126999311.491 6      3027.812          37.000    24388885.602 7  98203976.969 7      2341.300          46.000
C12  21558643.062 8 112261511.228 8       511.762          49.000    21558642.469 8  86807719.314 8       395.745          51.000
C24  22235704.203 8 115787194.942 8     -1375.547          51.000
C26  25247955.664 7 131472660.725 7     -3098.152          47.000
E13  23858959.953 8 125379670.785 8      1452.410          51.000    23858961.625 8  96070159.041 8      1112.895          51.000
E15                                                                  24829170.383 5  99976773.510 5     -1118.369          33.000
E21  23571535.883 7 123869243.139 7       600.926          47.000    23571538.297 8  94912828.451 8       460.489          48.000
E27  24763011.109 7 130130485.425 7     -1695.715          45.000    24763013.266 7  99710375.921 7     -1299.308          44.000
> 2020 05 05 11 17 30.0000000  0 17        .000000000000
G12  21995481.023 6 115587013.464 6     -2447.457          39.000    21995476.609 5  90067817.131 5     -1907.106          35.000
G25  20367607.891 8 107032532.348 8      -932.301          51.000    20367609.570 8  83401941.697 8      -726.468          51.000
G29  20365299.164 8 107020371.780 8       942.996          51.000    20365298.055 8  83392491.799 8       734.802          51.000
G32  23554950.953 7 123782097.672 7     -2635.410          46.000    23554955.461 7  96453591.571 7     -2053.566          42.000
R11  20237445.852 8 108142743.445 8     -2099.879          51.000    20237449.039 8  84111053.118 8     -1633.239          49.000
R12  19490591.477 5 104115240.307 5      1437.348          31.000    19490591.867 4  80978521.718 4      1117.940          27.000
R21  20375068.414 6 109031054.394 6     -2560.758          39.000    20375068.180 4  84801966.788 4     -1991.701          29.000
R22  19512815.148 8 104160695.992 8      1916.816          51.000    19512818.672 8  81013891.300 8      1490.857          48.000
C05                                                                  39656548.766 6 159680484.933 6        22.349          37.000
C11  24371459.789 6 126908585.691 6      3021.023          37.000    24371462.352 7  98133822.075 7      2335.993          45.000
C12  21555738.938 8 112246388.288 8       496.875          49.000    21555738.508 8  86796025.317 8       384.143          51.000
C24  22243664.234 8 115828645.860 8     -1387.500          51.000
C26  25265816.844 7 131565670.901 7     -3102.141          47.000
E13  23850705.867 8 125336297.069 8      1439.625          51.000    23850707.672 8  96036924.655 8      1102.991          51.000
E15  24837532.289 5 130522113.349 5     -1471.625          34.000    24837539.633 5 100010478.252 5     -1127.268          32.000
E21  23568124.516 8 123851316.501 8       594.617          48.000    23568126.883 8  94899092.462 8       455.520          48.000
E27  24772709.562 7 130181447.541 7     -1701.391          46.000    24772711.656 7  99749424.785 7     -1303.738          43.000
> 2020 05 05 11 18  0.0000000  0 17        .000000000000
G12  22009477.234 6 115660564.133 6     -2455.309          38.000    22009476.492 6  90125129.223 6     -1913.231          37.000
G25  20372964.992 8 107060684.407 8      -944.336          51.000    20372966.828 8  83423878.349 8      -735.846          51.000
G29  20359964.828 8 106992340.657 8       925.973          51.000    20359963.859 8  83370649.373 8       721.540          51.000
G32  23570023.500 7 123861303.039 7     -2644.680          46.000    23570027.406 7  96515310.003 7     -2060.789          42.000
R11  20249282.820 8 108205997.105 8     -2116.781          51.000    20249285.961 8  84160250.371 8     -1646.385          49.000
R12  19482565.109 5 104072369.710 5      1420.320          32.000    19482568.625 4  80945178.317 4      1104.694          29.000
R21  20389481.539 6 109108186.155 6     -2581.074          39.000    20389481.250 5  84861958.137 5     -2007.502          32.000
R22  19502113.875 8 104103575.584 8      1891.508          50.000    19502117.508 7  80969464.355 7      1471.173          47.000
C05                                                                  39656383.758 6 159679820.462 6        21.944          38.000
C11  24354079.234 5 126818081.759 5      3013.129          35.000    24354081.938 7  98063838.770 7      2329.674          45.000
C12  21552923.789 8 112231729.153 8       480.539          48.000    21552923.516 8  86784689.926 8       371.689          51.000
C24  22251696.656 8 115870473.373 8     -1400.785          51.000
C26  25283704.789 7 131658817.140 7     -3107.445          47.000
E13  23842527.664 8 125293323.526 8      1425.480          51.000    23842529.844 8  96003996.901 8      1092.284          51.000
E15  24845968.344 5 130566450.609 5     -1484.684          34.000    24845977.711 5 100044455.499 5     -1137.803          33.000
E21  23564753.070 8 123833598.482 8       586.902          48.000    23564755.047 8  94885516.320 8       449.606          49.000
E27  24782443.203 7 130232596.797 7     -1708.480          42.000    24782444.836 7  99788617.092 7     -1309.018          43.000
> 2020 05 05 11 18 30.0000000  0 17        .000000000000
G12  22023511.766 6 115734315.608 6     -2461.664          38.000    22023512.742 6  90182597.889 6     -1918.180          38.000
G25  20378386.086 8 107089172.999 8      -955.094          51.000    20378387.961 8  83446077.243 8      -744.229          51.000
G29  20354722.289 8 106964792.568 8       910.352          51.000    20354721.398 8  83349183.337 8       709.365          51.000
G32  23585144.859 7 123940765.729 7     -2653.047          45.000    23585147.750 7  96577228.924 7     -2067.312          43.000
R11  20261210.000 8 108269733.300 8     -2132.406          51.000    20261213.484 8  84209822.975 8     -1658.538          50.000
R12  19474627.047 5 104029967.656 5      1404.980          33.000    19474628.688 5  80912199.914 5      1092.760          31.000
R21  20404004.180 5 109185898.422 5     -2599.953          35.000    20404006.867 5  84922401.007 5     -2022.186          35.000
R22  19491550.234 8 104047189.414 8      1867.457          50.000    19491553.375 7  80925608.467 7      1452.467          46.000
C05  39656222.078 5 206500354.830 5        28.707          34.000    39656218.562 6 159679158.500 6        22.132          38.000
C11  24336741.172 4 126727796.639 4      3005.191          29.000    24336744.156 7  97994025.027 7      2324.354          45.000
C12  21550196.641 7 112217529.457 7       465.848          47.000    21550196.539 8  86773709.826 8       360.153          51.000
C24  22259800.703 8 115912673.195 8     -1412.770          51.000
C26  25301618.070 8 131752094.285 8     -3111.254          48.000
E13  23834425.156 8 125250746.931 8      1412.711          51.000    23834427.656 8  95971373.280 8      1082.524          51.000
E15  24854475.875 5 130611151.629 5     -1496.047          34.000    24854485.438 5 100078713.092 5     -1146.172          34.000
E21  23561420.578 8 123816085.763 8       580.418          49.000    23561422.219 8  94872097.481 8       444.676          49.000
E27  24792210.617 6 130283929.236 6     -1714.051          40.000    24792213.898 7  99827949.704 7     -1313.265          44.000
> 2020 05 05 11 19  0.0000000  0 17        .000000000000
G12  22037585.836 5 115808277.556 5     -2468.277          33.000    22037588.320 5  90240230.491 5     -1923.333          33.000
G25  20383873.094 8 107118007.974 8      -966.395          51.000    20383875.180 8  83468546.037 8      -753.035          51.000
G29  20349573.695 8 106937737.595 8       894.125          51.000    20349572.766 8  83328101.558 8       696.721          51.000
G32  23600316.266 7 124020492.631 7     -2661.473          44.000    23600318.484 7  96639353.726 7     -2073.878          43.000
R11  20273229.203 8 108333961.561 8     -2148.602          50.000    20273233.172 8  84259778.271 8     -1671.135          49.000
R12  19466778.906 5 103988046.099 5      1390.094          34.000    19466781.836 5  80879594.204 5      1081.184          32.000
R21  20418635.094 5 109264197.549 5     -2619.156          34.000    20418638.867 5  84983300.424 5     -2037.118          35.000
R22  19481126.875 8 103991549.077 8      1842.871          51.000    19481128.883 7  80882332.649 7      1433.344          46.000
C05  39656058.727 5 206499504.129 5        29.059          34.000    39656055.195 6 159678500.701 6        22.189          38.000
C11                                                                  24319451.219 7  97924389.634 7      2318.621          44.000
C12  21547559.516 7 112203798.788 7       450.418          47.000    21547559.836 8  86763092.408 8       348.228          51.000
C24  22267977.867 8 115955254.981 8     -1425.121          51.000
C26  25319558.328 8 131845511.093 8     -3115.699          48.000
E13  23826400.297 8 125208578.030 8      1399.332          51.000    23826403.008 8  95939062.050 8      1072.209          51.000
E15  24863056.180 6 130656236.205 6     -1508.621          36.000    24863065.188 5 100113257.652 5     -1156.247          34.000
E21  23558129.133 8 123798789.101 8       573.484          49.000    23558130.656 8  94858844.197 8       439.408          50.000
E27  24802014.625 6 130335454.830 6     -1720.082          41.000    24802019.312 7  99867430.355 7     -1318.099          43.000
> 2020 05 05 11 19 30.0000000  0 16        .000000000000
G25  20389421.695 8 107147166.051 8      -978.453          51.000    20389423.836 8  83491266.599 8      -762.431          51.000
G29  20344514.719 8 106911152.324 8       877.172          51.000    20344513.680 8  83307385.773 8       683.511          51.000
G32  23615532.734 6 124100457.522 6     -2670.379          41.000    23615534.867 6  96701663.994 6     -2080.815          41.000
R11  20285336.383 8 108398658.032 8     -2165.461          51.000    20285340.305 8  84310097.744 8     -1684.247          49.000
R12  19459016.883 6 103946584.167 6      1373.391          37.000    19459021.039 5  80847346.052 5      1068.193          33.000
R21  20433371.953 6 109343056.548 6     -2639.035          37.000    20433374.312 5  85044635.177 5     -2052.586          35.000
R22  19470839.500 8 103936632.695 8      1817.344          51.000    19470840.633 8  80839619.904 8      1413.490          48.000
C05  39655892.680 5 206498638.867 5        28.273          34.000    39655889.398 6 159677832.408 6        21.630          38.000
C11  24302206.531 5 126547970.874 5      2990.094          35.000    24302199.102 6  97854915.943 6      2312.206          41.000
C12  21545008.086 7 112190514.108 7       434.270          47.000    21545008.633 8  86752819.843 8       335.784          51.000
C24  22276223.852 8 115998195.618 8     -1438.504          51.000
C26  25337520.477 7 131939043.656 7     -3120.875          47.000
E13  23818448.742 8 125166794.484 8      1385.203          51.000    23818451.461 8  95907046.092 8      1061.359          51.000
E15  24871702.641 6 130701669.831 6     -1521.293          36.000    24871710.609 5 100148070.353 5     -1165.498          34.000
E21  23554874.602 8 123781686.199 8       565.633          49.000    23554876.258 8  94845739.373 8       433.482          50.000
E27  24811851.836 7 130387150.593 7     -1727.094          42.000    24811855.977 7  99907041.366 7     -1323.408          42.000
> 2020 05 05 11 20  0.0000000  0 15        .000000000000
G25  20395038.266 8 107176681.120 8      -989.207          51.000    20395040.078 8  83514265.343 8      -770.814          51.000
G29  20339551.469 8 106885070.629 8       861.527          51.000    20339550.727 8  83287062.390 8       671.320          51.000
G32  23630800.477 7 124180691.422 7     -2678.395          43.000    23630803.031 7  96764183.894 7     -2087.061          43.000
R11  20297537.500 8 108463856.487 8     -2181.062          51.000    20297541.383 8  84360807.615 8     -1696.382          48.000
R12  19451348.500 6 103905618.911 6      1357.578          38.000    19451352.945 5  80815484.207 5      1055.894          33.000
R22  19460694.523 8 103882476.494 8      1793.039          51.000    19460695.969 8  80797498.429 8      1394.586          49.000
C05  39655730.547 5 206497794.779 5        28.023          34.000    39655727.312 6 159677179.692 6        21.920          38.000
C11  24284992.273 6 126458370.229 6      2982.895          38.000    24284994.406 6  97785631.158 6      2306.681          37.000
C12  21542548.547 7 112177708.751 7       419.422          47.000    21542549.258 8  86742917.905 8       324.308          51.000
C24  22284545.641 8 116041528.554 8     -1450.355          51.000
C26  25355511.070 7 132032724.450 7     -3124.664          47.000
E13  23810577.391 8 125125431.127 8      1372.266          51.000    23810580.195 8  95875352.111 8      1051.491          51.000
E15  24880422.242 5 130747486.052 5     -1532.914          34.000    24880429.102 5 100183176.289 5     -1174.651          33.000
E21  23551663.461 8 123764811.861 8       559.148          49.000    23551665.438 8  94832809.684 8       428.468          50.000
E27  24821728.844 7 130439050.614 7     -1732.828          42.000    24821731.164 6  99946808.899 6     -1327.781          41.000
> 2020 05 05 11 20 30.0000000  0 16        .000000000000
G25  20400717.609 8 107206525.905 8     -1000.254          51.000    20400719.391 8  83537521.003 8      -779.419          51.000
G29  20334678.992 8 106859465.807 8       845.582          51.000    20334678.570 8  83267110.581 8       658.895          51.000
G32  23646114.133 7 124261164.177 7     -2686.207          47.000    23646116.852 7  96826889.886 7     -2093.151          42.000
R11  20309827.492 8 108529529.060 8     -2196.801          51.000    20309830.477 7  84411886.240 7     -1708.623          47.000
R12  19443767.406 5 103865125.069 5      1342.043          33.000    19443773.023 5  80783989.029 5      1043.814          33.000
R21  20463170.914 6 109502540.891 6     -2676.012          36.000    20463175.883 6  85168664.428 6     -2081.345          36.000
R22  19450686.617 8 103829054.093 8      1768.605          51.000    19450689.258 8  80755947.715 8      1375.585          50.000
C05  39655567.180 5 206496943.992 5        28.582          34.000    39655563.906 6 159676521.815 6        22.262          38.000
C11  24267821.430 7 126368988.457 7      2975.777          42.000    24267824.508 6  97716515.766 6      2301.431          38.000
C12  21540176.109 8 112165355.533 8       404.535          48.000    21540177.070 8  86733365.638 8       312.713          51.000
C24  22292937.516 8 116085226.642 8     -1462.559          51.000
C26  25373524.430 7 132126525.599 7     -3128.492          45.000
E13  23802781.281 8 125084461.603 8      1359.285          51.000    23802784.031 8  95843959.900 8      1041.461          51.000
E15  24889209.453 6 130793656.399 6     -1544.859          38.000    24889216.141 5 100218553.595 5     -1183.858          33.000
E21  23548490.742 8 123748139.728 8       552.465          50.000    23548493.055 8  94820034.930 8       423.383          50.000
E27  24831639.070 7 130491127.884 7     -1738.754          45.000    24831640.570 7  99986712.181 7     -1332.214          42.000
> 2020 05 05 11 21  0.0000000  0 16        .000000000000
G25  20406459.688 8 107236700.332 8     -1012.020          51.000    20406461.430 8  83561033.515 8      -788.587          51.000
G29  20329897.008 8 106834336.930 8       828.914          51.000    20329896.602 8  83247529.634 8       645.907          51.000
G32  23661472.812 8 124341872.728 8     -2694.828          48.000    23661475.453 7  96889779.592 7     -2099.869          42.000
R11  20322205.898 8 108595675.063 8     -2213.426          51.000    20322208.312 7  84463333.075 7     -1721.553          46.000
R12  19436273.375 5 103825105.394 5      1325.363          34.000    19436280.938 5  80752862.546 5      1030.838          33.000
R21  20478227.773 5 109583105.317 5     -2695.195          34.000    20478228.141 5  85231325.557 5     -2096.266          34.000
R22  19440816.445 8 103776367.413 8      1743.312          51.000    19440820.312 8  80714969.206 8      1355.910          50.000
C05  39655402.445 5 206496086.487 5        28.781          34.000    39655399.250 6 159675858.785 6        21.833          38.000
C11  24250696.148 7 126279827.084 7      2967.570          44.000    24250698.078 7  97647570.681 7      2294.958          43.000
C12  21537890.664 8 112153454.136 8       388.508          48.000    21537891.422 8  86724162.735 8       300.464          51.000
C24  22301399.266 8 116129289.670 8     -1475.488          51.000
C26  25391560.727 7 132220445.981 7     -3133.512          45.000
E13  23795060.266 8 125043886.750 8      1345.266          51.000    23795063.039 8  95812870.085 8      1030.782          51.000
E15  24898063.359 6 130840179.682 6     -1557.469          38.000    24898068.922 5 100254201.270 5     -1193.460          33.000
E21  23545356.656 8 123731670.662 8       544.953          50.000    23545359.281 8  94807415.776 8       417.550          50.000
E27  24841583.594 7 130543382.343 7     -1745.406          45.000    24841584.727 7 100026751.308 7     -1337.377          43.000
> 2020 05 05 11 21 30.0000000  0 16        .000000000000
G25  20412268.297 8 107267224.652 8     -1022.891          51.000    20412270.086 8  83584818.673 8      -797.058          51.000
G29  20325209.859 8 106809704.873 8       813.234          51.000    20325209.422 8  83228335.835 8       633.689          51.000
G32  23676879.672 8 124422834.450 8     -2702.508          48.000    23676882.016 7  96952866.547 7     -2105.853          42.000
R11  20334676.352 8 108662314.438 8     -2229.074          50.000    20334678.891 7  84515163.653 7     -1733.724          47.000
R12  19428874.367 6 103785582.985 6      1309.578          36.000    19428880.711 5  80722122.913 5      1018.564          31.000
R21  20493387.469 5 109664242.282 5     -2713.715          34.000    20493392.359 5  85294432.145 5     -2110.664          35.000
R22  19431088.031 8 103724438.261 8      1718.820          51.000    19431092.867 8  80674579.885 8      1336.860          50.000
C05  39655240.250 5 206495241.781 5        27.984          34.000    39655237.141 6 159675206.359 6        21.899          38.000
C11  24233618.688 7 126190907.573 7      2960.367          46.000    24233621.195 7  97578812.568 7      2289.213          46.000
C12  21535695.859 8 112142024.579 8       373.613          49.000    21535696.195 8  86715324.693 8       288.862          51.000
C24  22309934.844 8 116173737.608 8     -1487.629          51.000
C26  25409623.812 7 132314504.691 7     -3137.195          43.000
E13  23787418.297 8 125003727.721 8      1332.117          51.000    23787421.133 8  95782098.893 8      1020.719          51.000
E15  24906987.305 5 130887074.690 5     -1568.824          34.000    24906990.180 5 100290133.820 5     -1202.107          32.000
E21  23542265.273 8 123715425.877 8       538.258          50.000    23542268.102 8  94794968.470 8       412.398          51.000
E27  24851565.219 7 130595834.597 7     -1751.262          44.000    24851567.734 7 100066941.965 7     -1341.915          45.000
> 2020 05 05 11 22  0.0000000  0 16        .000000000000
G25  20418141.328 8 107298087.650 8     -1033.855          51.000    20418143.164 8  83608867.738 8      -805.602          51.000
G29  20320615.250 8 106785558.229 8       797.426          51.000    20320614.992 8  83209520.274 8       621.374          51.000
G32  23692331.953 7 124504035.101 7     -2710.004          46.000    23692333.945 7  97016139.701 7     -2111.691          42.000
R11  20347236.688 8 108729435.599 8     -2244.879          49.000    20347239.703 7  84567368.970 7     -1746.017          46.000
R12  19421567.516 6 103746549.056 6      1293.242          37.000    19421573.086 5  80691763.170 5      1005.855          34.000
R21  20508654.516 5 109745936.830 5     -2731.996          32.000    20508657.922 5  85357972.288 5     -2124.892          33.000
R22  19421499.875 8 103673257.079 8      1694.141          51.000    19421504.922 8  80634772.336 8      1317.668          50.000
C05  39655078.711 5 206494400.773 5        27.883          34.000    39655075.602 6 159674556.047 6        21.978          38.000
C11  24216586.758 7 126102220.531 7      2953.035          46.000    24216589.883 7  97510234.193 7      2283.405          47.000
C12  21533589.602 8 112131055.542 8       358.539          49.000    21533589.836 8  86706842.759 8       277.284          51.000
C24  22318542.344 8 116218559.176 8     -1499.668          51.000
C26  25427710.562 7 132408689.733 7     -3140.965          43.000
E13  23779853.281 8 124963974.209 8      1318.992          51.000    23779856.227 8  95751638.429 8      1010.605          51.000
E15  24915979.516 6 130934329.131 6     -1580.723          36.000    24915980.344 5 100326327.768 5     -1210.994          32.000
E21  23539214.680 8 123699395.135 8       531.352          51.000    23539217.570 8  94782685.168 8       407.140          51.000
E27  24861582.141 7 130648473.617 7     -1757.074          43.000    24861586.172 7 100107275.732 7     -1346.327          45.000
> 2020 05 05 11 22 30.0000000  0 15        .000000000000
G25  20424076.359 8 107329276.650 8     -1044.992          51.000    20424078.039 8  83633170.841 8      -814.280          51.000
G29  20316110.383 8 106761884.189 8       781.309          51.000    20316110.133 8  83191072.964 8       608.812          51.000
G32  23707826.156 7 124585459.100 7     -2717.641          42.000    23707828.773 7  97079586.923 7     -2117.642          42.000
R11  20359884.727 8 108797025.178 8     -2260.781          50.000    20359888.047 7  84619938.635 7     -1758.385          46.000
R12  19414350.312 6 103707993.201 6      1277.422          37.000    19414356.742 5  80661775.223 5       993.553          34.000
R22  19412050.039 8 103622811.954 8      1669.277          51.000    19412054.656 8  80595537.245 8      1298.327          49.000
C05                                                                  39654912.234 6 159673898.227 6        22.280          38.000
C11  24199598.117 7 126013754.873 7      2945.242          46.000    24199601.414 8  97441826.979 8      2277.518          48.000
C12  21531569.328 8 112120534.141 8       343.262          49.000    21531569.281 8  86698706.958 8       265.583          51.000
C24  22327219.086 8 116263741.704 8     -1511.977          51.000
C26  25445818.789 7 132502987.460 7     -3145.191          44.000
E13  23772362.805 8 124924614.432 8      1305.617          50.000    23772366.156 8  95721479.635 8      1000.396          51.000
E15  24925037.820 6 130981929.022 6     -1592.137          37.000    24925038.977 5 100362800.390 5     -1220.126          32.000
E21  23536202.664 8 123683566.650 8       524.445          51.000    23536205.547 8  94770556.856 8       401.815          51.000
E27  24871632.586 7 130701286.903 7     -1763.316          43.000    24871636.156 7 100147743.085 7     -1351.026          45.000
> 2020 05 05 11 23  0.0000000  0 16        .000000000000
G25  20430076.305 8 107360807.817 8     -1056.559          50.000    20430078.125 8  83657740.568 8      -823.295          50.000
G29  20311698.625 8 106738698.923 8       764.949          51.000    20311698.219 8  83173006.528 8       596.064          51.000
G32  23723364.984 7 124667119.762 7     -2725.691          42.000    23723369.039 7  97143218.582 7     -2123.915          42.000
R11  20372624.172 8 108865098.892 8     -2276.973          51.000    20372627.266 7  84672884.836 7     -1770.982          47.000
R12  19407225.438 6 103669934.470 6      1260.570          39.000    19407230.719 5  80632173.991 5       980.444          33.000
R21  20539493.352 5 109910944.828 5     -2768.152          32.000    20539499.352 5  85486317.150 5     -2153.004          34.000
R22  19402741.625 8 103573121.366 8      1644.027          51.000    19402745.531 8  80556889.046 8      1278.688          49.000
C05                                                                  39654750.156 6 159673245.512 6        21.911          38.000
C11  24182655.609 7 125925528.163 7      2937.102          44.000    24182658.953 8  97373604.540 8      2271.066          49.000
C12  21529638.008 8 112110476.275 8       327.746          48.000    21529637.531 8  86690929.592 8       253.410          51.000
C24  22335968.141 8 116309301.030 8     -1524.727          51.000
C26  25463951.695 7 132597413.013 7     -3149.398          44.000
E13  23764950.586 8 124885665.492 8      1291.621          49.000    23764954.328 8  95691635.607 8       989.666          51.000
E15  24934164.445 6 131029889.298 6     -1604.559          37.000    24934168.148 5 100399558.144 5     -1229.410          32.000
E21  23533232.391 8 123667957.634 8       516.867          51.000    23533235.266 8  94758596.711 8       395.990          51.000
E27  24881718.906 7 130754290.874 7     -1769.820          43.000    24881722.734 7 100188356.531 7     -1356.090          45.000
> 2020 05 05 11 23 30.0000000  0 16        .000000000000
G25  20436140.250 8 107392675.553 8     -1068.242          50.000    20436142.492 8  83682572.562 8      -832.397          50.000
G29  20307378.734 8 106715997.050 8       748.230          51.000    20307378.328 8  83155316.786 8       583.037          51.000
G32  23738947.789 7 124749008.582 7     -2733.867          45.000    23738952.547 7  97207028.002 7     -2130.286          43.000
R11  20385453.344 8 108933650.738 8     -2293.527          51.000    20385455.867 7  84726202.895 7     -1783.858          46.000
R12  19400193.602 6 103632369.729 6      1243.363          40.000    19400197.867 5  80602956.954 5       967.057          35.000
R21  20555065.969 5 109994278.969 5     -2787.184          35.000    20555068.680 5  85551132.595 5     -2167.812          32.000
R22  19393573.688 8 103524180.875 8      1618.391          51.000    19393576.789 8  80518824.250 8      1258.748          49.000
C05  39654591.242 5 206491862.006 5        27.512          34.000    39654588.320 6 159672593.724 6        21.271          38.000
C11  24165757.844 7 125837536.455 7      2928.605          43.000    24165761.781 8  97305563.780 8      2264.577          49.000
C12  21527794.562 8 112100876.209 8       311.789          48.000    21527794.008 8  86683506.212 8       241.198          51.000
C24  22344788.703 8 116355231.469 8     -1537.668          51.000
C26  25482108.492 7 132691959.888 7     -3154.023          46.000
E13  23757616.102 8 124847122.524 8      1277.578          50.000    23757619.633 8  95662102.693 8       978.897          51.000
E15  24943357.828 6 131078203.065 6     -1616.797          37.000    24943360.438 5 100436582.752 5     -1238.877          30.000
E21  23530302.719 8 123652563.424 8       508.980          51.000    23530305.617 8  94746801.131 8       390.055          51.000
E27  24891840.555 7 130807480.142 7     -1776.402          45.000    24891845.164 7 100229111.914 7     -1361.328          44.000
> 2020 05 05 11 24  0.0000000  0 17        .000000000000
G12  22180418.133 5 116558880.829 5     -2534.621          31.000    22180415.492 5  90825090.830 5     -1975.029          30.000
G25  20442265.672 8 107424865.132 8     -1079.109          50.000    20442268.039 8  83707655.343 8      -840.864          50.000
G29  20303147.500 8 106693763.467 8       732.551          51.000    20303147.414 8  83137991.934 8       570.819          51.000
G32  23754570.906 8 124831107.883 8     -2740.953          48.000    23754575.039 7  97271001.423 7     -2135.808          42.000
R11  20398368.969 8 109002665.125 8     -2308.855          51.000    20398371.453 8  84779880.690 8     -1795.780          48.000
R12  19393251.977 6 103595286.488 6      1227.730          38.000    19393256.844 6  80574114.464 6       954.905          37.000
R21  20570740.594 5 110078139.179 5     -2804.445          33.000    20570739.781 5  85616357.093 5     -2181.232          33.000
R22  19384543.586 8 103475976.774 8      1593.855          51.000    19384546.445 8  80481332.180 8      1239.668          50.000
C05                                                                  39654423.852 6 159671931.642 6        21.857          38.000
C11  24148902.555 7 125749766.669 7      2921.344          43.000    24148907.367 8  97237694.624 8      2258.872          49.000
C12  21526036.055 7 112091719.022 7       297.121          47.000    21526035.453 8  86676425.296 8       229.804          51.000
C24  22353677.977 8 116401518.225 8     -1549.539          51.000
C26  25500286.344 7 132786612.493 7     -3157.598          47.000
E13  23750356.609 8 124808971.652 8      1264.480          51.000    23750359.094 8  95632870.256 8       968.858          51.000
E15  24952616.438 6 131126854.309 6     -1628.176          37.000    24952614.289 5 100473840.895 5     -1247.584          32.000
E21  23527411.359 8 123637370.203 8       502.410          50.000    23527414.094 8  94735159.566 8       384.964          51.000
E27  24901995.164 7 130860840.147 7     -1782.121          45.000    24901998.445 6 100269998.128 6     -1365.737          40.000
> 2020 05 05 11 24 30.0000000  0 17        .000000000000
G12  22194903.492 5 116635004.018 5     -2540.348          31.000
G25  20448461.305 8 107457422.971 8     -1089.895          51.000    20448463.703 8  83733025.099 8      -849.268          51.000
G29  20299014.219 8 106672044.680 8       716.832          51.000    20299014.297 8  83121068.194 8       558.570          51.000
G32  23770242.438 8 124913461.094 8     -2747.820          49.000    23770244.680 6  97335172.702 6     -2141.159          40.000
R11  20411379.570 8 109072188.541 8     -2324.477          51.000    20411382.195 8  84833954.417 8     -1807.926          49.000
R12  19386408.805 6 103558734.666 6      1211.172          38.000    19386414.391 6  80545685.220 6       942.023          36.000
R21  20586517.812 5 110162568.774 5     -2821.738          33.000    20586522.141 5  85682024.621 5     -2194.682          34.000
R22  19375660.312 8 103428557.700 8      1569.094          51.000    19375663.180 8  80444450.684 8      1220.406          51.000
C05  39654268.562 5 206490181.622 5        28.770          34.000    39654265.812 6 159671295.146 6        22.029          38.000
C11  24132099.500 7 125662266.341 7      2913.613          43.000    24132104.742 8  97170033.822 8      2253.003          49.000
C12  21524371.211 7 112083050.423 7       282.422          47.000    21524370.469 8  86669722.177 8       218.272          51.000
C24  22362644.648 8 116448207.119 8     -1561.512          51.000
C26  25518493.258 7 132881415.854 7     -3161.129          46.000
E13  23743181.094 8 124771260.211 8      1251.172          51.000    23743182.031 8  95603974.492 8       958.723          51.000
E15  24961947.656 6 131175888.196 6     -1639.258          36.000    24961945.680 5 100511412.304 5     -1256.025          32.000
E21  23524567.359 8 123622425.400 8       495.492          51.000    23524569.883 8  94723708.346 8       379.636          51.000
E27  24912190.859 7 130914417.553 7     -1788.027          45.000    24912192.414 6 100311050.951 6     -1370.026          40.000
> 2020 05 05 11 25  0.0000000  0 17        .000000000000
G12  22209429.961 5 116711318.762 5     -2548.176          35.000    22209428.906 5  90943907.299 5     -1985.598          35.000
G25  20454713.102 8 107490275.335 8     -1101.602          51.000    20454715.445 8  83758624.345 8      -858.391          51.000
G29  20294965.000 8 106650766.718 8       700.426          51.000    20294964.984 8  83104487.976 8       545.786          51.000
G32  23785947.656 8 124995991.569 8     -2755.449          50.000    23785948.297 6  97399482.110 6     -2147.106          39.000
R11  20424470.945 8 109142145.631 8     -2340.738          51.000    20424474.039 8  84888365.455 8     -1820.574          49.000
R12  19379652.438 7 103522641.793 7      1193.977          42.000    19379656.781 6  80517612.973 6       928.648          36.000
R21  20602388.320 5 110247489.230 5     -2840.039          32.000    20602391.781 5  85748073.840 5     -2208.922          31.000
R22  19366910.680 8 103381849.992 8      1543.449          51.000    19366913.680 8  80408122.483 8      1200.461          51.000
C05  39654102.836 5 206489318.551 5        27.898          33.000    39654100.133 6 159670627.771 6        21.479          38.000
C11  24115334.547 6 125574963.876 6      2905.176          41.000    24115340.023 8  97102526.024 8      2246.454          48.000
C12  21522786.188 7 112074797.202 7       266.613          47.000    21522785.430 8  86663340.253 8       206.205          51.000
C24  22371674.539 8 116495224.883 8     -1574.297          51.000
C26  25536714.406 7 132976295.895 7     -3165.402          46.000
E13  23736075.188 8 124733915.199 8      1237.211          51.000    23736075.578 8  95575359.511 8       947.987          51.000
E15  24971336.102 5 131225229.748 5     -1651.672          35.000    24971337.523 5 100549225.410 5     -1265.151          32.000
E21  23521756.875 8 123607656.169 8       487.859          51.000    23521759.203 8  94712391.659 8       373.775          51.000
E27  24922413.969 7 130968138.698 7     -1794.609          45.000    24922416.289 6 100352213.847 6     -1375.060          40.000
> 2020 05 05 11 25 30.0000000  0 16        .000000000000
G02  23656085.539 5 124313565.681 5     -1991.188          34.000
G25  20461036.195 8 107523502.214 8     -1114.078          51.000    20461038.461 8  83784515.411 8      -868.113          51.000
G29  20291014.734 8 106630009.479 8       683.004          51.000    20291014.812 8  83088313.522 8       532.211          51.000
G32  23801701.203 8 125078776.440 8     -2763.922          49.000    23801701.258 6  97463989.755 6     -2153.708          40.000
R11  20437658.344 8 109212617.209 8     -2357.848          51.000    20437662.102 8  84943176.674 8     -1833.882          49.000
R12  19372997.891 7 103487091.740 7      1175.906          43.000    19373001.500 6  80489962.944 6       914.594          38.000
R22  19358309.820 8 103335936.477 8      1516.980          51.000    19358312.430 8  80372411.972 8      1179.874          50.000
C05                                                                  39653942.023 6 159669990.981 6        20.540          38.000
C11  24098622.523 7 125487940.172 7      2896.117          42.000    24098628.227 8  97035233.804 8      2239.229          48.000
C12  21521296.125 8 112067038.182 8       250.324          48.000    21521295.227 8  86657340.501 8       193.413          51.000
C24  22380782.719 8 116542650.597 8     -1587.902          51.000
C26  25554965.000 7 133071330.931 7     -3170.848          45.000
E13  23729054.156 8 124697017.504 8      1222.207          51.000    23729054.867 8  95547087.288 8       936.478          51.000
E15  24980798.492 5 131274957.582 5     -1664.543          35.000    24980800.102 5 100587328.596 5     -1275.318          32.000
E21  23518995.336 8 123593143.503 8       479.227          51.000    23518997.570 8  94701271.558 8       367.197          51.000
E27  24932678.875 6 131022083.854 6     -1802.133          41.000    24932678.758 6 100393548.343 6     -1380.951          36.000
> 2020 05 05 11 26  0.0000000  0 18        .000000000000
G02  23667479.555 5 124373443.028 5     -2001.566          32.000
G12  22238597.508 5 116864605.476 5     -2560.273          31.000    22238595.273 4  91063320.768 4     -1995.018          29.000
G25  20467420.008 8 107557048.618 8     -1122.848          51.000    20467422.328 8  83810655.450 8      -874.946          51.000
G29  20287153.328 8 106609718.101 8       669.238          51.000    20287152.992 8  83072502.063 8       521.484          51.000
G32  23817492.055 8 125161757.730 8     -2768.664          48.000    23817492.562 6  97528650.452 6     -2157.404          41.000
R11  20450931.586 8 109283546.724 8     -2371.262          51.000    20450935.789 8  84998344.063 8     -1844.315          49.000
R12  19366435.031 7 103452030.975 7      1161.035          43.000    19366438.719 6  80462693.495 6       903.030          38.000
R21  20634430.758 6 110419016.314 6     -2874.262          36.000    20634440.523 5  85881475.746 5     -2235.543          32.000
R22  19349847.453 8 103290762.032 8      1494.137          51.000    19349849.766 8  80337276.304 8      1162.106          51.000
C05                                                                  39653781.055 6 159669342.803 6        22.337          38.000
C11  24081954.242 7 125401142.194 7      2889.887          43.000    24081958.688 8  96968116.126 8      2234.849          48.000
C12  21519890.500 8 112059718.691 8       237.242          48.000    21519889.211 8  86651680.596 8       183.526          51.000
C24  22389958.523 8 116590429.597 8     -1597.875          51.000
C26  25573234.547 7 133166465.513 7     -3172.020          45.000
E13  23722107.906 8 124660512.948 8      1210.926          51.000    23722108.914 8  95519116.292 8       927.849          51.000
E15  24990324.547 6 131325040.543 6     -1673.492          37.000    24990324.273 5 100625682.648 5     -1282.277          32.000
E21  23516272.430 8 123578833.405 8       474.332          51.000    23516274.477 8  94690306.676 8       363.425          51.000
E27  24942974.719 6 131076198.189 6     -1806.082          37.000    24942970.469 5 100435012.524 5     -1383.959          34.000
> 2020 05 05 11 26 30.0000000  0 16        .000000000000
G25  20473867.688 8 107590930.913 8     -1134.848          51.000    20473869.820 8  83837057.225 8      -884.297          51.000
G29  20283383.797 8 106589908.670 8       652.391          51.000    20283382.758 8  83057066.157 8       508.356          51.000
G32  23833322.930 7 125244948.903 7     -2776.297          47.000    23833324.344 6  97593474.705 6     -2163.351          41.000
R11  20464293.672 8 109354950.057 8     -2387.855          50.000    20464297.547 7  85053879.941 7     -1857.224          47.000
R12  19359966.602 7 103417478.953 7      1143.219          42.000    19359970.828 6  80435819.680 6       889.167          39.000
R21  20650600.828 4 110505544.532 4     -2891.820          26.000    20650600.672 4  85948763.241 4     -2249.194          25.000
R22  19341526.867 8 103246345.030 8      1468.066          51.000    19341529.234 8  80302729.771 8      1141.829          51.000
C05                                                                  39653620.438 6 159668695.991 6        21.642          38.000
C11  24065333.148 7 125314587.597 7      2881.281          46.000    24065335.508 8  96901186.698 8      2227.905          48.000
C12  21518572.289 8 112052854.627 8       221.270          49.000    21518570.914 8  86646372.890 8       171.151          51.000
C24  22399204.992 8 116638577.875 8     -1610.934          51.000
C26  25591526.594 7 133261714.848 7     -3176.699          46.000
E13  23715239.633 8 124624418.681 8      1196.449          51.000    23715240.781 8  95491459.658 8       916.751          51.000
E15  24999916.234 5 131375443.657 5     -1685.605          33.000    24999916.266 5 100664301.204 5     -1291.700          32.000
E21  23513591.422 8 123564743.218 8       466.137          51.000    23513593.055 8  94679510.299 8       357.164          51.000
E27  24953306.703 6 131130498.325 6     -1812.992          40.000    24953301.297 5 100476619.097 5     -1389.248          35.000
> 2020 05 05 11 27  0.0000000  0 16        .000000000000
G25  20480378.344 8 107625144.284 8     -1145.789          51.000    20480380.406 8  83863716.978 8      -892.823          51.000
G29  20279704.945 8 106570576.121 8       636.586          51.000    20279703.930 8  83042001.845 8       496.041          51.000
G32  23849192.234 7 125328342.282 7     -2783.043          47.000    23849194.820 6  97658456.511 6     -2168.605          41.000
R11  20477743.859 8 109426821.852 8     -2403.426          51.000    20477747.094 7  85109780.178 7     -1869.331          47.000
R12  19353592.984 7 103383433.220 7      1126.387          43.000    19353597.672 6  80409339.655 6       876.079          39.000
R21  20666863.883 5 110592539.051 5     -2909.844          34.000    20666864.062 4  86016421.855 4     -2263.221          28.000
R22  19333347.188 8 103202681.462 8      1442.945          51.000    19333349.398 8  80268769.220 8      1122.288          50.000
C05                                                                  39653459.328 6 159668046.964 6        21.506          38.000
C11  24048757.977 7 125228273.284 7      2873.184          47.000    24048758.789 8  96834443.059 8      2221.749          50.000
C12  21517340.812 8 112046440.942 8       206.445          49.000    21517339.281 8  86641413.442 8       159.585          51.000
C24  22408521.125 8 116687090.448 8     -1623.078          51.000
C26  25609839.688 7 133357073.166 7     -3180.242          46.000
E13  23708448.570 8 124588730.703 8      1182.918          51.000    23708449.727 8  95464114.328 8       906.401          51.000
E15  25009571.281 5 131426184.765 5     -1696.652          32.000    25009574.180 5 100703181.555 5     -1300.374          33.000
E21  23510951.547 8 123550869.135 8       458.918          51.000    23510952.688 8  94668879.515 8       351.659          51.000
E27  24963674.742 6 131184979.669 6     -1819.059          41.000    24963671.062 6 100518364.521 6     -1393.854          39.000
> 2020 05 05 11 27 30.0000000  0 16        .000000000000
G25  20486950.273 8 107659679.584 8     -1156.836          51.000    20486952.188 8  83890627.583 8      -901.434          51.000
G29  20276115.078 8 106551711.447 8       620.707          51.000    20276114.219 8  83027302.100 8       483.668          51.000
G32  23865097.664 7 125411925.833 7     -2789.484          46.000    23865101.227 6  97723586.487 6     -2173.627          41.000
R11  20491279.641 8 109499152.139 8     -2419.020          51.000    20491282.836 7  85166037.035 7     -1881.460          47.000
R12  19347313.461 7 103349886.984 7      1109.570          45.000    19347317.055 6  80383248.158 6       863.002          39.000
R21  20683236.180 5 110680073.321 5     -2926.328          34.000    20683235.273 5  86084503.931 5     -2276.036          32.000
R22  19325306.945 8 103159763.430 8      1417.820          51.000    19325309.500 8  80235388.531 8      1102.752          50.000
C05                                                                  39653295.930 6 159667388.896 6        22.002          38.000
C11  24032227.094 8 125142191.663 8      2865.074          48.000    24032226.961 8  96767879.334 8      2215.521          50.000
C12  21516193.805 8 112040468.278 8       191.469          49.000    21516192.141 8  86636795.011 8       147.971          51.000
C24  22417905.367 8 116735958.038 8     -1635.156          51.000
C26  25628171.523 7 133452530.430 7     -3183.711          46.000
E13  23701733.102 8 124553440.666 8      1169.348          51.000    23701734.242 8  95437073.916 8       895.994          51.000
E15  25019290.492 5 131477255.620 5     -1708.551          32.000    25019293.547 5 100742313.668 5     -1308.745          34.000
E21  23508351.148 8 123537202.953 8       451.738          51.000    23508351.977 8  94658408.035 8       346.131          51.000
E27  24974075.422 6 131239633.354 6     -1825.098          41.000    24974075.477 7 100560241.906 7     -1398.377          42.000
> 2020 05 05 11 28  0.0000000  0 15        .000000000000
G25  20493591.383 8 107694578.790 8     -1168.871          51.000    20493593.227 8  83917821.758 8      -910.809          51.000
G29  20272622.352 8 106533356.162 8       603.902          51.000    20272621.383 8  83012999.265 8       470.573          51.000
G32  23881046.656 7 125495738.532 7     -2796.973          46.000    23881050.961 7  97788895.030 7     -2179.459          42.000
R11  20504909.172 8 109571982.987 8     -2435.547          51.000    20504912.164 8  85222683.234 8     -1894.314          49.000
R12  19341135.539 7 103316885.420 7      1091.539          45.000    19341138.609 6  80357580.292 6       848.975          40.000
R22  19317414.273 8 103117634.558 8      1391.684          51.000    19317417.461 8  80202621.659 8      1082.421          50.000
C05                                                                  39653138.289 6 159666754.166 6        21.144          38.000
C11  24015749.055 8 125056385.859 8      2856.004          49.000    24015748.078 8  96701528.887 8      2208.516          50.000
C12  21515139.562 8 112034977.838 8       175.484          50.000    21515137.820 8  86632549.450 8       135.705          51.000
C24  22427365.594 8 116785221.975 8     -1648.188          51.000
C26  25646529.695 7 133548127.322 7     -3188.508          46.000
E13  23695101.539 8 124518591.316 8      1154.809          51.000    23695102.289 8  95410371.171 8       884.844          51.000
E15                                                                  25029081.898 5 100781728.803 5     -1318.173          35.000
E21  23505798.336 8 123523787.658 8       443.523          51.000    23505799.195 8  94648128.789 8       339.807          51.000
E27  24984517.266 7 131294501.436 7     -1832.066          43.000    24984520.227 7 100602283.603 7     -1403.761          43.000
> 2020 05 05 11 28 30.0000000  0 16        .000000000000
G25  20500291.156 8 107729786.820 8     -1178.625          51.000    20500293.188 8  83945256.564 8      -918.409          51.000
G29  20269215.977 8 106515455.266 8       589.246          51.000    20269215.109 8  82999050.529 8       459.153          51.000
G32  23897028.234 7 125579722.436 7     -2802.016          45.000    23897032.766 7  97854336.965 7     -2183.392          43.000
R11  20518621.625 8 109645257.738 8     -2449.738          51.000    20518624.930 8  85279674.681 8     -1905.355          49.000
R12  19335049.297 7 103284375.066 7      1075.496          45.000    19335052.406 6  80332294.439 6       836.497          40.000
R21  20716247.336 6 110856738.622 6     -2959.695          36.000    20716225.664 4  86221888.184 4     -2301.997          27.000
R22  19309659.164 8 103076239.950 8      1367.648          51.000    19309662.898 8  80170425.873 8      1063.730          50.000
C05                                                                  39652975.922 6 159666100.644 6        21.950          38.000
C11  23999313.906 8 124970802.683 8      2849.223          49.000    23999312.062 8  96635350.642 8      2203.070          50.000
C12  21514167.422 8 112029914.635 8       161.766          49.000    21514165.883 8  86628634.276 8       125.012          51.000
C24  22436891.383 8 116834827.422 8     -1659.117          51.000
C26  25664903.273 7 133643808.198 7     -3190.652          44.000
E13  23688543.227 8 124484128.298 8      1142.379          51.000    23688544.078 8  95383964.453 8       875.341          51.000
E15                                                                  25038930.055 5 100821383.639 5     -1325.806          35.000
E21  23503282.812 8 123510569.127 8       437.309          51.000    23503283.953 8  94638000.305 8       335.096          51.000
E27  24994989.195 6 131349529.016 6     -1836.891          41.000    24994993.406 6 100644447.573 6     -1407.467          41.000
> 2020 05 05 11 29  0.0000000  0 16        .000000000000
G12  22326962.477 5 117328979.325 5     -2598.316          32.000
G25  20507056.656 8 107765339.870 8     -1190.000          51.000    20507058.711 8  83972960.236 8      -927.273          51.000
G29  20265902.977 8 106498044.479 8       573.051          51.000    20265902.016 8  82985483.696 8       446.533          51.000
G32  23913048.961 7 125663910.783 7     -2809.023          46.000    23913052.938 7  97919938.218 7     -2188.849          42.000
R11  20532423.945 8 109719012.420 8     -2465.566          51.000    20532427.305 8  85337039.417 8     -1917.666          49.000
R12  19329062.406 7 103252395.199 7      1058.039          45.000    19329064.758 6  80307421.225 6       822.919          40.000
R21  20732906.156 5 110945955.547 5     -2976.383          33.000    20732885.617 5  86291284.661 5     -2314.967          32.000
R22  19302048.977 8 103035617.535 8      1342.027          51.000    19302053.039 8  80138830.694 8      1043.799          50.000
C11  23982929.094 8 124885479.585 8      2840.430          49.000    23982926.531 8  96569373.474 8      2196.503          50.000
C12  21513284.156 8 112025314.280 8       146.395          50.000    21513282.820 8  86625076.990 8       113.238          51.000
C24  22446489.180 8 116884809.996 8     -1671.566          49.000
C26  25683298.961 7 133739607.967 7     -3194.438          43.000
E13  23682065.367 8 124450088.557 8      1128.465          51.000    23682066.648 8  95357882.072 8       864.653          51.000
E15  25048839.078 5 131632533.368 5     -1741.617          35.000    25048845.188 5 100861304.988 5     -1334.234          35.000
E21  23500811.758 8 123497584.545 8       429.762          51.000    23500813.234 8  94628051.089 8       329.268          51.000
E27  25005497.836 6 131404752.539 6     -1843.266          39.000    25005502.375 7 100686761.683 7     -1412.241          42.000
> 2020 05 05 11 29 30.0000000  0 14        .000000000000
G25  20513888.289 8 107801240.345 8     -1202.031          51.000    20513890.422 8  84000934.618 8      -936.648          51.000
G29  20262683.742 8 106481126.493 8       556.129          51.000    20262682.594 8  82972300.838 8       433.347          51.000
G32  23929108.664 7 125748303.068 7     -2816.020          46.000    23929111.867 7  97985698.376 7     -2194.304          42.000
R11  20546316.445 8 109793248.919 8     -2482.086          51.000    20546319.805 8  85394778.892 8     -1930.511          48.000
R12  19323175.648 7 103220950.946 7      1039.539          46.000    19323177.516 6  80282964.601 6       808.533          40.000
R22  19294584.195 8 102995770.844 8      1315.738          51.000    19294588.344 8  80107838.833 8      1023.352          49.000
C11  23966595.055 8 124800420.505 8      2831.293          48.000    23966592.383 8  96503600.468 8      2189.278          51.000
C12  21512490.289 8 112021178.763 8       130.504          50.000    21512489.039 8  86621879.142 8       100.914          51.000
C24  22456159.977 8 116935171.847 8     -1684.512          49.000
C26  25701718.070 7 133835528.016 7     -3198.949          44.000
E13  23675668.812 8 124416475.285 8      1113.738          51.000    23675670.031 8  95332126.452 8       853.387          51.000
E15  25058821.570 5 131684990.177 5     -1753.551          33.000    25058826.742 5 100901493.700 5     -1343.510          34.000
E21  23498385.836 8 123484837.330 8       421.367          51.000    23498387.750 8  94618283.739 8       322.866          51.000
E27  25016043.414 6 131460174.527 6     -1850.383          38.000    25016049.875 7 100729227.856 7     -1417.841          42.000
> 2020 05 05 11 30  0.0000000  0 14        .000000000000
G25  20520780.859 8 107837461.144 8     -1212.777          51.000    20520783.102 8  84029158.601 8      -945.021          51.000
G29  20259552.781 8 106464673.716 8       540.605          51.000    20259551.938 8  82959480.476 8       421.251          51.000
G32  23945201.547 8 125832869.336 8     -2821.805          48.000    23945203.977 6  98051594.094 6     -2198.812          41.000
R11  20560293.570 8 109867938.907 8     -2497.273          51.000    20560296.773 7  85452871.074 7     -1942.324          47.000
R12  19317384.641 7 103190017.032 7      1022.469          47.000    19317387.156 7  80258904.881 7       795.253          42.000
R22  19287259.820 8 102956673.107 8      1290.758          51.000    19287263.727 8  80077429.494 8      1003.923          49.000
C11  23950306.117 7 124715600.137 7      2823.219          45.000    23950304.445 8  96438012.001 8      2183.128          51.000
C12  21511780.422 8 112017480.826 8       115.961          50.000    21511779.211 8  86619019.661 8        89.653          51.000
C24  22465898.891 8 116985885.871 8     -1696.445          51.000
C26  25720156.039 7 133931540.533 7     -3201.898          43.000
E13  23669348.297 8 124383262.057 8      1100.379          51.000    23669349.578 8  95306677.365 8       843.189          51.000
E15                                                                  25068868.453 5 100941928.011 5     -1351.921          33.000
E21  23496000.148 8 123472301.371 8       414.266          51.000    23496002.461 8  94608678.264 8       317.442          51.000
E27  25026619.438 5 131515768.079 5     -1855.961          35.000    25026628.289 6 100771825.550 6     -1422.148          41.000
> 2020 05 05 11 30 30.0000000  0 14        .000000000000
G25  20527735.000 8 107874005.110 8     -1225.230          51.000    20527737.078 8  84057634.405 8      -954.725          51.000
G29  20256510.992 8 106448688.850 8       523.301          51.000    20256510.406 8  82947024.740 8       407.767          51.000
G32  23961327.469 8 125917609.498 8     -2829.277          48.000    23961329.281 6  98117625.324 6     -2204.632          41.000
R11  20574355.961 8 109943084.620 8     -2514.281          51.000    20574359.469 8  85511317.705 8     -1955.555          48.000
R12  19311690.555 7 103159598.669 7      1003.512          47.000    19311693.664 7  80235246.160 7       780.512          43.000
R22  19280076.617 8 102918328.279 8      1263.918          51.000    19280080.094 8  80047605.792 8       983.050          48.000
C11  23934062.625 7 124631022.685 7      2813.484          43.000    23934063.133 8  96372611.342 8      2175.646          51.000
C12  21511155.016 8 112014222.923 8        99.637          51.000    21511153.719 8  86616500.438 8        77.106          51.000
C24  22475706.352 8 117036954.653 8     -1709.910          51.000
C26  25738612.492 7 134027647.454 7     -3207.082          43.000
E13  23663104.398 8 124350452.459 8      1085.230          51.000    23663106.125 8  95281537.572 8       831.585          51.000
E15  25079001.898 6 131790976.216 6     -1776.629          36.000    25078970.180 5 100982623.017 5     -1361.490          32.000
E21  23493655.500 8 123459980.484 8       405.477          51.000    23493657.914 8  94599237.590 8       310.696          51.000
E27  25037231.016 6 131571536.268 6     -1863.305          37.000    25037239.289 7 100814557.108 7     -1427.742          42.000
> 2020 05 05 11 31  0.0000000  0 15        .000000000000
G21  23619550.859 5 124121592.190 5      3434.938          35.000    23619552.711 5  96718119.773 5      2676.575          33.000
G25  20534750.836 8 107910873.312 8     -1239.516          51.000    20534752.773 8  84086362.866 8      -965.856          51.000
G29  20253558.508 8 106433172.593 8       504.164          51.000    20253557.891 8  82934934.152 8       392.855          51.000
G32  23977485.914 8 126002521.741 8     -2838.484          48.000    23977487.695 6  98183790.635 6     -2211.806          41.000
R11  20588503.492 8 110018686.452 8     -2532.965          51.000    20588507.445 7  85570119.096 7     -1970.087          47.000
R12  19306093.414 8 103129699.659 8       982.602          48.000    19306097.164 7  80211991.371 7       764.246          43.000
R22  19273034.930 8 102880738.351 8      1235.066          51.000    19273036.859 7  80018369.163 7       960.607          46.000
C11  23917866.266 7 124546690.673 7      2801.805          44.000    23917868.617 8  96307400.483 8      2166.536          51.000
C12  21510614.164 8 112011405.738 8        81.371          51.000    21510612.914 8  86614322.025 8        62.985          51.000
C24  22485582.367 8 117088378.922 8     -1725.227          51.000
C26  25757087.297 7 134123848.667 7     -3213.434          44.000
E13  23656937.750 8 124318048.314 8      1068.180          51.000    23656939.781 8  95256708.438 8       818.466          51.000
E15  25089166.602 6 131844430.359 6     -1791.016          36.000
E21  23491352.148 8 123447876.767 8       394.668          51.000    23491354.523 8  94589963.323 8       302.405          51.000
E27  25047877.719 6 131627480.477 6     -1872.898          40.000    25047884.641 7 100857423.480 7     -1435.006          43.000
> 2020 05 05 11 31 30.0000000  0 16        .000000000000
G02  23797744.430 5 125057986.834 5     -2136.223          33.000
G12  22401603.008 5 117721221.220 5     -2621.242          33.000
G21  23599933.523 5 124018512.973 5      3442.996          34.000
G25  20541838.531 8 107948119.151 8     -1237.652          51.000    20541840.406 8  84115385.591 8      -964.404          51.000
G29  20250705.156 8 106418178.158 8       501.305          51.000    20250704.781 8  82923250.197 8       390.627          51.000
G32  23993686.414 7 126087656.552 7     -2831.402          47.000    23993688.758 6  98250129.378 6     -2206.288          40.000
R11  20602746.492 8 110094797.860 8     -2535.109          51.000    20602750.562 7  85629316.838 7     -1971.752          46.000
R12  19300604.391 8 103100376.792 8       978.180          49.000    19300607.523 7  80189184.704 7       760.806          43.000
R22  19266144.656 8 102843958.448 8      1222.906          50.000    19266146.422 8  79989762.583 8       951.149          48.000
C11  23901727.977 7 124462658.473 7      2806.172          45.000    23901731.133 8  96242421.481 8      2169.916          49.000
C12  21510168.023 8 112009081.784 8        79.406          51.000    21510166.695 8  86612525.002 8        61.399          51.000
C24  22495536.672 8 117140211.311 8     -1724.395          51.000
C26  25775590.328 7 134220196.180 7     -3203.902          43.000
E13  23650858.742 8 124286103.662 8      1067.398          51.000    23650860.906 8  95232231.371 8       817.868          51.000
E21  23489100.445 8 123436044.613 8       400.090          51.000    23489102.828 8  94580897.131 8       306.532          51.000
E27  25058568.672 7 131683654.263 7     -1866.156          42.000    25058573.703 7 100900465.692 7     -1429.864          44.000
> 2020 05 05 11 32  0.0000000  0 14        .000000000000
G02  23810009.117 5 125122435.752 5     -2152.098          34.000
G25  20548967.961 8 107985584.601 8     -1252.051          51.000    20548969.875 8  84144579.434 8      -975.624          51.000
G29  20247920.922 8 106403547.138 8       482.090          51.000    20247920.922 8  82911849.420 8       375.654          51.000
G32  24009898.391 7 126172852.988 7     -2840.301          47.000    24009901.461 6  98316516.132 6     -2213.224          41.000
R11  20617054.758 8 110171257.483 8     -2553.941          50.000    20617058.773 7  85688785.385 7     -1986.399          45.000
R12  19295193.430 8 103071471.706 8       956.926          49.000    19295196.531 7  80166702.993 7       744.276          45.000
R22  19259376.438 8 102807829.038 8      1194.008          51.000    19259378.336 8  79961661.958 8       928.673          48.000
C11  23885618.172 7 124378770.935 7      2794.379          47.000    23885621.156 8  96177554.365 8      2160.803          49.000
C12  21509786.320 8 112007094.026 8        61.160          51.000    21509784.773 8  86610987.953 8        47.359          51.000
C24  22505538.969 8 117192294.924 8     -1739.848          51.000
C26  25794091.195 7 134316532.421 7     -3210.398          42.000
E13  23644837.562 8 124254461.217 8      1050.273          51.000    23644839.656 8  95207985.865 8       804.704          51.000
E21  23486870.617 8 123424327.003 8       389.191          51.000    23486873.141 8  94571918.691 8       298.245          51.000
E27  25069272.984 7 131739899.675 7     -1875.320          43.000    25069276.883 7 100943562.800 7     -1436.934          45.000
> 2020 05 05 11 32 30.0000000  0 15        .000000000000
G02  23822357.852 5 125187326.641 5     -2170.125          35.000
G12  22431685.734 5 117879307.487 5     -2643.242          35.000    22431686.344 5  91854006.734 5     -2059.675          33.000
G25  20556173.219 8 108023448.743 8     -1268.648          51.000    20556175.398 8  84174083.936 8      -988.557          51.000
G29  20245239.844 8 106389458.760 8       460.766          51.000    20245240.070 8  82900871.485 8       359.038          51.000
G32  24026155.719 7 126258287.307 7     -2851.613          46.000    24026158.914 6  98383088.250 6     -2222.036          41.000
R11  20631462.047 8 110248246.701 8     -2574.969          50.000    20631465.164 7  85748665.814 7     -2002.757          44.000
R12  19289895.141 8 103043169.228 8       933.406          49.000    19289898.930 7  80144689.938 7       725.983          45.000
R22  19252764.266 8 102772532.534 8      1162.840          51.000    19252765.562 8  79934209.116 8       904.431          48.000
C11  23869571.211 8 124295207.094 8      2780.059          48.000    23869573.180 8  96112937.561 8      2149.796          49.000
C12  21509503.062 8 112005619.521 8        40.762          51.000    21509501.398 8  86609847.803 8        31.553          51.000
C24  22515623.430 8 117244806.941 8     -1757.414          51.000
C26  25812623.547 6 134413033.899 6     -3219.332          40.000
E13  23638908.219 8 124223300.674 8      1030.781          51.000    23638910.094 8  95184109.632 8       789.807          51.000
E21  23484696.930 8 123412904.047 8       375.973          51.000    23484699.539 8  94563166.036 8       288.110          51.000
E27  25080024.539 7 131796396.125 7     -1887.070          42.000    25080027.938 7 100986852.225 7     -1445.979          43.000
> 2020 05 05 11 33  0.0000000  0 15        .000000000000
G02  23834782.359 5 125252617.180 5     -2182.668          33.000
G25  20563446.656 8 108061671.007 8     -1279.715          51.000    20563448.773 8  84203867.513 8      -997.180          51.000
G29  20242654.266 8 106375871.799 8       444.953          51.000    20242654.336 8  82890284.271 8       346.717          51.000
G32  24042450.414 7 126343916.014 7     -2857.156          47.000    24042452.734 6  98449811.846 6     -2226.362          41.000
R11  20645961.195 8 110325723.526 8     -2590.277          51.000    20645963.523 7  85808925.510 7     -2014.660          45.000
R12  19284702.359 8 103015430.218 8       915.723          51.000    19284706.500 7  80123115.127 7       712.229          46.000
R22  19246300.547 8 102738028.736 8      1137.336          51.000    19246302.539 8  79907372.875 8       884.598          49.000
C11  23853579.320 8 124211928.259 8      2771.645          49.000    23853579.930 8  96048541.122 8      2143.208          49.000
C12  21509310.445 8 112004617.578 8        25.918          51.000    21509308.797 8  86609073.054 8        20.078          51.000
C24  22525782.406 8 117297706.854 8     -1769.383          51.000
C26  25831179.297 6 134509659.367 6     -3222.520          39.000
E13  23633063.008 8 124192582.228 8      1016.988          51.000    23633064.594 8  95160572.151 8       779.302          51.000
E15  25130448.953 5 132061401.234 5     -1830.203          34.000
E21  23482571.836 8 123401736.152 8       368.398          51.000    23482574.430 8  94554608.814 8       282.309          51.000
E27  25090815.750 7 131853103.157 7     -1893.262          43.000    25090818.602 7 101030303.065 7     -1450.828          42.000
> 2020 05 05 11 33 30.0000000  0 17        .000000000000
G02  23847275.617 5 125318264.394 5     -2193.645          32.000
G12  22461923.102 5 118038192.266 5     -2654.254          34.000    22461927.375 5  91977819.057 5     -2068.244          32.000
G21  23521717.555 6 123607435.571 6      3415.488          37.000
G25  20570780.453 8 108100210.236 8     -1289.250          51.000    20570782.305 8  84233898.073 8     -1004.610          51.000
G29  20240156.250 8 106362744.990 8       430.523          51.000    20240156.398 8  82880055.621 8       335.473          51.000
G32  24058773.812 7 126429695.015 7     -2861.230          47.000    24058775.078 6  98516652.538 6     -2229.533          41.000
R11  20660543.555 8 110403645.034 8     -2604.148          51.000    20660545.820 7  85869531.103 7     -2025.449          47.000
R12  19279607.812 8 102988215.416 8       898.988          50.000    19279611.867 7  80101948.064 7       699.213          46.000
R22  19239977.656 8 102704276.317 8      1113.227          51.000    19239979.828 8  79881121.012 8       865.843          48.000
C11  23837634.180 7 124128895.045 7      2764.289          47.000    23837633.930 8  95984334.637 8      2137.433          49.000
C12  21509200.523 8 112004046.979 8        12.516          51.000    21509198.984 8  86608631.856 8         9.596          51.000
C24  22536007.688 8 117350953.546 8     -1780.023          51.000
C26  25849749.641 6 134606366.957 6     -3224.363          37.000
E13  23627294.391 8 124162265.276 8      1004.500          51.000    23627295.156 8  95137342.301 8       769.709          51.000
E15  25140922.297 5 132116448.249 5     -1839.375          35.000
E21  23480487.688 8 123390783.162 8       362.125          51.000    23480490.211 8  94546216.269 8       277.442          51.000
E27  25101638.844 6 131909979.732 6     -1897.906          40.000    25101641.633 6 101073883.785 6     -1454.437          41.000
> 2020 05 05 11 34  0.0000000  0 18        .000000000000
G02  23859870.852 4 125384445.749 4     -2213.664          29.000
G12  22477122.547 5 118118090.336 5     -2668.859          33.000
G18  23785585.555 6 124994096.454 6      3690.848          36.000
G21  23502271.383 6 123505242.725 6      3401.020          39.000
G25  20578208.633 8 108139245.445 8     -1309.434          51.000    20578210.328 8  84264315.101 8     -1020.338          51.000
G29  20237779.539 8 106350257.122 8       405.543          51.000    20237780.219 8  82870324.838 8       316.011          51.000
G32  24075159.289 8 126515800.526 8     -2875.465          48.000    24075160.359 6  98583747.642 6     -2240.625          41.000
R11  20675243.000 8 110482192.753 8     -2628.727          51.000    20675245.969 8  85930623.735 8     -2044.568          48.000
R12  19274645.680 8 102961709.063 8       871.652          51.000    19274649.891 7  80081332.006 7       677.952          46.000
R22  19233829.547 8 102671458.277 8      1078.320          51.000    19233832.273 8  79855595.861 8       838.697          49.000
C11  23821769.828 7 124046286.251 7      2746.402          46.000    23821769.336 8  95920456.317 8      2123.825          49.000
C12  21509207.523 8 112004084.709 8       -11.453          50.000    21509205.977 8  86608661.037 8        -8.805          51.000
C24  22546333.719 8 117404724.106 8     -1801.113          51.000
C26  25868370.070 6 134703333.175 6     -3236.379          40.000
E13  23621636.141 8 124132529.581 8       981.453          51.000    23621636.156 8  95114557.829 8       752.073          51.000
E21  23478478.641 8 123380225.124 8       345.355          51.000    23478481.062 8  94538126.336 8       264.647          51.000
E26  25358682.180 6 133260773.708 6      3059.129          40.000    25358679.125 5 102108893.769 5      2344.220          35.000
E27  25112527.773 6 131967205.200 6     -1913.277          38.000    25112530.383 6 101117731.753 6     -1465.985          40.000
> 2020 05 05 11 34 30.0000000  0 16        .000000000000
G12  22492331.320 5 118197994.972 5     -2665.141          35.000
G21  23482822.719 6 123403036.594 6      3405.676          39.000
G25  20585666.992 8 108178439.301 8     -1310.461          51.000    20585668.695 8  84294855.756 8     -1021.138          51.000
G29  20235460.422 8 106338070.466 8       399.859          51.000    20235461.172 8  82860828.743 8       311.579          51.000
G32  24091542.000 7 126601892.333 7     -2870.812          46.000    24091543.914 7  98650832.072 7     -2237.000          42.000
R11  20689995.023 8 110561022.671 8     -2633.816          50.000    20689998.227 8  85991935.889 8     -2048.524          48.000
R12  19269752.594 8 102935570.802 8       863.699          51.000    19269756.547 7  80061002.256 7       671.766          46.000
R22  19227792.648 8 102639232.296 8      1063.047          51.000    19227795.828 8  79830531.232 8       826.814          49.000
C11  23805922.742 7 123963769.171 7      2747.484          46.000    23805922.000 7  95856648.913 7      2124.653          47.000
C12  21509266.852 8 112004396.031 8       -16.258          50.000    21509265.461 8  86608901.789 8       -12.556          51.000
C24  22556696.188 8 117458683.915 8     -1803.094          51.000
C26  25886977.945 7 134800222.813 7     -3229.527          44.000
E13  23616024.117 8 124103038.420 8       977.660          51.000    23616024.305 8  95091960.742 8       749.080          51.000
E21  23476480.680 8 123369725.794 8       347.703          51.000    23476483.055 8  94530081.385 8       266.389          51.000
E26  25341182.320 6 133168815.126 6      3064.523          40.000    25341179.523 6 102038432.125 6      2347.953          36.000
E27  25123419.453 6 132024442.310 6     -1909.336          41.000    25123421.180 6 101161588.684 6     -1463.084          39.000
> 2020 05 05 11 35  0.0000000  0 17        .000000000000
G12  22507570.586 5 118278080.316 5     -2674.445          32.000    22507580.656 5  92164785.091 5     -2083.996          31.000
G21  23463403.945 6 123300990.684 6      3397.652          38.000    23463402.648 3  96078710.995 3      2647.521          21.000
G25  20593187.914 8 108217962.333 8     -1324.051          51.000    20593189.711 8  84325652.916 8     -1031.728          51.000
G29  20233231.125 8 106326355.283 8       381.566          51.000    20233231.625 8  82851700.031 8       297.324          51.000
G32  24107953.914 7 126688138.072 7     -2878.551          45.000    24107956.992 7  98718036.465 7     -2243.027          42.000
R11  20704831.828 8 110640307.356 8     -2651.477          51.000    20704835.320 8  86053601.739 8     -2062.260          48.000
R12  19264961.211 8 102909976.291 8       842.898          51.000    19264964.945 7  80041095.407 7       655.588          47.000
R22  19221898.977 8 102607772.140 8      1034.797          51.000    19221902.125 8  79806062.238 8       804.842          48.000
C11  23790126.438 7 123881514.191 7      2736.387          46.000    23790125.164 8  95793044.179 8      2115.972          49.000
C12  21509411.219 8 112005149.464 8       -33.508          50.000    21509409.945 8  86609484.399 8       -25.916          51.000
C24  22567127.352 8 117513001.637 8     -1817.559          51.000
C26  25905603.805 7 134897203.885 7     -3235.277          45.000
E13  23610491.125 8 124073962.963 8       961.246          51.000    23610491.938 8  95069682.181 8       736.509          51.000
E15  25172707.023 5 132283471.933 5     -1873.035          34.000
E21  23474526.562 8 123359456.654 8       337.438          51.000    23474528.930 8  94522212.811 8       258.520          51.000
E26  25323708.695 6 133076996.270 6      3057.250          39.000    25323707.195 6 101968077.507 6      2342.338          37.000
E27  25134346.445 7 132081861.848 7     -1917.895          43.000    25134347.141 6 101205585.447 6     -1469.690          39.000
> 2020 05 05 11 35 30.0000000  0 15        .000000000000
G21  23444021.992 6 123199138.241 6      3395.027          37.000
G25  20600777.242 8 108257845.007 8     -1331.605          51.000    20600779.031 8  84356730.316 8     -1037.615          51.000
G29  20231097.328 8 106315141.907 8       369.230          51.000    20231097.516 8  82842962.342 8       287.712          51.000
G32  24124400.242 7 126774565.341 7     -2880.281          42.000    24124404.367 6  98785382.309 6     -2244.375          41.000
R11  20719759.664 8 110720077.000 8     -2663.254          51.000    20719763.188 8  86115644.773 8     -2071.423          48.000
R12  19260277.898 8 102884959.035 8       828.164          51.000    19260281.422 7  80021637.532 7       644.128          47.000
R22  19216154.805 8 102577109.530 8      1012.617          51.000    19216157.812 8  79782213.555 8       787.594          49.000
C11  23774387.195 7 123799552.893 7      2730.852          46.000    23774385.570 8  95729666.564 8      2111.643          50.000
C12  21509646.188 8 112006374.684 8       -44.797          49.000    21509645.125 8  86610431.831 8       -34.755          51.000
C24  22577632.961 8 117567707.135 8     -1826.238          51.000
E13  23605043.164 8 124045334.338 8       950.578          51.000    23605044.023 8  95047745.983 8       728.347          51.000
E15  25183429.258 6 132339813.957 6     -1880.324          36.000
E21  23472622.344 8 123349449.201 8       332.957          51.000    23472624.656 8  94514544.759 8       255.147          51.000
E26  25306267.234 6 132985349.468 6      3055.566          38.000    25306268.656 6 101897854.735 6      2341.539          37.000
E27  25145314.344 7 132139494.479 7     -1920.820          43.000    25145314.703 6 101249745.491 6     -1471.887          40.000
> 2020 05 05 11 36  0.0000000  0 16        .000000000000
G12  22538155.070 5 118438798.746 5     -2684.148          34.000    22538174.234 5  92290049.289 5     -2091.544          32.000
G21  23424664.891 6 123097416.740 6      3387.914          37.000
G25  20608422.578 8 108298021.567 8     -1344.695          51.000    20608424.539 8  84388036.723 8     -1047.815          51.000
G29  20229046.578 8 106304364.122 8       351.316          51.000    20229046.305 8  82834564.077 8       273.753          51.000
G32  24140868.125 6 126861105.468 6     -2887.164          38.000    24140872.922 6  98852816.132 6     -2249.741          38.000
R11  20734765.883 8 110800263.857 8     -2680.387          51.000    20734769.062 7  86178012.304 7     -2084.745          47.000
R12  19255690.398 8 102860454.216 8       807.660          51.000    19255693.891 7  80002578.232 7       628.180          47.000
R22  19210547.836 8 102547178.144 8       984.910          51.000    19210550.633 8  79758933.617 8       766.041          49.000
C11  23758692.180 7 123717821.652 7      2719.926          45.000    23758690.555 8  95666466.792 8      2103.255          51.000
C12  21509959.305 8 112008006.037 8       -61.660          49.000    21509958.211 8  86611693.288 8       -47.704          51.000
C24  22588200.836 8 117622734.802 8     -1840.223          51.000
E13  23599667.578 8 124017087.291 8       934.660          51.000    23599668.484 8  95026102.156 8       716.198          51.000
E15                                                                  25194222.172 5 101446685.892 5     -1450.073          34.000
E21  23470755.719 8 123339638.681 8       323.156          51.000    23470757.766 8  94507027.605 8       247.601          51.000
E26  25288846.438 6 132893810.676 6      3048.762          38.000    25288851.289 6 101827714.716 6      2336.085          37.000
E27  25156309.766 7 132197274.589 7     -1928.973          42.000    25156310.883 7 101294018.555 7     -1478.218          42.000
> 2020 05 05 11 36 30.0000000  0 17        .000000000000
G12  22553501.234 5 118519437.498 5     -2690.656          34.000    22553511.234 5  92352884.611 5     -2096.612          34.000
G21  23405342.492 5 122995881.580 5      3382.570          35.000
G25  20616133.992 8 108338544.898 8     -1356.711          51.000    20616136.203 8  84419613.326 8     -1057.177          51.000
G29  20227088.586 8 106294074.147 8       334.676          51.000    20227087.859 8  82826545.927 8       260.786          51.000
G32  24157367.203 6 126947808.478 6     -2893.016          39.000    24157372.234 6  98920376.929 6     -2254.298          39.000
R11  20749859.633 8 110880920.933 8     -2696.551          49.000    20749862.969 7  86240745.545 7     -2097.320          47.000
R12  19251209.445 8 102836518.405 8       788.074          51.000    19251212.805 8  79983961.490 8       612.947          48.000
R21  20993327.539 5 112339470.397 5     -3211.406          35.000    20993315.891 4  87375144.067 4     -2497.760          26.000
R22  19205087.906 8 102518032.270 8       958.207          51.000    19205090.383 8  79736264.609 8       745.272          49.000
C11  23743050.383 7 123636374.260 7      2709.887          44.000    23743049.977 8  95603486.515 8      2095.493          51.000
C12  21510360.453 8 112010095.445 8       -77.434          49.000    21510359.422 8  86613308.948 8       -59.822          51.000
C24  22598840.531 8 117678136.792 8     -1853.152          51.000
E13  23594374.750 8 123989275.410 8       919.664          51.000    23594375.891 8  95004791.778 8       704.648          51.000
E15                                                                  25205059.789 5 101490326.662 5     -1459.020          33.000
E21  23468936.883 8 123330079.035 8       314.250          51.000    23468938.477 8  94499702.684 8       240.786          51.000
E26  25271457.156 6 132802434.641 6      3043.090          38.000    25271464.391 6 101757699.364 6      2331.371          37.000
E27  25167342.961 7 132255255.317 7     -1936.145          43.000    25167345.469 7 101338445.298 7     -1483.560          42.000
> 2020 05 05 11 37  0.0000000  0 17        .000000000000
G12  22568887.891 5 118600305.051 5     -2696.320          35.000    22568894.391 5  92415848.926 5     -2101.029          34.000
G21  23386058.016 5 122894550.994 5      3375.629          33.000
G25  20623914.297 8 108379430.051 8     -1367.180          51.000    20623916.312 8  84451471.875 8     -1065.335          51.000
G29  20225226.328 8 106284286.864 8       319.574          51.000    20225224.961 8  82818919.479 8       249.019          51.000
G32  24173899.656 7 127034686.626 7     -2897.227          42.000    24173905.070 6  98988074.141 6     -2257.585          41.000
R11  20765043.516 7 110962062.375 7     -2711.074          47.000    20765047.320 7  86303855.503 7     -2108.616          46.000
R12  19246838.297 8 102813168.995 8       770.293          51.000    19246841.648 8  79965800.842 8       599.117          48.000
R21  21011378.289 5 112435995.269 5     -3225.355          34.000
R22  19199777.906 8 102489687.885 8       933.164          51.000    19199780.594 8  79714218.989 8       725.794          49.000
C11  23727466.055 7 123555227.029 7      2701.617          45.000    23727466.938 8  95540738.338 8      2089.083          51.000
C12  21510852.328 8 112012657.271 8       -91.562          49.000    21510851.492 8  86615289.930 8       -70.790          51.000
C24  22609554.469 8 117733927.633 8     -1864.477          51.000
E13  23589167.961 8 123961914.293 8       906.246          51.000    23589169.133 8  94983826.780 8       694.393          51.000
E15                                                                  25215956.016 5 101534230.499 5     -1466.565          32.000
E21  23467168.781 8 123320786.362 8       307.016          51.000    23467170.000 8  94492582.330 8       235.216          51.000
E26  25254102.648 6 132711238.204 6      3038.379          39.000    25254112.305 6 101687821.564 6      2328.534          38.000
E27  25178417.273 6 132313451.810 6     -1941.824          41.000    25178419.773 6 101383037.461 6     -1487.903          41.000
> 2020 05 05 11 37 30.0000000  0 16        .000000000000
G12  22584307.711 5 118681332.784 5     -2703.488          33.000
G21  23366806.391 5 122793392.252 5      3369.254          35.000
G25  20631756.680 8 108420641.618 8     -1378.988          51.000    20631758.477 8  84483584.770 8     -1074.536          51.000
G29  20223452.953 8 106274966.866 8       303.027          51.000    20223451.352 8  82811657.149 8       236.125          51.000
G32  24190458.031 7 127121701.746 7     -2902.758          43.000    24190464.266 6  99055878.060 6     -2261.892          40.000
R11  20780310.477 7 111043651.851 7     -2726.855          44.000    20780315.125 7  86367313.945 7     -2120.888          45.000
R12  19242570.602 8 102790372.525 8       750.824          51.000    19242574.164 8  79948070.248 8       583.971          48.000
R21  21029510.383 5 112533138.835 5     -3240.906          32.000
R22  19194611.227 8 102462109.127 8       906.625          51.000    19194613.859 8  79692768.848 8       705.153          49.000
C11  23711933.602 7 123474346.372 7      2691.715          47.000    23711935.172 8  95478196.320 8      2081.329          51.000
C12  21511428.148 8 112015655.996 8      -107.129          49.000    21511427.266 8  86617608.720 8       -82.784          51.000
C24  22620336.164 8 117790071.873 8     -1877.230          51.000
E13  23584040.469 8 123934969.127 8       891.301          51.000    23584041.531 8  94963180.493 8       682.933          51.000
E21  23465444.734 8 123311726.278 8       298.207          51.000    23465445.820 8  94485640.187 8       228.508          51.000
E26  25236776.508 7 132620187.699 7      3032.680          42.000    25236788.141 6 101618055.674 6      2323.843          39.000
E27  25189525.430 6 132371828.944 6     -1948.879          39.000    25189528.375 6 101427768.028 6     -1493.312          41.000
> 2020 05 05 11 38  0.0000000  0 16        .000000000000
G12  22599763.219 5 118762553.452 5     -2708.770          34.000
G18  23617256.719 5 124109521.612 5      3673.160          30.000
G21  23347589.938 6 122692412.422 6      3364.918          38.000
G25  20639661.891 8 108462183.461 8     -1388.082          51.000    20639663.438 8  84515955.039 8     -1081.622          51.000
G29  20221768.977 8 106266117.556 8       289.188          51.000    20221767.531 8  82804761.580 8       225.341          51.000
G32  24207042.539 7 127208854.736 7     -2905.320          43.000    24207049.984 6  99123789.413 6     -2263.889          39.000
R11  20795662.078 7 111125691.765 7     -2740.074          47.000    20795667.539 7  86431122.733 7     -2131.169          46.000
R12  19238407.602 8 102768135.108 8       733.980          51.000    19238411.031 8  79930774.475 8       570.874          48.000
R22  19189589.023 8 102435300.553 8       882.859          51.000    19189591.773 8  79671917.751 8       686.671          49.000
C11  23696453.562 8 123393737.561 8      2684.402          48.000    23696455.672 8  95415864.508 8      2075.687          51.000
C12  21512088.539 8 112019094.770 8      -119.941          49.000    21512087.625 8  86620267.804 8       -92.798          51.000
C24  22631186.359 8 117846572.946 8     -1887.305          51.000
E13  23578993.133 8 123908444.367 8       879.168          51.000    23578994.031 8  94942856.342 8       673.645          51.000
E21  23463765.734 8 123302903.681 8       292.102          51.000    23463766.773 8  94478880.016 8       223.827          51.000
E26  25219479.930 7 132529288.898 7      3029.371          44.000    25219491.992 6 101548405.980 6      2321.162          39.000
E27  25200668.789 6 132430390.783 6     -1953.031          41.000    25200672.867 7 101472640.052 7     -1496.499          42.000
> 2020 05 05 11 38 30.0000000  0 15        .000000000000
G18  23596320.383 5 123999500.403 5      3668.195          31.000
G21  23328416.836 6 122591657.175 6      3357.664          39.000
G25  20647638.039 8 108504098.429 8     -1400.441          51.000    20647639.562 8  84548616.034 8     -1091.253          51.000
G29  20220182.508 8 106257780.927 8       272.207          51.000    20220180.883 8  82798265.496 8       212.109          51.000
G32  24223660.961 7 127296185.604 7     -2911.270          43.000    24223669.336 6  99191839.395 6     -2268.525          38.000
R11  20811107.945 8 111208225.128 8     -2756.426          50.000    20811112.914 7  86495315.324 7     -2143.887          46.000
R12  19234358.070 8 102746502.767 8       713.824          51.000    19234361.312 8  79913949.313 8       555.197          48.000
R22  19184719.562 8 102409306.028 8       855.840          51.000    19184722.125 8  79651699.814 8       665.653          49.000
C11  23681034.305 8 123313444.343 8      2674.020          49.000    23681036.680 8  95353776.730 8      2067.661          51.000
C12  21512841.648 8 112023015.592 8      -135.871          50.000    21512840.773 8  86623299.650 8      -105.164          51.000
C24  22642112.898 8 117903472.909 8     -1900.598          50.000
E13  23574034.000 8 123882383.376 8       863.758          51.000    23574034.883 8  94922887.548 8       661.840          51.000
E21  23462140.227 8 123294362.447 8       282.801          51.000    23462141.289 8  94472335.436 8       216.665          51.000
E26  25202220.852 7 132438586.375 7      3022.848          45.000    25202231.930 6 101478906.676 6      2316.067          39.000
E27  25211856.484 6 132489180.250 6     -1960.699          41.000    25211860.727 6 101517686.504 6     -1502.432          41.000
> 2020 05 05 11 39  0.0000000  0 15        .000000000000
G18  23575393.375 5 123889535.646 5      3663.566          33.000    23575394.992 5  96537295.029 5      2854.736          34.000
G21  23309265.117 6 122491013.033 6      3351.582          38.000
G25  20655663.086 8 108546270.487 8     -1411.340          51.000    20655664.758 8  84581477.373 8     -1099.745          51.000
G29  20218671.625 8 106249841.372 8       256.672          51.000    20218669.719 8  82792078.819 8       200.004          51.000
G32  24240290.594 7 127383575.492 7     -2915.656          42.000    24240299.352 6  99259935.343 6     -2271.943          36.000
R11  20826624.086 8 111291132.842 8     -2771.184          51.000    20826628.133 7  86559799.055 7     -2155.365          46.000
R12  19230400.227 8 102725359.602 8       695.234          51.000    19230403.055 8  79897504.637 8       540.738          48.000
R22  19179980.609 8 102384008.020 8       830.258          51.000    19179983.211 8  79632023.601 8       645.756          50.000
C11  23665654.016 8 123233353.233 8      2664.992          50.000    23665656.438 8  95291845.236 8      2060.756          51.000
C12  21513665.102 8 112027303.030 8      -150.355          50.000    21513664.188 8  86626614.973 8      -116.283          51.000
C24  22653093.422 8 117960656.390 8     -1912.180          50.000
E13  23569141.250 8 123856670.692 8       849.898          51.000    23569141.969 8  94903185.628 8       651.197          51.000
E21  23460546.492 8 123285987.583 8       274.973          51.000    23460547.438 8  94465918.333 8       210.681          51.000
E26  25184977.195 7 132347965.898 7      3017.898          46.000    25184987.328 6 101409470.246 6      2312.260          38.000
E27  25223065.273 6 132548081.531 6     -1966.445          39.000    25223068.398 6 101562818.608 6     -1506.820          38.000
> 2020 05 05 11 39 30.0000000  0 17        .000000000000
G02  24002575.789 6 126134356.584 6     -2329.398          36.000
G18  23554446.656 6 123779463.608 6      3667.469          36.000    23554448.117 5  96451524.616 5      2857.768          32.000
G21  23290104.781 6 122390324.755 6      3353.410          38.000
G25  20663706.906 8 108588541.225 8     -1414.297          51.000    20663708.781 8  84614415.597 8     -1102.050          51.000
G29  20217206.047 8 106242139.378 8       249.262          51.000    20217203.930 8  82786077.286 8       194.233          51.000
G32  24256901.016 7 127470863.104 7     -2911.184          42.000    24256908.969 6  99327951.608 6     -2268.455          36.000
R11  20842179.875 8 111374253.010 8     -2777.805          51.000    20842183.156 7  86624448.053 7     -2160.515          47.000
R12  19226504.102 8 102704547.000 8       684.711          51.000    19226506.750 8  79881317.070 8       532.553          49.000
R22  19175341.734 8 102359246.065 8       812.977          51.000    19175344.961 8  79612764.329 8       632.315          50.000
C11  23650282.641 8 123153308.702 8      2663.891          50.000    23650284.820 8  95229949.751 8      2059.986          51.000
C12  21514528.781 8 112031799.404 8      -156.758          50.000    21514527.609 8  86630091.861 8      -121.158          51.000
C24  22664098.695 8 118017965.999 8     -1915.836          50.000
E13  23564284.766 8 123831148.460 8       844.199          51.000    23564285.555 8  94883629.634 8       646.830          51.000
E15  25271322.992 5 132801654.725 5     -1956.922          34.000    25271326.867 5 101757159.386 5     -1500.193          30.000
E21  23458954.500 8 123277621.703 8       275.305          51.000    23458955.211 8  94459508.119 8       210.978          51.000
E26  25167719.242 7 132257270.908 7      3021.004          46.000    25167728.734 6 101339976.671 6      2314.894          37.000
E27  25234264.797 6 132606936.455 6     -1964.750          39.000    25234265.797 6 101607915.196 6     -1505.012          38.000
> 2020 05 05 11 40  0.0000000  0 16        .000000000000
G02  24015969.617 6 126204741.180 6     -2370.762          37.000
G18  23533584.789 6 123669836.428 6      3633.043          38.000    23533586.164 5  96366100.915 5      2830.936          32.000
G21  23271040.891 6 122290145.035 6      3316.848          38.000    23271039.945 5  95291018.218 5      2584.560          35.000
G25  20671874.164 8 108631460.226 8     -1454.949          51.000    20671876.000 8  84647858.962 8     -1133.727          51.000
G29  20215890.195 8 106235224.231 8       203.840          51.000    20215888.008 8  82780688.864 8       158.836          51.000
G32  24273596.211 6 127558595.267 6     -2945.508          40.000    24273601.516 5  99396314.244 5     -2295.204          34.000
R11  20857878.781 8 111458143.385 8     -2822.984          48.000    20857882.047 7  86689696.067 7     -2195.658          44.000
R12  19222774.812 8 102684626.076 8       635.371          51.000    19222777.891 8  79865823.002 8       494.178          49.000
R22  19170907.594 8 102335578.599 8       756.859          50.000    19170911.578 8  79594356.296 8       588.668          50.000
C11  23635025.062 8 123073856.745 8      2625.031          49.000    23635026.086 8  95168512.503 8      2029.925          48.000
C12  21515536.953 8 112037048.828 8      -200.961          50.000    21515535.945 8  86634151.058 8      -155.326          51.000
C24  22675233.375 8 118075945.909 8     -1957.180          51.000
E13  23559569.023 8 123806366.775 8       800.180          51.000    23559570.297 8  94864641.078 8       613.134          51.000
E21  23457469.031 8 123269815.443 8       237.379          51.000    23457469.445 8  94453526.704 8       181.870          51.000
E26  25150551.883 7 132167052.765 7      2985.867          45.000    25150560.547 6 101270848.532 6      2287.681          36.000
E27  25245560.469 6 132666294.626 6     -2000.281          40.000    25245561.672 6 101653397.434 6     -1532.830          40.000
> 2020 05 05 11 40 30.0000000  0 18        .000000000000
G02  24029450.453 5 126275589.114 5     -2353.949          35.000    24029444.359 5  98396557.185 5     -1834.246          34.000
G12  22677541.641 5 119171241.976 5     -2731.551          33.000
G18  23512770.711 6 123560457.414 6      3657.762          38.000
G21  23252036.594 6 122190276.668 6      3339.727          37.000    23252038.867 5  95213198.795 5      2602.384          33.000
G25  20680126.742 8 108674827.637 8     -1437.184          51.000    20680128.578 8  84681651.736 8     -1119.883          51.000
G29  20214685.836 8 106228895.652 8       217.078          51.000    20214683.898 8  82775757.495 8       169.152          51.000
G32  24290337.617 6 127646569.264 6     -2920.598          41.000    24290339.727 5  99464865.339 5     -2275.790          35.000
R11  20873683.555 8 111542599.892 8     -2808.562          49.000    20873686.469 7  86755384.452 7     -2184.438          44.000
R12  19219174.953 8 102665395.731 8       645.543          51.000    19219177.836 8  79850866.075 8       502.089          49.000
R22  19166640.617 8 102312802.789 8       760.508          50.000    19166645.164 8  79576641.787 8       591.506          50.000
R23  22774769.445 6 121829664.666 6      4261.188          36.000
C11  23619843.008 8 122994800.690 8      2644.438          48.000    23619842.438 8  95107381.405 8      2044.802          48.000
C12  21516651.469 8 112042852.609 8      -186.965          49.000    21516650.836 8  86638638.928 8      -144.585          51.000
C24  22686459.367 8 118134397.733 8     -1940.531          51.000
E13  23554956.164 8 123782126.357 8       814.852          51.000    23554957.781 8  94846067.253 8       624.355          51.000
E21  23456052.172 8 123262370.025 8       258.051          51.000    23456052.508 8  94447821.778 8       197.685          51.000
E26  25133437.367 7 132077113.461 7      3009.125          44.000    25133445.172 6 101201934.022 6      2305.663          36.000
E27  25256913.945 6 132725956.694 6     -1977.945          41.000    25256916.820 6 101699112.421 6     -1515.679          41.000
> 2020 05 05 11 41  0.0000000  0 17        .000000000000
G02  24042953.305 5 126346556.066 5     -2373.992          31.000
G18  23491939.273 5 123450986.855 5      3644.332          35.000
G21  23233027.148 6 122090379.542 6      3324.008          40.000    23233030.656 5  95135356.919 5      2590.136          32.000
G25  20688399.344 8 108718300.667 8     -1457.168          51.000    20688401.219 8  84715526.805 8     -1135.456          51.000
G29  20213527.781 8 106222810.714 8       192.531          51.000    20213526.219 8  82771015.981 8       150.024          51.000
G32  24307059.320 6 127734439.474 6     -2933.523          40.000    24307058.922 5  99533335.607 5     -2285.862          35.000
R11  20889528.938 8 111627272.955 8     -2832.469          49.000    20889531.781 7  86821241.239 7     -2203.031          45.000
R12  19215639.438 8 102646509.965 8       617.289          51.000    19215642.352 8  79836177.141 8       480.111          49.000
R22  19162475.453 8 102290570.823 8       725.547          50.000    19162480.562 8  79559350.277 8       564.314          50.000
R23  22750932.086 6 121702150.037 6      4243.914          36.000
C11  23604671.641 7 122915802.354 7      2626.047          47.000    23604670.477 8  95046294.914 8      2030.602          49.000
C12  21517807.086 8 112048870.590 8      -210.359          50.000    21517806.797 8  86643292.426 8      -162.712          51.000
C24  22697710.742 8 118192981.357 8     -1961.254          51.000
E13  23550381.086 8 123758084.890 8       791.777          51.000    23550382.953 8  94827645.875 8       606.693          51.000
E21  23454638.883 8 123254943.690 8       240.848          51.000    23454639.281 8  94442131.469 8       184.558          51.000
E26  25116310.953 7 131987111.967 7      2994.820          43.000    25116317.203 5 101132971.876 5      2294.765          35.000
E27  25268260.914 7 132785579.872 7     -1993.035          44.000    25268264.664 6 101744797.623 6     -1527.077          41.000
> 2020 05 05 11 41 30.0000000  0 17        .000000000000
G02  24056475.031 5 126417629.674 5     -2372.004          30.000
G18  23471087.125 5 123341409.320 5      3651.430          35.000
G21  23214009.609 6 121990438.089 6      3329.812          41.000    23214013.664 5  95057480.548 5      2594.662          34.000
G25  20696688.453 8 108761860.775 8     -1455.828          51.000    20696690.406 8  84749469.724 8     -1134.415          51.000
G29  20212412.664 8 106216950.189 8       189.383          51.000    20212411.203 8  82766449.348 8       147.571          51.000
G32  24323756.977 6 127822184.623 6     -2925.004          38.000    24323756.609 5  99601708.414 5     -2279.218          34.000
R11  20905411.508 8 111712142.625 8     -2834.555          51.000    20905414.336 7  86887250.946 7     -2204.654          46.000
R12  19212165.305 8 102627952.118 8       610.789          51.000    19212168.445 8  79821743.256 8       475.058          50.000
R22  19158409.000 8 102268863.888 8       712.500          51.000    19158413.711 8  79542467.101 8       554.167          49.000
C11  23589508.156 8 122836844.639 8      2628.977          48.000    23589507.508 8  94985239.834 8      2032.940          50.000
C12  21519000.188 8 112055083.744 8      -212.629          49.000    21519000.172 8  86648096.829 8      -164.355          51.000
C24  22708983.766 8 118251677.955 8     -1960.695          51.000
E13  23545840.328 8 123734224.312 8       790.113          51.000    23545842.492 8  94809363.114 8       605.423          51.000
E15  25316670.688 5 133039971.749 5     -1994.410          34.000
E21  23453225.906 8 123247518.910 8       245.254          51.000    23453226.406 8  94436442.350 8       187.940          51.000
E26  25099169.836 7 131897031.561 7      3001.844          42.000    25099174.844 6 101063949.329 6      2299.875          36.000
E27  25279596.977 7 132845145.707 7     -1986.852          43.000    25279600.297 6 101790439.016 6     -1522.426          41.000
> 2020 05 05 11 42  0.0000000  0 17        .000000000000
G02  24070136.789 5 126489430.445 5     -2399.066          33.000
G18  23450336.148 5 123232366.251 5      3632.961          31.000
G21  23195105.992 6 121891094.130 6      3308.461          41.000    23195109.633 5  94980069.743 5      2578.025          31.000
G25  20705115.633 8 108806146.311 8     -1481.113          51.000    20705117.680 8  84783977.918 8     -1154.114          51.000
G29  20211461.438 8 106211952.130 8       159.461          51.000    20211460.023 8  82762554.778 8       124.258          51.000
G32  24340551.711 5 127910440.352 5     -2943.445          34.000
R11  20921452.320 8 111797857.239 8     -2863.895          51.000    20921454.891 7  86953917.842 7     -2227.474          44.000
R12  19208874.547 8 102610373.368 8       576.867          51.000    19208877.898 8  79808070.891 8       448.671          50.000
R22  19154562.781 8 102248330.502 8       672.246          51.000    19154567.211 8  79526496.705 8       522.861          50.000
C11  23574474.805 8 122758561.559 8      2605.359          48.000    23574474.695 8  94924706.419 8      2014.412          51.000
C12  21520352.172 8 112062124.105 8      -241.270          50.000    21520352.398 8  86653540.893 8      -186.749          51.000
C24  22720399.273 8 118311119.710 8     -1986.645          51.000
E13  23541455.648 8 123711183.560 8       761.414          51.000    23541457.820 8  94791708.532 8       583.400          51.000
E15  25328173.586 5 133100413.378 5     -2019.391          35.000
E21  23451935.016 8 123240735.154 8       222.578          51.000    23451935.539 8  94431244.415 8       170.490          51.000
E26  25082136.117 6 131807512.422 6      2981.754          38.000    25082138.781 5 100995356.862 5      2284.735          35.000
E27  25291042.883 6 132905292.987 6     -2007.547          41.000    25291046.664 7 101836525.787 7     -1538.370          43.000
> 2020 05 05 11 42 30.0000000  0 16        .000000000000
G02  24083820.734 5 126561344.494 5     -2405.023          31.000
G14  23532349.203 6 123663327.807 6     -1986.742          37.000    23532356.617 5  96361053.557 5     -1548.123          33.000
G21  23176198.602 6 121791730.182 6      3306.523          38.000    23176200.805 5  94902643.320 5      2576.515          33.000
G25  20713562.906 8 108850537.353 8     -1487.508          51.000    20713564.836 8  84818568.312 8     -1159.097          51.000
G29  20210556.219 8 106207196.215 8       148.484          51.000    20210555.094 8  82758848.879 8       115.702          51.000
R11  20937532.695 8 111883785.162 8     -2873.898          51.000    20937534.570 7  87020750.604 7     -2235.257          43.000
R12  19205649.547 8 102593145.767 8       562.277          51.000    19205652.938 8  79794671.649 8       437.327          50.000
R22  19150818.453 8 102228341.306 8       651.156          51.000    19150822.227 8  79510949.584 8       506.455          48.000
R23  22679658.805 5 121320891.177 5      4221.816          31.000    22679660.414 4  94360690.240 4      3283.635          24.000
C11  23559453.617 8 122680340.372 8      2600.395          49.000    23559453.883 8  94864220.809 8      2010.902          51.000
C12  21521744.953 8 112069376.792 8      -251.203          50.000    21521745.375 8  86659149.132 8      -194.234          51.000
C24  22731839.133 8 118370691.974 8     -1993.852          51.000
E13  23537109.094 8 123688343.236 8       752.074          51.000    23537111.180 8  94774207.506 8       576.262          51.000
E21  23450648.422 8 123233973.656 8       219.031          51.000    23450649.039 8  94426063.528 8       167.844          51.000
E26  25065094.531 5 131717951.399 5      2981.082          33.000    25065090.867 5 100926720.890 5      2284.269          34.000
E27  25302481.695 6 132965401.784 6     -2009.090          37.000    25302485.156 7 101882583.136 7     -1539.244          42.000
> 2020 05 05 11 43  0.0000000  0 16        .000000000000
G02  24097608.516 4 126633786.659 4     -2425.508          29.000
G14  23543753.914 6 123723255.200 6     -2007.047          38.000    23543759.352 5  96407750.139 5     -1563.930          35.000
G21  23157370.742 6 121692784.564 6      3290.961          38.000    23157372.258 5  94825542.874 5      2564.385          32.000
G25  20722113.008 8 108895468.882 8     -1507.168          51.000    20722115.188 8  84853579.871 8     -1174.420          51.000
G29  20209779.828 8 106203116.881 8       124.289          51.000    20209779.047 8  82755670.189 8        96.849          51.000
R11  20953735.859 8 111970367.789 8     -2897.492          51.000    20953736.461 7  87088092.603 7     -2253.605          42.000
R12  19202573.375 8 102576713.597 8       533.938          51.000    19202577.102 8  79781891.064 8       415.285          50.000
R22  19147258.945 8 102209337.977 8       616.559          51.000    19147261.586 8  79496169.237 8       479.546          49.000
R23  22656031.461 4 121194498.602 4      4204.586          29.000    22656033.844 4  94262387.038 4      3270.240          25.000
C11  23544527.164 8 122602613.122 8      2582.422          49.000    23544527.867 8  94804117.200 8      1996.648          51.000
C12  21523261.148 8 112077272.024 8      -274.379          50.000    21523261.570 8  86665254.230 8      -212.191          51.000
C24  22743386.555 8 118430825.046 8     -2014.168          51.000
E13  23532883.258 8 123666138.586 8       729.047          51.000    23532885.719 8  94757193.585 8       558.602          51.000
E21  23449449.000 8 123227670.169 8       201.938          51.000    23449449.922 8  94421233.590 8       154.677          51.000
E26  25048127.242 5 131628796.150 5      2966.223          31.000    25048115.320 5 100858375.915 5      2273.050          35.000
E27  25313997.172 5 133025952.843 5     -2024.391          34.000    25313998.258 6 101928944.376 6     -1550.794          40.000
> 2020 05 05 11 43 30.0000000  0 18        .000000000000
G02  24111430.008 5 126706420.767 5     -2427.023          32.000
G14  23555195.875 6 123783383.983 6     -2010.551          37.000    23555204.102 5  96454603.732 5     -1566.663          34.000
G21  23138552.352 6 121593888.733 6      3292.766          36.000    23138553.453 5  94748481.262 5      2565.794          33.000
G25  20730695.336 8 108940570.006 8     -1509.219          50.000    20730697.930 8  84888723.572 8     -1176.015          50.000
G29  20209061.609 8 106199343.000 8       117.727          51.000    20209061.156 8  82752729.515 8        91.735          51.000
G32  24390993.695 4 128175536.557 4     -2949.051          29.000
R11  20969990.297 8 112057226.943 8     -2902.855          50.000    20969990.508 7  87155649.643 7     -2257.780          43.000
R12  19199575.836 8 102560701.983 8       523.664          51.000    19199579.688 8  79769437.582 8       407.294          50.000
R21  21253078.172 5 113729497.126 5     -3402.688          32.000    21253095.578 4  88456349.906 4     -2646.535          25.000
R22  19143813.523 8 102190943.889 8       600.023          51.000    19143815.367 8  79481862.742 8       466.685          48.000
R23  22632421.117 5 121068196.151 5      4205.574          34.000    22632423.422 4  94164151.973 4      3271.008          24.000
C11  23529625.445 8 122525013.803 8      2581.598          50.000    23529626.180 8  94744112.487 8      1996.246          51.000
C12  21524830.078 8 112085441.804 8      -279.871          49.000    21524830.414 8  86671571.625 8      -216.378          51.000
C24  22754971.352 8 118491151.128 8     -2017.098          51.000
E13  23528708.086 8 123644199.298 8       723.855          51.000    23528710.680 8  94740382.996 8       554.654          51.000
E21  23448266.305 8 123221455.019 8       202.684          51.000    23448267.734 8  94416471.334 8       155.336          51.000
E26  25031153.500 6 131539604.653 6      2969.832          36.000    25031142.133 6 100790039.255 6      2275.430          36.000
E27  25325512.422 6 133086484.263 6     -2021.262          39.000    25325516.344 6 101975325.530 6     -1548.597          39.000
> 2020 05 05 11 44  0.0000000  0 17        .000000000000
G02  24125320.945 5 126779417.061 5     -2438.891          35.000
G14  23566712.195 6 123843901.267 6     -2023.625          36.000    23566719.367 5  96501759.957 5     -1576.848          32.000
G21  23119779.891 5 121495235.462 5      3284.434          32.000    23119781.391 5  94671608.583 5      2559.299          31.000
G25  20739346.148 8 108986030.450 8     -1520.934          49.000    20739348.844 8  84924147.261 8     -1185.143          49.000
G29  20208437.500 8 106196063.312 8       101.383          51.000    20208437.375 8  82750173.919 8        79.000          51.000
R11  20986332.352 8 112144554.346 8     -2918.430          50.000    20986333.430 7  87223570.898 7     -2269.890          45.000
R12  19196693.570 8 102545305.954 8       503.188          51.000    19196697.453 8  79757462.887 8       391.365          50.000
R21  21272196.164 5 113831799.981 5     -3416.754          34.000    21272216.234 4  88535932.857 4     -2657.472          27.000
R22  19140518.242 8 102173351.848 8       573.410          51.000    19140519.453 8  79468180.056 8       445.986          48.000
R23  22608862.555 5 120942180.267 5      4196.230          32.000    22608867.602 4  94066147.767 4      3263.744          25.000
C11  23514784.562 8 122447731.784 8      2571.062          49.000    23514785.258 8  94684353.141 8      1988.205          51.000
C12  21526487.719 8 112094073.475 8      -295.016          50.000    21526488.109 8  86678246.188 8      -228.164          51.000
C24  22766629.492 8 118551857.691 8     -2029.480          51.000
E13  23524619.711 8 123622715.582 8       708.828          51.000    23524621.508 8  94723921.456 8       543.167          50.000
E21  23447136.547 8 123215518.967 8       193.543          51.000    23447138.523 8  94411922.932 8       148.272          51.000
E26  25014217.859 6 131450621.691 6      2963.230          41.000    25014207.195 6 100721857.630 6      2270.342          36.000
E27  25337072.219 7 133147231.587 7     -2028.254          45.000    25337076.031 6 102021872.099 6     -1554.162          40.000
> 2020 05 05 11 44 30.0000000  0 16        .000000000000
G02  24139270.086 5 126852715.784 5     -2444.547          35.000
G12  22803651.953 5 119833979.510 5     -2779.520          32.000    22803644.227 5  93377106.916 5     -2165.856          32.000
G14  23578291.117 6 123904746.926 6     -2029.777          38.000    23578297.359 5  96549172.157 5     -1581.645          35.000
G25  20748054.422 8 109031792.420 8     -1526.449          51.000    20748056.789 8  84959805.943 8     -1189.441          51.000
G29  20207896.172 8 106193219.568 8        91.645          51.000    20207896.297 8  82747958.027 8        71.411          51.000
R11  21002750.383 7 112232290.390 7     -2927.199          45.000    21002753.039 7  87291810.035 7     -2276.711          46.000
R12  19193915.984 8 102530469.097 8       489.316          51.000    19193919.914 8  79745923.115 8       380.579          50.000
R22  19137362.273 8 102156503.126 8       553.324          51.000    19137363.203 8  79455075.494 8       430.363          49.000
R23  22585346.438 5 120816395.690 5      4193.074          33.000
C11  23499993.273 8 122370711.288 8      2567.012          48.000    23499994.352 8  94624796.049 8      1984.922          51.000
C12  21528222.828 8 112103109.189 8      -303.969          49.000    21528223.266 8  86685233.179 8      -235.075          51.000
C24  22778349.609 8 118612887.106 8     -2035.680          51.000
E13  23520606.914 8 123601630.096 8       700.164          50.000    23520608.188 8  94707765.063 8       536.582          50.000
E21  23446049.078 8 123209805.357 8       190.734          51.000    23446051.430 8  94407544.968 8       146.090          51.000
E26  24997309.242 7 131361785.142 7      2962.773          43.000    24997300.195 6 100653788.139 6      2270.051          36.000
E27  25348663.094 7 133208137.248 7     -2028.980          46.000    25348666.172 6 102068539.949 6     -1554.616          40.000
> 2020 05 05 11 45  0.0000000  0 16        .000000000000
G02  24153280.867 5 126926337.732 5     -2461.387          35.000
G14  23589936.117 6 123965942.060 6     -2047.676          39.000    23589941.000 4  96596856.580 4     -1595.592          29.000
G25  20756824.484 8 109077878.802 8     -1543.270          51.000    20756826.625 8  84995717.407 8     -1202.548          51.000
G29  20207442.117 8 106190834.898 8        70.121          51.000    20207442.547 8  82746099.867 8        54.640          51.000
R11  21019248.133 7 112320457.171 7     -2947.816          45.000    21019253.133 7  87360384.220 7     -2292.743          47.000
R12  19191247.672 8 102516216.783 8       463.555          51.000    19191251.648 8  79734837.978 8       360.543          49.000
R22  19134349.602 8 102140420.606 8       521.488          51.000    19134350.570 8  79442566.874 8       405.602          49.000
R23  22561877.188 5 120690868.272 5      4178.059          34.000
C11  23485256.414 8 122293976.255 8      2551.293          48.000    23485257.078 8  94565459.672 8      1972.803          49.000
C12  21530039.922 8 112112570.859 8      -324.203          50.000    21530040.117 8  86692549.542 8      -250.731          51.000
C24  22790135.891 8 118674261.475 8     -2053.340          51.000
E13  23516674.586 8 123580966.121 8       680.035          50.000    23516676.188 8  94691931.673 8       520.967          50.000
E15  25398177.922 5 133468324.036 5     -2073.934          34.000
E21  23445008.688 8 123204338.081 8       176.391          51.000    23445011.086 8  94403355.750 8       135.159          51.000
E26  24980433.266 7 131273119.651 7      2950.891          44.000    24980425.898 5 100585849.730 5      2261.204          35.000
E27  25360287.906 7 133269224.249 7     -2040.965          45.000    25360289.672 6 102115346.791 6     -1563.928          39.000
> 2020 05 05 11 45 30.0000000  0 19        .000000000000
G02  24167359.648 5 127000315.725 5     -2469.418          34.000
G12  22835505.852 5 120001384.112 5     -2794.453          33.000    22835506.617 5  93507594.973 5     -2177.496          32.000
G14  23601653.555 6 124027518.608 6     -2056.035          38.000    23601656.172 5  96644838.309 5     -1602.105          33.000
G18  23305674.859 6 122472146.994 6      3604.438          36.000    23305677.117 5  95432839.942 5      2808.656          34.000
G21  23063691.617 6 121200538.035 6      3265.395          37.000
G25  20765662.828 8 109124324.281 8     -1551.117          51.000    20765664.914 8  85031908.673 8     -1208.663          51.000
G29  20207082.086 8 106188943.183 8        57.910          51.000    20207082.828 8  82744625.815 8        45.125          51.000
R11  21035833.719 8 112409088.830 8     -2959.066          49.000    21035839.688 8  87429319.971 8     -2301.496          48.000
R12  19188696.102 8 102502586.322 8       447.031          50.000    19188699.898 8  79724236.533 8       347.694          49.000
R21  21329979.242 5 114141043.167 5     -3452.125          30.000    21329977.672 4  88776370.554 4     -2684.986          28.000
R22  19131486.875 8 102125139.688 8       499.172          51.000    19131488.023 8  79430681.708 8       388.248          49.000
R23  22538465.430 5 120565636.935 5      4172.551          34.000
C11  23470581.219 8 122217562.359 8      2544.777          48.000    23470580.156 8  94506371.677 8      1967.744          48.000
C12  21531945.297 8 112122492.247 8      -335.371          50.000    21531945.422 8  86700221.399 8      -259.315          51.000
C24  22801995.172 8 118736014.700 8     -2061.695          51.000
E13  23512829.359 8 123560758.749 8       668.961          51.000    23512831.508 8  94676448.128 8       512.568          50.000
E21  23444022.117 8 123199152.841 8       171.227          51.000    23444024.406 8  94399382.654 8       131.167          51.000
E26  24963597.188 7 131184661.670 7      2948.102          43.000    24963591.953 5 100518070.295 5      2259.156          34.000
E27  25371954.055 7 133330527.396 7     -2044.016          45.000    25371954.484 6 102162319.299 6     -1566.284          38.000
> 2020 05 05 11 46  0.0000000  0 19        .000000000000
G02  24181534.094 5 127074800.187 5     -2478.789          33.000
G12  22851520.734 5 120085557.007 5     -2798.527          31.000    22851525.398 5  93573184.937 5     -2180.677          31.000
G14  23613471.703 6 124089626.586 6     -2066.297          38.000    23613472.703 5  96693234.029 5     -1610.108          35.000
G18  23285164.258 6 122364360.330 6      3599.645          40.000    23285164.602 6  95348850.390 6      2804.918          38.000
G21  23045121.039 6 121102943.867 6      3258.965          38.000    23045122.031 5  94365923.190 5      2539.465          30.000
G25  20774598.484 8 109171280.973 8     -1561.008          51.000    20774600.602 8  85068498.282 8     -1216.370          51.000
G29  20206844.820 8 106187695.656 8        43.562          51.000    20206845.688 8  82743653.726 8        33.945          51.000
R11  21052536.562 8 112498339.108 8     -2972.285          50.000    21052541.836 8  87498736.828 8     -2311.780          48.000
R12  19186289.680 8 102489734.815 8       428.402          48.000    19186293.977 8  79714240.912 8       333.202          49.000
R21  21349411.953 5 114245002.223 5     -3462.855          31.000    21349408.328 5  88857196.384 5     -2693.329          30.000
R22  19128803.164 8 102110814.780 8       474.559          51.000    19128805.039 8  79419540.138 8       369.101          50.000
R23  22515139.625 6 120440859.919 6      4164.910          37.000
C11  23455997.805 8 122141621.757 8      2536.086          50.000    23455995.242 8  94447649.663 8      1961.005          49.000
C12  21533967.930 8 112133023.503 8      -348.590          51.000    21533967.773 8  86708364.836 8      -269.528          51.000
C24  22813956.047 8 118798297.075 8     -2072.238          51.000
E13  23509100.297 8 123541160.557 8       655.863          51.000    23509102.453 8  94661431.342 8       502.515          51.000
E21  23443118.320 8 123194402.897 8       163.723          51.000    23443120.477 8  94395743.099 8       125.456          51.000
E26  24946829.641 6 131096565.203 6      2943.070          39.000    24946827.125 5 100450567.892 5      2255.209          35.000
E27  25383689.375 6 133392199.081 6     -2048.965          41.000    25383689.789 6 102209574.176 6     -1570.372          37.000
> 2020 05 05 11 46 30.0000000  0 17        .000000000000
G14  23625312.352 6 124151852.975 6     -2074.098          38.000    23625311.836 5  96741722.088 5     -1616.177          32.000
G18  23264641.547 6 122256511.774 6      3597.832          41.000    23264641.484 6  95264812.622 6      2803.509          39.000
G21  23026549.758 6 121005348.734 6      3255.102          38.000
G25  20783553.422 8 109218338.535 8     -1568.277          51.000    20783555.445 8  85105166.500 8     -1222.037          51.000
G29  20206651.984 8 106186681.570 8        31.941          51.000    20206652.945 8  82742863.527 8        24.889          51.000
R11  21069276.719 8 112587789.550 8     -2982.906          51.000    21069281.172 7  87568309.335 7     -2320.038          47.000
R12  19183951.484 8 102477246.758 8       412.305          49.000    19183955.898 8  79704527.979 8       320.684          48.000
R21  21368870.781 5 114349139.266 5     -3471.262          33.000    21368866.719 4  88938191.805 4     -2699.873          28.000
R22  19126220.281 8 102097028.753 8       452.586          51.000    19126222.523 8  79408817.691 8       352.011          49.000
R23  22491821.250 6 120316122.619 6      4159.273          36.000
C11  23441427.898 8 122065749.093 8      2529.906          50.000    23441425.320 8  94388980.142 8      1956.396          51.000
C12  21536029.266 8 112143757.201 8      -359.078          50.000    21536028.977 8  86716664.832 8      -277.674          51.000
C24  22825940.266 8 118860701.447 8     -2080.148          51.000
E13  23505409.422 8 123521761.560 8       645.379          51.000    23505411.516 8  94646567.186 8       494.502          51.000
E21  23442219.211 8 123189678.910 8       159.102          51.000    23442221.547 8  94392123.417 8       121.924          51.000
E26  24930052.820 5 131008421.603 5      2941.004          35.000    24930054.109 6 100383029.388 6      2253.395          38.000
E27  25395416.094 6 133453829.057 6     -2051.664          39.000    25395417.320 5 102256797.069 5     -1572.174          35.000
> 2020 05 05 11 47  0.0000000  0 18        .000000000000
G14  23637217.945 6 124214418.481 6     -2093.371          38.000    23637215.727 5  96790474.334 5     -1631.195          31.000
G18  23244149.734 7 122148827.714 7      3584.727          43.000    23244148.727 6  95180903.107 6      2793.300          36.000
G21  23008020.820 6 120907978.122 6      3239.836          36.000    23008020.539 5  94213996.936 5      2524.551          32.000
G25  20792570.031 8 109265720.147 8     -1586.945          51.000    20792571.891 8  85142087.228 8     -1236.581          51.000
G29  20206545.711 8 106186123.630 8         8.812          51.000    20206546.836 8  82742428.781 8         6.867          51.000
R11  21086096.633 8 112677665.763 8     -3005.160          51.000    21086100.219 7  87638213.042 7     -2337.350          47.000
R12  19181724.734 8 102465351.463 8       384.344          48.000    19181729.109 8  79695276.113 8       298.934          48.000
R21  21388397.828 4 114453637.199 4     -3491.996          28.000
R22  19123780.812 8 102084008.228 8       419.062          51.000    19123783.469 8  79398690.636 8       325.938          49.000
R23  22468553.375 6 120191655.540 6      4142.391          36.000
C11  23426913.500 8 121990166.958 8      2512.355          49.000    23426911.883 8  94330535.250 8      1942.661          51.000
C12  21538171.805 8 112154913.982 8      -381.070          50.000    21538171.344 8  86725291.974 8      -294.677          51.000
C24  22837990.094 8 118923448.514 8     -2099.355          51.000
E13  23501798.867 8 123502785.365 8       623.305          51.000    23501801.305 8  94632027.006 8       477.585          51.000
E15  25445947.781 5 133719354.353 5     -2111.570          32.000
E21  23441367.625 8 123185205.174 8       142.777          51.000    23441370.336 8  94388695.487 8       109.437          51.000
E26  24913310.406 6 130920456.035 6      2927.094          37.000    24913316.461 6 100315627.168 6      2242.721          40.000
E27  25407176.680 6 133515640.680 6     -2065.727          38.000    25407176.594 5 102304159.234 5     -1582.764          34.000
> 2020 05 05 11 47 30.0000000  0 17        .000000000000
G14  23649211.828 6 124277447.538 6     -2103.898          37.000    23649208.766 5  96839587.855 5     -1639.401          35.000
G18  23223714.273 7 122041438.134 7      3579.547          44.000    23223711.172 5  95097223.032 5      2789.263          35.000
G21  22989559.227 5 120810961.631 5      3232.797          33.000
G25  20801672.375 8 109313552.588 8     -1597.105          51.000    20801674.297 8  85179359.247 8     -1244.498          51.000
G29  20206550.312 8 106186148.184 8        -5.648          51.000    20206551.320 8  82742447.914 8        -4.401          51.000
R11  21103019.891 8 112768095.780 8     -3018.652          51.000    21103023.055 7  87708547.394 7     -2347.844          46.000
R12  19179632.859 8 102454179.587 8       365.199          48.000    19179637.906 8  79686586.887 8       284.047          48.000
R22  19121509.062 8 102071881.595 8       394.238          51.000    19121512.141 8  79389258.839 8       306.630          49.000
R23  22445359.812 5 120067590.726 5      4133.855          33.000
C11  23412478.797 8 121915002.375 8      2503.270          49.000    23412478.773 8  94272413.203 8      1935.796          51.000
C12  21540419.500 8 112166618.698 8      -394.547          50.000    21540418.984 8  86734342.797 8      -305.040          51.000
C24  22850129.648 8 118986663.391 8     -2110.188          51.000
E13  23498292.891 8 123484359.112 8       609.887          51.000    23498295.211 8  94617908.211 8       467.298          51.000
E15  25458073.773 5 133783011.019 5     -2120.145          33.000
E21  23440588.039 8 123181109.543 8       135.039          51.000    23440591.148 8  94385557.274 8       103.477          51.000
E26  24896629.180 6 130832796.876 6      2921.574          39.000    24896637.656 7 100248459.758 7      2238.678          43.000
E27  25418997.312 6 133577760.935 6     -2070.910          40.000    25418997.922 6 102351757.898 6     -1587.032          37.000
> 2020 05 05 11 48  0.0000000  0 16        .000000000000
G02  24238648.922 4 127374941.777 4     -2523.586          29.000
G14  23661249.102 6 124340704.052 6     -2114.168          39.000    23661244.969 5  96888878.571 5     -1647.410          30.000
G18  23203290.711 7 121934112.281 7      3574.309          44.000    23203286.477 5  95013592.652 5      2785.182          31.000
G25  20810815.875 8 109361601.936 8     -1607.199          51.000    20810817.883 8  85216800.293 8     -1252.363          51.000
G29  20206621.242 8 106186520.706 8       -20.250          51.000    20206622.266 8  82742738.205 8       -15.776          51.000
R11  21120001.922 8 112858840.427 8     -3032.008          51.000    21120003.750 7  87779126.477 7     -2358.231          43.000
R12  19177632.578 8 102443495.693 8       345.980          49.000    19177637.914 8  79678277.185 8       269.096          48.000
R22  19119360.219 8 102060411.020 8       369.375          51.000    19119363.352 8  79380337.287 8       287.292          49.000
R23  22422195.352 4 119943693.502 4      4125.484          28.000
C11  23398079.758 8 121840024.781 8      2494.160          48.000    23398081.430 8  94214435.765 8      1928.730          51.000
C12  21542727.773 8 112178638.893 8      -407.922          49.000    21542727.461 8  86743637.574 8      -315.325          51.000
C24  22862314.266 8 119050113.751 8     -2120.859          51.000
E13  23494846.992 8 123466249.297 8       596.457          51.000    23494848.969 8  94604031.865 8       457.032          51.000
E21  23439836.141 8 123177159.158 8       127.402          51.000    23439839.609 8  94382530.352 8        97.623          51.000
E26  24879963.602 7 130745212.000 7      2916.297          43.000    24879972.836 7 100181349.304 7      2234.589          44.000
E27  25430832.570 6 133639956.186 6     -2076.223          41.000    25430836.344 6 102399413.921 6     -1590.851          40.000
> 2020 05 05 11 48 30.0000000  0 15        .000000000000
G12  22931915.547 5 120508029.071 5     -2829.594          30.000
G14  23673350.094 6 124404294.159 6     -2125.637          39.000    23673345.227 4  96938429.258 4     -1656.343          29.000
G18  23182900.266 7 121826961.659 7      3568.133          43.000    23182896.188 5  94930098.752 5      2780.366          34.000
G25  20820021.250 8 109409976.534 8     -1618.395          51.000    20820023.336 8  85254494.772 8     -1261.087          51.000
G29  20206779.125 8 106187349.465 8       -35.723          51.000    20206780.008 8  82743384.005 8       -27.836          51.000
R11  21137062.203 8 112950008.688 8     -3046.492          48.000    21137063.594 7  87850035.084 7     -2369.494          43.000
R12  19175744.906 8 102433411.933 8       325.641          50.000    19175750.469 8  79670434.258 8       253.276          48.000
R22  19117355.000 8 102049706.549 8       343.480          51.000    19117358.234 8  79372011.599 8       267.151          50.000
C11  23383737.398 7 121765342.854 7      2483.883          47.000    23383740.359 8  94156686.964 8      1920.823          51.000
C12  21545117.000 8 112191081.268 8      -422.281          49.000    21545116.844 8  86753258.814 8      -326.477          51.000
C24  22874564.602 8 119113906.458 8     -2132.535          50.000
E13  23491481.906 8 123448564.656 8       581.902          51.000    23491483.984 8  94590481.313 8       445.882          51.000
E21  23439132.727 8 123173463.457 8       118.469          51.000    23439136.562 8  94379698.577 8        90.775          51.000
E26  24863333.531 7 130657811.620 7      2909.859          45.000    24863342.781 7 100114380.226 7      2229.570          45.000
E27  25442703.523 6 133702334.878 6     -2082.914          40.000    25442708.836 6 102447210.570 6     -1595.909          39.000
> 2020 05 05 11 49  0.0000000  0 15        .000000000000
G14  23685515.891 6 124468224.552 6     -2136.352          40.000    23685511.398 5  96988245.102 5     -1664.690          31.000
G18  23162544.812 6 121719998.776 6      3562.336          39.000    23162543.086 5  94846751.165 5      2775.852          34.000
G25  20829290.289 8 109458685.753 8     -1629.148          51.000    20829292.422 8  85292450.010 8     -1269.466          51.000
G29  20207025.266 8 106188642.691 8       -50.793          51.000    20207025.719 8  82744391.724 8       -39.579          51.000
R11  21154202.938 8 113041609.055 8     -3060.406          48.000    21154205.539 7  87921279.785 7     -2380.316          46.000
R12  19173971.812 8 102423939.789 8       305.562          50.000    19173977.469 7  79663067.027 7       237.660          47.000
R22  19115494.766 8 102039777.015 8       318.191          51.000    19115498.172 8  79364288.651 8       247.482          50.000
R23  22376052.328 5 119696791.692 5      4105.391          31.000
C11  23369454.305 8 121690967.271 8      2474.102          48.000    23369457.492 8  94099175.045 8      1913.141          51.000
C12  21547588.977 8 112203954.376 8      -436.176          49.000    21547588.797 8  86763213.125 8      -337.249          51.000
C24  22886882.422 8 119178050.318 8     -2143.875          51.000
E13  23488199.477 8 123431314.899 8       567.863          51.000    23488201.688 8  94577263.991 8       435.101          51.000
E21  23438479.883 8 123170032.917 8       110.023          51.000    23438483.938 8  94377069.969 8        84.319          51.000
E26  24846740.625 7 130570606.939 7      2903.656          46.000    24846749.344 7 100047561.080 7      2224.850          46.000
E27  25454610.617 6 133764906.606 6     -2088.906          39.000    25454616.773 6 102495155.115 6     -1600.528          39.000
> 2020 05 05 11 49 30.0000000  0 15        .000000000000
G14  23697742.961 6 124532477.339 6     -2147.379          41.000    23697738.828 5  97038312.158 5     -1673.282          34.000
G18  23142221.953 5 121613211.185 5      3556.766          35.000    23142223.328 5  94763540.083 5      2771.503          33.000
G25  20838619.891 8 109507713.945 8     -1639.781          50.000    20838622.156 8  85330653.778 8     -1277.752          50.000
G29  20207356.719 8 106190384.297 8       -65.773          51.000    20207357.016 8  82745748.803 8       -51.252          51.000
R11  21171422.398 8 113133624.565 8     -3074.395          50.000    21171426.242 8  87992847.356 8     -2391.196          48.000
R12  19172310.500 8 102415065.398 8       285.547          51.000    19172316.070 7  79656164.699 7       222.092          47.000
R22  19113776.875 8 102030606.197 8       292.789          51.000    19113779.992 8  79357155.794 8       227.725          50.000
R23  22353044.688 5 119573750.543 5      4096.184          33.000
C11  23355227.727 8 121616883.843 8      2464.305          49.000    23355230.164 8  94041889.055 8      1905.644          50.000
C12  21550140.859 8 112217242.035 8      -450.062          50.000    21550140.570 8  86773487.998 8      -348.020          51.000
C24  22899264.891 8 119242529.235 8     -2155.141          51.000
E13  23484996.680 8 123414484.735 8       553.789          51.000    23484998.805 8  94564368.166 8       424.350          51.000
E21  23437874.781 8 123166852.930 8       101.605          51.000    23437878.805 8  94374633.354 8        77.842          51.000
E26  24830182.086 7 130483584.081 7      2897.469          47.000    24830189.734 7  99980881.266 7      2220.168          46.000
E27  25466551.352 7 133827655.881 7     -2094.836          42.000    25466558.492 6 102543235.657 6     -1605.065          40.000
> 2020 05 05 11 50  0.0000000  0 17        .000000000000
G14  23710025.484 7 124597020.524 7     -2151.391          43.000    23710021.250 5  97088605.522 5     -1676.408          33.000
G18  23121927.516 5 121506572.872 5      3557.426          33.000    23121932.062 5  94680445.298 5      2772.026          33.000
G21  22897810.172 5 120328797.552 5      3200.648          33.000
G25  20848004.492 8 109557031.781 8     -1643.855          50.000    20848006.789 8  85369083.251 8     -1280.926          50.000
G29  20207767.805 8 106192544.396 8       -74.113          51.000    20207768.219 8  82747432.003 8       -57.751          51.000
R11  21188714.094 8 113226024.089 8     -3081.359          51.000    21188718.664 8  88064713.631 8     -2396.613          50.000
R12  19170756.297 8 102406761.021 8       272.234          51.000    19170761.586 7  79649705.731 7       211.738          47.000
R21  21506987.852 5 115088168.619 5     -3552.949          34.000
R22  19112195.188 8 102022164.032 8       274.301          51.000    19112198.391 8  79350589.694 8       213.345          50.000
R23  22330084.219 5 119450963.837 5      4094.102          31.000
C11  23341052.398 8 121543064.694 8      2461.207          49.000    23341052.711 8  93984807.452 8      1903.104          48.000
C12  21552766.500 8 112230914.488 8      -457.367          50.000    21552766.289 8  86784060.406 8      -353.599          51.000
C24  22911705.945 8 119307313.620 8     -2159.742          51.000
E13  23481868.094 8 123398045.185 8       546.371          51.000    23481870.328 8  94551771.646 8       418.654          51.000
E21  23437311.844 8 123163895.269 8        99.840          51.000    23437315.820 8  94372367.084 8        76.513          51.000
E26  24813652.625 7 130396715.506 7      2898.059          47.000    24813658.711 7  99914319.689 7      2220.545          46.000
E27  25478521.047 7 133890553.452 7     -2094.020          43.000    25478527.906 6 102591429.888 6     -1604.577          40.000
> 2020 05 05 11 50 30.0000000  0 18        .000000000000
G12  22996777.094 5 120848874.020 5     -2852.930          33.000    22996775.406 5  94167959.844 5     -2223.056          32.000
G14  23722365.664 7 124661866.854 7     -2169.508          42.000    23722360.859 5  97139135.094 5     -1690.526          33.000
G18  23101665.773 5 121400102.195 5      3543.336          35.000    23101672.930 5  94597481.024 5      2761.035          34.000
G21  22879592.352 5 120233054.940 5      3184.355          34.000
G25  20857447.336 8 109606654.617 8     -1662.082          50.000    20857449.547 8  85407750.375 8     -1295.129          50.000
G29  20208261.445 8 106195137.740 8       -96.531          51.000    20208261.516 8  82749452.803 8       -75.219          51.000
R11  21206080.086 8 113318822.067 8     -3102.875          51.000    21206085.266 8  88136889.821 8     -2413.344          50.000
R12  19169311.781 8 102399044.230 8       244.438          51.000    19169317.156 7  79643703.747 7       190.115          47.000
R21  21526964.234 5 115195066.948 5     -3571.473          34.000
R22  19110752.758 8 102014465.597 8       241.328          51.000    19110755.938 8  79344602.033 8       187.700          50.000
R23  22307176.711 5 119328450.518 5      4076.141          30.000    22307187.578 4  92810985.248 4      3170.332          27.000
C11  23326931.008 8 121469526.448 8      2443.637          49.000    23326928.312 7  93927943.046 7      1889.638          47.000
C12  21555468.898 8 112244986.111 8      -478.617          50.000    21555468.570 8  86794941.493 8      -370.100          51.000
C24  22924208.250 8 119372418.126 8     -2178.359          50.000
E13  23478816.906 8 123382011.936 8       524.738          51.000    23478819.383 8  94539486.431 8       402.105          51.000
E21  23436794.258 8 123161176.345 8        83.730          51.000    23436798.164 8  94370283.735 8        64.157          51.000
E26  24797155.398 8 130310018.370 8      2884.172          48.000    24797159.922 7  99847889.484 7      2209.836          46.000
E27  25490522.031 7 133953614.961 7     -2107.711          43.000    25490527.852 6 102639749.738 6     -1614.981          41.000
> 2020 05 05 11 51  0.0000000  0 18        .000000000000
G12  23013078.750 5 120934544.864 5     -2858.590          32.000
G14  23734780.586 7 124727106.643 7     -2179.641          43.000    23734775.602 5  97189971.236 5     -1698.421          34.000
G18  23081454.953 6 121293894.497 6      3537.000          36.000    23081463.852 5  94514721.803 5      2756.101          35.000
G21  22861435.805 5 120137633.626 5      3176.852          35.000
G25  20866965.812 8 109656674.572 8     -1672.430          50.000    20866968.148 8  85446726.932 8     -1303.195          50.000
G29  20208854.984 8 106198256.070 8      -111.176          51.000    20208854.594 8  82751882.678 8       -86.630          51.000
R11  21223537.953 8 113412110.795 8     -3116.293          51.000    21223543.062 8  88209447.703 8     -2423.783          49.000
R12  19167995.211 8 102392010.510 8       224.535          51.000    19168000.156 8  79638233.064 8       174.638          48.000
R21  21547014.961 5 115302372.832 5     -3581.680          31.000
R22  19109467.102 8 102007604.097 8       216.266          51.000    19109470.180 8  79339265.321 8       168.207          50.000
R23  22284339.633 5 119206206.490 5      4067.387          30.000    22284355.758 4  92715985.238 4      3163.526          28.000
C11  23312880.211 7 121396361.645 7      2434.059          46.000    23312875.727 7  93871367.454 7      1881.969          47.000
C12  21558265.094 8 112259547.465 8      -492.070          49.000    21558264.938 8  86806201.274 8      -380.497          51.000
C24  22936789.391 8 119437933.544 8     -2189.199          50.000
E13  23475860.453 8 123366477.417 8       510.953          51.000    23475863.312 8  94527583.370 8       391.522          51.000
E21  23436340.000 8 123158789.363 8        75.469          51.000    23436343.648 8  94368454.735 8        57.845          51.000
E26  24780708.305 7 130223586.587 7      2877.934          47.000    24780711.531 7  99781662.595 7      2205.260          46.000
E27  25502571.805 7 134016932.639 7     -2113.270          44.000    25502576.805 7 102688265.869 7     -1619.384          42.000
> 2020 05 05 11 51 30.0000000  0 16        .000000000000
G12  23029404.930 5 121020354.695 5     -2863.270          31.000
G14  23747247.969 7 124792622.479 7     -2189.594          43.000    23747243.414 6  97241022.478 6     -1706.180          37.000
G18  23061273.398 5 121187838.072 5      3531.457          34.000    23061283.062 5  94432080.449 5      2751.788          34.000
G25  20876538.062 8 109706976.910 8     -1682.559          50.000    20876540.453 8  85485923.537 8     -1311.085          50.000
G29  20209526.398 8 106201784.018 8      -125.484          51.000    20209525.961 8  82754631.741 8       -97.780          51.000
R11  21241065.961 8 113505772.646 8     -3129.246          50.000    21241070.180 8  88282295.790 8     -2433.858          48.000
R12  19166785.180 8 102385545.288 8       204.844          51.000    19166789.906 8  79633204.550 8       159.323          48.000
R21  21567122.758 5 115409965.790 5     -3592.438          33.000    21567127.312 4  89763376.649 4     -2794.115          25.000
R22  19108316.297 8 102001462.480 8       191.633          51.000    19108319.500 8  79334488.530 8       149.048          50.000
C11  23298878.500 7 121323457.947 7      2424.766          45.000    23298874.383 8  93814993.728 8      1874.853          48.000
C12  21561133.609 8 112274484.230 8      -505.254          50.000    21561133.680 8  86817751.332 8      -390.719          51.000
C24  22949428.211 8 119503745.576 8     -2199.758          51.000
E13  23472977.250 8 123351327.191 8       497.453          51.000    23472980.336 8  94515974.755 8       381.159          51.000
E21  23435927.508 8 123156620.644 8        67.488          51.000    23435930.625 8  94366792.992 8        51.706          51.000
E26  24764289.641 7 130137307.203 7      2872.219          46.000    24764292.562 7  99715552.466 7      2200.779          47.000
E27  25514647.930 7 134080391.898 7     -2118.809          42.000    25514653.016 7 102736890.457 7     -1623.527          43.000
> 2020 05 05 11 52  0.0000000  0 18        .000000000000
G12  23045767.844 5 121106326.339 5     -2868.961          32.000    23045764.227 5  94368552.268 5     -2235.560          31.000
G14  23759777.414 7 124858464.643 7     -2200.277          43.000    23759773.406 6  97292328.004 6     -1714.502          37.000
G18  23041132.477 5 121081989.236 5      3524.418          35.000    23041140.484 5  94349600.886 5      2746.306          34.000
G21  22825243.906 5 119947479.513 5      3160.754          33.000
G25  20886174.086 8 109757614.509 8     -1693.707          49.000    20886176.594 8  85525381.368 8     -1319.772          49.000
G29  20210285.773 8 106205773.817 8      -140.719          51.000    20210285.195 8  82757740.673 8      -109.651          51.000
R11  21258673.281 8 113599859.873 8     -3143.461          48.000    21258677.125 7  88355474.724 7     -2444.914          45.000
R12  19165691.914 8 102379704.255 8       184.133          51.000    19165696.711 8  79628661.506 8       143.214          49.000
R21  21587293.656 4 115517895.903 4     -3603.000          29.000    21587293.516 4  89847308.288 4     -2802.330          25.000
R22  19107310.172 8 101996093.786 8       165.934          50.000    19107313.523 8  79330312.871 8       129.059          50.000
R23  22238836.680 5 118962763.799 5      4046.949          31.000    22238840.891 4  92526623.873 4      3147.627          26.000
C11  23284937.164 7 121250869.016 7      2414.301          46.000    23284934.719 8  93758863.368 8      1867.020          50.000
C12  21564084.133 8 112289847.999 8      -519.281          50.000    21564084.414 8  86829631.582 8      -401.445          51.000
C24  22962134.352 8 119569906.039 8     -2211.215          51.000
E13  23470177.375 8 123336614.421 8       483.121          51.000    23470180.461 8  94504701.338 8       370.214          51.000
E21  23435566.898 8 123154724.187 8        58.719          51.000    23435569.547 8  94365339.855 8        45.013          51.000
E26  24747909.141 7 130051234.903 7      2865.516          44.000    24747913.539 8  99649600.981 8      2195.715          48.000
E27  25526760.461 6 134144045.794 6     -2125.012          41.000    25526765.094 7 102785664.172 7     -1628.085          42.000
> 2020 05 05 11 52 30.0000000  0 17        .000000000000
G12  23062175.961 4 121192551.751 4     -2874.027          28.000
G14  23772382.719 7 124924704.912 7     -2209.797          43.000    23772379.398 6  97343943.760 6     -1721.923          38.000
G18  23021050.797 4 120976436.054 4      3517.695          28.000    23021048.898 3  94267358.150 3      2741.073          23.000
G21  22807244.008 6 119852874.287 6      3152.512          36.000
G25  20895887.984 8 109808661.321 8     -1703.457          50.000    20895890.531 8  85565158.093 8     -1327.369          50.000
G29  20211146.938 8 106210298.677 8      -154.941          51.000    20211146.039 8  82761266.530 8      -120.734          51.000
R11  21276372.578 7 113694446.549 7     -3156.258          44.000    21276377.289 7  88429042.141 7     -2454.867          44.000
R12  19164730.031 8 102374564.563 8       164.574          51.000    19164734.625 8  79624663.974 8       128.002          49.000
R22  19106462.734 8 101991572.623 8       141.637          50.000    19106466.672 8  79326796.396 8       110.162          50.000
R23  22216186.141 6 118841582.881 6      4037.871          36.000
C11  23271070.984 7 121178669.438 7      2405.066          46.000    23271070.531 8  93703034.080 8      1859.741          51.000
C12  21567130.562 8 112305711.359 8      -532.270          50.000    21567130.734 8  86841898.139 8      -411.554          51.000
C24  22974921.375 8 119636487.760 8     -2221.500          51.000
E13  23467474.867 8 123322413.426 8       469.750          51.000    23467477.953 8  94493820.076 8       359.908          51.000
E21  23435272.289 8 123153175.068 8        50.785          51.000    23435274.797 8  94364152.871 8        38.916          51.000
E26  24731582.273 7 129965445.520 7      2859.867          45.000    24731588.477 8  99583866.255 8      2191.318          48.000
E27  25538923.930 6 134207968.484 6     -2130.375          40.000    25538928.070 6 102834643.876 6     -1632.269          41.000
> 2020 05 05 11 53  0.0000000  0 16        .000000000000
G14  23785023.641 7 124991132.899 7     -2223.211          43.000    23785021.445 6  97395705.768 6     -1732.372          39.000
G18  23000974.242 5 120870954.776 5      3509.305          33.000    23000975.562 5  94185165.758 5      2734.514          33.000
G21  22789268.586 6 119758406.177 6      3140.961          37.000    22789269.914 5  93318232.108 5      2447.496          32.000
G25  20905640.297 8 109859909.579 8     -1717.230          50.000    20905642.633 8  85605091.788 8     -1338.102          50.000
G29  20212070.305 8 106215150.260 8      -172.832          51.000    20212069.102 8  82765046.996 8      -134.674          51.000
R11  21294124.594 7 113789320.325 7     -3172.949          45.000    21294130.578 7  88502832.802 7     -2467.852          42.000
R12  19163860.102 8 102369916.800 8       140.988          51.000    19163864.258 8  79621049.042 8       109.658          49.000
R22  19105734.750 8 101987687.432 8       113.156          50.000    19105738.914 8  79323774.577 8        88.010          50.000
R23  22193569.953 6 118720586.605 6      4024.477          38.000
C11  23257240.914 8 121106654.669 8      2391.785          48.000    23257241.984 8  93647347.710 8      1849.577          51.000
C12  21570233.391 8 112321867.710 8      -548.984          50.000    21570233.383 8  86854391.254 8      -424.425          51.000
C24  22987749.398 8 119703284.213 8     -2235.750          51.000
E13  23464830.258 8 123308516.706 8       452.551          51.000    23464833.484 8  94483171.965 8       346.781          51.000
E21  23435004.375 8 123151766.593 8        39.047          51.000    23435006.875 8  94363073.642 8        29.937          51.000
E26  24715271.320 8 129879732.976 8      2850.246          48.000    24715277.883 8  99518190.422 8      2183.964          48.000
E27  25551099.062 6 134271952.406 6     -2139.387          41.000    25551103.008 6 102883670.468 6     -1639.279          41.000
> 2020 05 05 11 53 30.0000000  0 16        .000000000000
G14  23797733.781 7 125057924.161 7     -2230.328          45.000    23797732.508 6  97447750.852 6     -1737.918          36.000
G18  22980950.531 6 120765731.843 6      3505.148          37.000    22980953.039 6  94103173.934 6      2731.284          37.000
G21  22771351.883 6 119664255.530 6      3134.984          37.000    22771355.820 5  93244868.055 5      2442.854          32.000
G25  20915464.727 8 109911537.097 8     -1725.098          51.000    20915466.836 8  85645321.008 8     -1344.232          51.000
G29  20213089.578 8 106220506.219 8      -184.852          51.000    20213088.164 8  82769220.503 8      -144.040          51.000
R11  21311966.227 8 113884660.648 8     -3183.812          48.000    21311971.258 7  88576986.298 7     -2476.302          43.000
R12  19163116.836 8 102365943.725 8       123.195          50.000    19163120.562 8  79617958.890 8        95.819          50.000
R22  19105159.797 8 101984618.202 8        90.895          51.000    19105163.969 8  79321387.402 8        70.696          50.000
R23  22171022.352 6 118599958.177 6      4016.805          37.000    22171020.727 4  92244454.621 4      3124.181          26.000
C11  23243481.367 8 121035002.083 8      2384.414          50.000    23243482.852 8  93591941.407 8      1843.750          51.000
C12  21573425.992 8 112338492.416 8      -559.941          51.000    21573425.977 8  86867246.547 8      -432.955          51.000
C24  23000651.688 8 119770471.021 8     -2244.145          50.000
E13  23462277.602 8 123295102.337 8       441.121          51.000    23462280.688 8  94472893.443 8       337.996          51.000
E21  23434797.227 8 123150677.643 8        32.977          51.000    23434799.844 8  94362239.240 8        25.277          51.000
E26  24699009.852 8 129794276.824 8      2846.246          50.000    24699015.828 8  99452711.076 8      2180.944          48.000
E27  25563320.625 7 134336175.392 7     -2142.637          43.000    25563323.680 6 102932880.271 6     -1641.856          41.000
> 2020 05 05 11 54  0.0000000  0 18        .000000000000
G02  24415648.461 5 128305094.902 5     -2638.012          34.000
G14  23810450.742 7 125124750.928 7     -2236.109          45.000    23810449.734 6  97499823.629 6     -1742.423          38.000
G18  22960914.289 6 120660447.618 6      3502.602          40.000    22960916.828 6  94021134.344 6      2729.300          40.000
G21  22753433.844 6 119570099.943 6      3130.652          37.000    22753439.641 5  93171500.035 5      2439.472          33.000
G25  20925299.469 8 109963218.334 8     -1731.504          51.000    20925301.484 8  85685592.063 8     -1349.224          51.000
G29  20214142.695 8 106226040.087 8      -195.352          51.000    20214141.148 8  82773532.611 8      -152.222          51.000
R11  21329834.055 8 113980135.148 8     -3192.887          51.000    21329837.250 7  88651244.147 7     -2483.356          42.000
R12  19162437.750 8 102362316.081 8       107.082          50.000    19162441.617 8  79615137.369 8        83.283          50.000
R22  19104675.961 8 101982033.511 8        69.922          51.000    19104679.891 8  79319377.099 8        54.384          50.000
R23  22148482.445 6 118479369.809 6      4010.418          37.000    22148478.305 4  92150663.743 4      3119.214          29.000
C11  23229730.242 8 120963390.378 8      2378.395          51.000    23229731.242 8  93536566.732 8      1839.107          51.000
C12  21576646.508 8 112355262.100 8      -569.309          51.000    21576646.125 8  86880213.928 8      -440.298          51.000
C24  23013566.227 8 119837724.971 8     -2250.777          49.000
E13  23459754.922 8 123281845.009 8       431.230          51.000    23459757.828 8  94462735.246 8       330.408          51.000
E15  25619658.125 5 134632212.278 5     -2230.234          34.000
E21  23434589.203 8 123149583.723 8        28.449          51.000    23434591.734 8  94361401.034 8        21.838          51.000
E26  24682735.695 8 129708753.331 8      2843.840          51.000    24682740.758 8  99387180.137 8      2178.983          48.000
E27  25575525.570 7 134400312.184 7     -2144.613          42.000    25575527.320 6 102982024.003 6     -1643.215          40.000
> 2020 05 05 11 54 30.0000000  0 18        .000000000000
G02  24430772.680 5 128384570.526 5     -2662.926          34.000    24430773.227 5 100039923.922 5     -2075.034          32.000
G12  23128013.828 5 121538532.625 5     -2907.141          33.000
G14  23823282.297 7 125192180.718 7     -2262.070          45.000    23823281.711 6  97552366.253 6     -1762.655          37.000
G18  22940975.977 7 120555675.893 7      3479.328          42.000    22940978.445 6  93939494.099 6      2711.168          41.000
G21  22735624.164 6 119476512.832 6      3105.848          40.000    22735632.180 5  93098574.923 5      2420.144          33.000
G25  20935252.977 8 110015523.749 8     -1758.523          51.000    20935254.844 8  85726349.506 8     -1370.278          51.000
G29  20215338.055 8 106232321.676 8      -226.273          51.000    20215336.648 8  82778427.354 8      -176.317          51.000
R11  21347835.422 8 114076322.604 8     -3222.727          51.000    21347837.352 7  88726056.549 7     -2506.568          44.000
R12  19161932.797 8 102359615.663 8        69.953          51.000    19161935.781 8  79613037.072 8        54.408          49.000
R22  19104391.258 8 101980512.196 8        28.453          51.000    19104394.992 8  79318193.868 8        22.130          49.000
R23  22126056.609 5 118359514.578 5      3983.480          34.000    22126050.516 4  92057371.276 4      3098.263          29.000
C11  23216095.570 8 120892386.088 8      2352.273          50.000    23216095.859 8  93481661.759 8      1818.773          51.000
C12  21580003.133 8 112372741.423 8      -599.000          50.000    21580002.500 8  86893730.061 8      -463.312          51.000
C24  23026602.266 8 119905610.841 8     -2277.781          50.000
E13  23457370.609 8 123269315.509 8       400.859          51.000    23457373.555 8  94453134.749 8       307.191          51.000
E21  23434489.000 8 123149056.496 8         3.367          51.000    23434491.219 8  94360997.066 8         2.559          51.000
E26  24666557.617 8 129623734.847 8      2821.020          51.000    24666561.781 8  99322036.155 8      2161.426          48.000
E27  25587822.523 7 134464933.458 7     -2166.953          42.000    25587823.070 6 103031538.974 6     -1660.405          40.000
> 2020 05 05 11 55  0.0000000  0 18        .000000000000
G02  24445948.648 5 128464318.178 5     -2654.852          35.000    24445949.219 5 100102065.041 5     -2068.716          33.000
G12  23144571.594 5 121625527.295 5     -2893.742          30.000    23144564.930 5  94773127.253 5     -2254.873          30.000
G14  23836168.148 7 125259896.395 7     -2253.980          44.000    23836168.398 6  97605131.691 6     -1756.348          40.000
G18  22921076.164 7 120451104.962 7      3490.270          44.000    22921078.406 7  93858010.324 7      2719.694          42.000
G21  22717864.109 7 119383182.150 7      3114.668          42.000    22717872.914 4  93025849.741 4      2427.017          29.000
G25  20945265.305 8 110068138.514 8     -1750.895          51.000    20945266.922 8  85767347.988 8     -1364.333          51.000
G29  20216615.656 8 106239035.671 8      -223.000          51.000    20216614.492 8  82783659.041 8      -173.766          51.000
R11  21365909.820 8 114172901.788 8     -3217.656          50.000    21365911.609 7  88801173.676 7     -2502.622          46.000
R12  19161541.695 8 102357524.426 8        67.637          51.000    19161544.117 8  79611410.589 8        52.606          50.000
R22  19104245.742 8 101979733.596 8        21.758          51.000    19104249.172 8  79317588.295 8        16.926          49.000
C11  23202516.969 7 120821678.497 7      2359.930          47.000    23202517.070 8  93426986.171 8      1824.875          50.000
C12  21583436.086 8 112390617.527 8      -594.492          51.000    21583435.258 8  86907552.990 8      -459.723          51.000
C24  23039699.891 8 119973816.001 8     -2270.895          49.000
C25  22116067.812 6 115164173.637 6       892.617          38.000
E13  23455064.992 8 123257199.201 8       405.012          51.000    23455067.625 8  94443850.845 8       310.349          51.000
E21  23434436.875 8 123148782.128 8        12.953          51.000    23434438.781 8  94360786.835 8         9.907          51.000
E26  24650416.000 8 129538908.255 8      2832.391          51.000    24650419.125 8  99257039.209 8      2170.237          48.000
E27  25600151.859 6 134529724.430 6     -2154.684          41.000    25600152.789 6 103081183.981 6     -1650.940          41.000
> 2020 05 05 11 55 30.0000000  0 18        .000000000000
G02  24461189.703 5 128544411.005 5     -2671.062          33.000    24461189.664 5 100164483.970 5     -2081.357          30.000
G14  23849122.094 7 125327970.683 7     -2270.660          43.000    23849123.430 6  97658176.539 6     -1769.349          40.000
G18  22901229.641 7 120346813.179 7      3476.117          46.000    22901231.992 7  93776744.080 7      2708.666          42.000
G21  22700168.047 7 119290185.717 7      3098.887          42.000    22700176.844 4  92953384.977 4      2414.717          28.000
G25  20955350.789 8 110121137.687 8     -1768.461          50.000    20955352.500 8  85808646.014 8     -1378.022          50.000
G29  20217989.781 8 106246256.429 8      -244.719          51.000    20217988.633 8  82789285.599 8      -190.690          51.000
R11  21384071.094 8 114269947.541 8     -3238.012          50.000    21384073.727 8  88876653.672 8     -2518.454          48.000
R12  19161278.664 8 102356120.367 8        39.883          51.000    19161281.156 8  79610318.535 8        31.023          50.000
R22  19104253.359 8 101979773.332 8       -10.352          51.000    19104256.477 8  79317619.219 8        -8.051          48.000
R23  22081385.438 5 118120511.230 5      3972.730          31.000    22081380.219 4  91871500.173 4      3089.908          26.000
C11  23189008.922 7 120751343.437 7      2342.852          46.000    23189009.734 8  93372598.634 8      1811.578          50.000
C12  21586959.344 8 112408964.142 8      -614.918          50.000    21586958.586 8  86921739.767 8      -475.454          51.000
C24  23052873.039 8 120042414.356 8     -2288.699          48.000
C25  22111025.422 6 115137917.862 6       871.934          37.000
E13  23452852.406 8 123245571.457 8       384.035          51.000    23452854.547 8  94434941.296 8       294.243          51.000
E21  23434447.297 8 123148836.898 8        -2.762          51.000    23434449.148 8  94360828.799 8        -2.146          51.000
E26  24634325.469 8 129454350.492 8      2818.586          51.000    24634327.461 8  99192248.243 8      2159.693          48.000
E27  25612527.156 6 134594760.472 6     -2167.453          40.000    25612529.336 7 103131016.761 7     -1660.761          42.000
> 2020 05 05 11 56  0.0000000  0 18        .000000000000
G02  24476454.539 5 128624629.935 5     -2679.352          34.000    24476451.492 5 100226988.316 5     -2087.806          30.000
G14  23862102.570 7 125396183.566 7     -2278.977          44.000    23862104.680 6  97711329.397 6     -1775.826          40.000
G18  22881395.562 7 120242586.173 7      3470.055          46.000    22881397.750 6  93695528.335 6      2703.942          41.000
G21  22682494.656 7 119197309.087 7      3090.508          44.000    22682508.008 4  92881013.514 4      2408.188          28.000
G25  20965467.984 8 110174303.745 8     -1778.078          50.000    20965470.023 8  85850074.096 8     -1385.515          50.000
G29  20219418.672 8 106253765.577 8      -258.316          51.000    20219417.367 8  82795136.885 8      -201.286          51.000
R11  21402277.750 8 114367237.489 8     -3250.180          50.000    21402280.992 8  88952323.603 8     -2527.918          48.000
R12  19161103.516 8 102355184.185 8        20.297          51.000    19161105.898 8  79609590.403 8        15.789          49.000
R22  19104372.758 8 101980409.654 8       -34.379          51.000    19104375.430 8  79318114.140 8       -26.739          48.000
R23  22059125.844 4 118001407.673 4      3963.500          28.000    22059114.328 4  91778856.000 4      3082.719          26.000
C11  23175531.891 8 120681166.478 8      2333.523          48.000    23175532.578 8  93318333.374 8      1804.431          49.000
C12  21590531.422 8 112427564.829 8      -627.297          51.000    21590530.711 8  86936123.018 8      -485.093          51.000
C24  23066080.688 8 120111189.666 8     -2298.535          50.000
C25  22106033.883 6 115111929.214 6       858.602          38.000
E13  23450691.312 8 123234214.982 8       370.922          51.000    23450693.141 8  94426239.593 8       284.192          51.000
E21  23434479.133 8 123149004.294 8       -10.660          51.000    23434481.094 8  94360957.062 8        -8.126          51.000
E26  24618244.883 8 129369845.743 8      2812.801          51.000    24618246.188 8  99127497.900 8      2155.260          48.000
E27  25624907.359 7 134659824.200 7     -2172.422          43.000    25624911.078 7 103180870.737 7     -1664.460          43.000
> 2020 05 05 11 56 30.0000000  0 17        .000000000000
G02  24491744.164 5 128704980.939 5     -2688.414          32.000
G14  23875110.344 7 125464540.557 7     -2289.281          44.000    23875113.180 6  97764594.536 6     -1783.859          41.000
G18  22861575.750 7 120138435.090 7      3462.090          44.000    22861577.828 7  93614371.726 7      2697.735          42.000
G21  22664846.078 7 119104562.810 7      3080.902          46.000    22664838.523 4  92808724.157 4      2400.703          28.000
G25  20975618.547 8 110227644.613 8     -1789.312          49.000    20975620.664 8  85891638.411 8     -1394.269          49.000
G29  20220903.867 8 106261570.490 8      -273.609          51.000    20220902.570 8  82801218.642 8      -213.202          51.000
R11  21420531.250 8 114464778.173 8     -3264.078          50.000    21420535.188 7  89028188.568 7     -2538.730          47.000
R12  19161017.352 8 102354725.912 8        -1.305          51.000    19161019.969 8  79609233.959 8        -1.015          49.000
R22  19104605.211 8 101981649.767 8       -59.941          51.000    19104607.875 8  79319078.697 8       -46.618          48.000
C11  23162087.688 8 120611156.678 8      2322.586          50.000    23162087.453 8  93264197.395 8      1795.886          50.000
C12  21594153.812 8 112446426.642 8      -641.441          51.000    21594152.828 8  86950708.167 8      -496.061          51.000
C24  23079324.867 8 120180149.147 8     -2310.125          51.000
C25  22101094.273 6 115086217.102 6       843.898          36.000
E13  23448583.305 8 123223137.875 8       356.066          51.000    23448585.031 8  94417751.948 8       272.860          51.000
E21  23434534.047 8 123149293.316 8       -20.191          51.000    23434536.055 8  94361178.526 8       -15.429          51.000
E26  24602176.047 8 129285403.727 8      2805.215          51.000    24602177.188 8  99062795.615 8      2149.465          48.000
E27  25637295.656 7 134724923.582 7     -2179.098          44.000    25637300.234 7 103230752.062 7     -1669.641          44.000
> 2020 05 05 11 57  0.0000000  0 17        .000000000000
G14  23888223.781 7 125533452.675 7     -2314.859          44.000    23888227.188 6  97818292.231 6     -1803.790          40.000
G18  22841849.242 7 120034776.752 7      3438.719          42.000    22841851.805 7  93533599.057 7      2679.524          42.000
G21  22647301.617 7 119012363.354 7      3055.824          47.000    22647295.242 5  92736880.519 5      2381.165          32.000
G25  20985881.031 8 110281573.881 8     -1815.723          48.000    20985883.148 8  85933661.221 8     -1414.849          48.000
G29  20222523.969 8 106270084.251 8      -303.906          51.000    20222522.914 8  82807852.749 8      -236.810          51.000
R11  21438910.172 8 114562989.032 8     -3293.309          50.000    21438914.539 7  89104574.769 7     -2561.465          46.000
R12  19161099.898 8 102355167.421 8       -38.227          51.000    19161102.688 8  79609577.349 8       -29.732          48.000
R22  19105029.203 8 101983912.918 8      -100.922          51.000    19105031.570 7  79320838.935 7       -78.495          47.000
R23  22014761.289 5 117764133.938 5      3925.625          35.000    22014761.336 4  91594321.850 4      3053.264          26.000
C11  23148754.875 8 120541725.126 8      2296.465          50.000    23148753.875 8  93210508.546 8      1775.866          51.000
C12  21597904.648 8 112465958.623 8      -670.449          51.000    21597903.906 8  86965811.537 8      -518.389          51.000
C24  23092683.195 8 120249702.033 8     -2336.496          51.000
C25  22096287.258 6 115061192.959 6       814.645          37.000
E13  23446607.258 8 123212753.948 8       326.312          51.000    23446609.047 8  94409795.442 8       250.059          51.000
E21  23434690.961 8 123150118.672 8       -44.656          51.000    23434693.078 8  94361810.960 8       -34.259          51.000
E26  24586198.227 8 129201439.828 8      2782.566          51.000    24586199.766 8  98998459.672 8      2132.153          49.000
E27  25649769.336 6 134790472.444 6     -2200.699          41.000    25649774.633 7 103280977.827 7     -1686.235          43.000
> 2020 05 05 11 57 30.0000000  0 17        .000000000000
G14  23901386.648 7 125602624.158 7     -2305.465          45.000    23901390.031 6  97872192.037 6     -1796.466          39.000
G18  22822161.516 7 119931321.020 7      3449.562          44.000    22822164.453 7  93452984.199 7      2687.971          43.000
G21  22629805.852 7 118920420.278 7      3065.074          47.000    22629799.633 5  92665236.620 5      2388.373          34.000
G25  20996199.406 7 110335798.185 7     -1807.934          47.000    20996201.562 7  85975913.905 7     -1408.779          47.000
G29  20224222.992 8 106279012.894 8      -300.059          51.000    20224221.773 8  82814810.128 8      -233.815          51.000
R11  21457358.547 8 114661570.149 8     -3287.703          51.000    21457362.641 7  89181248.930 7     -2557.102          44.000
R12  19161295.266 8 102356212.511 8       -40.379          51.000    19161298.391 8  79610390.166 8       -31.409          48.000
R22  19105588.828 8 101986900.307 8      -107.051          51.000    19105591.062 8  79323162.478 8       -83.262          48.000
R23  21992694.516 5 117646120.596 5      3933.312          35.000    21992701.391 4  91502533.167 4      3059.246          28.000
C11  23135477.375 8 120472582.356 8      2304.402          51.000    23135476.016 8  93157042.992 8      1781.983          51.000
C12  21601728.359 8 112485869.252 8      -665.500          51.000    21601727.625 8  86981207.707 8      -514.589          51.000
C24  23106099.023 8 120319557.018 8     -2329.152          51.000
C25  22091557.789 6 115036567.828 6       818.617          39.000
E13  23444707.344 8 123202770.012 8       330.645          51.000    23444709.125 8  94402145.427 8       253.375          51.000
E21  23434894.234 8 123151188.098 8       -35.207          51.000    23434896.555 8  94362630.387 8       -26.962          51.000
E26  24570256.039 8 129117662.410 8      2794.012          51.000    24570258.391 8  98934266.621 8      2140.797          50.000
E27  25662271.906 6 134856177.597 6     -2188.168          36.000    25662278.750 7 103331323.320 7     -1676.609          42.000
> 2020 05 05 11 58  0.0000000  0 17        .000000000000
G14  23914584.539 7 125671979.515 7     -2316.781          45.000    23914587.672 6  97926235.109 6     -1805.287          37.000
G18  22802499.641 7 119827998.014 7      3439.914          46.000    22802502.797 7  93372472.783 7      2680.453          45.000
G21  22612345.086 7 118828663.546 7      3053.508          46.000    22612339.477 6  92593737.939 6      2379.357          36.000
G25  21006560.016 8 110390244.410 8     -1820.344          48.000    21006562.125 8  86018339.539 8     -1418.450          48.000
G29  20225987.055 8 106288282.556 8      -316.590          51.000    20225985.602 8  82822033.237 8      -246.693          51.000
R11  21475861.625 8 114760446.141 8     -3302.652          49.000    21475865.422 7  89258152.350 7     -2568.736          43.000
R12  19161590.156 8 102357788.549 8       -63.332          51.000    19161593.492 8  79611615.957 8       -49.258          48.000
R22  19106269.781 8 101990536.691 8      -133.918          51.000    19106272.172 8  79325990.795 8      -104.158          48.000
R23  21970675.406 5 117528343.662 5      3920.055          32.000    21970686.852 4  91410928.876 4      3048.928          27.000
C11  23122241.281 8 120403657.251 8      2291.953          49.000    23122240.109 8  93103745.744 8      1772.220          51.000
C12  21605610.562 8 112506085.462 8      -680.930          51.000    21605609.711 8  86996840.156 8      -526.469          51.000
C24  23119558.180 8 120389641.110 8     -2341.848          51.000
C25  22086892.617 6 115012270.831 6       802.512          40.000
E13  23442869.781 8 123193113.291 8       314.492          51.000    23442871.328 8  94394746.132 8       240.960          51.000
E21  23435130.344 8 123152429.669 8       -46.148          51.000    23435132.664 8  94363581.727 8       -35.375          51.000
E26  24554335.875 8 129034000.275 8      2784.871          51.000    24554338.961 8  98870161.899 8      2133.895          50.000
E27  25674790.297 6 134921966.215 6     -2196.074          41.000    25674798.156 6 103381732.771 6     -1682.958          41.000
> 2020 05 05 11 58 30.0000000  0 16        .000000000000
G14  23927836.797 7 125741620.005 7     -2325.645          45.000    23927839.422 6  97980500.374 6     -1812.194          39.000
G18  22782883.625 7 119724914.597 7      3432.492          46.000    22782886.695 7  93292148.092 7      2674.672          44.000
G21  22594939.414 7 118737199.435 7      3044.141          45.000    22594935.156 6  92522467.276 6      2372.061          36.000
G25  21016982.594 8 110445016.302 8     -1830.734          48.000    21016984.922 8  86061018.941 8     -1426.546          48.000
G29  20227835.391 8 106297996.194 8      -330.938          51.000    20227834.023 8  82829602.322 8      -257.873          51.000
R11  21494438.594 7 114859720.939 7     -3315.555          46.000    21494442.539 7  89335365.988 7     -2578.765          44.000
R12  19162004.391 8 102360002.468 8       -84.145          51.000    19162007.859 8  79613337.864 8       -65.446          48.000
R22  19107092.062 8 101994926.624 8      -158.617          51.000    19107094.586 8  79329405.212 8      -123.369          48.000
C11  23109066.133 7 120335053.813 7      2281.656          47.000    23109065.906 8  93050697.219 8      1764.385          51.000
C12  21609571.094 8 112526709.084 8      -693.984          51.000    21609570.328 8  87012787.661 8      -536.726          51.000
C24  23133080.195 8 120460056.398 8     -2352.398          51.000
C25  22082311.094 6 114988406.377 6       788.641          41.000
E13  23441114.125 8 123183887.602 8       300.629          51.000    23441115.641 8  94387677.118 8       230.361          51.000
E21  23435419.258 8 123153948.136 8       -54.953          51.000    23435421.531 8  94364745.243 8       -42.167          51.000
E26  24538457.555 8 128950558.856 8      2777.922          51.000    24538461.164 8  98806226.300 8      2128.532          50.000
E27  25687346.461 7 134987942.054 7     -2202.172          45.000    25687353.227 6 103432285.629 6     -1687.378          40.000
> 2020 05 05 11 59  0.0000000  0 17        .000000000000
G14  23941140.648 7 125811531.247 7     -2334.176          45.000    23941142.680 6  98034976.620 6     -1818.841          36.000
G18  22763311.625 7 119622062.163 7      3425.121          47.000    22763314.125 7  93212003.364 7      2668.926          43.000
G21  22577587.352 7 118646018.968 7      3035.117          44.000    22577584.914 6  92451417.581 6      2365.023          40.000
G25  21027464.859 8 110500101.993 8     -1840.914          48.000    21027467.609 8  86103942.815 8     -1434.482          48.000
G29  20229765.797 8 106308141.410 8      -344.820          51.000    20229764.297 8  82837507.660 8      -268.694          51.000
R11  21513086.953 7 114959381.116 7     -3327.797          46.000    21513092.430 7  89412879.449 7     -2588.289          46.000
R12  19162536.352 8 102362843.883 8      -104.598          51.000    19162539.695 8  79615547.845 8       -81.354          48.000
R21  21875591.055 5 117060705.387 5     -3739.062          33.000
R22  19108052.805 8 102000056.825 8      -182.719          51.000    19108055.344 8  79333395.393 8      -142.115          48.000
C11  23095949.672 7 120266761.421 7      2271.730          46.000    23095951.102 8  92997889.185 8      1756.740          51.000
C12  21613607.414 8 112547727.563 8      -706.625          50.000    21613606.805 8  87029040.486 8      -546.371          51.000
C24  23146662.773 8 120530790.488 8     -2362.621          50.000
C25  22077810.586 6 114964964.316 6       774.879          41.000
E13  23439438.445 8 123175081.243 8       287.164          51.000    23439439.961 8  94380929.410 8       220.035          51.000
E21  23435758.812 8 123155732.733 8       -63.293          51.000    23435761.281 8  94366112.662 8       -48.479          51.000
E26  24522619.062 8 128867328.011 8      2771.457          51.000    24522622.859 8  98742452.056 8      2123.539          50.000
E27  25699936.234 7 135054093.377 7     -2207.336          46.000    25699939.555 6 103482972.983 6     -1691.440          36.000
> 2020 05 05 11 59 30.0000000  0 18        .000000000000
G12  23294820.531 4 122415100.169 4     -2948.836          28.000
G14  23954494.398 7 125881705.446 7     -2343.797          44.000    23954495.555 5  98089657.768 5     -1826.338          35.000
G18  22743783.211 8 119519438.712 8      3416.477          48.000    22743784.617 7  93132037.070 7      2662.193          42.000
G21  22560289.008 7 118555119.972 7      3024.996          45.000    22560288.789 7  92380587.216 7      2357.140          42.000
G25  21038006.016 8 110555496.174 8     -1851.988          50.000    21038008.422 8  86147107.075 8     -1443.108          50.000
G29  20231777.250 8 106318712.386 8      -359.809          51.000    20231775.750 8  82845744.780 8      -280.367          51.000
R11  21531806.703 7 115059420.044 7     -3341.375          46.000    21531813.789 7  89490687.496 7     -2598.847          47.000
R12  19163184.977 8 102366309.468 8      -126.355          51.000    19163188.438 8  79618243.273 8       -98.276          48.000
R22  19109151.133 8 102005921.209 8      -208.086          50.000    19109154.109 8  79337956.590 8      -161.845          49.000
R23  21905031.391 5 117177123.410 5      3885.473          30.000    21905022.789 5  91137744.911 5      3022.034          32.000
C11  23082892.594 7 120198776.089 7      2260.562          47.000    23082894.289 8  92945318.630 8      1748.047          49.000
C12  21617718.398 8 112569134.871 8      -720.535          50.000    21617717.695 8  87045593.975 8      -557.094          51.000
C24  23160305.938 8 120601837.486 8     -2373.867          50.000
C25  22073390.102 7 114941941.028 7       760.215          42.000
E13  23437841.617 8 123166689.172 8       272.395          51.000    23437843.023 8  94374499.136 8       208.721          51.000
E21  23436148.219 8 123157779.331 8       -73.016          51.000    23436150.891 8  94367680.835 8       -55.947          51.000
E26  24506819.672 8 128784304.329 8      2763.598          51.000    24506823.531 8  98678836.547 8      2117.559          50.000
E27  25712558.070 7 135120415.126 7     -2214.020          46.000    25712557.109 6 103533790.882 6     -1696.418          36.000
