     3.02           OBSERVATION DATA    M (MIXED)           RINEX VERSION / TYPE
SAVERINEX           SC600               20200513 115930 LCL PGM / RUN BY / DATE
       G = GPS       R = GLONASS       C = COMPASS          COMMENT
       S = SBAS      J = QZSS          E = GALILEO          COMMENT
BEAN                                                        MARKER NAME
1                                                           MARKER NUMBER
GEODETIC                                                    MARKER TYPE
Unige DICCA         GTER                                    OBSERVER / AGENCY
SC60291900056       SC600               2.12(191226)        REC # / TYPE / VERS
                    HEMA45          NONE                    ANT # / TYPE
  4509407.8091   693652.4678  4442337.6214                  APPROX POSITION XYZ
        0.0000        0.0000        0.0000                  ANTENNA: DELTA H/E/N
G    8 C1C L1C D1C S1C C2Y L2Y D2Y S2Y                      SYS / # / OBS TYPES
R    8 C1C L1C D1C S1C C2P L2P D2P S2P                      SYS / # / OBS TYPES
C    4 C1I L1I D1I S1I                                      SYS / # / OBS TYPES
E    8 C1C L1C D1C S1C C7Q L7Q D7Q S7Q                      SYS / # / OBS TYPES
DBHZ                                                        COMMENT
     30.000                                                 INTERVAL
  2020    05    13    09    00    0.0000000     GPS         TIME OF FIRST OBS
  2020    05    13    09    59   30.0000000     GPS         TIME OF LAST OBS
     0                                                      RCV CLOCK OFFS APPL
G L1C  0.00000                                              SYS / PHASE SHIFT
G L2Y  0.00000                                              SYS / PHASE SHIFT
R L1C  0.00000                                              SYS / PHASE SHIFT
R L2P  0.25000                                              SYS / PHASE SHIFT
C L1I  0.00000                                              SYS / PHASE SHIFT
E L1C  0.50000                                              SYS / PHASE SHIFT
E L7Q -0.25000                                              SYS / PHASE SHIFT
 13 R01  1 R06 -4 R07  5 R08  6 R09 -2 R10 -7 R11  0 R16 -1 GLONASS SLOT / FRQ #
    R18 -3 R19  3 R20  2 R21  4 R22 -3                      GLONASS SLOT / FRQ #
 C1C   71.950 C2C   71.950 C2P   71.950                     GLONASS COD/PHS/BIS
    18                                                      LEAP SECONDS
*** Above antenna height is from mark to ANTENNA BOTTOM.    COMMENT
    17     4        0.0000        ANT MEASURE TYPE/HEIGT    COMMENT
    0.0000    0.0000    0.0458    0.0405    0.0000          COMMENT
                    BASE STATION                            COMMENT
                                                            END OF HEADER
> 2020 05 13 09 00  0.0000000  0 12        .000000000000
G02  23403515.711 6 122986309.376 6      1592.973          36.000    23403508.570 4  95833453.138 4      1241.280          29.000
G12  20114764.195 8 105703799.291 8      -503.914          51.000    20114763.023 8  82366588.214 8      -392.660          51.000
G24  21212206.500 8 111470896.580 8     -2242.516          50.000    21212209.281 8  86860444.658 8     -1747.415          50.000
G25  20662590.641 5 108582623.560 5      1425.125          33.000    20662609.164 5  84609897.459 5      1110.487          32.000
G29  23290843.750 5 122394231.933 5      3636.379          30.000    23290839.500 4  95372085.995 4      2833.536          29.000
R01  23055782.328 6 123246362.278 6     -3701.293          40.000    23055786.219 6  95858287.690 6     -2878.786          38.000
R11  19694524.461 5 105241510.425 5       978.469          32.000    19694533.758 4  81854553.151 4       761.031          29.000
R21  20444720.102 8 109403792.675 8      2777.375          51.000    20444724.375 7  85091959.628 7      2160.184          47.000
C29  22569627.414 5 117525957.924 5      -598.824          33.000
E03  25940654.945 8 136319048.745 8     -2286.473          48.000    25940657.930 8 104452243.666 8     -1751.928          51.000
E11  24430204.352 7 128381602.868 7      2048.715          46.000    24430202.680 7  98370309.539 7      1569.830          46.000
E25  23564277.094 8 123831111.449 8       -54.359          51.000    23564280.047 8  94883588.507 8       -41.691          51.000
> 2020 05 13 09 00 30.0000000  0 14        .000000000000
G02  23394445.320 5 122938642.302 5      1585.016          32.000    23394438.500 5  95796309.959 5      1235.080          30.000
G12  20117661.961 8 105719027.178 8      -510.652          51.000    20117660.773 8  82378454.100 8      -397.911          51.000
G24  21225030.789 8 111538285.461 8     -2249.539          51.000    21225033.156 8  86912955.988 8     -1752.888          51.000
G25  20654468.945 5 108539942.541 5      1420.230          34.000    20654479.711 5  84576639.838 5      1106.679          31.000
G29  23270078.781 5 122285108.283 5      3635.707          34.000    23270086.734 5  95287104.338 5      2833.009          33.000
R01  23076561.789 7 123357446.947 7     -3703.711          42.000    23076567.797 6  95944686.814 6     -2880.667          38.000
R10  21220434.242 5 113116854.420 5     -2309.551          31.000
R11  19689051.609 5 105212315.315 5       972.820          34.000    19689053.133 4  81831813.677 4       756.641          29.000
R21  20429197.977 8 109320728.535 8      2760.824          51.000    20429201.242 7  85027354.216 7      2147.308          46.000
C29  22573099.891 6 117544090.614 6      -609.941          41.000
E03  25953717.664 8 136387690.821 8     -2289.262          48.000    25953720.297 8 104504839.527 8     -1754.101          51.000
E11  24418525.617 7 128320232.978 7      2043.352          46.000    24418524.242 7  98323285.869 7      1565.586          47.000
E24  24175400.125 5 127042577.346 5     -1946.047          34.000
E25  23564589.148 8 123832751.331 8       -54.344          51.000    23564592.102 8  94884846.033 8       -41.598          51.000
> 2020 05 13 09 01  0.0000000  0 11        .000000000000
G02  23385458.641 5 122891421.746 5      1565.758          32.000    23385453.758 5  95759518.807 5      1220.056          32.000
G12  20120638.180 8 105734667.618 8      -528.914          51.000    20120636.883 8  82390641.446 8      -412.141          51.000
G24  21237935.891 8 111606099.682 8     -2268.254          51.000    21237936.664 8  86965798.224 8     -1767.471          51.000
G29  23249369.500 5 122176291.671 5      3622.078          35.000    23249375.547 5  95202312.042 5      2822.389          34.000
R01  23097395.609 7 123468816.740 7     -3717.676          43.000    23097402.516 6  96031307.688 6     -2891.529          38.000
R11  19683648.844 5 105183452.177 5       955.562          33.000    19683651.719 5  81809359.933 5       743.215          31.000
R21  20413809.719 8 109238379.219 8      2732.258          51.000    20413811.977 7  84963304.779 7      2125.089          47.000
C29  22576682.039 6 117562778.589 6      -633.070          38.000
E03  25966837.570 8 136456633.469 8     -2303.742          49.000    25966840.469 8 104557665.671 8     -1765.268          51.000
E11  24406919.445 7 128259247.565 7      2025.387          44.000    24406919.805 7  98276556.798 7      1551.944          47.000
E25  23564941.688 8 123834604.906 8       -66.246          51.000    23564944.742 8  94886266.308 8       -50.739          51.000
> 2020 05 13 09 01 30.0000000  0 13        .000000000000
G02  23376546.141 5 122844589.309 5      1556.664          35.000    23376543.688 5  95723026.041 5      1212.985          32.000
G12  20123681.258 8 105750659.525 8      -536.594          51.000    20123680.109 8  82403102.665 8      -418.125          51.000
G24  21250909.492 8 111674275.005 8     -2276.195          51.000    21250909.148 8  87018921.820 8     -1773.659          51.000
G25  20638433.508 5 108455698.668 5      1395.723          30.000    20638437.719 4  84510979.836 4      1087.579          29.000
G29  23228699.555 5 122067676.906 5      3619.609          35.000    23228697.836 5  95117677.108 5      2820.472          34.000
G32  22222919.469 5 116782229.462 5       773.059          35.000
R01  23118270.602 6 123580405.202 6     -3720.672          40.000    23118277.656 6  96118098.646 6     -2893.856          38.000
R11  19678308.922 5 105154908.685 5       948.934          31.000    19678309.766 5  81787159.956 5       738.059          32.000
R21  20398544.148 8 109156686.623 8      2714.484          51.000    20398545.891 7  84899766.127 7      2111.269          47.000
C29  22580367.328 7 117581961.470 7      -645.418          46.000
E03  25980002.633 8 136525814.350 8     -2307.543          48.000    25980006.141 8 104610674.363 8     -1768.144          51.000
E11  24395375.336 7 128198587.762 7      2018.891          43.000    24395377.461 8  98230077.177 8      1547.140          48.000
E25  23565323.477 8 123836611.765 8       -66.977          51.000    23565326.398 8  94887804.028 8       -51.356          51.000
> 2020 05 13 09 02  0.0000000  0 11        .000000000000
G12  20126766.773 8 105766874.101 8      -547.191          51.000    20126765.797 8  82415737.405 8      -426.383          51.000
G24  21263927.203 8 111742682.765 8     -2287.211          51.000    21263926.164 8  87072226.533 8     -1782.245          51.000
G29  23208043.898 6 121959138.023 6      3613.543          36.000    23208038.750 6  95033101.415 6      2815.748          36.000
G32  22218550.688 6 116759278.897 6       753.977          36.000    22218568.312 5  90981316.754 5       587.517          35.000
R01  23139160.172 6 123692077.670 6     -3726.824          40.000    23139168.719 6  96204954.985 6     -2898.641          37.000
R11  19673001.359 5 105126554.803 5       939.242          32.000    19673002.734 5  81765103.572 5       730.522          31.000
R21  20383377.438 8 109075523.962 8      2693.523          51.000    20383378.578 7  84836639.656 7      2094.966          46.000
C29  22584121.406 7 117601511.506 7      -660.758          47.000
E03  25993187.875 7 136595103.530 7     -2314.516          47.000    25993191.922 8 104663766.056 8     -1773.499          51.000
E11  24383869.680 7 128138127.216 7      2008.812          46.000    24383872.969 8  98183750.309 8      1539.172          48.000
E25  23565710.188 8 123838643.904 8       -71.266          51.000    23565712.789 8  94889361.119 8       -54.615          51.000
> 2020 05 13 09 02 30.0000000  0 12        .000000000000
G12  20129981.039 8 105783765.166 8      -561.895          51.000    20129979.906 8  82428899.274 8      -437.840          51.000
G24  21277075.289 8 111811776.169 8     -2302.109          51.000    21277074.422 8  87126065.489 8     -1793.851          51.000
G25  20622659.109 5 108372804.429 5      1371.695          30.000
G29  23187489.484 5 121851132.043 5      3603.953          34.000    23187482.836 5  94948940.994 5      2808.281          35.000
G32  22214356.281 5 116737229.166 5       731.461          30.000
R01  23160151.656 6 123804292.092 6     -3736.969          41.000    23160161.859 6  96292232.826 6     -2906.534          38.000
R11  19667814.312 5 105098842.073 5       924.457          31.000    19667822.680 5  81743565.106 5       719.016          32.000
R21  20368396.242 8 108995357.362 8      2668.262          50.000    20368397.359 7  84774287.872 7      2075.315          46.000
C29  22588032.531 8 117621878.157 8      -680.160          48.000
E03  26006479.148 7 136664953.710 7     -2325.148          45.000    26006483.898 8 104717287.595 8     -1781.556          50.000
E11  24372489.906 8 128078322.080 8      1995.070          48.000    24372492.672 7  98137925.610 7      1528.723          47.000
E25  23566188.266 8 123841155.967 8       -79.262          51.000    23566190.453 8  94891285.943 8       -60.721          51.000
> 2020 05 13 09 03  0.0000000  0 14        .000000000000
G12  20133217.266 8 105800771.479 8      -574.164          51.000    20133215.922 8  82442150.939 8      -447.401          51.000
G19  23999365.094 4 126117514.198 4     -3514.707          29.000
G24  21290247.062 8 111880994.685 8     -2314.754          51.000    21290246.695 8  87180001.939 8     -1803.704          51.000
G25  20614854.398 5 108331777.952 5      1361.359          33.000    20614852.773 5  84414378.142 5      1060.800          34.000
G29  23166928.836 6 121743101.144 6      3595.789          37.000    23166922.406 6  94864761.148 6      2801.917          36.000
G32  22210232.508 5 116715559.396 5       712.094          30.000
R01  23181138.516 7 123916474.466 7     -3744.414          42.000    23181149.078 6  96379485.738 6     -2912.322          37.000
R10  21286177.977 5 113467326.345 5     -2357.941          33.000
R11  19662649.961 4 105071240.070 4       912.309          28.000    19662655.805 5  81722096.880 5       709.570          31.000
R21  20353494.750 8 108915620.436 8      2645.227          48.000    20353496.820 7  84712270.283 7      2057.398          46.000
C29  22591994.188 8 117642505.852 8      -697.219          49.000
E03  26019770.305 7 136734803.206 7     -2333.762          46.000    26019775.734 8 104770808.606 8     -1788.225          49.000
E11  24361128.719 8 128018614.200 8      1983.191          48.000    24361130.484 7  98092175.458 7      1519.489          46.000
E25  23566651.086 8 123843588.125 8       -85.215          51.000    23566652.930 8  94893149.538 8       -65.280          51.000
> 2020 05 13 09 03 30.0000000  0 13        .000000000000
G02  23341650.727 5 122661216.845 5      1502.617          35.000
G12  20136527.164 8 105818164.830 8      -585.230          51.000    20136525.977 8  82455704.189 8      -456.024          51.000
G24  21303494.023 8 111950608.995 8     -2326.074          51.000    21303494.141 8  87234246.821 8     -1812.525          50.000
G25  20607115.477 5 108291117.182 5      1350.340          34.000    20607117.727 5  84382694.459 5      1052.210          33.000
G29  23146415.156 6 121635319.943 6      3589.512          36.000    23146412.234 5  94780775.823 5      2797.019          35.000
R01  23202170.914 6 124028897.157 6     -3750.426          40.000    23202181.219 6  96466925.588 6     -2916.998          36.000
R10  21299469.812 5 113538164.336 5     -2366.844          32.000
R11  19657556.734 5 105044029.891 5       902.508          34.000    19657553.172 4  81700887.435 4       701.951          27.000
R21  20338725.195 8 108836593.331 8      2623.316          48.000    20338729.102 7  84650804.763 7      2040.357          47.000
C29  22596057.547 8 117663663.252 8      -713.039          48.000
E03  26033113.695 8 136804922.132 8     -2340.828          48.000    26033119.125 8 104824536.061 8     -1793.660          50.000
E11  24349837.836 8 127959277.226 8      1972.578          49.000    24349838.008 7  98046709.498 7      1511.429          45.000
E25  23567150.461 8 123846212.569 8       -89.727          51.000    23567152.227 8  94895160.474 8       -68.784          51.000
> 2020 05 13 09 04  0.0000000  0 13        .000000000000
G02  23333115.430 5 122616352.896 5      1489.324          35.000
G12  20139901.836 8 105835898.669 8      -596.320          51.000    20139900.867 8  82469522.757 8      -464.665          51.000
G24  21316807.469 8 112020572.982 8     -2337.418          50.000    21316808.352 8  87288764.196 8     -1821.365          50.000
G25  20599439.500 5 108250776.327 5      1339.367          33.000    20599440.438 5  84351260.035 5      1043.666          33.000
G29  23125941.445 5 121527744.892 5      3583.551          35.000    23125942.172 5  94696951.144 5      2792.374          34.000
R01  23223237.625 6 124141508.723 6     -3756.406          39.000    23223248.258 5  96554512.373 5     -2921.646          34.000
R10  21312811.875 5 113609286.229 5     -2373.258          31.000
R11  19652523.820 5 105017139.213 5       892.168          34.000    19652523.812 5  81679983.358 5       693.905          30.000
R21  20324081.625 8 108758233.253 8      2601.367          50.000    20324086.094 7  84589858.023 7      2023.286          47.000
C29  22600214.008 8 117685304.255 8      -728.906          48.000
E03  26046499.930 8 136875263.001 8     -2347.785          50.000    26046505.164 8 104878433.571 8     -1798.925          50.000
E11  24338609.133 8 127900267.212 8      1962.148          48.000    24338608.000 7  98001494.074 7      1503.566          45.000
E25  23567677.719 8 123848983.627 8       -94.172          51.000    23567679.688 8  94897283.739 8       -72.158          51.000
> 2020 05 13 09 04 30.0000000  0 13        .000000000000
G02  23324669.695 5 122571965.874 5      1474.762          31.000
G12  20143359.430 8 105854068.341 8      -610.078          51.000    20143358.359 8  82483680.929 8      -475.386          51.000
G24  21330205.539 8 112090981.107 8     -2351.520          51.000    21330207.234 8  87343627.670 8     -1832.356          51.000
G25  20591841.852 5 108210851.680 5      1326.301          34.000    20591840.945 5  84320149.925 5      1033.478          34.000
G29  23105526.922 4 121420362.548 4      3573.336          29.000    23105529.164 4  94613363.921 4      2784.427          26.000
R01  23244356.367 6 124254402.860 6     -3764.922          39.000    23244367.812 5  96642318.888 5     -2928.276          31.000
R11  19647572.367 6 104990655.140 6       878.191          36.000    19647568.617 5  81659387.250 5       683.038          31.000
R21  20309582.406 8 108680641.391 8      2576.359          51.000    20309586.531 7  84529508.810 7      2003.838          47.000
C29  22604481.086 7 117707523.227 7      -747.562          46.000
E03  26059946.133 8 136945920.042 8     -2357.664          49.000    26059951.570 8 104932573.344 8     -1806.549          49.000
E11  24327460.828 7 127841681.882 7      1948.324          47.000    24327458.992 7  97956604.077 7      1492.881          45.000
E24  24264938.984 5 127513115.432 5     -1971.387          33.000
E25  23568251.203 8 123851997.652 8      -101.754          51.000    23568253.508 8  94899593.180 8       -77.991          51.000
> 2020 05 13 09 05  0.0000000  0 10        .000000000000
G12  20146880.977 8 105872574.103 8      -623.715          51.000    20146879.633 8  82498100.985 8      -486.012          51.000
G24  21343669.266 8 112161733.622 8     -2365.555          51.000    21343671.742 8  87398759.498 8     -1843.289          51.000
G25  20584304.414 5 108171244.729 5      1313.262          32.000    20584304.852 5  84289287.302 5      1023.318          30.000
R01  23265508.945 6 124367474.233 6     -3773.168          40.000    23265518.602 4  96730263.223 4     -2934.689          26.000
R11  19642672.164 5 104964501.274 5       864.836          35.000    19642675.891 5  81639058.298 5       672.650          33.000
R21  20295208.453 8 108603720.365 8      2551.555          51.000    20295211.984 7  84469681.374 7      1984.546          46.000
C29  22608840.680 7 117730221.254 7      -765.871          47.000
E03  26073432.570 8 137016792.527 8     -2367.332          48.000    26073438.703 8 104986878.202 8     -1814.037          49.000
E11  24316374.656 7 127783423.990 7      1935.293          47.000    24316373.023 7  97911964.963 7      1482.857          46.000
E25  23568852.133 8 123855155.787 8      -109.000          51.000    23568854.680 8  94902013.040 8       -83.528          51.000
> 2020 05 13 09 05 30.0000000  0 12        .000000000000
G12  20150449.094 8 105891324.811 8      -632.699          51.000    20150447.711 8  82512711.926 8      -493.012          51.000
G24  21357181.117 8 112232738.665 8     -2374.570          50.000    21357184.148 8  87454088.089 8     -1850.315          50.000
G25  20576810.266 5 108131867.376 5      1305.746          31.000    20576812.922 5  84258607.152 5      1017.464          31.000
R01  23286677.562 6 124480626.389 6     -3776.832          40.000
R10  21353167.953 5 113824381.002 5     -2402.395          30.000
R11  19637820.938 5 104938560.702 5       856.758          34.000    19637826.641 5  81618892.810 5       666.367          34.000
R21  20280943.258 8 108527381.450 8      2531.234          51.000    20280945.852 7  84410306.713 7      1968.738          45.000
C29  22613274.383 7 117753307.652 7      -779.602          45.000
E03  26086941.953 7 137087787.946 7     -2372.129          47.000    26086948.250 8 105041277.264 8     -1817.647          48.000
E11  24305334.141 7 127725404.565 7      1926.129          47.000    24305332.383 7  97867508.533 7      1475.910          46.000
E24  24287466.438 5 127631496.242 5     -1975.680          33.000
E25  23569463.320 8 123858367.545 8      -111.648          51.000    23569465.969 8  94904473.992 8       -85.573          51.000
> 2020 05 13 09 06  0.0000000  0 12        .000000000000
G02  23299727.875 5 122440905.292 5      1434.812          33.000
G12  20154051.688 8 105910256.515 8      -642.504          51.000    20154050.453 8  82527463.901 8      -500.652          51.000
G24  21370728.852 8 112303932.446 8     -2384.664          49.000    21370732.227 8  87509563.753 8     -1858.180          49.000
G25  20569348.453 5 108092652.569 5      1296.082          32.000    20569351.867 5  84228049.326 5      1009.937          33.000
G29  23044469.312 6 121099498.390 6      3553.266          36.000    23044482.734 6  94363288.447 6      2768.775          36.000
G32  22187843.070 5 116597876.526 5       595.445          35.000    22187845.672 5  90855514.576 5       463.996          34.000
R01  23307848.625 6 124593790.850 6     -3780.973          41.000
R21  20266775.266 8 108451563.676 8      2509.938          51.000    20266776.852 7  84351337.402 7      1952.174          44.000
C29  22617770.180 7 117776719.184 7      -794.098          43.000
E03  26100462.898 8 137158841.607 8     -2377.770          49.000    26100468.289 7 105095720.980 7     -1821.867          47.000
E11  24294327.078 7 127667562.363 7      1916.688          46.000    24294325.648 7  97823187.905 7      1468.780          46.000
E25  23570072.781 8 123861570.256 8      -114.949          51.000    23570075.562 8  94906928.003 8       -88.081          51.000
> 2020 05 13 09 06 30.0000000  0 14        .000000000000
G02  23291618.023 5 122398303.875 5      1419.164          35.000
G12  20157800.359 8 105929955.862 8      -655.746          51.000    20157799.211 8  82542814.036 8      -510.971          51.000
G24  21384424.031 8 112375901.758 8     -2398.254          49.000    21384427.891 8  87565643.738 8     -1868.769          49.000
G25  20562029.312 5 108054189.522 5      1283.152          35.000    20562033.516 6  84198078.167 6       999.862          36.000
G29  23024253.672 6 120993263.822 6      3544.355          40.000    23024264.906 6  94280508.294 6      2761.835          41.000
G32  22184541.875 6 116580548.364 6       574.621          38.000    22184546.844 5  90842011.977 5       447.732          30.000
R01  23329132.820 6 124707560.419 6     -3788.422          39.000
R11  19628328.688 6 104887851.809 6       833.730          36.000    19628329.938 5  81579439.525 5       648.454          34.000
R21  20252816.812 8 108376868.795 8      2484.949          51.000    20252817.828 7  84293241.459 7      1932.738          46.000
C29  22622440.312 6 117801037.038 6      -812.223          41.000
E03  26114107.078 8 137230539.047 8     -2387.039          51.000    26114111.266 7 105150657.982 7     -1829.036          47.000
E11  24283465.867 8 127610486.535 8      1903.352          48.000    24283464.750 7  97779454.498 7      1458.293          46.000
E24  24310052.305 5 127750174.397 5     -1980.398          35.000
E25  23570792.352 8 123865351.433 8      -122.082          51.000    23570795.258 8  94909825.261 8       -93.546          51.000
> 2020 05 13 09 07  0.0000000  0 13        .000000000000
G02  23283554.953 5 122355928.903 5      1404.824          32.000
G12  20161579.305 8 105949814.243 8      -668.527          51.000    20161578.047 8  82558288.093 8      -520.930          51.000
G24  21398150.688 8 112448037.294 8     -2411.121          48.000    21398155.133 8  87621853.244 8     -1878.796          48.000
G25  20554737.930 6 108015870.989 6      1271.441          36.000    20554739.688 5  84168219.594 5       990.727          35.000
G29  23004046.836 7 120887072.373 7      3535.012          42.000    23004054.695 6  94197761.702 6      2754.555          41.000
G32  22181319.156 6 116563621.685 6       553.484          36.000    22181314.422 5  90828776.903 5       431.287          30.000
R01  23350414.094 6 124821312.442 6     -3795.129          38.000    23350409.641 4  97083245.073 4     -2951.767          26.000
R11  19623681.180 6 104863031.950 6       821.055          37.000    19623682.469 5  81560127.446 5       638.598          33.000
R21  20238952.711 8 108302680.800 8      2460.445          50.000    20238953.914 7  84235539.725 7      1913.683          47.000
C29  22627168.469 6 117825657.735 6      -829.836          40.000
E03  26127758.000 8 137302270.494 8     -2395.488          51.000    26127761.133 7 105205621.007 7     -1835.528          47.000
E11  24272635.008 7 127553570.532 7      1890.512          47.000    24272634.211 7  97735843.530 7      1448.673          45.000
E25  23571506.273 8 123869103.188 8      -128.492          51.000    23571509.203 8  94912699.966 8       -98.425          51.000
> 2020 05 13 09 07 30.0000000  0 13        .000000000000
G12  20165419.328 8 105969994.177 8      -679.805          51.000    20165417.969 8  82574012.719 8      -529.715          51.000
G24  21411939.797 8 112520501.003 8     -2422.648          48.000    21411944.555 8  87678318.448 8     -1887.781          48.000
G25  20547504.914 6 107977860.620 6      1260.164          36.000    20547503.844 6  84138601.204 6       981.952          36.000
G29  22983879.531 7 120781089.823 7      3527.504          42.000    22983884.969 7  94115177.883 7      2748.704          42.000
G32  22178203.961 5 116547260.365 5       534.219          35.000    22178205.203 5  90816032.760 5       416.274          33.000
R01  23371722.789 6 124935208.762 6     -3800.336          37.000    23371725.414 4  97171843.975 4     -2955.820          28.000
R10  21407636.273 5 114114742.596 5     -2437.047          30.000
R11  19619094.281 5 104838496.895 5       810.160          33.000    19619093.242 5  81541039.138 5       630.125          32.000
R21  20225214.281 8 108229169.556 8      2437.328          48.000    20225216.844 8  84178364.348 8      1895.700          48.000
C29  22631985.438 5 117850742.245 5      -845.512          35.000
E03  26141445.922 8 137374197.353 8     -2402.605          51.000    26141448.227 7 105260733.730 7     -1840.999          47.000
E11  24261865.547 7 127496979.388 7      1879.242          46.000    24261865.180 7  97692481.524 7      1439.915          44.000
E25  23572245.719 8 123872989.053 8      -133.473          51.000    23572248.516 8  94915677.447 8      -102.328          51.000
> 2020 05 13 09 08  0.0000000  0 12        .000000000000
G12  20169340.180 8 105990598.766 8      -691.738          51.000    20169338.875 8  82590068.241 8      -539.017          51.000
G24  21425811.258 8 112593396.055 8     -2434.914          50.000    21425815.719 8  87735119.771 8     -1897.339          50.000
G25  20540349.250 5 107940264.479 5      1247.508          31.000    20540349.625 5  84109303.871 5       972.078          32.000
G29  22963771.734 7 120675422.147 7      3519.004          43.000    22963775.461 7  94032839.452 7      2742.081          43.000
G32  22175216.047 6 116531568.683 6       514.113          36.000    22175217.055 4  90803807.551 4       400.617          28.000
R01  23393077.422 6 125049350.684 6     -3806.773          36.000    23393082.688 5  97260620.948 5     -2960.824          30.000
R11  19614588.898 5 104814422.704 5       797.812          34.000    19614587.898 5  81522322.347 5       620.521          32.000
R21  20211622.711 8 108156443.831 8      2413.164          48.000    20211626.609 8  84121799.893 8      1876.905          48.000
C29  22636911.344 6 117876392.314 6      -862.570          38.000
E03  26155190.125 8 137446421.549 8     -2410.277          51.000    26155191.656 7 105316074.285 7     -1846.872          46.000
E11  24251178.117 7 127440818.550 7      1866.719          47.000    24251177.781 7  97649449.239 7      1430.445          43.000
E25  23573030.477 8 123877113.042 8      -139.379          51.000    23573033.141 8  94918837.383 8      -106.815          51.000
> 2020 05 13 09 08 30.0000000  0 11        .000000000000
G12  20173338.266 8 106011608.567 8      -703.461          51.000    20173337.117 8  82606439.515 8      -548.151          51.000
G24  21439761.117 8 112666702.091 8     -2446.750          51.000    21439764.641 8  87792241.330 8     -1906.558          51.000
G25  20533268.586 5 107903055.000 5      1236.711          33.000    20533271.234 5  84080308.322 5       963.671          32.000
G29  22943720.914 7 120570052.992 7      3510.797          45.000    22943722.812 7  93950733.619 7      2735.686          45.000
R01  23414473.094 5 125163714.425 5     -3811.996          35.000    23414479.320 5  97349570.462 5     -2964.889          30.000
R11  19610157.805 6 104790746.511 6       785.637          36.000    19610157.109 5  81503909.518 5       611.051          32.000
R21  20198175.438 7 108084487.801 7      2389.293          47.000    20198180.367 8  84065834.069 8      1858.339          48.000
C29  22641943.000 6 117902588.643 6      -878.715          37.000
E03  26168986.477 8 137518922.485 8     -2417.797          50.000    26168987.781 7 105371626.896 7     -1852.556          46.000
E11  24240569.836 8 127385070.963 8      1854.992          48.000    24240568.953 7  97606733.571 7      1421.471          43.000
E25  23573856.992 8 123881456.465 8      -144.746          51.000    23573859.656 8  94922165.458 8      -110.972          51.000
> 2020 05 13 09 09  0.0000000  0 11        .000000000000
G12  20177382.695 8 106032862.071 8      -714.715          51.000    20177381.734 8  82623000.682 8      -556.921          51.000
G24  21453758.922 8 112740258.511 8     -2458.234          51.000    21453761.211 8  87849557.977 8     -1915.507          51.000
G25  20526233.336 6 107866084.011 6      1226.305          38.000    20526236.539 6  84051499.721 6       955.562          38.000
G29  22923697.117 7 120464824.353 7      3503.281          45.000    22923697.305 7  93868737.285 7      2729.830          46.000
R01  23435877.859 4 125278132.515 4     -3817.855          28.000    23435884.562 4  97438562.253 4     -2969.446          29.000
R11  19605776.109 6 104767321.534 6       774.371          38.000    19605772.750 5  81485690.029 5       602.289          32.000
R21  20184842.750 8 108013141.309 8      2365.680          48.000    20184847.820 7  84010342.376 7      1839.973          47.000
C29  22647047.258 6 117929171.051 6      -894.512          39.000
E03  26182804.227 8 137591537.966 8     -2424.656          50.000    26182805.883 7 105427267.275 7     -1857.788          47.000
E11  24230009.719 7 127329577.763 7      1843.059          46.000    24230008.977 7  97564212.833 7      1412.414          44.000
E25  23574694.797 8 123885859.199 8      -150.012          51.000    23574697.508 8  94925538.980 8      -114.968          51.000
> 2020 05 13 09 09 30.0000000  0 10        .000000000000
G12  20181500.789 8 106054503.020 8      -725.969          51.000    20181499.867 8  82639863.754 8      -565.690          51.000
G24  21467831.516 8 112814207.688 8     -2469.621          51.000    21467832.688 8  87907180.670 8     -1924.380          51.000
G25  20519270.156 6 107829490.926 6      1215.484          37.000    20519272.312 6  84022985.621 6       947.131          37.000
G29  22903728.156 7 120359882.380 7      3495.324          44.000    22903726.969 7  93786964.339 7      2723.629          44.000
R11  19601465.844 6 104744289.446 6       763.438          39.000    19601463.422 5  81467775.629 5       593.779          33.000
R21  20171652.297 8 107942554.097 8      2342.223          49.000    20171657.062 7  83955441.227 7      1821.732          47.000
C29  22652254.492 6 117956281.565 6      -910.648          40.000
E03  26196671.000 8 137664410.099 8     -2431.332          51.000    26196673.195 8 105483104.323 8     -1863.008          48.000
E11  24219525.500 7 127274484.492 7      1831.770          46.000    24219524.961 7  97521998.545 7      1403.444          44.000
E25  23575571.219 8 123890465.402 8      -155.031          51.000    23575573.992 8  94929068.400 8      -118.754          51.000
> 2020 05 13 09 10  0.0000000  0 11        .000000000000
G12  20185680.805 8 106076469.204 8      -737.113          51.000    20185679.750 8  82656980.249 8      -574.374          51.000
G24  21481966.844 8 112888487.129 8     -2480.996          51.000    21481967.688 8  87965060.696 8     -1933.244          51.000
G25  20512367.492 6 107793214.733 6      1204.523          40.000    20512368.766 6  83994718.524 6       938.593          39.000
G29  22883803.047 7 120255168.367 7      3487.195          42.000    22883800.586 7  93705369.040 7      2717.298          43.000
R10  21476877.852 5 114483845.514 5     -2481.816          33.000
R11  19597217.156 6 104721591.604 6       751.270          38.000    19597219.227 5  81450121.717 5       584.321          34.000
R21  20158593.148 8 107872667.026 8      2318.277          50.000    20158597.281 7  83901084.630 7      1803.108          47.000
C29  22657549.844 6 117983858.255 6      -926.434          39.000
E03  26210574.789 8 137737475.966 8     -2438.246          51.000    26210577.680 8 105539089.820 8     -1868.278          48.000
E11  24209106.445 7 127219731.733 7      1819.926          47.000    24209105.742 7  97480045.139 7      1394.366          45.000
E25  23576474.758 8 123895214.071 8      -160.172          51.000    23576477.594 8  94932706.987 8      -122.690          51.000
> 2020 05 13 09 10 30.0000000  0 10        .000000000000
G12  20189922.797 8 106098760.906 8      -749.109          51.000    20189921.516 8  82674350.402 8      -583.722          51.000
G24  21496165.047 8 112963097.094 8     -2493.125          51.000    21496165.719 8  88023198.271 8     -1942.698          51.000
G25  20505525.219 6 107757256.922 6      1192.648          38.000    20505525.508 6  83966699.490 6       929.333          36.000
G29  22863922.742 6 120150685.476 6      3478.430          37.000    22863918.422 6  93623953.872 6      2710.468          36.000
R11  19593032.133 6 104699230.320 6       738.934          38.000    19593035.703 5  81432729.618 5       574.726          33.000
R21  20145665.234 8 107803484.311 8      2293.711          51.000    20145668.820 8  83847275.879 8      1783.997          48.000
C29  22662935.461 7 118011901.395 7      -943.156          42.000
E03  26224515.023 8 137810734.714 8     -2445.691          50.000    26224518.883 8 105595223.117 8     -1873.989          49.000
E11  24198753.234 7 127165322.014 7      1807.383          47.000    24198752.516 7  97438354.581 7      1384.872          46.000
E25  23577405.781 8 123900106.563 8      -166.070          51.000    23577408.648 8  94936455.783 8      -127.243          51.000
> 2020 05 13 09 11  0.0000000  0 10        .000000000000
G12  20194237.969 8 106121437.248 8      -759.570          51.000    20194236.633 8  82692020.271 8      -591.873          51.000
G24  21510437.305 8 113038096.827 8     -2503.766          51.000    21510437.516 8  88081639.591 8     -1950.986          51.000
G25  20498753.812 5 107721677.651 5      1181.977          34.000    20498752.641 5  83938975.396 5       921.027          33.000
G32  22159665.969 5 116449830.101 5       396.070          33.000
R11  19588922.023 6 104677268.131 6       728.430          38.000    19588926.195 5  81415647.939 5       566.553          32.000
R21  20132880.484 8 107735070.442 8      2270.438          51.000    20132883.836 8  83794065.106 8      1765.896          48.000
C29  22668421.555 7 118040469.403 7      -958.258          42.000
E03  26238503.070 8 137884244.611 8     -2451.777          49.000    26238507.969 8 105651548.855 8     -1878.545          49.000
E11  24188476.820 7 127111317.113 7      1796.281          47.000    24188476.250 7  97396974.236 7      1376.279          47.000
E25  23578375.688 8 123905203.123 8      -170.535          51.000    23578378.500 8  94940360.936 8      -130.682          51.000
> 2020 05 13 09 11 30.0000000  0 11        .000000000000
G12  20198569.523 8 106144199.642 8      -772.285          51.000    20198568.312 8  82709757.190 8      -601.781          51.000
G24  21524726.180 8 113113186.308 8     -2516.500          50.000    21524726.219 8  88140150.856 8     -1960.909          50.000
G25  20491998.008 6 107686178.701 6      1169.797          36.000    20491996.961 5  83911313.901 5       911.530          35.000
G29  22824261.023 6 119942294.823 6      3461.055          40.000    22824256.758 6  93461534.122 6      2696.929          40.000
G32  22157422.766 5 116438030.614 5       374.980          35.000    22157423.258 5  90730928.042 5       292.190          34.000
R11  19584830.055 5 104655402.582 5       714.812          34.000    19584832.617 5  81398641.440 5       555.965          30.000
R21  20120183.320 8 107667124.002 8      2244.723          51.000    20120186.172 8  83741217.875 8      1745.895          48.000
C29  22673951.422 7 118069265.129 7      -975.656          42.000
E03  26252481.758 8 137957705.029 8     -2459.926          48.000    26252487.031 8 105707836.688 8     -1884.866          48.000
E11  24178220.359 7 127057419.812 7      1782.492          46.000    24178220.305 7  97355676.355 7      1365.875          47.000
E25  23579327.664 8 123910205.222 8      -177.301          51.000    23579330.242 8  94944193.709 8      -135.851          51.000
> 2020 05 13 09 12  0.0000000  0 11        .000000000000
G12  20203040.734 8 106167695.945 8      -794.852          51.000    20203039.742 8  82728065.991 8      -619.365          51.000
G24  21539154.906 8 113189013.489 8     -2539.254          48.000    21539155.625 8  88199236.960 8     -1978.639          48.000
G25  20485382.258 6 107651409.546 6      1147.660          38.000    20485379.250 5  83884220.947 5       894.272          32.000
G29  22804559.125 7 119838751.777 7      3441.152          44.000    22804551.672 7  93380851.373 7      2681.423          43.000
R10  21533139.234 5 114783800.940 5     -2528.520          35.000
R11  19580880.078 6 104634295.572 6       691.238          37.000    19580880.844 5  81382224.862 5       537.633          30.000
R21  20107697.461 8 107600309.380 8      2208.848          51.000    20107700.156 8  83689250.995 8      1717.996          48.000
C29  22679648.836 7 118098931.183 7     -1002.777          43.000
E03  26266574.078 7 138031763.531 7     -2478.094          46.000    26266578.609 7 105764582.801 7     -1898.781          47.000
E11  24168108.438 7 127004281.106 7      1759.367          47.000    24168108.258 7  97314959.692 7      1348.030          47.000
E25  23580385.297 8 123915762.404 8      -193.848          51.000    23580387.586 8  94948451.810 8      -148.566          51.000
> 2020 05 13 09 12 30.0000000  0 11        .000000000000
G12  20207510.391 8 106191183.796 8      -786.773          51.000    20207509.391 8  82746368.204 8      -613.070          51.000
G24  21553582.367 7 113264835.575 7     -2531.289          47.000    21553584.203 7  88258319.098 7     -1972.433          46.000
G25  20478764.352 6 107616628.512 6      1155.547          39.000    20478763.719 6  83857118.816 6       900.429          38.000
G29  22784839.406 7 119735118.134 7      3451.926          47.000    22784833.117 7  93300097.978 7      2689.815          46.000
R11  19576932.008 6 104613193.689 6       699.383          39.000    19576931.492 5  81365812.244 5       543.967          32.000
R21  20095282.414 8 107533873.959 8      2204.105          51.000    20095284.555 7  83637579.017 7      1714.304          46.000
C29  22685371.703 6 118128731.161 6      -999.641          41.000
E03  26280638.820 7 138105676.215 7     -2465.344          47.000    26280641.867 7 105821217.174 7     -1888.958          47.000
E11  24157999.719 7 126951160.637 7      1766.051          46.000    24157999.570 8  97274256.981 8      1353.339          48.000
E24  24446843.008 6 128469016.396 6     -2004.316          36.000
E25  23581407.305 8 123921132.973 8      -180.008          51.000    23581409.516 8  94952566.921 8      -137.925          51.000
> 2020 05 13 09 13  0.0000000  0 10        .000000000000
G12  20212102.242 8 106215313.461 8      -824.668          51.000    20212100.820 8  82765170.529 8      -642.598          51.000
G24  21568133.000 8 113341301.861 8     -2569.355          48.000    21568135.508 8  88317903.222 8     -2002.095          48.000
G25  20472267.805 6 107582487.044 6      1117.562          36.000    20472271.055 6  83830515.069 6       870.831          36.000
G29  22765226.344 7 119632047.002 7      3416.773          47.000    22765220.836 7  93219782.865 7      2662.421          47.000
R11  19573108.344 6 104592760.402 6       660.176          38.000    19573108.125 5  81349919.722 5       513.473          33.000
R21  20083062.125 8 107468483.804 8      2152.457          49.000    20083064.562 7  83586720.027 7      1674.133          46.000
C29  22691243.727 6 118159309.103 6     -1041.523          41.000
E03  26294799.969 8 138180092.403 8     -2498.598          48.000    26294802.156 7 105878237.364 7     -1914.519          47.000
E11  24148018.156 7 126898710.856 7      1727.465          44.000    24148018.891 8  97234068.255 8      1323.639          48.000
E25  23582517.648 8 123926968.223 8      -211.969          51.000    23582520.000 8  94957038.092 8      -162.394          51.000
> 2020 05 13 09 13 30.0000000  0 10        .000000000000
G12  20216760.719 8 106239793.261 8      -815.051          51.000    20216758.805 8  82784245.694 8      -635.105          51.000
G24  21582751.477 8 113418121.727 8     -2559.770          48.000    21582753.984 8  88377762.826 8     -1994.626          49.000
G25  20465836.711 5 107548694.505 5      1127.965          30.000    20465837.992 4  83804183.295 4       878.940          25.000
G29  22745664.719 7 119529250.048 7      3428.605          45.000    22745660.117 7  93139681.393 7      2671.641          45.000
R11  19569353.906 6 104572701.476 6       668.953          36.000    19569355.133 5  81334318.336 5       520.294          34.000
R21  20070982.320 8 107403845.783 8      2148.918          49.000    20070985.586 7  83536446.043 7      1671.381          46.000
C29  22697209.898 6 118190375.827 6     -1036.844          39.000
E03  26309001.570 8 138254719.380 8     -2484.324          49.000    26309004.031 8 105935419.028 8     -1903.552          49.000
E11  24138109.836 7 126846642.705 7      1736.062          47.000    24138110.891 8  97194171.909 8      1330.146          48.000
E25  23583661.203 8 123932977.620 8      -196.371          51.000    23583663.688 8  94961642.692 8      -150.523          51.000
> 2020 05 13 09 14  0.0000000  0 11        .000000000000
G12  20221457.289 8 106264473.900 8      -829.469          51.000    20221455.297 8  82803477.366 8      -646.339          51.000
G24  21597408.672 8 113495144.335 8     -2574.215          49.000    21597410.867 8  88437780.399 8     -2005.885          49.000
G25  20459444.359 6 107515104.441 6      1112.898          36.000    20459441.938 5  83778007.762 5       867.187          35.000
G29  22726126.594 7 119426580.842 7      3416.418          44.000    22726123.484 7  93059679.468 7      2662.147          43.000
R10  21590200.125 5 115087974.025 5     -2552.871          31.000
R11  19565641.758 6 104552867.080 6       653.512          37.000    19565644.109 5  81318891.622 5       508.290          34.000
R21  20059015.484 8 107339811.111 8      2120.910          49.000    20059019.008 7  83486641.332 7      1649.597          46.000
C29  22703241.422 6 118221782.860 6     -1055.883          37.000
E03  26323214.594 8 138329406.623 8     -2494.043          48.000    26323217.969 8 105992646.854 8     -1910.972          50.000
E11  24128246.406 7 126794808.929 7      1720.434          46.000    24128247.219 7  97154455.121 7      1318.224          47.000
E25  23584809.703 8 123939012.672 8      -205.062          51.000    23584812.289 8  94966266.950 8      -157.126          51.000
> 2020 05 13 09 14 30.0000000  0 12        .000000000000
G02  23172440.883 5 121771996.321 5      1190.840          30.000
G12  20226215.641 8 106289479.096 8      -837.934          51.000    20226213.781 8  82822961.934 8      -652.938          51.000
G24  21612127.875 8 113572493.115 8     -2582.758          50.000    21612130.008 8  88498052.112 8     -2012.542          50.000
G25  20453115.016 6 107481837.645 6      1104.383          36.000    20453112.750 6  83752085.618 6       860.561          36.000
G29  22706635.812 7 119324165.954 7      3410.191          42.000    22706634.773 6  92979875.669 6      2657.292          41.000
R10  21604583.078 5 115164635.791 5     -2558.172          34.000
R11  19561994.914 5 104533384.880 5       645.047          30.000    19561999.172 5  81303738.834 5       501.700          35.000
R21  20047185.711 8 107276509.357 8      2098.902          49.000    20047189.750 8  83437406.651 8      1632.480          48.000
C29  22709361.336 5 118253652.323 5     -1068.840          35.000
E03  26337462.016 7 138404276.663 7     -2497.559          47.000    26337466.430 8 106050014.768 8     -1913.789          50.000
E11  24118451.242 7 126743335.407 7      1710.816          46.000    24118452.266 7  97115014.406 7      1310.957          47.000
E25  23585986.805 8 123945197.943 8      -207.590          51.000    23585989.492 8  94971006.312 8      -159.107          51.000
> 2020 05 13 09 15  0.0000000  0 11        .000000000000
G12  20230997.211 8 106314606.261 8      -853.570          51.000    20230995.555 8  82842541.542 8      -665.120          51.000
G24  21626870.594 8 113649965.943 8     -2598.312          49.000    21626872.195 8  88558420.519 8     -2024.662          49.000
G25  20446808.344 5 107448702.090 5      1088.387          33.000    20446808.773 5  83726260.445 5       848.100          32.000
G29  22687155.359 7 119221805.925 7      3397.078          42.000    22687156.609 7  92900114.587 7      2647.071          43.000
G32  22145204.102 5 116373828.650 5       233.926          35.000
R10  21618964.750 5 115241260.689 5     -2571.688          31.000
R21  20035455.023 8 107213738.200 8      2069.207          49.000    20035459.734 8  83388584.630 8      1609.380          49.000
C29  22715532.367 5 118285783.400 5     -1089.203          33.000
E03  26351705.242 7 138479126.019 7     -2508.645          46.000    26351710.258 8 106107366.852 8     -1922.187          49.000
E11  24108686.727 7 126692022.118 7      1693.637          46.000    24108688.023 7  97075696.479 7      1297.689          46.000
E25  23587154.172 8 123951332.120 8      -217.629          51.000    23587156.953 8  94975706.523 8      -166.805          51.000
> 2020 05 13 09 15 30.0000000  0  9        .000000000000
G12  20235941.742 8 106340589.835 8      -864.957          51.000    20235940.297 8  82862788.474 8      -673.992          51.000
G24  21641776.148 8 113728295.957 8     -2609.938          48.000    21641777.945 8  88619456.879 8     -2033.718          48.000
G29  22667827.102 7 119120238.239 7      3387.805          45.000    22667829.336 7  92820970.910 7      2639.848          45.000
R10  21633512.711 6 115318751.987 6     -2580.582          37.000
R11  19554926.445 5 104495627.902 5       615.203          34.000    19554933.461 5  81274381.830 5       478.494          34.000
R21  20023964.125 8 107152248.620 8      2043.977          49.000    20023969.023 8  83340759.374 8      1589.760          49.000
E03  26366084.125 7 138554687.797 7     -2515.270          45.000    26366089.016 8 106165264.832 8     -1927.198          49.000
E11  24099092.648 7 126641605.521 7      1681.188          46.000    24099093.211 7  97037065.607 7      1288.192          44.000
E25  23588451.641 8 123958150.382 8      -223.195          51.000    23588454.547 8  94980930.902 8      -171.026          51.000
> 2020 05 13 09 16  0.0000000  0  9        .000000000000
G02  23152460.742 5 121667015.458 5      1134.691          34.000
G12  20240875.352 8 106366516.373 8      -881.336          51.000    20240874.000 8  82882990.962 8      -686.755          51.000
G24  21656670.883 8 113806569.438 8     -2626.301          49.000    21656673.586 8  88680449.180 8     -2046.468          49.000
G29  22648477.148 7 119018552.289 7      3373.527          47.000    22648479.547 7  92741735.113 7      2628.723          47.000
R11  19551472.086 6 104477162.508 6       597.828          36.000    19551479.234 5  81260019.813 5       464.980          34.000
R21  20012540.055 8 107091114.207 8      2013.469          51.000    20012544.555 8  83293210.380 8      1566.031          49.000
E03  26380424.906 7 138630047.405 7     -2526.746          47.000    26380429.430 8 106223007.888 8     -1936.003          49.000
E11  24089495.578 7 126591174.287 7      1662.992          45.000    24089494.820 7  96998423.525 7      1274.154          43.000
E25  23589705.648 8 123964740.225 8      -234.035          51.000    23589708.609 8  94985980.252 8      -179.302          51.000
> 2020 05 13 09 16 30.0000000  0 12        .000000000000
G02  23145993.047 6 121633013.303 6      1128.152          37.000
G12  20245912.078 8 106392984.815 8      -884.457          51.000    20245910.617 8  82903615.719 8      -689.187          51.000
G24  21671669.328 8 113885385.522 8     -2629.352          50.000    21671672.453 8  88741864.313 8     -2048.845          50.000
G29  22629219.547 8 118917350.444 8      3372.113          49.000    22629221.984 8  92662876.530 8      2627.624          49.000
G32  22141711.875 5 116355480.289 5       176.500          34.000
R10  21662619.023 5 115473991.571 5     -2595.234          32.000
R11  19548124.852 6 104459279.430 6       593.445          36.000    19548128.164 5  81246110.807 5       461.572          33.000
R21  20001297.492 8 107030948.620 8      1996.336          51.000    20001301.070 8  83246414.926 8      1552.706          48.000
C29  22734787.062 5 118385988.610 5     -1134.387          31.000
E03  26394841.453 8 138705802.903 8     -2524.895          48.000    26394845.469 8 106281054.270 8     -1934.630          50.000
E11  24080010.477 7 126541329.994 7      1658.762          46.000    24080009.289 7  96960231.181 7      1270.972          43.000
E25  23591030.430 8 123971701.943 8      -231.426          51.000    23591033.430 8  94991314.550 8      -177.281          51.000
> 2020 05 13 09 17  0.0000000  0 12        .000000000000
G02  23139580.781 6 121599312.091 6      1111.930          38.000    23139580.281 5  94752727.311 5       866.430          33.000
G12  20250978.961 8 106419611.646 8      -896.879          51.000    20250977.445 8  82924363.897 8      -698.864          51.000
G24  21686698.133 8 113964359.358 8     -2641.734          51.000    21686701.320 8  88803402.348 8     -2058.497          51.000
G25  20422446.516 5 107320669.266 5      1044.496          35.000    20422445.664 5  83626492.887 5       813.896          35.000
G29  22609981.602 8 118816251.552 8      3361.500          50.000    22609983.953 8  92584098.195 8      2619.351          50.000
R10  21677232.812 5 115551895.837 5     -2604.895          32.000
R11  19544814.773 6 104441590.246 6       579.922          36.000    19544818.938 5  81232352.568 5       451.050          34.000
R21  19990163.508 8 106971364.358 8      1969.652          51.000    19990166.211 7  83200071.650 7      1531.952          47.000
C29  22741342.078 6 118420163.642 6     -1150.426          36.000
E03  26409260.148 8 138781569.296 8     -2532.512          48.000    26409263.539 8 106339109.013 8     -1940.544          49.000
E11  24070564.695 7 126491691.001 7      1644.352          46.000    24070563.305 7  96922196.140 7      1259.922          43.000
E25  23592353.164 8 123978652.608 8      -238.277          51.000    23592356.117 8  94996640.380 8      -182.567          51.000
> 2020 05 13 09 17 30.0000000  0 10        .000000000000
G12  20256148.453 8 106446777.698 8      -917.047          51.000    20256147.055 8  82945532.250 8      -714.582          51.000
G24  21701829.336 8 114043871.244 8     -2661.875          51.000    21701832.516 8  88865359.614 8     -2074.188          51.000
G25  20416530.969 6 107289588.318 6      1024.219          36.000    20416535.570 6  83602273.912 6       798.086          36.000
G29  22590836.312 8 118715639.654 8      3343.051          51.000    22590837.977 8  92505699.341 8      2604.975          51.000
R11  19541613.898 6 104424484.063 6       557.473          37.000    19541616.773 5  81219047.758 5       433.593          33.000
R21  19979210.914 8 106912752.358 8      1934.887          51.000    19979212.906 7  83154484.579 7      1504.912          46.000
C29  22748027.297 5 118455010.672 5     -1175.270          33.000
E03  26423752.883 7 138857726.027 7     -2547.711          47.000    26423755.648 8 106397462.862 8     -1952.097          48.000
E11  24061230.656 7 126442639.948 7      1622.512          45.000    24061228.883 7  96884611.598 7      1243.316          44.000
E25  23593746.367 8 123985973.745 8      -252.867          51.000    23593749.242 8  95002250.080 8      -193.761          51.000
> 2020 05 13 09 18  0.0000000  0 11        .000000000000
G12  20261348.789 8 106474105.591 8      -913.738          51.000    20261347.609 8  82966826.712 8      -712.004          51.000
G24  21716991.031 8 114123543.971 8     -2658.543          51.000    21716994.328 8  88927442.215 8     -2071.595          51.000
G25  20410647.523 5 107258677.219 5      1027.879          30.000    20410652.172 4  83578187.275 4       800.942          29.000
G29  22571712.633 8 118615140.819 8      3347.984          51.000    22571712.781 8  92427388.612 8      2608.819          51.000
R10  21706661.375 5 115708714.168 5     -2616.871          35.000
R11  19538451.312 6 104407580.290 6       559.789          37.000    19538452.016 5  81205900.368 5       435.388          34.000
R21  19968368.711 8 106854732.397 8      1924.090          51.000    19968370.539 7  83109357.986 7      1496.514          46.000
C29  22754776.688 6 118490156.467 6     -1176.512          41.000
E03  26438247.453 7 138933895.411 7     -2539.223          46.000    26438250.156 8 106455826.402 8     -1945.635          49.000
E11  24051937.047 7 126393802.514 7      1624.375          45.000    24051935.828 7  96847190.731 7      1244.660          44.000
E25  23595138.586 8 123993289.844 8      -243.766          51.000    23595141.375 8  95007855.911 8      -186.781          51.000
> 2020 05 13 09 18 30.0000000  0 11        .000000000000
G12  20266612.023 8 106501764.059 8      -911.328          51.000    20266611.023 8  82988378.763 8      -710.126          51.000
G24  21732215.328 8 114203545.940 8     -2655.883          51.000    21732218.305 8  88989781.374 8     -2069.519          51.000
G25  20404827.633 5 107228092.181 5      1028.453          32.000    20404832.859 5  83554381.933 5       801.386          32.000
G29  22552643.070 8 118514926.222 8      3351.652          51.000    22552641.586 8  92349299.369 8      2611.680          51.000
G32  22138601.508 5 116339101.218 5       113.824          32.000
R11  19535358.766 6 104391052.205 6       560.832          40.000    19535359.219 5  81193045.168 5       436.200          34.000
R21  19957669.539 8 106797479.382 8      1912.062          50.000    19957671.812 7  83064827.896 7      1487.160          47.000
C29  22761614.609 6 118525767.150 6     -1178.766          39.000
E03  26452775.523 7 139010244.518 7     -2531.773          44.000    26452779.203 8 106514327.671 8     -1939.999          50.000
E11  24042716.609 7 126345349.232 7      1624.531          45.000    24042716.438 7  96810064.198 7      1244.819          45.000
E25  23596562.023 8 124000770.141 8      -236.109          51.000    23596564.797 8  95013587.561 8      -180.840          51.000
> 2020 05 13 09 19  0.0000000  0 12        .000000000000
G02  23114868.984 6 121469478.742 6      1056.363          36.000
G12  20271951.672 8 106529824.383 8      -935.680          51.000    20271950.852 8  83010243.953 8      -729.098          51.000
G24  21747515.648 8 114283947.637 8     -2680.281          51.000    21747517.898 8  89052432.014 8     -2088.534          51.000
G29  22533641.445 8 118415070.274 8      3328.812          51.000    22533639.156 8  92271489.595 8      2593.883          51.000
G32  22138108.984 5 116336518.312 5        80.555          34.000    22138120.883 5  90651898.378 5        62.770          33.000
R10  21736250.914 5 115866439.691 5     -2634.055          33.000
R11  19532351.273 6 104374974.080 6       534.688          41.000    19532351.141 5  81180539.970 5       415.871          34.000
R21  19947127.617 8 106741069.154 8      1872.668          49.000    19947130.484 8  83020953.271 8      1456.520          48.000
C29  22768554.836 6 118561912.831 6     -1207.543          37.000
E03  26467350.961 7 139086843.605 7     -2551.012          42.000    26467355.641 8 106573020.452 8     -1954.701          50.000
E11  24033583.109 7 126297353.472 7      1598.688          44.000    24033583.828 7  96773288.238 7      1225.091          45.000
E25  23598030.430 8 124008486.955 8      -254.668          51.000    23598033.273 8  95019500.439 8      -195.180          51.000
> 2020 05 13 09 19 30.0000000  0 10        .000000000000
G12  20277333.227 8 106558105.142 8      -940.582          51.000    20277332.469 8  83032280.911 8      -732.921          51.000
G24  21762857.047 8 114364566.904 8     -2685.141          51.000    21762858.734 8  89115252.199 8     -2092.320          51.000
G29  22514673.367 8 118315394.527 8      3325.199          50.000    22514671.289 8  92193820.205 8      2591.067          49.000
G32  22137714.391 5 116334437.020 5        67.090          33.000
R11  19529392.703 6 104359163.837 6       528.371          37.000    19529393.859 5  81168243.123 5       410.952          34.000
R21  19936709.148 8 106685320.190 8      1853.102          50.000    19936712.281 8  82977592.958 8      1441.301          48.000
C29  22775564.484 6 118598413.225 6     -1216.941          38.000
E03  26481939.578 7 139163510.059 7     -2550.926          43.000    26481944.586 8 106631764.830 8     -1954.549          49.000
E11  24024502.820 7 126249636.048 7      1591.418          46.000    24024503.594 7  96736725.560 7      1219.386          45.000
E25  23599509.445 8 124016259.871 8      -254.434          51.000    23599512.359 8  95025456.304 8      -194.950          51.000
> 2020 05 13 09 20  0.0000000  0 12        .000000000000
G02  23103029.836 6 121407251.683 6      1024.094          37.000
G12  20282799.742 8 106586832.283 8      -959.328          51.000    20282798.820 8  83054665.687 8      -747.528          51.000
G24  21778282.172 8 114445629.488 8     -2703.758          48.000    21778283.859 8  89178417.808 8     -2106.824          48.000
G29  22495782.461 8 118216127.872 8      3307.875          50.000    22495781.359 8  92116469.557 8      2577.565          50.000
G32  22137449.273 5 116333080.631 5        39.895          33.000
R11  19526525.602 5 104343853.376 5       507.820          33.000    19526528.156 5  81156335.039 5       394.971          33.000
R21  19926457.977 8 106630465.810 8      1819.352          50.000    19926461.406 8  82934928.444 8      1415.051          48.000
R22  22902596.898 6 122255622.273 6      4619.914          40.000    22902599.977 5  95087710.188 5      3593.266          35.000
C29  22782685.055 6 118635491.677 6     -1239.547          36.000
E03  26496584.219 7 139240468.720 7     -2564.359          44.000    26496589.039 8 106690733.119 8     -1964.968          49.000
E11  24015519.047 7 126202425.012 7      1570.992          47.000    24015520.070 7  96700550.890 7      1203.840          46.000
E25  23601042.352 8 124024315.854 8      -267.504          51.000    23601045.164 8  95031629.067 8      -204.920          51.000
> 2020 05 13 09 20 30.0000000  0 11        .000000000000
G12  20288334.547 8 106615918.137 8      -975.312          51.000    20288333.383 8  83077329.987 8      -759.984          51.000
G24  21793774.312 7 114527047.859 7     -2719.504          45.000    21793776.594 7  89241860.685 7     -2119.094          44.000
G25  20382255.914 5 107109477.517 5       964.703          34.000    20382254.656 5  83461924.240 5       751.717          33.000
G29  22476953.594 8 118117185.546 8      3292.898          50.000    22476953.797 8  92039371.665 8      2565.895          51.000
R11  19523735.414 5 104328955.411 5       489.910          34.000    19523739.516 5  81144747.730 5       381.038          35.000
R21  19916357.719 8 106576419.869 8      1788.332          51.000    19916361.453 8  82892892.743 8      1390.925          48.000
R22  22876673.773 6 122117252.302 6      4609.500          39.000    22876679.938 5  94980089.141 5      3585.167          34.000
C29  22789900.227 6 118673060.934 6     -1260.371          38.000
E03  26511267.734 7 139317630.764 7     -2575.262          45.000    26511272.156 8 106749857.247 8     -1973.163          48.000
E11  24006615.508 8 126155634.808 8      1553.070          48.000    24006616.680 7  96664698.693 7      1189.895          46.000
E25  23602612.531 8 124032568.176 8      -278.027          51.000    23602615.312 8  95037952.277 8      -213.046          51.000
> 2020 05 13 09 21  0.0000000  0 10        .000000000000
G12  20293888.367 8 106645103.845 8      -969.621          51.000    20293887.141 8  83100072.073 8      -755.549          51.000
G24  21809284.656 7 114608561.626 7     -2713.645          45.000    21809287.680 7  89305377.888 7     -2114.528          45.000
G29  22458138.055 8 118018311.381 8      3299.445          51.000    22458139.672 8  91962326.891 8      2570.996          51.000
R11  19520975.375 6 104314208.869 6       493.848          36.000    19520979.664 5  81133278.183 5       384.107          35.000
R21  19906360.391 8 106522921.841 8      1779.078          50.000    19906363.914 8  82851283.196 8      1383.730          48.000
R22  22850737.977 6 121978808.442 6      4621.031          41.000    22850744.312 5  94872410.578 5      3594.135          33.000
C29  22797160.180 6 118710863.612 6     -1259.074          38.000
E03  26525940.516 7 139394735.992 7     -2564.324          44.000    26525944.625 7 106808937.885 7     -1965.021          47.000
E11  23997743.250 8 126109008.610 8      1556.000          48.000    23997744.016 7  96628972.140 7      1192.302          46.000
E25  23604170.977 8 124040758.901 8      -267.441          51.000    23604173.750 8  95044228.271 8      -204.857          51.000
> 2020 05 13 09 21 30.0000000  0 11        .000000000000
G12  20299560.094 8 106674909.277 8      -994.113          51.000    20299558.938 8  83123297.063 8      -774.634          51.000
G24  21824912.703 7 114690690.523 7     -2737.934          44.000    21824915.914 7  89369374.439 7     -2133.455          44.000
G29  22439435.164 8 117920028.701 8      3276.055          51.000    22439437.852 8  91885742.992 8      2552.770          51.000
R10  21811098.742 5 116265398.385 5     -2680.496          33.000
R11  19518343.359 6 104300144.603 6       467.398          38.000    19518346.414 6  81122339.420 6       363.535          36.000
R21  19896564.734 8 106470504.380 8      1739.184          48.000    19896568.500 8  82810514.074 8      1352.698          48.000
R22  22824888.922 7 121840824.031 7      4601.891          42.000    22824895.234 5  94765089.363 5      3579.248          32.000
C29  22804563.469 5 118749414.530 5     -1287.785          35.000
E03  26540701.125 7 139472303.334 7     -2583.496          44.000    26540705.312 7 106868372.607 7     -1979.565          46.000
E11  23989001.430 7 126063068.549 7      1529.816          47.000    23989001.742 7  96593771.341 7      1172.185          45.000
E25  23605816.953 8 124049409.076 8      -286.180          51.000    23605819.656 8  95050856.318 8      -219.251          51.000
> 2020 05 13 09 22  0.0000000  0 12        .000000000000
G12  20305271.789 8 106704924.667 8     -1005.977          51.000    20305270.781 8  83146685.674 8      -783.878          51.000
G24  21840580.242 7 114773023.611 7     -2750.141          45.000    21840583.445 7  89433530.042 7     -2142.967          45.000
G25  20365983.977 5 107023949.664 5       932.383          33.000    20365987.898 5  83395304.637 5       726.523          33.000
G29  22420767.703 8 117821930.185 8      3264.801          51.000    22420770.344 8  91809302.594 8      2544.001          51.000
R10  21826203.594 5 116345973.008 5     -2690.914          31.000
R11  19515760.984 5 104286348.047 5       453.469          35.000    19515765.281 6  81111608.641 6       352.692          37.000
R21  19886893.375 7 106418752.994 7      1711.754          47.000    19886897.617 8  82770263.002 8      1331.364          48.000
R22  22799048.359 7 121702887.431 7      4595.062          42.000    22799055.898 4  94657805.278 4      3573.934          28.000
C29  22812033.094 6 118788306.728 6     -1304.047          37.000
E03  26555471.555 7 139549921.498 7     -2590.164          45.000    26555475.883 7 106927846.265 7     -1984.629          45.000
E11  23980312.344 7 126017406.735 7      1515.180          47.000    23980311.758 7  96558783.717 7      1161.117          45.000
E25  23607472.500 8 124058109.629 8      -292.895          51.000    23607475.047 8  95057522.972 8      -224.459          51.000
> 2020 05 13 09 22 30.0000000  0 12        .000000000000
G12  20311033.961 8 106735204.907 8     -1003.043          51.000    20311033.125 8  83170280.655 8      -781.592          51.000
G24  21856297.656 8 114855616.547 8     -2746.621          48.000    21856300.727 8  89497888.144 8     -2140.224          48.000
G25  20360687.117 5 106996103.685 5       934.156          34.000    20360691.648 6  83373606.512 6       727.911          36.000
G29  22402146.766 8 117724074.034 8      3268.578          51.000    22402147.984 8  91733051.108 8      2546.947          51.000
G32  22137825.961 5 116335051.695 5       -50.238          35.000
R11  19513240.930 6 104272877.268 6       454.398          38.000    19513244.484 6  81101131.347 6       353.418          37.000
R21  19877358.000 8 106367727.109 8      1699.758          48.000    19877361.938 7  82730576.164 7      1322.034          47.000
R22  22773228.359 6 121565059.406 6      4603.383          40.000    22773236.836 4  94550605.695 4      3580.409          27.000
C29  22819578.391 6 118827594.499 6     -1305.344          36.000
E03  26570262.227 7 139627644.673 7     -2581.684          46.000    26570266.352 7 106987400.373 7     -1978.287          43.000
E11  23971686.664 7 125972080.455 7      1516.227          46.000    23971685.242 7  96524053.197 7      1161.733          43.000
E25  23609148.539 8 124066916.905 8      -284.438          51.000    23609150.719 8  95064271.390 8      -217.964          51.000
> 2020 05 13 09 23  0.0000000  0 12        .000000000000
G12  20316825.109 8 106765636.818 8     -1023.660          51.000    20316824.273 8  83193993.832 8      -797.657          51.000
G24  21872043.023 8 114938354.758 8     -2767.191          51.000    21872045.750 8  89562359.460 8     -2156.250          51.000
G25  20355419.430 5 106968426.712 5       913.215          33.000    20355422.305 5  83352039.983 5       711.596          32.000
G29  22383550.945 8 117626349.642 8      3248.480          51.000    22383550.305 8  91656902.339 8      2531.287          51.000
G32  22138208.867 5 116337013.653 5       -79.773          31.000
R11  19510761.266 6 104259619.040 6       431.520          40.000    19510763.625 6  81090819.411 6       335.629          38.000
R21  19867937.406 8 106317314.068 8      1663.246          50.000    19867940.789 7  82691366.053 7      1293.639          47.000
R22  22747408.461 6 121427230.005 6      4587.570          40.000    22747415.867 4  94443418.937 4      3568.107          29.000
C29  22827178.398 6 118867164.857 6     -1330.570          38.000
E03  26585051.297 7 139705358.365 7     -2596.895          47.000    26585054.141 7 107046947.159 7     -1989.810          42.000
E11  23963103.852 7 125926978.521 7      1492.773          47.000    23963101.867 7  96489494.586 7      1143.870          44.000
E25  23610823.633 8 124075718.537 8      -300.184          51.000    23610825.430 8  95071015.504 8      -229.993          51.000
> 2020 05 13 09 23 30.0000000  0 11        .000000000000
G12  20322763.414 8 106796842.101 8     -1040.613          51.000    20322762.367 8  83218309.633 8      -810.871          51.000
G24  21887934.234 8 115021859.230 8     -2783.734          51.000    21887936.570 8  89627427.855 8     -2169.144          51.000
G25  20350301.914 5 106941541.147 5       894.793          33.000    20350304.609 5  83331090.264 5       697.250          33.000
G29  22365098.898 8 117529381.537 8      3232.074          51.000    22365097.664 8  91581342.858 8      2518.499          51.000
R11  19508439.008 6 104247207.633 6       412.449          40.000    19508441.695 6  81081166.043 6       320.791          38.000
R21  19858750.250 8 106268149.839 8      1630.668          51.000    19858753.078 7  82653127.245 7      1268.297          46.000
R22  22721707.266 6 121290035.183 6      4574.988          38.000    22721713.852 5  94336711.865 5      3558.327          34.000
C29  22834950.461 6 118907632.995 6     -1351.816          38.000
E03  26599956.500 7 139783682.865 7     -2608.609          46.000    26599956.961 6 107106961.937 6     -1998.745          40.000
E11  23954682.883 7 125882724.332 7      1473.340          46.000    23954680.227 7  96455585.538 7      1129.016          44.000
E25  23612616.000 8 124085136.957 8      -311.805          51.000    23612617.633 8  95078232.209 8      -238.858          51.000
> 2020 05 13 09 24  0.0000000  0 13        .000000000000
G12  20328715.445 8 106828119.356 8     -1038.512          51.000    20328714.094 8  83242681.500 8      -809.230          51.000
G24  21903837.406 8 115105428.291 8     -2781.465          51.000    21903839.133 8  89692546.564 8     -2167.378          51.000
G25  20345202.375 5 106914746.902 5       897.090          33.000    20345204.055 5  83310211.636 5       699.037          32.000
G29  22346657.609 8 117432471.395 8      3234.551          51.000    22346656.594 8  91505828.515 8      2520.432          51.000
G32  22139406.383 5 116343348.323 5      -112.312          34.000
R10  21887130.227 5 116670719.335 5     -2713.781          31.000
R11  19506142.609 7 104234932.186 7       412.270          42.000    19506144.914 6  81071618.495 6       320.654          38.000
R21  19849663.609 8 106219523.244 8      1617.203          51.000    19849666.391 7  82615306.654 7      1257.828          46.000
R22  22695992.484 6 121152767.866 6      4582.227          38.000    22695998.609 6  94229948.421 6      3563.957          36.000
C29  22842760.555 5 118948303.523 5     -1353.961          34.000
E03  26614843.812 7 139861915.776 7     -2601.066          46.000    26614842.742 6 107166906.558 6     -1993.106          38.000
E11  23946289.758 7 125838618.804 7      1472.984          45.000    23946287.180 7  96421790.445 7      1128.605          44.000
E25  23614392.570 8 124094472.091 8      -304.617          51.000    23614394.023 8  95085385.108 8      -233.456          51.000
> 2020 05 13 09 24 30.0000000  0 13        .000000000000
G06  23492684.477 6 123454887.444 6      -420.547          38.000    23492682.406 6  96198576.809 6      -327.693          36.000
G12  20334736.164 8 106859758.046 8     -1059.957          51.000    20334734.820 8  83267335.017 8      -825.941          51.000
G24  21919807.562 8 115189351.238 8     -2802.629          49.000    21919808.844 8  89757941.046 8     -2183.867          49.000
G25  20340175.305 5 106888344.239 5       874.965          31.000    20340178.305 5  83289630.432 5       681.800          31.000
G29  22328282.516 8 117335911.584 8      3213.523          49.000    22328282.008 8  91430587.137 8      2504.047          50.000
R10  21902482.312 4 116752550.160 4     -2732.801          29.000
R11  19503926.820 7 104223088.975 7       388.414          42.000    19503929.180 6  81062407.109 6       302.100          38.000
R21  19840733.148 8 106171731.855 8      1579.766          51.000    19840735.289 7  82578135.625 7      1228.707          46.000
R22  22670320.195 5 121015726.871 5      4564.762          35.000    22670326.297 6  94123361.032 6      3550.373          37.000
E03  26629768.141 7 139940345.464 7     -2616.785          46.000    26629768.289 6 107227001.941 6     -2004.851          38.000
E11  23937980.664 7 125794953.475 7      1448.770          47.000    23937977.664 7  96388332.613 7      1110.081          44.000
E25  23616208.555 8 124104014.409 8      -320.773          51.000    23616209.906 8  95092696.750 8      -245.826          51.000
E36  26584746.258 6 139703783.733 6      3174.410          41.000    26584749.164 6 107045764.864 6      2432.191          41.000
> 2020 05 13 09 25  0.0000000  0 12        .000000000000
G06  23495102.570 5 123467599.092 5      -440.309          35.000    23495106.227 5  96208482.018 5      -343.101          33.000
G12  20340778.070 8 106891508.555 8     -1070.242          51.000    20340777.023 8  83292075.667 8      -833.955          51.000
G24  21935796.992 7 115273377.457 7     -2812.559          47.000    21935798.484 7  89823416.014 7     -2191.604          47.000
G29  22309927.008 8 117239455.395 8      3203.480          49.000    22309926.914 8  91355426.486 8      2496.219          49.000
R11  19501744.359 7 104211426.289 7       375.555          43.000    19501746.836 6  81053336.143 6       292.098          39.000
R21  19831911.758 8 106124524.557 8      1553.680          51.000    19831913.211 7  82541418.864 7      1208.418          47.000
R22  22644644.562 5 120878663.600 5      4558.918          35.000    22644648.688 5  94016756.382 5      3545.828          35.000
C29  22858640.094 5 119030929.815 5     -1394.090          32.000
E03  26644682.430 7 140018721.144 7     -2621.648          46.000    26644684.945 6 107287055.973 6     -2008.700          39.000
E11  23929708.164 7 125751480.776 7      1436.078          46.000    23929705.461 7  96355022.363 7      1100.333          45.000
E25  23618016.539 8 124113515.308 8      -325.957          51.000    23618018.094 8  95099976.642 8      -249.720          51.000
E36  26566593.383 6 139608388.389 6      3172.391          40.000    26566596.312 6 106972669.788 6      2430.473          41.000
> 2020 05 13 09 25 30.0000000  0 14        .000000000000
G06  23497673.945 6 123481114.928 6      -458.438          36.000    23497677.406 6  96219013.828 6      -357.224          37.000
G12  20346922.344 8 106923797.261 8     -1079.672          51.000    20346921.508 8  83317235.673 8      -841.306          51.000
G24  21951886.617 7 115357932.745 7     -2822.027          47.000    21951888.250 7  89889303.238 7     -2198.982          47.000
G25  20330282.562 5 106836347.787 5       853.359          35.000    20330286.031 5  83249130.956 5       664.949          34.000
G29  22291673.172 8 117143532.287 8      3193.953          49.000    22291672.922 8  91280681.211 8      2488.795          49.000
G32  22141988.547 5 116356967.066 5      -180.516          32.000
R11  19499677.062 7 104200380.101 7       363.410          43.000    19499679.281 6  81044744.653 6       282.652          39.000
R21  19823280.586 8 106078338.187 8      1528.070          49.000    19823282.188 7  82505496.153 7      1188.499          47.000
C29  22866722.188 4 119072991.975 4     -1407.562          29.000
E03  26659667.633 7 140097468.071 7     -2625.641          47.000    26659671.758 6 107347394.441 6     -2011.708          39.000
E11  23921553.555 7 125708629.218 7      1423.418          46.000    23921551.945 7  96322188.070 7      1090.659          46.000
E24  24750598.336 5 130065272.152 5     -2080.051          31.000
E25  23619898.008 8 124123402.306 8      -330.617          51.000    23619899.812 8  95107552.380 8      -253.306          51.000
E36  26548497.047 6 139513291.030 6      3170.500          38.000    26548500.453 7 106899803.009 7      2429.314          42.000
> 2020 05 13 09 26  0.0000000  0 13        .000000000000
G06  23500351.188 6 123495185.719 6      -479.004          36.000    23500354.141 6  96229978.094 6      -373.247          36.000
G12  20353121.453 8 106956374.327 8     -1091.500          51.000    20353120.656 8  83342620.388 8      -850.519          51.000
G24  21968029.812 8 115442766.838 8     -2833.141          49.000    21968030.680 8  89955407.658 8     -2207.645          49.000
G25  20325448.367 6 106810940.242 6       841.000          36.000    20325450.305 6  83229332.825 6       655.325          36.000
G29  22273474.031 8 117047895.129 8      3182.387          50.000    22273473.156 8  91206158.791 8      2479.785          49.000
R10  21948794.711 5 116999414.459 5     -2757.660          30.000
R11  19497677.586 7 104189698.210 7       349.172          44.000    19497679.773 6  81036436.507 6       271.581          39.000
R21  19814793.070 8 106032921.171 8      1500.262          49.000    19814795.016 8  82470171.759 8      1166.867          48.000
C29  22874853.195 5 119115407.564 5     -1423.410          34.000
E03  26674676.133 8 140176335.220 8     -2631.793          48.000    26674679.664 6 107407825.040 6     -2016.685          38.000
E11  23913469.953 7 125666150.816 7      1408.871          46.000    23913469.492 7  96289639.680 7      1079.599          46.000
E25  23621805.562 8 124133426.448 8      -337.188          51.000    23621807.633 8  95115233.216 8      -258.394          51.000
E36  26530410.844 6 139418244.483 6      3166.203          36.000    26530414.227 7 106826975.178 7      2426.315          43.000
> 2020 05 13 09 26 30.0000000  0 13        .000000000000
G02  23034764.875 6 121048504.258 6       817.602          36.000
G06  23503139.516 5 123509837.625 5      -497.270          34.000    23503142.523 5  96241395.096 5      -387.483          33.000
G12  20359380.227 8 106989265.024 8     -1100.305          51.000    20359379.484 8  83368249.501 8      -857.380          51.000
G24  21984231.484 8 115527904.584 8     -2841.637          51.000    21984231.945 8  90021748.686 8     -2214.262          51.000
G25  20320676.711 5 106785870.328 5       831.852          32.000    20320679.742 5  83209797.847 5       648.199          31.000
G29  22255334.758 8 116952571.965 8      3173.535          50.000    22255332.891 8  91131881.062 8      2472.888          51.000
R11  19495751.742 7 104179408.661 7       337.844          43.000    19495754.297 6  81028433.488 6       262.767          40.000
R21  19806454.453 8 105988301.854 8      1475.352          50.000    19806457.070 8  82435467.851 8      1147.496          48.000
C29  22883088.461 4 119158245.802 4     -1435.891          29.000
E03  26689712.406 7 140255346.646 7     -2634.668          47.000    26689713.055 6 107468366.167 6     -2018.852          39.000
E11  23905462.633 7 125624072.888 7      1397.352          46.000    23905462.719 7  96257398.148 7      1070.695          46.000
E25  23623744.219 8 124143614.163 8      -340.969          51.000    23623746.656 8  95123039.373 8      -261.265          51.000
E36  26512340.273 5 139323287.807 5      3165.605          32.000    26512342.438 7 106754207.756 7      2425.642          43.000
> 2020 05 13 09 27  0.0000000  0 13        .000000000000
G02  23030179.039 6 121024406.769 6       791.262          37.000
G06  23506067.742 6 123525226.642 6      -526.930          36.000    23506073.586 5  96253386.550 5      -410.582          31.000
G12  20365728.398 8 107022625.026 8     -1121.469          51.000    20365727.711 8  83394244.299 8      -873.872          51.000
G24  22000520.602 8 115613500.575 8     -2862.445          51.000    22000521.805 8  90088446.805 8     -2230.477          51.000
G25  20315999.992 5 106761294.745 5       809.859          35.000    20316003.836 6  83190648.129 6       631.059          36.000
G29  22237285.500 8 116857721.500 8      3152.012          50.000    22237283.234 8  91057971.669 8      2456.116          50.000
R11  19493929.500 7 104169671.561 7       313.602          45.000    19493931.859 6  81020860.204 6       243.912          41.000
R21  19798295.172 8 105944641.493 8      1437.715          51.000    19798297.930 8  82401509.802 8      1118.223          49.000
C29  22891450.789 5 119201773.306 5     -1461.879          34.000
E03  26704805.422 7 140334656.950 7     -2650.055          44.000    26704803.445 6 107529136.311 6     -2030.750          39.000
E11  23897561.648 7 125582553.122 7      1373.000          47.000    23897561.969 7  96225584.306 7      1052.051          46.000
E25  23625743.891 8 124154122.122 8      -357.262          51.000    23625746.695 8  95131090.917 8      -273.701          51.000
E36                                                                  26494315.992 7 106681622.163 7      2415.232          42.000
> 2020 05 13 09 27 30.0000000  0 13        .000000000000
G02  23025644.156 5 121000579.235 5       793.754          30.000
G12  20372096.328 8 107056088.696 8     -1112.609          51.000    20372095.664 8  83420319.889 8      -866.965          51.000
G24  22016827.055 8 115699188.767 8     -2853.121          51.000    22016828.641 8  90155216.801 8     -2223.211          51.000
G29  22219257.008 8 116762980.513 8      3160.789          50.000    22219255.773 8  90984147.583 8      2462.953          50.000
R10  21995578.688 5 117248778.167 5     -2772.430          30.000
R11  19492141.164 7 104160117.318 7       320.074          45.000    19492144.117 7  81013429.120 7       248.947          42.000
R21  19790246.117 8 105901570.274 8      1430.621          51.000    19790249.406 8  82368010.014 8      1112.705          49.000
C29  22899849.031 6 119245508.579 6     -1457.184          39.000
E03  26719884.867 6 140413899.208 6     -2635.477          39.000    26719881.688 6 107589854.328 6     -2019.265          39.000
E11  23889697.797 7 125541227.746 7      1379.129          47.000    23889697.992 7  96193919.390 7      1056.795          46.000
E24  24798258.531 5 130315727.309 5     -2080.574          32.000
E25  23627735.086 8 124164585.665 8      -343.203          51.000    23627738.102 8  95139108.433 8      -263.097          51.000
E36                                                                  26476265.508 7 106608940.346 7      2428.099          42.000
> 2020 05 13 09 28  0.0000000  0 13        .000000000000
G02  23021227.781 5 120977371.246 5       767.402          34.000
G06  23512204.875 5 123557470.088 5      -557.523          35.000
G12  20378550.227 8 107090004.177 8     -1133.547          51.000    20378549.516 8  83446747.524 8      -883.283          51.000
G24  22033216.719 8 115785316.733 8     -2873.715          50.000    22033218.695 8  90222329.466 8     -2239.258          50.000
G25  20306788.242 4 106712877.062 4       795.582          29.000
G29  22201316.234 8 116668700.050 8      3139.473          50.000    22201316.266 8  90910682.324 8      2446.342          49.000
R11  19490453.922 7 104151101.666 7       295.996          46.000    19490457.922 7  81006416.913 7       230.216          42.000
R21  19782374.125 8 105859444.998 8      1392.957          51.000    19782377.242 8  82335245.916 8      1083.411          48.000
C29  22908354.875 6 119289817.135 6     -1481.801          38.000
E03  26735013.414 5 140493442.861 5     -2650.805          32.000    26735013.406 6 107650785.823 6     -2031.055          39.000
E11  23881937.062 7 125500446.528 7      1354.637          45.000    23881937.469 7  96162671.455 7      1037.915          46.000
E25  23629784.133 8 124175353.566 8      -359.617          51.000    23629787.234 8  95147359.162 8      -275.548          51.000
E36  26458244.758 5 139039013.905 5      3154.957          32.000    26458258.109 6 106536430.919 6      2417.527          40.000
> 2020 05 13 09 28 30.0000000  0 15        .000000000000
G02  23016840.328 5 120954311.503 5       759.195          34.000
G06  23515389.781 5 123574198.711 5      -569.105          31.000
G12  20385000.031 8 107123897.814 8     -1136.379          51.000    20384999.203 8  83473158.136 8      -885.490          51.000
G24  22049599.289 8 115871409.681 8     -2876.098          48.000    22049601.852 8  90289414.852 8     -2241.115          48.000
G25  20302227.680 5 106688915.427 5       791.266          35.000    20302230.828 6  83134220.693 6       616.571          36.000
G29  22183373.492 8 116574409.274 8      3136.270          49.000    22183374.391 8  90837209.006 8      2443.846          50.000
G32  22150221.062 5 116400186.689 5      -292.980          35.000    22150221.805 5  90701449.320 5      -228.300          35.000
R10  22026948.977 5 117416048.740 5     -2791.320          32.000
R11  19488777.844 7 104142145.054 7       290.527          46.000    19488782.219 7  80999450.654 7       225.966          43.000
R21  19774589.250 8 105817786.034 8      1373.797          50.000    19774592.234 8  82302844.506 8      1068.509          49.000
C29  22916881.711 6 119334228.587 6     -1489.059          38.000
E03  26750106.383 6 140572764.260 6     -2648.016          40.000    26750108.141 6 107711566.950 6     -2028.873          40.000
E11  23874189.578 7 125459737.780 7      1349.004          44.000    23874190.695 7  96131479.060 7      1033.527          46.000
E25  23631801.227 8 124185953.326 8      -357.375          51.000    23631804.312 8  95155481.059 8      -273.869          51.000
E36  26440191.992 6 138944141.080 6      3159.883          37.000    26440204.250 6 106463733.122 6      2421.017          38.000
> 2020 05 13 09 29  0.0000000  0 15        .000000000000
G02  23012628.406 6 120932169.106 6       736.535          36.000
G06  23518755.078 5 123591891.507 5      -595.086          33.000
G12  20391591.570 8 107158535.939 8     -1152.988          51.000    20391590.594 8  83500148.871 8      -898.432          51.000
G24  22066120.914 7 115958234.324 7     -2892.219          47.000    22066124.234 7  90357070.390 7     -2253.677          47.000
G25  20297815.258 5 106665727.052 5       773.785          33.000    20297817.266 5  83116151.875 5       602.953          33.000
G29  22165574.742 8 116480877.841 8      3119.082          48.000    22165576.188 8  90764327.362 8      2430.454          48.000
G32  22152023.164 5 116409665.978 5      -318.871          30.000    22152023.016 5  90708825.578 5      -248.474          30.000
R11  19487258.844 7 104134029.633 7       270.766          46.000    19487263.688 7  80993138.646 7       210.592          43.000
R21  19767037.586 8 105777376.691 8      1340.469          50.000    19767041.031 8  82271415.023 8      1042.587          49.000
R22  22440907.406 5 119791069.608 5      4504.336          35.000    22440907.453 5  93170818.726 5      3503.378          31.000
C29  22925575.797 6 119379502.075 6     -1509.438          39.000
E03  26765310.664 7 140652658.304 7     -2658.586          45.000    26765311.914 7 107772784.453 7     -2037.089          42.000
E11  23866602.656 7 125419870.467 7      1328.887          45.000    23866604.234 7  96100931.376 7      1018.166          45.000
E25  23633932.492 8 124197152.933 8      -369.320          51.000    23633935.430 8  95164062.576 8      -282.977          51.000
E36  26422239.273 6 138849788.145 6      3150.426          40.000    26422250.469 6 106391436.756 6      2413.897          36.000
> 2020 05 13 09 29 30.0000000  0 14        .000000000000
G02  23008466.000 5 120910287.526 5       725.988          30.000
G12  20398199.602 8 107193260.705 8     -1157.492          51.000    20398198.500 8  83527207.112 8      -901.942          51.000
G24  22082656.391 7 116045132.125 7     -2896.379          46.000    22082660.742 7  90424782.934 7     -2256.919          46.000
G25  20293424.320 5 106642654.826 5       768.484          34.000    20293424.461 5  83098173.648 5       598.822          35.000
G29  22147795.492 8 116387450.403 8      3113.926          48.000    22147796.812 8  90691526.758 8      2426.436          48.000
G32  22153900.086 5 116419513.640 5      -332.387          34.000    22153898.008 5  90716516.943 5      -259.006          35.000
R11  19485772.758 8 104126087.973 8       263.281          48.000    19485777.305 7  80986961.793 7       204.777          43.000
R21  19759594.852 8 105737549.200 8      1319.363          51.000    19759598.164 8  82240438.081 8      1026.171          48.000
R22  22415606.914 5 119656025.475 5      4503.562          35.000    22415608.703 4  93065784.481 4      3502.774          29.000
C29  22934310.352 6 119424984.616 6     -1518.133          39.000
E03  26780498.117 7 140732462.458 7     -2657.152          45.000    26780498.977 7 107833933.049 7     -2035.985          44.000
E11  23859051.375 7 125380188.116 7      1321.000          45.000    23859052.734 7  96070525.417 7      1012.237          45.000
E25  23636052.711 8 124208295.125 8      -368.988          51.000    23636055.562 8  95172600.087 8      -282.683          51.000
E36  26404261.172 6 138755303.623 6      3153.285          41.000    26404271.219 5 106319039.572 5      2415.983          33.000
> 2020 05 13 09 30  0.0000000  0 16        .000000000000
G02  23004399.734 5 120888904.756 5       703.281          35.000
G12  20404868.945 8 107228307.904 8     -1175.055          51.000    20404867.797 8  83554516.610 8      -915.627          51.000
G24  22099250.188 7 116132337.424 7     -2913.637          46.000    22099255.312 7  90492735.123 7     -2270.366          46.000
G25  20289101.844 5 106619935.817 5       749.770          33.000    20289098.500 5  83080470.446 5       584.236          33.000
G29  22130081.477 8 116294365.417 8      3095.801          48.000    22130082.312 8  90618993.013 8      2412.312          48.000
G32  22155882.805 5 116429949.419 5      -359.066          30.000    22155883.352 5  90724643.237 5      -279.798          31.000
R10  22074434.555 5 117669177.710 5     -2824.680          30.000
R11  19484364.727 8 104118561.950 8       242.371          49.000    19484368.617 7  80981108.220 7       188.511          44.000
R21  19752306.391 8 105698546.018 8      1284.867          51.000    19752309.195 7  82210102.263 7       999.341          47.000
R22  22390351.680 6 119521222.529 6      4487.574          36.000    22390357.844 5  92960937.790 5      3490.336          31.000
C26  21609333.977 6 112525492.344 6      1000.457          36.000
C29  22943130.078 6 119470909.088 6     -1539.824          39.000
E03  26795712.797 7 140812411.346 7     -2668.762          43.000    26795713.508 7 107895192.522 7     -2044.934          45.000
E11  23851580.508 7 125340928.415 7      1300.359          45.000    23851581.734 7  96040443.322 7       996.424          45.000
E25  23638207.188 8 124219616.760 8      -381.887          51.000    23638209.945 8  95181275.089 8      -292.564          51.000
E36  26386302.820 6 138660926.116 6      3142.648          41.000    26386304.469 5 106246711.523 5      2408.261          31.000
> 2020 05 13 09 30 30.0000000  0 14        .000000000000
G02  23000448.875 5 120868136.183 5       687.383          33.000
G12  20411621.320 8 107263791.600 8     -1184.445          51.000    20411620.219 8  83582166.239 8      -922.944          51.000
G24  22115924.125 7 116219963.257 7     -2922.117          45.000    22115929.734 7  90561015.059 7     -2276.974          45.000
G25  20284867.914 5 106597684.524 5       739.609          32.000    20284865.750 5  83063131.734 5       576.322          32.000
G29  22112455.086 8 116201739.615 8      3085.391          48.000    22112455.133 8  90546817.064 8      2404.200          48.000
R11  19483056.391 8 104111569.475 8       229.910          49.000    19483059.945 7  80975669.604 7       178.819          43.000
R21  19745194.016 8 105660485.808 8      1258.707          51.000    19745196.711 7  82180499.912 7       978.994          46.000
R22  22365162.984 5 119386780.906 5      4481.465          34.000    22365174.250 4  92856372.139 4      3485.584          27.000
C26  21603611.406 5 112495693.719 5       991.711          34.000
C29  22952056.562 6 119517387.625 6     -1552.984          39.000
E03  26810975.648 7 140892617.726 7     -2672.266          42.000    26810976.938 7 107956649.282 7     -2047.508          45.000
E11  23844212.680 8 125302207.292 8      1287.234          48.000    23844213.250 7  96010773.914 7       986.322          45.000
E25  23640417.758 8 124231232.811 8      -386.367          51.000    23640420.500 8  95190175.697 8      -296.066          51.000
E36  26368386.516 6 138566772.218 6      3140.348          40.000    26368389.680 5 106174567.800 5      2406.450          35.000
> 2020 05 13 09 31  0.0000000  0 14        .000000000000
G02  22996575.883 5 120847821.504 5       670.609          31.000
G12  20418417.320 8 107299504.682 8     -1195.301          51.000    20418416.289 8  83609994.593 8      -931.403          51.000
G24  22132639.617 7 116307803.107 7     -2932.637          47.000    22132645.055 7  90629461.701 7     -2285.171          46.000
G25  20280683.680 5 106575695.267 5       727.629          35.000    20280682.672 5  83045997.332 5       566.981          35.000
G29  22094877.734 8 116109369.011 8      3073.777          49.000    22094876.484 8  90474839.970 8      2395.151          49.000
R11  19481809.070 8 104104902.483 8       215.566          49.000    19481811.672 7  80970484.184 7       167.663          43.000
R21  19738218.898 8 105623160.160 8      1230.902          51.000    19738221.039 7  82151468.911 7       957.368          44.000
R22  22340003.523 5 119252495.743 5      4472.270          33.000
C26  21597929.094 5 112466105.268 5       982.117          35.000
C29  22961049.258 6 119564214.715 6     -1567.703          39.000
E03  26826247.414 6 140972873.703 6     -2677.184          41.000    26826249.820 7 108018144.080 7     -2051.250          46.000
E11  23836908.500 8 125263819.958 8      1273.062          48.000    23836908.680 7  95981360.272 7       975.547          46.000
E25  23642645.164 8 124242937.707 8      -392.656          51.000    23642647.906 8  95199144.374 8      -300.863          51.000
E36  26350474.336 6 138472638.254 6      3136.273          41.000    26350480.039 6 106102439.255 6      2403.143          39.000
> 2020 05 13 09 31 30.0000000  0 14        .000000000000
G02  22992792.156 5 120827932.083 5       654.672          33.000
G12  20425268.055 8 107335505.245 8     -1205.297          51.000    20425266.984 8  83638046.967 8      -939.192          51.000
G24  22149407.391 7 116395914.197 7     -2942.090          47.000    22149411.945 7  90698119.645 7     -2292.541          46.000
G25  20276560.320 5 106554026.718 5       716.926          34.000    20276559.820 5  83029112.750 5       558.647          34.000
G29  22077360.758 8 116017314.368 8      3062.820          51.000    22077358.281 8  90403109.121 8      2386.616          51.000
R11  19480634.031 8 104098621.638 8       202.344          50.000    19480635.945 7  80965599.076 7       157.378          44.000
R21  19731392.445 8 105586630.083 8      1203.988          51.000    19731393.953 7  82123056.654 7       936.438          45.000
R22  22314886.250 4 119118430.652 4      4464.730          29.000
C26  21592298.477 5 112436786.115 5       972.176          34.000
C29  22970119.633 6 119611446.518 6     -1581.766          39.000
E03  26841539.109 6 141053235.666 6     -2680.957          41.000    26841542.891 7 108079720.117 7     -2054.252          46.000
E11  23829679.008 8 125225825.831 8      1259.309          49.000    23829678.891 7  95952247.913 7       964.928          45.000
E25  23644900.664 8 124254790.096 8      -398.086          51.000    23644903.297 8  95208226.061 8      -305.012          51.000
E36  26332577.773 6 138378584.423 6      3133.293          39.000    26332584.117 6 106030372.098 6      2400.802          41.000
> 2020 05 13 09 32  0.0000000  0 13        .000000000000
G12  20432188.844 8 107371873.975 8     -1223.027          51.000    20432187.680 8  83666386.218 8      -953.008          51.000
G24  22166241.797 8 116484376.289 8     -2959.125          48.000    22166245.211 8  90767051.041 8     -2305.815          48.000
G25  20272512.766 5 106532760.734 5       698.156          33.000    20272512.641 5  83012541.786 5       544.015          32.000
G29  22059919.781 8 115925659.155 8      3043.836          51.000    22059916.859 8  90331689.528 8      2371.820          51.000
R11  19479546.844 8 104092811.427 8       181.125          50.000    19479548.500 7  80961080.039 7       140.878          44.000
R21  19724730.016 8 105550980.302 8      1169.016          51.000    19724732.375 7  82095329.107 7       909.237          47.000
R22  22289827.352 5 118984615.408 5      4448.734          33.000    22289845.789 4  92543646.578 4      3460.130          29.000
C26  21586735.570 5 112407818.389 5       954.938          35.000
C29  22979283.148 6 119659162.522 6     -1603.137          36.000
E03  26856866.641 7 141133783.523 7     -2692.320          43.000    26856871.508 7 108141438.609 7     -2063.198          46.000
E11  23822539.938 7 125188307.788 7      1238.082          47.000    23822539.383 7  95923500.341 7       948.636          46.000
E25  23647199.922 8 124266871.953 8      -411.027          51.000    23647202.305 8  95217483.572 8      -314.967          51.000
E36  26314712.859 6 138284694.510 6      3122.465          39.000    26314718.617 7 105958430.546 7      2392.463          43.000
> 2020 05 13 09 32 30.0000000  0 15        .000000000000
G12  20439145.555 8 107408431.691 8     -1226.832          51.000    20439144.383 8  83694872.746 8      -955.973          51.000
G24  22183108.477 8 116573008.784 8     -2962.398          51.000    22183110.906 8  90836115.232 8     -2308.362          51.000
G25  20268508.062 6 106511718.772 6       692.797          36.000    20268509.500 6  82996145.509 6       539.848          36.000
G29  22042520.867 8 115834226.603 8      3038.988          50.000    22042518.617 8  90260443.430 8      2368.043          50.000
G32  22167523.578 5 116491133.756 5      -456.895          35.000    22167518.102 5  90772281.435 5      -356.028          34.000
R10  22154479.297 6 118095821.502 6     -2865.832          36.000
R11  19478513.766 8 104087291.487 8       173.922          50.000    19478515.109 7  80956786.759 7       135.273          45.000
R21  19718198.688 8 105516030.437 8      1148.113          51.000    19718201.195 7  82068145.884 7       892.977          47.000
R22  22264793.625 5 118850987.098 5      4446.387          32.000    22264812.062 5  92439713.490 5      3458.301          31.000
C26  21581206.633 6 112379026.375 6       951.738          38.000
C29  22988503.539 5 119707184.051 5     -1611.012          30.000
E03  26872195.781 7 141214336.719 7     -2690.441          43.000    26872201.250 7 108203161.145 7     -2061.429          46.000
E11  23815457.070 7 125151088.219 7      1230.703          46.000    23815456.711 7  95894981.470 7       942.878          46.000
E25  23649508.953 8 124279004.981 8      -410.516          51.000    23649511.078 8  95226780.292 8      -314.521          51.000
E36  26296845.523 6 138190791.917 6      3125.172          39.000    26296850.586 7 105886479.283 7      2394.588          44.000
> 2020 05 13 09 33  0.0000000  0 13        .000000000000
G12  20446181.641 8 107445406.701 8     -1237.488          51.000    20446180.492 8  83723684.440 8      -964.274          51.000
G24  22200051.180 8 116662040.463 8     -2972.461          51.000    22200052.516 8  90905490.495 8     -2316.203          51.000
G29  22025207.836 8 115743248.057 8      3026.957          48.000    22025206.945 8  90189551.063 8      2358.668          48.000
G32  22170188.344 5 116505153.939 5      -476.816          35.000    22170188.414 6  90783206.209 6      -371.545          36.000
R11  19477578.664 8 104082296.005 8       159.738          49.000    19477580.375 7  80952901.392 7       124.241          45.000
R21  19711842.438 8 105482015.333 8      1120.191          51.000    19711844.477 8  82041689.689 8       871.260          48.000
R22  22239844.195 5 118717797.578 5      4438.082          31.000    22239845.516 5  92336070.155 5      3451.842          33.000
C26  21575755.484 6 112350638.366 6       941.219          37.000
C29  22997828.602 5 119755736.917 5     -1625.223          35.000
E03  26887569.375 7 141295122.459 7     -2694.605          42.000    26887575.023 7 108265061.893 7     -2064.790          46.000
E11  23808474.438 7 125114397.510 7      1215.863          45.000    23808474.727 7  95866867.827 7       931.728          46.000
E25  23651871.336 8 124291418.691 8      -416.500          51.000    23651873.250 8  95236292.088 8      -319.133          51.000
E36  26279018.586 6 138097107.990 6      3121.078          41.000    26279024.016 7 105814695.570 7      2391.434          46.000
> 2020 05 13 09 33 30.0000000  0 14        .000000000000
G12  20453271.062 8 107482662.321 8     -1246.922          51.000    20453269.883 8  83752714.791 8      -971.627          51.000
G24  22217043.492 8 116751333.535 8     -2981.215          51.000    22217044.203 8  90975069.469 8     -2323.025          51.000
G25  20260732.984 5 106470861.179 5       670.348          33.000    20260736.359 5  82964324.901 5       522.346          34.000
G29  22007955.453 8 115652589.350 8      3016.230          48.000    22007955.992 7  90118907.922 7      2350.309          47.000
G32  22172961.602 5 116519731.913 5      -495.223          35.000    22172963.961 5  90794565.621 5      -385.888          35.000
R11  19476716.211 8 104077688.115 8       146.734          50.000    19476718.273 7  80949317.461 7       114.127          46.000
R21  19705635.250 8 105448797.423 8      1093.469          51.000    19705637.047 8  82015853.556 8       850.476          48.000
R22  22214911.766 4 118584727.070 4      4430.227          29.000    22214922.898 5  92232597.919 5      3445.723          33.000
C26  21570355.805 6 112322520.641 6       931.969          36.000
C29  23007229.312 6 119804684.444 6     -1638.660          36.000
E03  26902960.648 7 141376002.610 7     -2697.996          42.000    26902966.312 7 108327034.982 7     -2067.269          46.000
E11  23801566.898 7 125078100.423 7      1203.051          44.000    23801567.844 7  95839055.821 7       921.677          45.000
E25  23654261.180 8 124303977.207 8      -421.496          51.000    23654262.977 8  95245914.831 8      -322.988          51.000
E36  26261206.227 7 138003508.478 7      3118.039          44.000    26261212.922 7 105742976.514 7      2389.165          47.000
> 2020 05 13 09 34  0.0000000  0 13        .000000000000
G12  20460416.195 8 107520210.583 8     -1255.500          51.000    20460414.836 8  83781973.169 8      -978.312          51.000
G24  22234087.453 8 116840899.072 8     -2989.176          51.000    22234088.508 8  91044860.764 8     -2329.231          51.000
G25  20256937.008 5 106450920.549 5       660.473          33.000    20256944.211 5  82948786.578 5       514.648          33.000
G29  21990767.375 8 115562265.218 8      3005.863          48.000    21990768.305 8  90048525.474 8      2342.231          49.000
G32  22175844.000 6 116534879.702 6      -513.754          38.000    22175847.617 6  90806369.032 6      -400.322          38.000
R11  19475929.195 8 104073481.720 8       134.406          50.000    19475931.859 7  80946045.821 7       104.538          46.000
R21  19699579.773 8 105416391.129 8      1067.605          51.000    19699581.070 8  81990648.659 8       830.360          48.000
C26  21565009.742 6 112294686.906 6       923.938          38.000
C29  23016706.695 5 119854037.534 5     -1650.680          35.000
E03  26918371.570 7 141456987.916 7     -2700.387          43.000    26918377.266 7 108389088.630 7     -2069.184          45.000
E11  23794737.023 7 125042210.764 7      1190.297          44.000    23794738.383 7  95811555.958 7       911.917          44.000
E25  23656681.023 8 124316693.544 8      -425.730          51.000    23656682.797 8  95255658.508 8      -326.164          51.000
E36  26243412.352 7 137910008.172 7      3115.688          47.000    26243420.094 7 105671333.440 7      2387.441          47.000
> 2020 05 13 09 34 30.0000000  0 14        .000000000000
G12  20467621.984 8 107558077.348 8     -1268.309          51.000    20467620.422 8  83811479.737 8      -988.292          51.000
G24  22251188.070 8 116930762.418 8     -3001.301          51.000    22251189.789 8  91114884.145 8     -2338.676          51.000
G29  21973648.891 8 115472304.410 8      2992.008          50.000    21973649.375 8  89978426.154 8      2331.435          50.000
G32  22178839.195 6 116550623.147 6      -535.730          36.000    22178843.938 6  90818636.686 6      -417.449          36.000
R10  22219342.945 5 118441582.911 5     -2898.844          30.000
R11  19475222.641 8 104069705.610 8       117.801          50.000    19475225.375 7  80943108.834 7        91.623          46.000
R21  19693681.023 8 105384825.175 8      1037.395          51.000    19693682.195 8  81966097.374 8       806.862          49.000
R22  22165218.906 5 118319402.601 5      4410.801          35.000    22165226.328 3  92026266.119 3      3430.614          23.000
C26  21559724.117 6 112267165.100 6       911.320          39.000
C29  23026266.523 5 119903821.338 5     -1667.879          32.000
E03  26933807.234 7 141538103.334 7     -2706.805          43.000    26933812.773 7 108451241.995 7     -2074.069          45.000
E11  23787989.883 7 125006756.433 7      1173.668          44.000    23787991.281 7  95784389.703 7       899.397          43.000
E25  23659136.023 8 124329594.874 8      -433.895          51.000    23659137.805 8  95265543.943 8      -332.477          51.000
E36  26225642.625 8 137816635.914 8      3109.418          48.000    26225651.031 8 105599788.477 8      2382.496          48.000
> 2020 05 13 09 35  0.0000000  0 14        .000000000000
G06  23567536.492 6 123848185.255 6      -835.188          37.000    23567534.008 4  96505124.646 4      -650.798          29.000
G12  20474903.492 8 107596341.904 8     -1284.785          51.000    20474901.820 8  83841296.270 8     -1001.131          51.000
G24  22268360.242 8 117021002.049 8     -3016.785          51.000    22268362.477 8  91185200.710 8     -2350.742          51.000
G25  20249568.172 5 106412199.336 5       627.551          34.000    20249572.664 5  82918598.111 5       489.007          35.000
G29  21956615.070 8 115382788.819 8      2973.590          51.000    21956615.320 8  89908673.784 8      2317.083          51.000
R11  19474611.859 8 104066442.454 8        97.492          50.000    19474614.500 7  80940570.810 7        75.827          47.000
R21  19687954.469 8 105354182.021 8      1003.285          51.000    19687956.031 8  81942263.840 8       780.336          49.000
R22  22140468.930 6 118187271.752 6      4395.375          38.000    22140493.062 4  91923556.005 4      3418.622          27.000
C26  21554514.344 6 112240035.667 6       895.164          40.000
C29  23035923.719 4 119954113.460 4     -1688.855          28.000
E03  26949282.797 7 141619427.007 7     -2716.820          43.000    26949287.969 7 108513554.902 7     -2081.797          45.000
E11  23781341.500 7 124971818.501 7      1153.371          45.000    23781341.398 7  95757619.130 7       883.515          42.000
E25  23661641.438 8 124342761.594 8      -446.211          51.000    23661643.195 8  95275632.722 8      -341.842          51.000
E36  26207913.047 8 137723473.834 8      3099.188          49.000    26207921.641 8 105528404.556 8      2374.663          48.000
> 2020 05 13 09 35 30.0000000  0 13        .000000000000
G06  23572269.547 5 123873056.642 5      -847.340          35.000    23572280.656 5  96524504.740 5      -660.268          32.000
G12  20482176.453 8 107634561.692 8     -1287.785          51.000    20482174.812 8  83871077.905 8     -1003.469          51.000
G24  22285519.719 8 117111174.947 8     -3019.297          51.000    22285522.109 8  91255465.273 8     -2352.699          51.000
G25  20245926.305 6 106393049.276 6       623.656          36.000    20245928.641 6  82903675.958 6       485.957          36.000
G29  21939581.945 8 115293278.727 8      2969.039          51.000    21939582.359 8  89838925.699 8      2313.540          51.000
R11  19474013.156 8 104063244.191 8        90.770          50.000    19474015.648 7  80938083.260 7        70.595          47.000
R21  19682316.609 8 105324013.070 8       982.852          51.000    19682318.211 8  81918799.084 8       764.440          49.000
R22  22115702.844 6 118055062.877 6      4393.277          40.000    22115703.438 4  91820675.664 4      3416.990          29.000
C26  21549296.430 6 112212861.891 6       892.152          41.000
E03  26964713.789 7 141700515.004 7     -2713.492          43.000    26964718.375 7 108575687.225 7     -2079.166          45.000
E11  23774707.555 7 124936955.985 7      1146.121          46.000    23774706.250 7  95730906.316 7       878.176          43.000
E25  23664113.297 8 124355752.005 8      -444.547          51.000    23664115.000 8  95285586.406 8      -340.603          51.000
E36  26190140.023 8 137630081.914 8      3102.336          49.000    26190148.453 8 105456844.524 8      2377.186          49.000
> 2020 05 13 09 36  0.0000000  0 15        .000000000000
G02  22962983.250 5 120671279.691 5       488.348          34.000
G06  23577176.805 5 123898845.808 5      -883.105          32.000    23577192.836 4  96544600.132 4      -688.128          29.000
G12  20489571.828 8 107673424.796 8     -1314.051          51.000    20489570.258 8  83901360.828 8     -1023.936          51.000
G24  22302796.875 8 117201967.455 8     -3044.516          50.000    22302799.211 8  91326212.651 8     -2372.350          50.000
G25  20242413.141 5 106374583.748 5       596.336          32.000    20242413.102 5  82889287.263 5       464.680          32.000
G29  21922680.734 8 115204464.571 8      2940.887          50.000    21922681.719 8  89769719.901 8      2291.600          51.000
R10  22268464.883 5 118703515.214 5     -2939.520          30.000
R11  19473557.805 8 104060812.141 8        60.336          50.000    19473560.352 7  80936191.661 7        46.928          47.000
R21  19676898.367 8 105295020.584 8       938.734          49.000    19676900.430 8  81896249.355 8       730.127          49.000
R22  22091052.930 6 117923479.866 6      4367.168          41.000    22091054.141 5  91718333.346 5      3396.686          33.000
C26  21544201.484 7 112186327.444 7       866.012          42.000
E03  26980230.820 7 141782054.118 7     -2733.363          45.000    26980234.836 7 108638165.185 7     -2094.353          45.000
E11  23768219.359 7 124902858.618 7      1116.188          46.000    23768217.641 7  95704779.796 7       855.144          44.000
E25  23666682.820 8 124369255.183 8      -466.625          51.000    23666684.523 8  95295932.995 8      -357.529          51.000
E36  26172454.953 8 137537150.927 8      3082.047          49.000    26172462.609 8 105385637.672 8      2361.637          49.000
> 2020 05 13 09 36 30.0000000  0 14        .000000000000
G02  22960170.023 5 120656497.933 5       490.664          35.000    22960167.844 5  94018047.530 5       382.336          33.000
G12  20497029.414 8 107712614.703 8     -1304.836          51.000    20497027.938 8  83931898.400 8     -1016.755          51.000
G24  22320131.391 8 117293063.236 8     -3034.797          49.000    22320133.336 8  91397196.374 8     -2364.777          49.000
G25  20238966.031 5 106356487.102 5       603.664          34.000    20238968.711 5  82875186.011 5       470.385          33.000
G29  21905852.062 8 115116032.639 8      2948.312          50.000    21905853.562 8  89700811.908 8      2297.386          50.000
R11  19473186.000 8 104058826.467 8        65.656          50.000    19473189.211 7  80934647.240 7        51.066          47.000
R21  19671640.078 8 105266884.030 8       930.465          49.000    19671642.742 8  81874365.349 8       723.695          49.000
R22  22066461.148 6 117792205.839 6      4377.410          41.000    22066460.766 5  91616231.307 5      3404.649          35.000
C26  21539168.750 6 112160120.467 6       875.016          40.000
C29  23065314.109 5 120107156.595 5     -1718.617          33.000
E03  26995773.289 7 141863726.496 7     -2717.766          44.000    26995776.984 7 108700745.273 7     -2082.486          45.000
E11  23761816.508 7 124869211.455 7      1120.801          45.000    23761815.188 7  95678998.235 7       858.754          44.000
E25  23669289.836 8 124382955.436 8      -453.137          51.000    23669291.688 8  95306430.581 8      -347.176          51.000
E36  26154798.008 8 137444366.984 8      3097.066          49.000    26154804.742 8 105314543.479 8      2373.086          48.000
> 2020 05 13 09 37  0.0000000  0 13        .000000000000
G12  20504515.750 8 107751955.800 8     -1318.387          51.000    20504514.320 8  83962553.780 8     -1027.314          51.000
G24  22337489.602 7 117384286.230 7     -3047.348          47.000    22337492.008 8  91468279.237 8     -2374.557          48.000
G25  20235559.047 6 106338585.329 6       588.984          37.000    20235561.453 6  82861236.591 6       458.952          38.000
G29  21889063.727 8 115027810.224 8      2932.703          51.000    21889065.141 8  89632067.169 8      2285.223          51.000
R11  19472865.070 8 104057111.295 8        48.113          50.000    19472868.289 7  80933313.213 7        37.421          47.000
R21  19666509.000 8 105239427.020 8       899.320          48.000    19666511.883 8  81853009.887 8       699.471          49.000
R22  22041894.570 6 117661067.878 6      4364.543          41.000    22041895.344 6  91514235.145 6      3394.648          37.000
C26  21534165.117 7 112134069.542 7       861.297          42.000
C29  23075256.945 4 120158962.881 4     -1735.203          29.000
E03  27011307.773 7 141945355.969 7     -2724.742          44.000    27011310.922 7 108763292.493 7     -2087.733          44.000
E11  23755466.438 7 124835841.205 7      1103.316          45.000    23755465.398 7  95653428.867 7       845.533          44.000
E25  23671901.234 8 124396678.976 8      -462.309          51.000    23671903.297 8  95316946.023 8      -354.230          51.000
E36  26137136.398 8 137351557.867 8      3089.594          48.000    26137141.969 7 105243429.999 7      2367.432          47.000
> 2020 05 13 09 37 30.0000000  0 15        .000000000000
G06  23592492.305 5 123979370.318 5      -915.762          34.000    23592494.547 5  96607315.930 5      -713.584          32.000
G12  20512038.148 8 107791486.633 8     -1319.582          51.000    20512036.773 8  83993357.002 8     -1028.246          51.000
G24  22354879.469 8 117475673.653 8     -3047.621          48.000    22354882.586 8  91539490.198 8     -2374.770          48.000
G25  20232197.188 6 106320917.548 6       586.336          37.000    20232198.406 6  82847469.443 6       456.888          37.000
G29  21872323.656 8 114939838.546 8      2929.539          51.000    21872324.641 8  89563517.820 8      2282.761          51.000
R10  22317984.250 5 118967397.174 5     -2937.270          33.000
R11  19472602.531 8 104055707.567 8        42.922          51.000    19472605.523 7  80932221.413 7        33.384          47.000
R21  19661512.242 8 105212690.374 8       880.535          49.000    19661515.359 8  81832214.745 8       684.864          48.000
R22  22017361.000 6 117530110.283 6      4363.625          39.000    22017364.219 6  91412379.234 6      3393.931          38.000
C26  21529199.992 7 112108214.434 7       859.828          42.000
C29  23085264.414 5 120211022.726 5     -1740.516          31.000
E03  27026841.234 7 142026979.505 7     -2719.367          43.000    27026843.414 7 108825835.180 7     -2083.665          43.000
E11  23749176.969 7 124802787.848 7      1097.980          45.000    23749175.758 7  95628102.279 7       841.313          44.000
E25  23674524.453 8 124410465.054 8      -459.188          51.000    23674526.789 8  95327509.385 8      -351.869          51.000
E36  26119478.039 7 137258764.595 7      3094.141          47.000    26119482.047 7 105172328.666 7      2370.904          46.000
> 2020 05 13 09 38  0.0000000  0 17        .000000000000
G02  22952235.117 5 120614806.560 5       434.902          32.000
G06  23597848.023 5 124007497.087 5      -944.930          32.000    23597847.695 5  96629232.841 5      -736.315          32.000
G12  20519669.117 8 107831588.106 8     -1340.078          51.000    20519667.812 8  84024604.887 8     -1044.217          51.000
G24  22372373.547 8 117567605.923 8     -3067.359          48.000    22372377.133 8  91611125.703 8     -2390.153          48.000
G25  20228951.719 5 106303864.978 5       564.496          34.000    20228954.305 5  82834181.772 5       439.870          33.000
G29  21855704.367 8 114852500.611 8      2906.797          51.000    21855704.742 8  89495462.314 8      2265.037          51.000
G32  22202894.664 5 116676965.828 5      -671.949          33.000
R10  22334610.016 4 119056027.047 4     -2955.957          29.000
R11  19472470.898 8 104055004.245 8        17.926          51.000    19472473.922 7  80931674.386 7        13.942          47.000
R21  19656723.164 8 105187063.321 8       841.949          51.000    19656726.164 7  81812282.572 7       654.849          47.000
R22  21992933.172 6 117399724.177 6      4342.348          38.000    21992939.086 6  91310967.741 6      3377.378          37.000
C26  21524345.156 7 112082934.187 7       839.273          42.000
C29  23095400.211 5 120263800.647 5     -1764.418          33.000
E03  27042445.852 7 142108976.561 7     -2733.262          42.000    27042446.727 7 108888664.033 7     -2094.162          42.000
E11  23743020.188 7 124770433.636 7      1072.750          44.000    23743019.156 7  95603311.415 7       822.013          44.000
E25  23677232.242 8 124424695.307 8      -475.613          51.000    23677234.883 8  95338413.086 8      -364.410          51.000
E36  26101895.875 7 137166370.471 7      3079.230          47.000    26101898.055 7 105101533.183 7      2359.333          43.000
> 2020 05 13 09 38 30.0000000  0 13        .000000000000
G12  20527344.758 8 107871924.052 8     -1349.453          51.000    20527343.430 8  84056035.478 8     -1051.522          51.000
G24  22389907.312 8 117659745.536 8     -3075.691          48.000    22389911.234 8  91682922.755 8     -2396.643          48.000
G25  20225759.539 6 106287092.763 6       553.531          37.000    20225764.000 6  82821112.504 6       431.320          38.000
G29  21839142.133 8 114765462.991 8      2895.211          51.000    21839141.641 8  89427640.831 8      2256.012          51.000
R11  19472406.602 8 104054661.431 8         4.316          50.000    19472409.438 7  80931407.752 7         3.357          47.000
R21  19652077.898 8 105162205.190 8       814.766          51.000    19652080.352 7  81792948.507 7       633.707          46.000
R22  21968549.984 6 117269573.112 6      4333.246          40.000    21968559.188 5  91209739.153 5      3370.303          35.000
C26  21519537.258 7 112057897.776 7       829.305          43.000
C29  23105599.562 5 120316918.457 5     -1777.324          32.000
E03  27058057.586 6 142191009.861 6     -2735.938          41.000    27058056.805 6 108951520.678 6     -2096.365          41.000
E11  23736932.766 7 124738444.180 7      1059.352          44.000    23736932.039 7  95578800.041 7       811.696          44.000
E25  23679960.938 8 124439034.752 8      -481.000          51.000    23679963.750 8  95349400.455 8      -368.523          51.000
E36  26084326.352 7 137074042.205 7      3075.359          47.000    26084326.641 6 105030788.193 6      2356.456          40.000
> 2020 05 13 09 39  0.0000000  0 13        .000000000000
G06  23608826.852 5 124065221.855 5      -982.355          32.000
G12  20535058.586 8 107912460.438 8     -1358.695          51.000    20535057.281 8  84087622.269 8     -1058.724          51.000
G24  22407474.211 8 117752058.279 8     -3084.090          49.000    22407477.625 8  91754854.702 8     -2403.187          50.000
G25  20222614.969 6 106270567.899 6       542.582          37.000    20222619.734 6  82808235.918 6       422.788          37.000
G29  21822630.867 8 114678694.632 8      2883.531          51.000    21822629.328 8  89360029.153 8      2246.907          51.000
R11  19472403.648 8 104054646.963 8        -9.160          51.000    19472406.602 7  80931396.478 7        -7.125          47.000
R21  19647570.367 8 105138083.119 8       787.570          51.000    19647572.156 7  81774186.943 7       612.555          45.000
R22  21944207.391 6 117139627.644 6      4323.699          39.000    21944218.336 5  91108670.342 5      3362.874          35.000
C26  21514770.078 7 112033073.551 7       819.922          42.000
E03  27073670.594 6 142273044.457 6     -2738.660          38.000    27073667.094 6 109014378.292 6     -2098.616          39.000
E11  23730908.609 7 124706787.387 7      1045.379          43.000    23730907.953 7  95554543.567 7       801.061          43.000
E25  23682704.242 8 124453450.582 8      -485.922          51.000    23682707.055 8  95360446.356 8      -372.264          51.000
E36  26066763.578 7 136981748.718 7      3071.625          47.000    26066760.070 6 104960069.919 6      2353.463          36.000
> 2020 05 13 09 39 30.0000000  0 15        .000000000000
G06  23614453.672 5 124094775.726 5      -993.281          31.000
G12  20542801.617 8 107953150.237 8     -1360.625          51.000    20542800.461 8  84119328.592 8     -1060.227          51.000
G24  22425064.703 8 117844495.995 8     -3085.039          48.000    22425067.242 8  91826884.035 8     -2403.930          48.000
G25  20219509.070 6 106254243.849 6       539.293          36.000    20219511.836 6  82795515.821 6       420.228          36.000
G29  21806161.773 8 114592150.669 8      2879.277          51.000    21806159.453 8  89292592.341 8      2243.596          51.000
G32  22214827.445 5 116739714.759 5      -720.637          33.000    22214823.398 5  90966000.556 5      -561.535          35.000
R11  19472453.938 8 104054914.579 8       -15.391          51.000    19472456.461 7  80931604.617 7       -11.970          47.000
R21  19643191.609 8 105114650.699 8       767.824          51.000    19643192.609 7  81755961.774 7       597.197          45.000
R22  21919896.625 6 117009844.594 6      4321.531          37.000    21919906.281 6  91007727.990 6      3361.194          37.000
C26  21510034.570 7 112008416.594 7       817.379          42.000
C29  23126180.836 5 120424075.989 5     -1795.609          35.000
E03  27089276.039 5 142355031.742 5     -2734.176          35.000    27089268.617 6 109077199.642 6     -2094.742          38.000
E11  23724939.062 7 124675417.399 7      1039.113          45.000    23724937.641 6  95530506.852 6       796.243          41.000
E25  23685453.234 8 124467896.600 8      -483.891          51.000    23685455.930 8  95371515.385 8      -370.722          51.000
E36  26049199.070 7 136889445.356 7      3075.215          46.000    26049192.688 6 104889344.090 6      2356.690          36.000
> 2020 05 13 09 40  0.0000000  0 17        .000000000000
G02  22942970.250 5 120566105.360 5       367.465          31.000
G06  23620210.023 5 124125025.339 5     -1022.328          35.000    23620214.172 5  96720837.921 5      -796.625          34.000
G12  20550627.344 8 107994274.738 8     -1380.277          51.000    20550626.352 8  84151373.650 8     -1075.541          51.000
G24  22442732.125 7 117937339.693 7     -3103.680          46.000    22442734.039 7  91899229.762 7     -2418.452          46.000
G25  20216494.609 6 106238403.048 6       517.766          37.000    20216496.477 6  82783172.442 6       403.457          37.000
G29  21789789.203 8 114506115.454 8      2857.152          50.000    21789787.070 8  89225551.967 8      2226.356          50.000
G32  22219031.320 5 116761797.319 5      -748.555          33.000
R10  22401435.438 4 119412263.530 4     -2989.180          28.000
R11  19472611.047 8 104055752.777 8       -39.633          51.000    19472613.500 8  80932256.550 8       -30.826          48.000
R21  19638995.289 8 105092196.227 8       729.977          51.000    19638996.727 7  81738497.260 7       567.763          47.000
R22  21895671.008 6 116880515.083 6      4300.926          37.000    21895677.211 6  90907138.519 6      3345.171          40.000
C26  21505385.453 7 111984207.784 7       797.387          44.000
C29  23136588.227 5 120478292.472 5     -1818.422          34.000
E03  27104925.781 5 142437345.181 5     -2746.480          33.000    27104914.344 5 109140199.632 5     -2104.344          35.000
E11  23719078.328 7 124644617.569 7      1014.949          44.000    23719075.586 6  95506907.003 6       777.844          40.000
E25  23688261.789 8 124482655.490 8      -499.223          51.000    23688264.453 8  95382824.145 8      -382.557          51.000
E36  26031686.555 7 136797416.666 7      3060.875          43.000    26031683.352 6 104818828.724 6      2345.271          41.000
> 2020 05 13 09 40 30.0000000  0 14        .000000000000
G02  22940908.164 4 120555286.697 4       351.633          29.000
G06  23626090.023 5 124155918.002 5     -1039.551          34.000    23626095.727 5  96744910.139 5      -810.033          32.000
G12  20558523.188 8 108035767.672 8     -1388.262          51.000    20558522.336 8  84183705.802 8     -1081.762          51.000
G24  22460463.477 7 118030521.646 7     -3110.844          45.000    22460465.969 7  91971839.052 7     -2424.034          45.000
G25  20213559.812 6 106222979.896 6       508.109          39.000    20213562.203 6  82771154.433 6       395.929          39.000
G29  21773501.430 8 114420524.990 8      2846.637          51.000    21773500.500 8  89158858.137 8      2218.162          51.000
R11  19472862.445 8 104057095.642 8       -52.113          51.000    19472865.102 8  80933300.996 8       -40.533          48.000
R21  19634969.258 8 105070653.145 8       703.867          49.000    19634971.258 7  81721741.566 7       547.452          47.000
R22  21871516.617 6 116751576.245 6      4292.488          39.000    21871520.992 6  90806852.857 6      3338.602          41.000
C26  21500810.609 7 111960383.061 7       788.773          45.000
E03  27120604.500 5 142519737.909 5     -2748.152          32.000    27120590.328 5 109203326.163 5     -2105.545          32.000
E11  23713313.672 7 124614322.818 7      1002.336          45.000    23713309.859 6  95483694.193 6       768.128          40.000
E25  23691117.516 8 124497661.644 8      -503.270          51.000    23691120.148 8  95394322.359 8      -385.679          51.000
E36  26014213.375 6 136705598.685 6      3058.047          41.000    26014214.867 7 104748474.673 7      2343.298          45.000
> 2020 05 13 09 41  0.0000000  0 12        .000000000000
G12  20566453.898 8 108077443.834 8     -1390.773          51.000    20566453.188 8  84216180.731 8     -1083.720          51.000
G24  22478224.008 7 118123856.357 7     -3112.195          45.000    22478226.789 7  92044567.400 7     -2425.087          45.000
G25  20210669.758 6 106207790.437 6       503.855          39.000    20210672.586 6  82759318.453 6       392.612          40.000
G29  21757263.969 8 114335196.839 8      2841.324          51.000    21757264.273 8  89092368.695 8      2214.019          51.000
R11  19473173.312 8 104058757.198 8       -59.258          51.000    19473176.039 8  80934593.311 8       -46.089          48.000
R21  19631078.258 7 105049834.741 7       683.375          47.000    19631080.914 8  81705549.474 8       531.514          48.000
R22  21847399.352 6 116622845.367 6      4288.938          41.000    21847403.391 7  90706728.920 7      3335.840          42.000
C26  21496274.609 7 111936761.132 7       785.312          45.000
C29  23157675.062 5 120588105.747 5     -1835.805          33.000
E11  23707610.219 7 124584349.884 7       995.180          44.000    23707605.930 6  95460727.950 6       762.534          40.000
E25  23693985.250 8 124512731.269 8      -502.062          51.000    23693987.953 8  95405869.211 8      -384.661          51.000
E36  25996743.961 6 136613809.306 6      3060.438          39.000    25996750.625 8 104678142.514 8      2345.040          48.000
> 2020 05 13 09 41 30.0000000  0 17        .000000000000
G02  22937068.242 5 120535107.142 5       318.305          32.000
G06  23638149.211 5 124219313.459 5     -1075.707          33.000    23638149.844 5  96794291.382 5      -838.210          30.000
G12  20574460.047 8 108119516.192 8     -1406.996          51.000    20574459.398 8  84248964.403 8     -1096.361          51.000
G24  22496054.648 7 118217555.928 7     -3127.422          47.000    22496057.133 7  92117580.050 7     -2436.952          47.000
G25  20207864.828 6 106193048.168 6       485.965          38.000    20207866.508 6  82747830.911 6       378.671          37.000
G29  21741117.703 8 114250346.393 8      2822.441          51.000    21741118.766 8  89026251.489 8      2199.305          51.000
G32  22232264.422 6 116831339.567 6      -802.680          38.000    22232269.070 5  91037437.046 5      -625.462          30.000
R10  22452052.328 4 119682071.550 4     -3009.984          27.000
R11  19473584.641 8 104060955.693 8       -80.160          51.000    19473587.703 8  80936303.230 8       -62.347          48.000
R21  19627363.352 7 105029959.284 7       648.895          46.000    19627367.141 8  81690090.767 8       504.696          49.000
R22  21823362.305 7 116494543.328 7      4271.598          43.000    21823366.711 7  90606938.494 7      3322.357          43.000
C26  21491817.781 7 111913554.720 7       768.449          44.000
C29  23168322.312 6 120643569.799 6     -1854.770          37.000
E03  27151971.391 6 142684580.379 6     -2753.074          36.000
E11  23702008.516 7 124554913.149 7       974.129          43.000    23702004.797 6  95438172.567 6       746.333          41.000
E25  23696905.711 8 124528078.210 8      -514.160          51.000    23696908.383 8  95417628.551 8      -393.943          51.000
E36  25979321.422 6 136522263.971 6      3049.348          40.000    25979331.617 8 104607997.381 8      2336.564          49.000
> 2020 05 13 09 42  0.0000000  0 15        .000000000000
G06  23644336.000 5 124251823.092 5     -1098.625          32.000    23644335.930 5  96819599.604 5      -856.068          30.000
G12  20582506.859 8 108161802.072 8     -1419.957          51.000    20582506.242 8  84281914.429 8     -1106.457          51.000
G24  22513919.945 8 118311436.297 8     -3139.254          48.000    22513920.820 8  92190733.537 8     -2446.175          48.000
G25  20205110.070 6 106178571.256 6       471.070          39.000    20205111.383 6  82736550.223 6       367.071          40.000
G29  21725028.062 8 114165793.283 8      2806.598          51.000    21725029.531 8  88960365.958 8      2186.959          51.000
G32  22236908.961 5 116855733.098 5      -824.977          33.000    22236908.641 5  91056422.649 5      -642.839          31.000
R11  19474062.297 8 104063507.431 8       -97.965          51.000    19474065.406 8  80938287.894 8       -76.195          48.000
R21  19623790.180 7 105010841.739 7       617.609          46.000    19623794.695 8  81675221.518 8       480.360          49.000
R22  21799372.000 7 116366489.478 7      4257.273          44.000    21799376.711 7  90507341.119 7      3311.216          43.000
C26  21487406.164 7 111890584.677 7       755.121          45.000
C29  23179028.969 5 120699346.074 5     -1871.125          35.000
E03  27167681.141 6 142767142.744 6     -2759.086          37.000    27167708.859 6 109393026.110 6     -2114.036          38.000
E11  23696473.992 7 124525831.393 7       956.684          43.000    23696471.828 7  95415889.159 7       733.175          42.000
E25  23699844.477 8 124543520.814 8      -523.273          51.000    23699846.906 8  95429461.178 8      -400.974          51.000
E36  25961912.281 6 136430782.702 6      3041.418          41.000    25961923.766 8 104537901.323 8      2330.497          50.000
> 2020 05 13 09 42 30.0000000  0 13        .000000000000
G06  23650637.805 4 124284939.897 4     -1115.965          29.000    23650639.625 5  96845404.025 5      -869.586          30.000
G12  20590616.867 8 108204419.850 8     -1428.418          51.000    20590616.203 8  84315123.085 8     -1113.053          51.000
G24  22531842.094 8 118405615.380 8     -3146.691          48.000    22531841.852 8  92264119.740 8     -2451.970          48.000
G25  20202428.758 6 106164478.845 6       460.730          40.000    20202430.125 6  82725569.137 6       359.011          41.000
G29  21709017.828 8 114081658.482 8      2795.160          51.000    21709019.453 8  88894806.379 8      2178.047          51.000
R11  19474628.938 8 104066534.447 8      -111.227          51.000    19474631.734 8  80940642.236 8       -86.510          48.000
R21  19620381.805 8 104992603.917 8       590.949          48.000    19620386.688 8  81661036.542 8       459.627          50.000
R22  21775452.547 7 116238808.773 7      4247.402          46.000    21775456.734 7  90408033.952 7      3303.535          44.000
C26  21483063.031 7 111867970.083 7       745.488          45.000
E03  27183415.062 6 142849829.019 6     -2760.883          36.000    27183441.844 6 109456383.101 6     -2115.107          39.000
E11  23691030.125 7 124497224.493 7       943.398          43.000    23691028.906 7  95393969.604 7       722.834          43.000
E25  23702824.133 8 124559178.436 8      -527.766          51.000    23702826.383 8  95441458.612 8      -404.359          51.000
E36  25944538.820 7 136339486.494 7      3037.730          42.000    25944550.523 8 104467947.059 8      2327.725          50.000
> 2020 05 13 09 43  0.0000000  0 13        .000000000000
G02  22932023.883 5 120508598.337 5       269.766          32.000
G12  20598800.047 8 108247422.026 8     -1434.477          51.000    20598799.156 8  84348631.278 8     -1117.774          51.000
G24  22549830.961 8 118500144.780 8     -3151.406          50.000    22549830.844 8  92337778.946 8     -2455.641          50.000
G25  20199830.875 6 106150824.343 6       453.199          41.000    20199832.648 6  82714929.263 6       353.145          41.000
G29  21693097.344 8 113997996.891 8      2786.121          50.000    21693098.805 8  88829615.531 8      2171.003          50.000
R11  19475294.945 8 104070092.324 8      -122.008          51.000    19475297.203 8  80943409.472 8       -94.895          48.000
R21  19617148.516 8 104975300.513 8       566.672          50.000    19617153.344 8  81647578.355 8       440.745          49.000
R22  21751614.477 7 116111559.608 7      4239.969          46.000    21751618.125 7  90309062.423 7      3297.753          44.000
C26  21478798.828 7 111845764.806 7       738.754          46.000
E03  27199182.734 6 142932690.374 6     -2759.309          37.000    27199206.531 6 109519874.313 6     -2114.350          40.000
E11  23685686.758 6 124469146.536 6       932.492          41.000    23685686.367 7  95372455.310 7       714.408          44.000
E25  23705854.711 8 124575104.568 8      -530.055          51.000    23705857.062 8  95453661.741 8      -406.152          51.000
E36  25927211.609 7 136248430.598 7      3036.535          43.000    25927222.797 8 104398176.944 8      2326.660          50.000
> 2020 05 13 09 43 30.0000000  0 14        .000000000000
G02  22930542.922 5 120500819.247 5       250.766          34.000
G12  20607027.141 8 108290655.285 8     -1446.199          51.000    20607026.094 8  84382319.508 8     -1126.908          51.000
G24  22567857.266 8 118594870.605 8     -3162.082          50.000    22567857.945 8  92411591.239 8     -2463.963          50.000
G25  20197286.508 6 106137455.487 6       439.629          39.000    20197289.070 6  82704511.969 6       342.568          39.000
G29  21677238.227 8 113914658.020 8      2771.352          50.000    21677238.758 8  88764676.159 8      2159.498          50.000
R11  19476031.258 8 104074026.811 8      -138.656          51.000    19476033.633 8  80946469.622 8      -107.844          49.000
R21  19614061.383 8 104958776.864 8       536.598          51.000    19614065.375 8  81634726.638 8       417.357          48.000
R22  21727829.164 7 115984591.309 7      4226.395          44.000    21727832.070 7  90210309.324 7      3287.196          44.000
C26  21474584.570 7 111823819.060 7       725.961          46.000
C29  23211630.555 6 120869044.448 6     -1907.086          37.000
E03  27214954.852 6 143015572.694 6     -2764.176          38.000    27214975.102 6 109583381.553 6     -2118.101          39.000
E11  23680414.758 6 124441445.817 6       916.051          41.000    23680415.727 7  95351230.058 7       701.900          45.000
E25  23708907.531 8 124591147.209 8      -537.836          51.000    23708909.891 8  95465954.148 8      -412.093          51.000
E36  25909901.773 7 136157464.638 7      3029.363          44.000    25909912.156 8 104328475.752 8      2321.272          49.000
> 2020 05 13 09 44  0.0000000  0 13        .000000000000
G12  20615314.969 8 108334208.193 8     -1456.266          51.000    20615313.922 8  84416256.835 8     -1134.752          51.000
G24  22585937.531 8 118689880.409 8     -3171.039          49.000    22585939.133 8  92485624.841 8     -2470.940          49.000
G25  20194812.977 6 106124461.421 6       427.695          40.000    20194816.102 6  82694386.747 6       333.269          40.000
G29  21661457.883 8 113831732.747 8      2757.941          50.000    21661456.156 8  88700059.105 8      2149.045          50.000
R11  19476855.133 8 104078430.077 8      -153.793          51.000    19476857.742 8  80949894.361 8      -119.617          48.000
R21  19611136.891 8 104943124.172 8       507.984          51.000    19611140.258 8  81622552.344 8       395.099          48.000
R22  21704114.344 7 115857998.487 7      4214.113          42.000    21704115.922 7  90111848.287 7      3277.644          42.000
C26  21470437.273 7 111802222.231 7       714.805          46.000
C29  23222655.461 5 120926468.447 5     -1919.879          35.000
E03  27230747.938 6 143098563.011 6     -2767.395          40.000    27230764.016 6 109646971.540 6     -2120.600          39.000
E11  23675232.305 7 124414212.235 7       900.527          42.000    23675233.969 7  95330362.750 7       690.098          46.000
E25  23711999.516 8 124607395.801 8      -544.363          51.000    23712001.898 8  95478404.370 8      -417.095          51.000
E36  25892626.719 7 136066679.649 7      3023.828          46.000    25892635.711 7 104258913.263 7      2316.953          47.000
> 2020 05 13 09 44 30.0000000  0 14        .000000000000
G12  20623645.695 8 108377986.982 8     -1460.555          51.000    20623644.602 8  84450370.173 8     -1138.095          50.000
G24  22604053.461 8 118785079.762 8     -3173.922          48.000    22604055.695 8  92559806.141 8     -2473.186          48.000
G25  20192394.156 7 106111749.624 7       421.426          43.000    20192396.203 7  82684481.458 7       328.384          43.000
G29  21645739.094 8 113749130.104 8      2750.535          51.000    21645735.938 8  88635693.481 8      2143.277          50.000
R11  19477749.625 8 104083208.963 8      -162.934          51.000    19477751.891 8  80953611.269 8      -126.726          48.000
R21  19608357.461 8 104928248.159 8       485.469          51.000    19608360.148 7  81610982.147 7       377.587          47.000
R22  21680452.297 6 115731690.922 6      4208.145          37.000    21680453.289 7  90013609.074 7      3272.998          42.000
C26  21466339.641 7 111780883.610 7       709.539          47.000
C29  23233744.867 6 120984212.014 6     -1927.449          37.000
E03  27246543.688 6 143181566.634 6     -2764.504          40.000    27246555.672 6 109710571.694 6     -2118.140          39.000
E11  23670121.359 7 124387353.733 7       891.645          43.000    23670123.203 7  95309782.867 7       683.262          45.000
E24  25212655.742 5 132493397.088 5     -2175.641          34.000
E25  23715113.070 8 124623757.839 8      -544.719          51.000    23715115.391 8  95490941.502 8      -417.391          51.000
E36  25875368.977 7 135975984.875 7      3024.273          47.000    25875375.617 7 104189419.931 7      2317.241          46.000
> 2020 05 13 09 45  0.0000000  0 15        .000000000000
G02  22926669.570 5 120480493.422 5       200.137          32.000
G12  20632024.469 8 108422017.939 8     -1473.988          50.000    20632023.266 8  84484679.990 8     -1148.562          50.000
G24  22622209.570 7 118880493.807 7     -3186.137          45.000    22622212.586 7  92634154.737 7     -2482.704          45.000
G25  20190034.234 7 106099346.911 7       406.125          43.000    20190035.547 7  82674816.973 7       316.461          43.000
G29  21630087.430 8 113666878.489 8      2733.781          51.000    21630084.859 8  88571601.374 8      2130.219          51.000
R11  19478719.625 8 104088391.524 8      -181.645          51.000    19478721.531 8  80957642.160 8      -141.276          48.000
R21  19605728.250 8 104914176.743 8       453.492          51.000    19605730.133 7  81600037.720 7       352.716          46.000
R22  21656845.406 6 115605700.032 6      4192.105          39.000    21656850.867 6  89915616.072 6      3260.523          41.000
C26  21462296.750 7 111759830.829 7       694.859          47.000
C29  23244901.062 6 121042299.969 6     -1944.172          38.000
E03  27262346.859 6 143264608.373 6     -2770.922          41.000    27262355.055 6 109774201.060 6     -2123.093          39.000
E11  23665086.648 7 124360897.791 7       873.258          43.000    23665088.492 7  95289511.444 7       669.030          45.000
E24  25225105.828 5 132558793.510 5     -2182.305          34.000
E25  23718253.289 8 124640260.460 8      -554.441          51.000    23718255.602 8  95503586.355 8      -424.868          51.000
E36  25858133.656 7 135885409.132 7      3015.086          47.000    25858137.523 7 104120017.802 7      2310.335          46.000
> 2020 05 13 09 45 30.0000000  0 15        .000000000000
G02  22925572.797 5 120474697.038 5       186.848          30.000
G12  20640466.375 8 108466380.469 8     -1479.973          49.000    20640465.195 8  84519248.187 8     -1153.225          49.000
G24  22640421.070 7 118976201.243 7     -3190.590          44.000    22640425.117 7  92708731.936 7     -2486.174          44.000
G25  20187747.867 7 106087333.354 7       398.371          42.000    20187749.648 7  82665455.767 7       310.419          42.000
G29  21614518.164 8 113585059.709 8      2724.418          51.000    21614516.969 8  88507846.518 8      2122.923          51.000
G32  22272332.977 5 117041886.607 5      -948.184          32.000
R11  19479780.297 8 104094060.388 8      -192.652          51.000    19479781.938 8  80962051.295 8      -149.841          48.000
R21  19603264.547 8 104900991.389 8       429.234          51.000    19603265.703 7  81589782.493 7       333.852          46.000
R22  21633317.477 7 115480110.993 7      4184.105          45.000    21633324.586 7  89817935.759 7      3254.307          42.000
C26  21458323.992 8 111739144.307 8       687.844          48.000
C29  23256136.977 6 121100809.690 6     -1952.938          37.000
E03  27278172.266 6 143347766.361 6     -2769.551          41.000    27278176.789 6 109837919.465 6     -2122.031          38.000
E11  23660144.188 7 124334925.268 7       861.906          44.000    23660145.945 7  95269610.409 7       660.416          45.000
E25  23721435.602 8 124656984.069 8      -556.848          51.000    23721437.844 8  95516400.525 8      -426.672          51.000
E36  25840936.047 7 135795034.367 7      3013.465          47.000    25840938.508 7 104050769.652 7      2309.126          47.000
> 2020 05 13 09 46  0.0000000  0 15        .000000000000
G06  23697757.148 4 124532553.835 4     -1236.926          29.000
G12  20648973.617 8 108511086.295 8     -1486.207          48.000    20648972.594 8  84554083.879 8     -1158.083          48.000
G24  22658690.672 7 119072212.822 7     -3195.887          45.000    22658694.242 7  92783546.099 7     -2490.301          45.000
G25  20185537.930 7 106075721.696 7       390.102          42.000    20185540.078 7  82656407.736 7       303.975          42.000
G29  21599033.844 8 113503688.012 8      2714.582          51.000    21599034.062 8  88444440.005 8      2115.259          51.000
G32  22277825.234 5 117070728.959 5      -962.633          32.000    22277819.086 5  91223945.973 5      -750.094          31.000
R11  19480934.539 8 104100229.696 8      -204.238          51.000    19480936.703 8  80966849.646 8      -158.852          49.000
R21  19600968.555 8 104888705.100 8       404.340          51.000    19600969.320 7  81580226.495 7       314.487          46.000
R22  21609869.422 8 115354940.903 8      4175.113          48.000    21609875.766 6  89720581.356 6      3247.313          40.000
C26  21454424.203 7 111718837.637 7       680.020          47.000
C29  23267455.500 6 121159751.784 6     -1962.441          37.000
E03  27294022.000 6 143431051.155 6     -2768.629          41.000    27294022.945 6 109901735.065 6     -2121.306          38.000
E11  23655296.328 7 124309449.298 7       850.738          43.000    23655298.617 7  95250089.850 7       651.954          44.000
E25  23724662.445 8 124673941.414 8      -559.344          51.000    23724664.500 8  95529393.794 8      -428.603          51.000
E36  25823779.445 8 135704875.034 8      3011.277          48.000    25823781.984 8 103981686.565 8      2307.393          49.000
> 2020 05 13 09 46 30.0000000  0 15        .000000000000
G06  23704939.047 5 124570287.094 5     -1261.828          35.000    23704943.367 6  97067779.904 6      -983.243          36.000
G12  20657512.711 8 108555959.779 8     -1501.352          48.000    20657511.844 8  84589050.231 8     -1169.884          48.000
G24  22676985.125 7 119168351.892 7     -3209.395          46.000    22676987.078 7  92858459.572 7     -2500.833          46.000
G25  20183371.430 7 106064337.141 7       372.848          43.000    20183373.547 7  82647536.643 7       290.531          43.000
G29  21583600.906 8 113422590.142 8      2695.891          49.000    21583602.711 8  88381246.841 8      2100.694          49.000
G32  22283399.328 6 117100040.897 6      -987.426          38.000    22283403.195 5  91246796.120 5      -769.420          34.000
R11  19482149.594 8 104106722.536 8      -224.711          51.000    19482152.031 8  80971899.624 8      -174.775          49.000
R21  19598807.047 8 104877140.125 8       370.598          50.000    19598808.102 7  81571231.533 7       288.246          47.000
R22  21586467.477 8 115230016.201 8      4157.109          48.000    21586471.648 6  89623417.798 6      3233.310          41.000
C26  21450564.453 8 111698738.616 8       663.699          48.000
C29  23278824.875 6 121218951.175 6     -1980.438          38.000
E03  27309862.031 6 143514285.877 6     -2776.258          41.000    27309860.289 6 109965512.271 6     -2127.158          37.000
E11  23650509.719 7 124284295.709 7       830.336          43.000    23650512.102 7  95230816.352 7       636.073          43.000
E25  23727900.664 8 124690958.060 8      -571.039          51.000    23727902.469 8  95542432.514 8      -437.525          51.000
E36  25806631.422 8 135614758.350 8      3000.379          50.000    25806634.227 8 103912636.130 8      2299.031          51.000
> 2020 05 13 09 47  0.0000000  0 17        .000000000000
G02  22922894.336 6 120460609.165 6       128.266          36.000
G06  23712199.383 6 124608438.567 6     -1284.730          36.000    23712204.906 6  97097508.287 6     -1001.092          36.000
G12  20666113.289 8 108601156.243 8     -1515.137          48.000    20666112.508 8  84624268.262 8     -1180.626          48.000
G24  22695333.797 7 119264772.920 7     -3221.863          47.000    22695336.086 7  92933592.787 7     -2510.543          47.000
G25  20181278.125 7 106053335.861 7       357.012          44.000    20181280.148 7  82638964.222 7       278.191          43.000
G29  21568249.680 8 113341924.103 8      2678.469          49.000    21568252.414 8  88318390.129 8      2087.115          49.000
G32  22289091.477 5 117129949.218 5     -1010.043          35.000    22289098.359 5  91270101.261 5      -787.053          34.000
R10  22641011.281 4 120689296.805 4     -3097.766          29.000
R11  19483455.219 8 104113698.761 8      -243.840          51.000    19483457.422 8  80977325.565 8      -189.653          49.000
R21  19596810.227 8 104866455.596 8       338.102          51.000    19596811.922 7  81562921.360 7       262.968          47.000
R22  21563141.305 7 115105499.618 7      4140.496          47.000    21563145.422 7  89526571.654 7      3220.389          43.000
C26  21446774.648 8 111679003.063 8       648.625          49.000
C29  23290272.648 6 121278560.824 6     -1996.961          36.000
E03  27325721.680 6 143597624.728 6     -2783.051          41.000    27325718.250 6 110029369.269 6     -2132.411          36.000
E11  23645814.375 7 124259621.316 7       811.090          42.000    23645816.477 6  95211909.991 6       621.619          41.000
E25  23731179.984 8 124708190.409 8      -581.195          51.000    23731181.805 8  95555636.514 8      -445.275          51.000
E36  25789521.656 8 135524842.387 8      2990.684          51.000    25789524.727 8 103843739.499 8      2291.575          51.000
> 2020 05 13 09 47 30.0000000  0 14        .000000000000
G06  23719588.312 5 124647266.500 5     -1299.875          34.000    23719592.102 5  97127763.787 5     -1012.887          34.000
G12  20674790.930 7 108646757.763 7     -1521.051          47.000    20674790.305 8  84659801.936 8     -1185.231          48.000
G24  22713751.609 7 119361557.448 7     -3226.371          46.000    22713754.820 7  93009009.283 7     -2514.055          46.000
G25  20179273.547 7 106042800.880 7       349.242          44.000    20179275.656 7  82630755.132 7       272.137          44.000
G29  21552997.727 8 113261774.253 8      2668.820          51.000    21552998.828 8  88255935.733 8      2079.603          50.000
R11  19484867.375 8 104121243.792 8      -255.059          51.000    19484869.430 8  80983193.926 8      -198.379          48.000
R21  19594993.805 8 104856735.678 8       313.781          51.000    19594995.648 7  81555361.412 7       244.052          47.000
R22  21539907.938 8 114981479.233 8      4131.629          48.000    21539912.812 7  89430111.369 7      3213.492          46.000
C26  21443070.680 8 111659714.237 8       641.219          49.000
C29  23301813.906 6 121338660.964 6     -2006.102          38.000
E03  27341615.906 6 143681148.605 6     -2781.496          40.000    27341611.562 5 110093368.013 5     -2131.252          35.000
E11  23641225.867 6 124235509.635 6       800.309          40.000    23641227.828 6  95193434.851 6       613.098          40.000
E25  23734516.203 8 124725721.639 8      -583.637          51.000    23734518.172 8  95569069.504 8      -447.193          51.000
E36  25772466.062 8 135435211.819 8      2988.699          51.000    25772469.453 8 103775061.549 8      2290.024          51.000
> 2020 05 13 09 48  0.0000000  0 15        .000000000000
G02  22921574.281 5 120453701.388 5       101.547          35.000
G12  20683495.016 8 108692497.599 8     -1527.102          48.000    20683494.312 8  84695443.365 8     -1189.949          48.000
G24  22732187.367 7 119458437.160 7     -3231.078          46.000    22732191.734 7  93084499.947 7     -2517.723          46.000
G25  20177306.852 7 106032466.196 7       340.898          44.000    20177309.164 7  82622702.145 7       265.635          44.000
G29  21537794.320 8 113181876.193 8      2658.859          51.000    21537792.922 8  88193677.599 8      2071.842          51.000
R10  22675934.281 5 120875481.789 5     -3105.578          30.000
R11  19486335.336 8 104129088.308 8      -266.633          51.000    19486337.352 8  80989295.200 8      -207.384          48.000
R21  19593307.086 8 104847709.795 8       289.102          51.000    19593309.070 7  81548341.290 7       224.857          47.000
R22  21516718.039 8 114857689.000 8      4122.168          50.000    21516723.297 8  89333830.108 8      3206.131          48.000
C26  21439401.984 8 111640609.612 8       633.633          49.000
C29  23313399.375 6 121398986.181 6     -2014.621          40.000
E03  27357493.914 6 143764589.521 6     -2779.965          39.000    27357489.461 5 110157303.241 5     -2130.354          35.000
E11  23636694.086 6 124211695.308 6       788.656          41.000    23636695.203 6  95175187.587 6       604.133          39.000
E25  23737858.695 8 124743286.089 8      -586.281          51.000    23737860.734 8  95582527.973 8      -449.127          51.000
E36  25755414.422 8 135345602.667 8      2986.348          51.000    25755417.930 8 103706399.999 8      2288.273          51.000
> 2020 05 13 09 48 30.0000000  0 15        .000000000000
G12  20692237.109 8 108738437.240 8     -1541.242          48.000    20692236.148 8  84731240.480 8     -1200.971          48.000
G24  22750652.547 7 119555472.929 7     -3243.562          45.000    22750657.500 7  93160112.239 7     -2527.451          45.000
G25  20175390.102 7 106022393.958 7       324.941          44.000    20175392.312 7  82614853.652 7       253.201          44.000
G29  21522650.930 8 113102293.580 8      2640.910          51.000    21522649.383 8  88131665.244 8      2057.855          51.000
G32  22306799.000 6 117223013.767 6     -1062.918          37.000    22306805.312 6  91342619.087 6      -828.251          36.000
R10  22693435.078 4 120968759.994 4     -3118.645          28.000
R11  19487871.477 8 104137296.281 8      -286.363          51.000    19487873.320 8  80995679.179 8      -222.727          48.000
R21  19591761.898 8 104839440.962 8       256.359          51.000    19591763.938 7  81541909.980 7       199.394          46.000
R22  21493583.992 8 114734195.958 8      4104.805          51.000    21493589.227 8  89237779.984 8      3192.626          50.000
C26  21435780.641 8 111621751.745 8       617.980          50.000
C29  23325039.641 6 121459596.094 6     -2031.445          38.000
E03  27373367.492 6 143848007.592 6     -2786.707          39.000    27373363.195 5 110221220.895 5     -2135.194          35.000
E11  23632231.281 7 124188240.930 7       769.496          42.000    23632230.406 6  95157216.081 6       589.527          38.000
E25  23741219.273 8 124760946.065 8      -596.707          51.000    23741221.344 8  95596059.633 8      -457.256          51.000
E36  25738378.797 8 135256078.927 8      2976.168          51.000    25738382.117 8 103637803.902 8      2280.416          50.000
> 2020 05 13 09 49  0.0000000  0 16        .000000000000
G06  23742283.758 5 124766543.239 5     -1350.840          32.000
G12  20701046.680 8 108784731.380 8     -1545.227          48.000    20701045.508 8  84767313.824 8     -1204.073          48.000
G24  22769176.508 7 119652818.428 7     -3246.164          45.000    22769181.773 7  93235965.872 7     -2529.478          45.000
G25  20173552.773 7 106012739.229 7       318.910          43.000    20173554.828 7  82607330.465 7       248.501          44.000
G29  21507596.852 8 113023182.916 8      2633.031          51.000    21507596.461 8  88070020.593 8      2051.713          51.000
G32  22312901.617 6 117255081.489 6     -1075.297          38.000    22312903.227 6  91367606.988 6      -837.891          37.000
R10  22710987.555 5 121062332.669 5     -3120.141          31.000
R11  19489505.391 8 104146026.509 8      -295.812          51.000    19489507.289 8  81002469.352 8      -230.079          48.000
R21  19590387.438 8 104832087.065 8       233.711          51.000    19590390.000 7  81536190.353 7       181.778          46.000
R22  21470535.883 8 114611161.589 8      4097.453          51.000    21470541.094 8  89142086.606 8      3186.908          51.000
C26  21432236.328 8 111603295.318 8       612.332          50.000
C29  23336762.047 5 121520642.406 5     -2038.348          34.000
E03  27389265.906 6 143931555.800 6     -2783.094          41.000    27389261.977 5 110285238.282 5     -2132.731          35.000
E11  23627866.305 6 124165302.146 6       759.992          41.000    23627864.094 6  95139639.616 6       582.218          38.000
E25  23744627.586 8 124778856.891 8      -597.414          51.000    23744629.711 8  95609783.505 8      -457.777          51.000
E36  25721388.844 8 135166797.547 8      2975.906          50.000    25721391.945 8 103569393.516 8      2280.297          48.000
> 2020 05 13 09 49 30.0000000  0 15        .000000000000
G06  23750062.844 6 124807406.126 6     -1372.621          37.000    23750068.352 6  97252571.996 6     -1069.578          36.000
G12  20709906.125 8 108831287.733 8     -1558.230          49.000    20709904.734 8  84803591.487 8     -1214.206          49.000
G24  22787741.945 7 119750381.169 7     -3257.770          44.000    22787747.133 7  93311988.775 7     -2538.525          44.000
G25  20171777.695 7 106003411.317 7       303.656          43.000    20171779.406 7  82600061.946 7       236.615          43.000
G29  21492614.945 8 112944455.364 8      2615.824          50.000    21492616.047 8  88008674.423 8      2038.302          51.000
G32  22319105.398 6 117287675.146 6     -1097.047          37.000    22319099.375 5  91393004.639 5      -854.851          33.000
R11  19491219.664 8 104155187.739 8      -314.656          51.000    19491221.922 8  81009594.752 8      -244.736          48.000
R21  19589166.875 8 104825555.348 8       201.988          51.000    19589169.359 7  81531110.155 7       157.102          45.000
R22  21447557.195 8 114488497.785 8      4080.602          51.000    21447562.211 8  89046681.445 8      3173.801          51.000
C26  21428751.773 8 111585151.466 8       597.555          50.000
C29  23348550.469 5 121582033.278 5     -2054.504          34.000
E03  27405171.602 6 144015141.455 6     -2788.922          40.000    27405167.773 5 110349284.367 5     -2136.816          35.000
E11  23623582.164 7 124142788.617 7       741.219          42.000    23623579.750 6  95122388.999 6       567.863          40.000
E25  23748066.391 8 124796928.090 8      -606.988          51.000    23748068.664 8  95623630.262 8      -465.149          51.000
E36  25704427.289 7 135077669.672 7      2966.348          47.000    25704429.711 7 103501100.770 7      2272.898          44.000
> 2020 05 13 09 50  0.0000000  0 14        .000000000000
G06  23758006.133 6 124849141.030 6     -1394.629          37.000    23758008.453 6  97285092.617 6     -1086.727          37.000
G12  20718880.109 8 108878446.539 8     -1570.766          48.000    20718878.234 8  84840338.597 8     -1223.976          48.000
G24  22806413.391 7 119848500.071 7     -3268.699          46.000    22806418.617 7  93388445.044 7     -2547.038          45.000
G25  20170129.562 7 105994751.176 7       288.621          43.000    20170131.062 7  82593313.774 7       224.903          43.000
G29  21477771.125 8 112866453.307 8      2599.051          51.000    21477772.836 8  87947893.574 8      2025.234          51.000
R11  19493079.602 8 104165127.767 8      -332.973          51.000    19493081.961 8  81017325.885 8      -258.982          48.000
R21  19588164.773 8 104820193.012 8       170.668          50.000    19588166.773 7  81526939.470 7       132.742          46.000
R22  21424712.984 8 114366554.894 8      4064.027          48.000    21424718.211 8  88951836.976 8      3160.910          51.000
C26  21425392.453 8 111567659.072 8       583.238          51.000
C29  23360470.516 5 121644104.846 5     -2069.648          34.000
E03  27421148.688 6 144099103.451 6     -2794.031          39.000    27421145.891 6 110413618.788 6     -2140.420          36.000
E11  23619444.297 7 124121041.899 7       723.395          44.000    23619442.016 6  95105725.932 6       554.101          41.000
E25  23751600.547 8 124815500.915 8      -616.430          51.000    23751603.039 8  95637861.368 8      -472.281          51.000
E36  25687559.570 7 134989038.149 7      2957.328          47.000    25687559.461 7 103433188.375 7      2265.843          43.000
> 2020 05 13 09 50 30.0000000  0 13        .000000000000
G06  23765969.789 5 124890993.215 5     -1393.953          32.000    23765971.633 5  97317704.741 5     -1086.197          31.000
G12  20727825.336 7 108925454.563 7     -1561.953          47.000    20727823.164 7  84876968.210 7     -1217.106          46.000
G24  22825047.211 7 119946420.641 7     -3258.215          46.000    22825052.320 7  93464746.778 7     -2538.869          46.000
G25  20168465.250 7 105986005.986 7       295.508          44.000    20168466.852 7  82586499.326 7       230.263          45.000
G29  21462923.109 8 112788425.396 8      2603.828          51.000    21462923.984 8  87887092.622 8      2028.960          51.000
R11  19494942.312 8 104175081.811 8      -329.539          51.000    19494944.531 7  81025067.923 7      -256.308          47.000
R21  19587237.805 8 104815233.109 8       161.203          49.000    19587239.922 7  81523081.780 7       125.380          46.000
R22  21401860.141 8 114244572.176 8      4069.207          48.000    21401866.664 8  88856961.521 8      3164.939          50.000
C26  21422015.406 8 111550073.145 8       590.285          50.000
E03  27437053.891 6 144182686.958 6     -2777.215          37.000    27437052.703 6 110477663.217 6     -2127.990          36.000
E11  23615309.180 7 124099309.646 7       726.543          45.000    23615307.281 7  95089073.962 7       556.663          42.000
E25  23755086.891 8 124833822.743 8      -603.969          51.000    23755089.664 8  95651900.167 8      -462.799          51.000
E36  25670644.523 8 134900151.975 8      2969.570          49.000    25670643.734 7 103365080.840 7      2275.403          45.000
> 2020 05 13 09 51  0.0000000  0 14        .000000000000
G02  22919998.227 5 120445403.053 5        -8.363          35.000
G12  20736879.469 7 108973034.488 7     -1589.117          46.000    20736877.727 7  84914043.453 7     -1238.276          47.000
G24  22843780.766 7 120044864.614 7     -3283.930          46.000    22843785.555 7  93541456.345 7     -2558.909          46.000
G25  20166922.711 7 105977899.488 7       265.984          44.000    20166924.570 7  82580182.559 7       207.261          45.000
G29  21448208.383 8 112711096.800 8      2572.266          51.000    21448207.742 8  87826836.647 8      2004.366          51.000
R11  19496945.672 8 104185787.109 8      -362.910          51.000    19496947.727 8  81033394.282 8      -282.260          48.000
R21  19586523.531 8 104811412.320 8       114.875          50.000    19586525.727 7  81520110.055 7        89.347          46.000
R22  21379138.344 7 114123288.752 7      4037.609          47.000    21379145.945 8  88762629.963 8      3140.363          49.000
C26  21418758.109 8 111533111.884 8       561.332          50.000
C29  23384446.086 6 121768930.510 6     -2093.184          37.000
E03  27453023.836 5 144266614.662 5     -2796.941          33.000    27453026.086 5 110541970.572 5     -2143.141          35.000
E11  23611314.773 7 124078316.026 7       693.969          46.000    23611312.766 7  95072987.955 7       531.763          43.000
E25  23758663.281 8 124852617.521 8      -627.938          51.000    23758666.336 8  95666301.347 8      -481.180          51.000
E36  25653820.008 8 134811736.696 8      2945.695          51.000    25653820.734 7 103297334.113 7      2257.154          47.000
> 2020 05 13 09 51 30.0000000  0 15        .000000000000
G02  22920036.828 5 120445634.316 5       -21.262          35.000
G06  23782254.836 6 124976580.513 6     -1445.426          36.000    23782256.734 6  97384366.508 6     -1126.306          36.000
G12  20745921.797 7 109020551.930 7     -1594.547          46.000    20745920.258 7  84951069.975 7     -1242.504          46.000
G24  22862493.242 7 120143196.933 7     -3287.430          47.000    22862497.289 7  93618078.871 7     -2561.637          47.000
G25  20165381.352 7 105969798.140 7       258.328          44.000    20165383.430 7  82573869.828 7       201.298          44.000
G29  21433506.180 8 112633835.362 8      2562.547          50.000    21433504.383 8  87766633.013 8      1996.790          50.000
R11  19498969.000 8 104196599.944 8      -374.191          50.000    19498971.422 7  81041804.249 7      -291.038          47.000
R21  19585901.875 8 104808085.058 8        90.727          51.000    19585904.148 7  81517522.191 7        70.565          47.000
R22  21356428.148 8 114002065.015 8      4027.758          48.000    21356436.281 7  88668344.878 7      3132.701          47.000
C26  21415500.312 8 111516148.499 8       553.762          50.000
C29  23396481.297 6 121831600.600 6     -2100.484          36.000
E03                                                                  27468945.570 6 110606053.920 6     -2141.351          36.000
E11  23607340.227 7 124057428.048 7       682.863          45.000    23607338.375 7  95056982.900 7       523.272          44.000
E25  23762209.125 8 124871252.025 8      -630.254          51.000    23762212.391 8  95680579.710 8      -482.925          51.000
E36  25636965.047 8 134723160.653 8      2943.445          51.000    25636967.664 8 103229464.193 8      2255.397          49.000
> 2020 05 13 09 52  0.0000000  0 15        .000000000000
G02  22920214.867 5 120446526.584 5       -39.719          32.000
G06  23790566.719 5 125020253.460 5     -1463.922          35.000    23790569.641 5  97418397.342 5     -1140.718          35.000
G12  20755061.133 7 109068578.728 7     -1604.676          47.000    20755059.664 7  84988493.450 7     -1250.397          47.000
G24  22881293.258 7 120241988.636 7     -3296.016          47.000    22881295.445 7  93695059.345 7     -2568.327          47.000
G25  20163949.734 7 105962274.353 7       245.840          45.000    20163951.984 7  82568007.135 7       191.564          45.000
G29  21418925.250 8 112557215.177 8      2547.977          48.000    21418924.078 7  87706929.013 7      1985.436          47.000
R10  22817240.461 5 121628739.604 5     -3168.344          31.000
R11  19501121.484 8 104208103.619 8      -390.195          50.000    19501124.094 7  81050751.533 7      -303.485          47.000
R21  19585481.234 8 104805833.984 8        61.871          51.000    19585483.648 7  81515771.372 7        48.122          47.000
R22  21333839.648 8 113881486.401 8      4013.297          48.000    21333846.641 7  88574561.549 7      3121.453          45.000
C26  21412351.266 8 111499751.224 8       541.773          51.000
E03                                                                  27484917.727 5 110670350.368 5     -2142.958          35.000
E11  23603494.734 7 124037218.549 7       666.855          45.000    23603493.078 7  95041497.733 7       511.099          43.000
E25  23765833.492 8 124890298.929 8      -636.957          51.000    23765836.719 8  95695174.087 8      -488.094          51.000
E36  25620188.789 8 134634998.155 8      2936.648          51.000    25620192.609 8 103161911.146 8      2250.084          50.000
> 2020 05 13 09 52 30.0000000  0 14        .000000000000
G02  22920489.234 6 120447979.450 6       -56.586          36.000
G06  23798975.953 5 125064446.943 5     -1481.652          35.000    23798981.812 5  97452833.789 5     -1154.537          35.000
G12  20764248.867 7 109116860.301 7     -1613.531          47.000    20764247.430 7  85026115.448 7     -1257.297          47.000
G24  22900131.797 8 120340983.684 8     -3303.070          48.000    22900131.664 8  93772198.228 8     -2573.824          48.000
G25  20162579.742 7 105955074.275 7       234.703          46.000    20162581.688 7  82562396.692 7       182.886          46.000
G29  21404417.867 8 112480983.798 8      2534.648          49.000    21404418.461 8  87647527.910 8      1975.048          49.000
R11  19503355.383 8 104220040.963 8      -405.094          51.000    19503357.891 7  81060036.132 7      -315.073          47.000
R21  19585213.328 8 104804399.948 8        34.258          51.000    19585215.789 8  81514656.029 8        26.645          48.000
R22  21311324.828 8 113761298.960 8      3999.812          49.000    21311329.375 7  88481082.515 7      3110.968          43.000
C26  21409262.930 8 111483669.428 8       530.934          51.000
E03                                                                  27500892.633 5 110734663.855 5     -2144.087          34.000
E11  23599729.977 7 124017433.951 7       652.906          44.000    23599728.234 7  95026338.122 7       500.198          42.000
E25  23769488.047 8 124909504.598 8      -642.816          51.000    23769491.344 8  95709890.111 8      -492.512          51.000
E36  25603443.195 8 134546997.152 8      2930.723          51.000    25603447.453 8 103094481.811 8      2245.726          51.000
> 2020 05 13 09 53  0.0000000  0 15        .000000000000
G02  22920868.094 5 120449971.986 5       -74.477          33.000
G06  23807491.805 5 125109213.643 5     -1500.375          34.000    23807499.422 5  97487708.382 5     -1169.120          34.000
G12  20773493.031 7 109165438.611 7     -1622.980          47.000    20773491.594 7  85063968.639 7     -1264.663          47.000
G24  22919016.789 8 120440223.767 8     -3311.039          48.000    22919015.648 8  93849528.054 8     -2580.033          48.000
G25  20161279.609 7 105948240.986 7       222.789          46.000    20161280.992 7  82557072.046 7       173.602          46.000
G29  21389993.969 8 112405186.023 8      2520.371          51.000    21389995.281 8  87588464.695 8      1963.926          51.000
R11  19505678.766 8 104232456.557 8      -420.781          51.000    19505681.195 7  81069692.703 7      -327.274          46.000
R21  19585106.242 8 104803826.358 8         5.828          50.000    19585108.594 8  81514209.922 8         4.533          48.000
R22  21288892.500 8 113641550.448 8      3985.203          49.000    21288894.875 7  88387944.881 7      3099.605          44.000
C26  21406243.555 8 111467946.887 8       519.066          51.000
C29  23433088.727 6 122022254.801 6     -2136.879          36.000
E03  27516884.000 5 144602200.450 5     -2799.332          33.000    27516878.133 5 110799025.810 5     -2145.446          32.000
E11  23596054.148 7 123998117.921 7       636.961          43.000    23596052.156 6  95011537.561 6       488.241          41.000
E25  23773181.156 8 124928912.414 8      -649.211          51.000    23773184.438 8  95724761.027 8      -497.405          51.000
E36  25586736.750 8 134459202.634 8      2924.090          51.000    25586740.914 8 103027210.709 8      2240.527          50.000
> 2020 05 13 09 53 30.0000000  0 15        .000000000000
G02  22921334.094 5 120452429.759 5       -87.953          34.000
G06  23816100.805 5 125154456.107 5     -1515.512          34.000    23816107.922 5  97522962.264 5     -1180.915          35.000
G12  20782779.492 7 109214239.007 7     -1629.023          47.000    20782777.867 7  85101994.928 7     -1269.369          47.000
G24  22937933.711 8 120539632.611 8     -3315.176          48.000    22937933.023 8  93926989.413 8     -2583.254          48.000
G25  20160035.047 7 105941700.443 7       214.445          47.000    20160036.320 7  82551975.523 7       167.100          47.000
G29  21375639.289 8 112329748.983 8      2509.812          51.000    21375640.539 8  87529682.588 8      1955.698          51.000
R10  22870927.867 5 121914895.426 5     -3187.469          31.000
R11  19508077.547 8 104245276.276 8      -432.762          51.000    19508080.297 7  81079663.585 7      -336.592          46.000
R21  19585145.672 8 104804037.248 8       -18.754          50.000    19585148.070 8  81514373.951 8       -14.583          48.000
R22  21266529.172 8 113522169.342 8      3974.492          50.000    21266531.320 7  88295092.993 7      3091.275          46.000
C26  21403279.172 8 111452511.160 8       510.973          51.000
C29  23445424.266 6 122086503.894 6     -2145.309          36.000
E11  23592453.797 6 123979196.832 6       625.176          41.000    23592450.867 6  94997039.525 6       479.468          40.000
E25  23776898.789 8 124948448.545 8      -652.203          51.000    23776902.023 8  95739730.274 8      -499.716          51.000
E36  25570055.641 8 134371542.412 8      2920.918          51.000    25570059.219 8 102960042.501 8      2238.169          50.000
> 2020 05 13 09 54  0.0000000  0 17        .000000000000
G02  22921921.117 5 120455513.949 5      -115.332          31.000
G06  23824832.664 5 125200339.959 5     -1542.172          34.000    23824838.469 5  97558729.239 5     -1201.692          33.000
G12  20792139.211 7 109263424.413 7     -1647.703          47.000    20792137.469 7  85140321.220 7     -1283.925          47.000
G24  22956913.531 8 120639372.178 8     -3331.922          48.000    22956913.875 8  94004708.512 8     -2596.306          48.000
G25  20158877.234 7 105935616.310 7       193.637          47.000    20158878.883 7  82547234.642 7       150.889          47.000
G29  21361384.672 8 112254837.688 8      2486.668          51.000    21361385.719 8  87471310.174 8      1937.663          51.000
G32  22379648.680 5 117605849.900 5     -1264.285          35.000    22379651.039 5  91640940.241 5      -985.157          35.000
R10  22888923.828 5 122010816.255 5     -3204.492          34.000
R11  19510583.625 8 104258666.980 8      -457.496          51.000    19510586.211 7  81090078.557 7      -355.830          46.000
R21  19585362.875 8 104805198.929 8       -56.246          50.000    19585365.117 8  81515277.462 8       -43.747          48.000
R22  21244266.891 8 113403326.023 8      3950.750          51.000    21244269.336 8  88202659.363 8      3072.806          48.000
C26  21400401.352 8 111437525.394 8       490.340          51.000
C29  23457847.664 5 122151208.401 5     -2165.977          32.000
E11  23588958.141 6 123960834.617 6       601.277          38.000    23588956.977 6  94982969.803 6       460.692          39.000
E24  25451719.914 5 133749691.298 5     -2234.828          33.000
E25  23780672.062 8 124968276.931 8      -667.484          51.000    23780675.164 8  95754923.439 8      -511.401          51.000
E36  25553431.422 8 134284181.933 8      2905.422          50.000    25553434.508 8 102893103.979 8      2226.149          49.000
> 2020 05 13 09 54 30.0000000  0 16        .000000000000
G02  22922581.117 6 120458977.397 6      -124.223          38.000
G06  23833642.016 5 125246625.098 5     -1551.602          35.000    23833646.742 5  97594797.406 5     -1209.040          35.000
G12  20801523.781 8 109312740.698 8     -1648.816          48.000    20801522.070 7  85178749.494 7     -1284.792          47.000
G24  22975907.773 8 120739188.118 8     -3331.340          48.000    22975908.719 8  94082487.123 8     -2595.852          48.000
G25  20157758.172 8 105929735.397 8       189.930          48.000    20157760.086 8  82542652.116 8       147.997          48.000
G29  21347181.922 8 112180200.406 8      2480.520          51.000    21347182.867 8  87413151.299 8      1932.875          51.000
G32  22386869.742 5 117643788.852 5     -1273.859          33.000    22386873.805 5  91670503.011 5      -992.621          33.000
R10  22906932.188 5 122106810.936 5     -3203.910          31.000
R11  19513148.625 8 104272372.696 8      -464.934          51.000    19513150.922 7  81100738.558 7      -361.615          46.000
R21  19585709.352 8 104807052.848 8       -76.270          49.000    19585711.477 8  81516719.408 8       -59.321          48.000
R22  21222057.758 8 113284767.177 8      3944.242          51.000    21222060.266 8  88110446.960 8      3067.747          49.000
C26  21397562.016 8 111422739.728 8       486.754          51.000
C29  23470312.438 4 122216074.470 4     -2168.938          29.000
E11  23585521.086 6 123942778.572 6       593.750          41.000    23585521.672 6  94969134.675 6       454.894          39.000
E25  23784452.891 8 124988144.654 8      -665.727          51.000    23784455.727 8  95770146.748 8      -510.135          51.000
E36  25536816.180 8 134196869.916 8      2906.824          49.000    25536819.398 8 102826202.589 8      2227.322          49.000
> 2020 05 13 09 55  0.0000000  0 14        .000000000000
G02  22923339.141 5 120462955.197 5      -145.297          35.000
G06  23842551.391 5 125293441.118 5     -1572.488          35.000    23842554.773 5  97631277.442 5     -1225.316          35.000
G12  20810959.438 8 109362325.419 8     -1660.805          48.000    20810957.766 7  85217386.927 7     -1294.134          46.000
G24  22994942.469 8 120839215.611 8     -3341.137          49.000    22994943.438 8  94160430.608 8     -2603.483          49.000
G25  20156704.039 8 105924195.401 8       175.539          48.000    20156705.883 8  82538335.247 8       136.787          48.000
G29  21333057.320 8 112105976.633 8      2463.773          51.000    21333058.195 8  87355314.639 8      1919.823          51.000
R11  19515798.664 8 104286534.103 8      -483.145          51.000    19515801.117 7  81111752.958 7      -375.779          47.000
R21  19586211.086 8 104809738.567 8      -106.836          50.000    19586213.156 7  81518808.292 7       -83.095          47.000
R22  21199928.398 8 113166636.707 8      3927.012          51.000    21199931.008 8  88018567.752 8      3054.342          49.000
C26  21394787.406 8 111408291.576 8       472.570          51.000
C29  23482842.102 4 122281320.635 4     -2183.211          29.000
E11  23582169.898 7 123925166.669 7       576.203          43.000    23582169.547 6  94955639.855 6       441.605          39.000
E25  23788267.562 8 125008189.697 8      -674.617          51.000    23788270.242 8  95785505.937 8      -516.897          51.000
E36  25520236.445 8 134109745.929 8      2897.531          48.000    25520240.102 8 102759445.282 8      2220.192          48.000
> 2020 05 13 09 55 30.0000000  0 13        .000000000000
G06  23851579.453 5 125340880.874 5     -1589.145          33.000    23851581.102 5  97668243.472 5     -1238.297          31.000
G12  20820463.992 7 109412271.773 7     -1668.223          47.000    20820462.398 7  85256306.138 7     -1299.917          46.000
G24  23014035.500 8 120939548.341 8     -3346.734          49.000    23014036.359 8  94238611.924 8     -2607.848          49.000
G25  20155732.734 8 105919091.120 8       165.809          48.000    20155734.367 8  82534357.890 8       129.202          48.000
G29  21319029.297 8 112032262.169 8      2451.352          49.000    21319030.164 8  87297874.811 8      1910.144          49.000
R11  19518552.398 8 104301248.598 8      -496.852          51.000    19518554.719 7  81123197.545 7      -386.443          47.000
R21  19586886.500 8 104813351.921 8      -133.035          49.000    19586888.180 7  81521618.664 7      -103.472          47.000
R22  21177897.703 8 113049034.481 8      3914.035          51.000    21177900.289 8  87927099.394 8      3044.250          48.000
C26  21392095.695 8 111394275.838 8       462.781          51.000
C29  23495454.227 5 122346993.990 5     -2193.684          33.000
E11  23578921.344 7 123908093.978 7       562.965          45.000    23578920.984 6  94942558.241 6       431.473          41.000
E25  23792134.023 8 125028507.096 8      -678.902          51.000    23792136.836 8  95801073.804 8      -520.141          51.000
E36  25503710.805 8 134022906.539 8      2892.742          48.000    25503714.898 8 102692906.051 8      2216.502          48.000
> 2020 05 13 09 56  0.0000000  0 15        .000000000000
G02  22925213.703 6 120472787.223 6      -171.555          37.000
G06  23860735.258 5 125388994.547 5     -1601.262          33.000    23860738.336 5  97705734.641 5     -1247.736          34.000
G12  20830047.016 7 109462630.937 7     -1671.051          46.000    20830045.547 7  85295547.009 7     -1302.121          46.000
G24  23033196.320 8 121040235.916 8     -3347.824          50.000    23033197.297 8  94317069.737 8     -2608.694          50.000
G25  20154854.211 8 105914474.381 8       160.000          48.000    20154855.664 8  82530760.438 8       124.675          48.000
G29  21305108.953 8 111959110.331 8      2443.352          51.000    21305109.477 8  87240873.381 8      1903.913          51.000
G32  22409182.766 6 117761045.064 6     -1321.156          36.000    22409177.461 6  91761842.264 6     -1029.475          37.000
R11  19521419.594 8 104316569.509 8      -506.207          51.000    19521421.625 7  81135113.795 7      -393.717          47.000
R21  19587744.930 8 104817944.766 8      -154.863          49.000    19587746.250 7  81525190.889 7      -120.446          46.000
R22  21155976.148 8 112932017.388 8      3905.297          51.000    21155978.828 7  87836086.151 7      3037.456          47.000
C26  21389497.250 8 111380744.855 8       457.105          51.000
C29  23508157.602 4 122413145.768 4     -2197.902          29.000
E11  23575785.406 7 123891612.778 7       553.754          46.000    23575785.844 7  94929929.864 7       424.287          42.000
E25  23796062.141 8 125049148.955 8      -679.172          51.000    23796064.984 8  95816890.281 8      -520.377          51.000
E36  25487249.820 8 133936405.453 8      2892.004          48.000    25487254.172 8 102626626.014 8      2216.038          48.000
> 2020 05 13 09 56 30.0000000  0 13        .000000000000
G06  23869929.523 5 125437312.730 5     -1626.309          33.000    23869934.031 5  97743385.138 5     -1267.263          32.000
G12  20839619.469 7 109512934.813 7     -1688.180          45.000    20839617.984 7  85334744.800 7     -1315.465          45.000
G24  23052335.273 8 121140808.912 8     -3362.875          49.000    23052336.398 8  94395438.263 8     -2620.422          50.000
G25  20153979.422 8 105909877.434 8       140.371          48.000    20153980.664 8  82527178.387 8       109.380          48.000
G29  21291207.289 8 111886054.820 8      2421.059          51.000    21291207.492 8  87183947.025 8      1886.539          51.000
G32  22416781.445 5 117800976.965 5     -1347.371          34.000    22416776.727 5  91792957.985 5     -1049.909          35.000
R11  19524311.344 8 104332022.351 8      -529.906          51.000    19524313.633 8  81147132.647 8      -412.149          48.000
R21  19588697.039 8 104823040.280 8      -190.938          50.000    19588698.453 7  81529154.069 7      -148.507          46.000
R22  21134075.641 8 112815114.126 8      3882.117          51.000    21134078.516 7  87745161.440 7      3019.428          46.000
C26  21386903.375 8 111367236.088 8       437.602          51.000
E11  23572673.211 7 123875255.605 7       531.074          47.000    23572673.320 7  94917396.477 7       406.861          42.000
E25  23799963.039 8 125069647.763 8      -693.184          51.000    23799965.773 8  95832597.146 8      -531.123          51.000
E36  25470764.633 8 133849776.707 8      2877.418          48.000    25470769.547 8 102560248.196 8      2204.790          49.000
> 2020 05 13 09 57  0.0000000  0 15        .000000000000
G02  22927432.023 6 120484435.504 6      -211.965          36.000
G06  23879254.945 5 125486321.496 5     -1642.168          32.000    23879260.945 5  97781573.827 5     -1279.614          33.000
G12  20849273.961 7 109563670.092 7     -1695.145          44.000    20849272.523 7  85374278.746 7     -1320.892          45.000
G24  23071544.562 8 121241753.163 8     -3367.734          48.000    23071545.844 8  94474096.079 8     -2624.209          48.000
G25  20153201.086 7 105905787.718 7       131.070          46.000    20153202.109 7  82523991.597 7       102.133          46.000
G29  21277416.680 8 111813584.235 8      2409.121          51.000    21277417.086 8  87127476.471 8      1877.237          51.000
G32  22424517.250 4 117841633.150 4     -1361.559          29.000    22424502.711 4  91824592.632 4     -1060.958          27.000
R11  19527320.602 8 104348103.460 8      -543.160          51.000    19527322.898 8  81159640.173 8      -422.455          48.000
R21  19589835.727 8 104829133.831 8      -216.289          50.000    19589837.062 7  81533893.522 7      -168.222          46.000
R22  21112290.031 8 112698823.631 8      3869.363          51.000    21112293.109 7  87654713.336 7      3009.505          46.000
C26  21384406.617 8 111354233.541 8       428.191          51.000
C29  23533669.023 5 122545989.925 5     -2226.750          31.000
E11  23569677.289 7 123859510.315 7       517.711          45.000    23569677.047 7  94905331.912 7       396.598          43.000
E25  23803929.531 8 125090491.320 8      -697.332          51.000    23803932.180 8  95848568.173 8      -534.289          51.000
E36  25454348.422 8 133763509.657 8      2872.746          48.000    25454354.031 8 102494147.519 8      2201.213          50.000
> 2020 05 13 09 57 30.0000000  0 14        .000000000000
G06  23888679.328 5 125535848.345 5     -1661.711          32.000    23888686.492 5  97820166.072 5     -1294.846          32.000
G12  20858977.961 7 109614665.264 7     -1705.992          44.000    20858976.492 7  85414015.192 7     -1329.345          44.000
G24  23090791.219 7 121342895.342 7     -3376.453          47.000    23090792.797 7  94552908.119 7     -2631.002          47.000
G25  20152486.773 7 105902034.311 7       117.648          47.000    20152487.625 7  82521066.867 7        91.674          47.000
G29  21263705.016 8 111741529.218 8      2393.066          51.000    21263705.766 8  87071329.736 8      1864.727          51.000
G32  22432339.109 5 117882741.748 5     -1380.773          30.000    22432330.148 4  91856662.923 4     -1075.927          28.000
R11  19530415.188 8 104364640.127 8      -560.629          51.000    19530417.469 8  81172502.007 8      -436.045          48.000
R21  19591128.258 8 104836050.717 8      -246.062          51.000    19591129.359 7  81539273.307 7      -191.382          47.000
R22  21090587.898 8 112582976.216 8      3852.352          51.000    21090591.125 7  87564609.848 7      2996.276          47.000
C26  21381974.492 8 111341568.843 8       414.727          51.000
C29  23546527.867 5 122612971.376 5     -2240.273          30.000
E11  23566765.141 7 123844206.112 7       501.031          45.000    23566765.078 7  94893605.353 7       383.716          43.000
E25  23807929.164 8 125111508.942 8      -705.285          51.000    23807931.664 8  95864672.577 8      -540.422          51.000
E36  25437968.844 7 133677435.204 7      2864.109          47.000    25437974.680 8 102428194.398 8      2194.532          50.000
> 2020 05 13 09 58  0.0000000  0 11        .000000000000
G12  20868730.820 7 109665917.040 7     -1712.395          45.000    20868728.617 7  85453951.604 7     -1334.333          44.000
G24  23110074.617 7 121444232.643 7     -3380.914          45.000    23110076.570 7  94631872.187 7     -2634.482          46.000
G25  20151836.195 8 105898615.356 8       108.793          48.000    20151837.008 8  82518402.764 8        84.774          48.000
G29  21250072.367 8 111669889.747 8      2381.277          51.000    21250073.273 8  87015506.800 8      1855.541          51.000
R11  19533594.805 8 104381630.954 8      -573.711          51.000    19533597.047 8  81185717.078 8      -446.220          49.000
R21  19592573.938 8 104843787.842 8      -271.340          51.000    19592575.469 7  81545291.073 7      -211.042          47.000
R22  21068969.227 8 112467573.626 8      3839.480          50.000    21068972.797 7  87474852.324 7      2986.266          47.000
C26  21379607.000 8 111329240.997 8       405.539          51.000
E11  23563936.383 7 123829341.575 7       488.426          44.000    23563936.023 7  94882215.622 7       374.245          42.000
E25  23811961.586 8 125132699.008 8      -708.961          51.000    23811963.812 8  95880909.129 8      -543.302          51.000
E36  25421625.430 7 133591553.273 7      2859.570          45.000    25421631.750 8 102362388.756 8      2191.132          49.000
> 2020 05 13 09 58 30.0000000  0 12        .000000000000
G12  20878517.719 7 109717347.181 7     -1705.254          46.000    20878515.016 7  85494027.034 7     -1328.769          44.000
G24  23129379.344 7 121545684.693 7     -3371.559          43.000    23129381.664 7  94710925.630 7     -2627.189          42.000
G25  20151234.445 8 105895452.775 8       113.000          48.000    20151235.031 8  82515938.409 8        88.052          49.000
G29  21236503.953 8 111598588.176 8      2383.066          50.000    21236504.938 8  86959947.156 8      1856.935          50.000
R11  19536844.867 8 104398997.705 8      -572.922          51.000    19536847.148 8  81199224.543 8      -445.606          48.000
R21  19594158.023 8 104852264.950 8      -282.672          50.000    19594159.617 7  81551884.402 7      -219.853          46.000
R22  21047419.188 7 112352540.585 7      3840.367          47.000    21047423.648 8  87385382.204 8      2986.952          48.000
C26  21377289.609 8 111317173.680 8       409.777          51.000
C29  23572456.891 5 122747957.727 5     -2243.367          32.000
E11  23561176.078 6 123814838.886 6       489.152          40.000    23561176.359 7  94871103.135 7       375.033          42.000
E25  23816011.883 8 125153983.777 8      -699.082          51.000    23816013.883 8  95897218.228 8      -535.648          51.000
E36  25405304.016 7 133505787.679 7      2869.008          45.000    25405311.273 8 102296672.246 8      2198.304          49.000
> 2020 05 13 09 59  0.0000000  0 12        .000000000000
G12  20888350.727 7 109769019.229 7     -1732.074          44.000    20888348.781 7  85534290.953 7     -1349.668          44.000
G24  23148717.617 6 121647314.618 6     -3396.379          41.000    23148719.922 6  94790117.702 6     -2646.529          41.000
G25  20150693.734 8 105892611.432 8        83.625          48.000    20150693.992 8  82513724.380 8        65.162          48.000
G29  21223012.641 8 111527690.912 8      2350.824          51.000    21223013.422 8  86904702.537 8      1831.811          51.000
R11  19540177.688 8 104416807.070 8      -606.758          51.000    19540180.086 8  81213076.251 8      -471.923          49.000
R21  19595892.430 8 104861546.981 8      -328.609          50.000    19595894.094 7  81559103.774 7      -255.582          47.000
R22  21025950.242 7 112237946.913 7      3806.637          46.000    21025956.727 8  87296253.784 8      2960.717          48.000
C26  21375034.664 8 111305432.112 8       380.348          51.000
C29  23585487.781 6 122815799.241 6     -2272.086          36.000
E11  23558496.727 6 123800763.124 6       456.391          36.000    23558498.180 6  94860317.778 6       349.846          41.000
E25  23820092.641 8 125175428.391 8      -723.105          51.000    23820094.586 8  95913649.810 8      -554.041          51.000
E36  25389018.258 7 133420205.123 7      2844.070          47.000    25389025.500 8 102231096.003 8      2179.091          48.000
> 2020 05 13 09 59 30.0000000  0 12        .000000000000
G12  20898249.555 7 109821038.194 7     -1737.102          43.000    20898248.305 7  85574825.201 7     -1353.586          43.000
G24  23168109.023 7 121749226.380 7     -3399.102          42.000    23168113.297 7  94869529.477 7     -2648.651          42.000
G25  20150234.148 7 105890196.867 7        75.906          47.000    20150234.234 7  82511842.900 7        59.148          47.000
G29  21209618.938 8 111457304.869 8      2340.191          51.000    21209618.961 8  86849856.260 8      1823.526          51.000
R11  19543613.625 8 104435167.318 8      -618.578          51.000    19543615.875 8  81227356.456 8      -481.116          48.000
R21  19597797.039 8 104871740.360 8      -352.398          51.000    19597798.914 7  81567031.968 7      -274.088          47.000
R22  21004584.734 8 112123903.531 8      3794.711          49.000    21004592.195 7  87207553.386 7      2951.442          47.000
C26  21372862.516 8 111294121.793 8       372.309          51.000
C29  23598598.516 5 122884045.119 5     -2279.293          32.000
E11  23555918.969 6 123787220.113 6       445.105          37.000    23555920.461 6  94849940.604 6       341.121          39.000
E25  23824224.000 8 125197138.665 8      -725.707          51.000    23824226.039 8  95930284.951 8      -556.034          51.000
E36  25372788.133 8 133334912.867 8      2840.727          48.000    25372794.242 7 102165742.233 7      2176.586          47.000
